~V
VERS. 2.00: Ver 2.00
~W
STRT.M 57.0000:
STOP.M 177.0000:
STEP.M 0.1250:
NULL. -999.2500:
UWI. F10011:
~C
DEPT.M :
DEN.GM/CC :
SP.MV :
GR.API :
CALI.CM :
RXO.OHMM :
RI. :
RML.OHMM :
~A
# ...
   79.5000     2.2770   -13.2610   110.3040    24.2220     6.8420     5.9550     8.2080 
   79.6250     2.2820   -13.3040   108.4580    24.1960     7.4470     6.2250     8.7170 
   79.7500     2.2690   -13.3190   108.0650    24.1740     8.6140     6.6620     9.4080 
   79.8750     2.2440   -13.3210   107.5550    24.1660     9.5780     7.1300    10.0450 
   80.0000     2.2160   -13.3350   106.4630    24.1650     9.9150     7.4390    10.3600 
   80.1250     2.1970   -13.3800   104.5180    24.1650     9.3470     7.3780    10.1210 
   80.2500     2.1880   -13.4690   104.0770    24.1650     7.6950     7.0340     9.5550 
   80.3750     2.1940   -13.5800   107.6220    24.1650     6.2530     6.5820     8.9710 
   80.5000     2.2170   -13.6640   112.5070    24.1640     6.0380     6.2240     8.6460 
   80.6250     2.2380   -13.7140   114.7070    24.1530     6.3610     6.1470     8.7890 
   80.7500     2.2040   -13.7950   115.6520    24.1250     6.9060     6.3370     9.2840 
   80.8750     2.0830   -13.9130   115.7590    24.0860     7.6200     6.7230     9.9450 
   81.0000     1.9100   -14.0300   114.1510    24.0420     8.2630     7.1730    10.5030 
   81.1250     1.7820   -14.0820   110.6210    24.0230     8.2900     7.5060    10.6650 
   81.2500     1.7340   -14.0790   106.6010    24.0260     8.1190     7.6550    10.5130 
   81.3750     1.7400   -14.0620   103.3530    24.0400     8.0710     7.6570    10.2630 
   81.5000     1.7780   -14.0910   102.4080    24.0160     8.2220     7.6160    10.1210 
   81.6250     1.8510   -14.1540   106.0610    23.7770     8.3760     7.6460    10.2220 
   81.7500     1.9300   -14.2190   110.7780    23.3670     8.4800     7.7620    10.4810 
   81.8750     1.9780   -14.2710   112.7100    22.8480     8.7170     7.9230    10.7750 
   82.0000     1.9810   -14.3350   112.1100    22.3890     9.2520     8.0530    10.9710 
   82.1250     1.9600   -14.4100   112.3700    22.0820    10.1830     8.0590    10.9290 
   82.2500     1.9450   -14.4910   114.1240    21.9240    11.0960     7.9360    10.6870 
   82.3750     1.9480   -14.5620   114.7370    21.8730    11.5670     7.7200    10.3540 
   82.5000     1.9600   -14.5420   112.2970    21.8680    11.7700     7.4800    10.0740 
   82.6250     1.9520   -14.5150   110.0330    21.8960    12.1080     7.3120     9.9990 
   82.7500     1.9070   -14.4880   109.6700    22.0450    12.3770     7.2920    10.1370 
   82.8750     1.8380   -14.4010   109.6990    22.3890    12.5290     7.4700    10.4750 
   83.0000     1.7770   -14.2680   108.0730    22.7550    13.0090     7.8430    10.9880 
   83.1250     1.7510   -14.1580   106.2640    22.9340    13.9470     8.3360    11.5870 
   83.2500     1.7640   -14.0760   105.3480    22.8280    15.0830     8.7750    12.0670 
   83.3750     1.8140   -14.0030   104.3090    22.5670    15.9960     9.0500    12.2800 
   83.5000     1.8910   -13.9510   102.9380    22.3670    16.3760     9.1670    12.2600 
   83.6250     1.9770   -13.9280   102.3030    22.3020    15.8850     9.2800    12.2870 
   83.7500     2.0560   -13.9290   103.0620    22.2760    14.9380     9.5740    12.6670 
   83.8750     2.1150   -14.0130   102.4680    22.2400    14.5680    10.1660    13.5640 
   84.0000     2.1420   -14.1520    99.0350    22.2320    15.3940    11.0880    14.9520 
   84.1250     2.1290   -14.2630    95.5140    22.2090    16.2200    12.2480    16.5220 
   84.2500     2.0990   -14.3590    93.2100    22.1290    15.0620    13.3520    17.7920 
   84.3750     2.0720   -14.4420    91.3070    22.0470    13.4210    14.2270    18.5560 
   84.5000     2.0600   -14.5060    88.8310    22.0350    12.6480    14.8670    18.9370 
   84.6250     2.0630   -14.5470    86.9660    22.0940    12.3110    15.4770    19.4090 
   84.7500     2.0690   -14.5450    86.2010    22.1340    12.4360    16.3620    20.4070 
   84.8750     2.0710   -14.4940    85.6350    22.0610    13.3670    17.6790    22.0450 
   85.0000     2.0730   -14.4390    84.6270    21.9240    14.7590    19.3660    24.1340 
   85.1250     2.0800   -14.3990    81.9440    21.7450    16.0510    21.0950    26.1890 
   85.2500     2.0890   -14.3290    78.2540    21.5940    17.3570    22.3910    27.6590 
   85.3750     2.0950   -14.2180    75.2260    21.5750    18.6990    22.9190    28.1450 
   85.5000     2.0940   -14.1640    73.8950    21.6000    19.3920    22.6280    27.5630 
   85.6250     2.0850   -14.0820    75.6040    21.5150    19.0010    21.7670    26.1620 
   85.7500     2.0770   -13.9840    79.1890    21.4210    17.7530    20.8280    24.5590 
   85.8750     2.0790   -13.9000    82.7560    21.4050    15.8480    20.0420    23.1160 
   86.0000     2.0910   -13.8040    84.4050    21.4630    14.0830    19.5180    22.0970 
   86.1250     2.1010   -13.7270    82.9720    21.5110    13.8550    19.3680    21.7910 
   86.2500     2.1010   -13.6700    81.6150    21.4530    14.4090    19.5910    22.1340 
   86.3750     2.0960   -13.6320    82.3610    21.3280    15.1450    20.2280    23.0400 
   86.5000     2.0920   -13.5720    84.3170    21.2480    15.5330    21.2750    24.3380 
   86.6250     2.0950   -13.4780    84.7360    21.1690    15.7350    22.6250    25.7220 
   86.7500     2.1020   -13.4230    83.7330    20.8740    15.8030    23.9010    26.7380 
   86.8750     2.1060   -13.4000    84.0980    20.2500    15.1510    24.7590    27.0690 
   87.0000     2.1010   -13.3650    85.2580    19.5230    13.4650    25.0710    26.7630 
   87.1250     2.0820   -13.2980    84.0390    18.9440    11.8580    25.1210    26.3850 
   87.2500     2.0590   -13.1850    80.5110    18.6550    11.4350    25.5400    26.7020 
   87.3750     2.0410   -13.0810    78.0410    18.6360    12.1150    26.8600    28.3180 
   87.5000     2.0370   -12.9810    78.5350    18.7850    12.8900    29.5320    31.7010 
   87.6250     2.0460   -12.9750    79.7430    18.8470    13.1830    34.0860    37.3560 
   87.7500     2.0580   -12.9590    78.8630    18.7900    13.1720    39.9840    44.4480 
   87.8750     2.0690   -12.9350    77.6470    18.7380    14.0290    46.4070    51.8030 
   88.0000     2.0800   -12.9080    78.1330    18.8780    16.9280    52.2610    57.9810 
   88.1250     2.0890   -12.9300    79.4910    19.2600    21.1810    56.3550    61.7000 
   88.2500     2.0940   -13.0200    78.6160    19.8320    24.8720    58.7330    63.5460 
   88.3750     2.0910   -13.1380    75.7820    20.5160    27.8000    59.7630    64.2430 
   88.5000     2.0790   -13.3040    72.8290    21.0570    31.1330    59.9750    64.3520 
   88.6250     2.0620   -13.4490    71.3570    21.4600    36.2180    59.9070    64.2010 
   88.7500     2.0550   -13.5720    72.3400    21.9140    42.1100    60.1350    64.2170 
   88.8750     2.0670   -13.7140    73.6160    22.3550    47.8040    61.0190    64.7510 
   89.0000     2.0910   -13.8710    72.4340    22.6750    51.5800    62.6690    65.9370 
   89.1250     2.1080   -14.1050    70.3420    22.7840    52.7180    64.8850    67.5840 
   89.2500     2.1150   -14.3530    70.7150    22.8430    54.9910    67.0170    69.0910 
   89.3750     2.1140   -14.5930    72.9480    22.9380    61.7700    68.4930    69.9830 
   89.5000     2.1050   -14.8050    73.2790    23.1450    68.6740    68.8470    69.9200 
   89.6250     2.0900   -15.0840    70.5820    23.4340    69.5000    67.6060    68.4780 
   89.7500     2.0750   -15.3930    68.0900    23.6020    65.5720    64.8900    65.4860 
   89.8750     2.0670   -15.7070    67.1710    23.6520    61.7410    60.5600    60.5440 
   90.0000     2.0650   -16.1100    67.4820    23.6540    59.0340    54.6410    53.7580 
   90.1250     2.0650   -16.4610    68.5200    23.5920    49.8070    47.6390    46.1680 
   90.2500     2.0700   -16.7570    70.6300    23.4420    36.8150    40.8680    39.3950 
   90.3750     2.0860   -17.0940    73.3400    23.2480    24.9490    35.2480    34.2340 
   90.5000     2.1120   -17.4340    75.4580    23.0600    18.9360    31.2530    30.8790 
   90.6250     2.1310   -17.7020    76.6960    22.9550    20.2630    29.1480    29.3560 
