~V
VERS. 2.00: Ver 2.00
~W
STRT.M 50.0000:
STOP.M 280.0000:
STEP.M 0.1250:
NULL. -999.2500:
UWI. F10023:
~C
DEPT.M :
SP.MV :
DEN.GM/CC :
GR.API :
CALI.CM :
RXO.OHMM :
RI. :
RML.OHMM :
~A
# ...
  173.7500   -18.3270     2.1720    79.4070    23.9410    18.5580    20.5360    21.2520 
  173.8750   -18.2910     2.1220    79.5010    23.7060    17.4460    20.4950    21.2100 
  174.0000   -18.2510     2.0870    75.5860    23.6500    17.2420    21.0610    21.7930 
  174.1250   -18.2510     2.0780    71.8140    23.7340    18.0350    22.1800    22.9450 
  174.2500   -18.2940     2.0820    71.2500    23.8610    20.0070    23.4730    24.2780 
  174.3750   -18.3270     2.0940    70.6980    23.9910    21.9950    24.6420    25.4810 
  174.5000   -18.2940     2.1130    69.8180    24.0450    22.6830    25.5180    26.3830 
  174.6250   -18.2710     2.1320    70.7150    24.0080    22.1070    26.0510    26.9330 
  174.7500   -18.2940     2.1410    73.0830    23.9450    21.7280    26.2960    27.1850 
  174.8750   -18.3900     2.1380    76.2300    23.9120    22.2070    26.1830    27.0690 
  175.0000   -18.5620     2.1310    78.5960    23.9210    23.2350    25.6440    26.5140 
  175.1250   -18.7330     2.1250    76.6030    23.9300    23.0180    24.6610    25.5010 
  175.2500   -18.8640     2.1160    71.3500    23.9340    20.6260    23.5170    24.3220 
  175.3750   -18.9410     2.1040    68.1520    23.9110    17.6400    22.4980    23.2730 
  175.5000   -18.9830     2.0970    69.8370    23.8480    16.1030    21.8570    22.6120 
  175.6250   -19.0110     2.1080    72.6150    23.8120    16.5960    21.8420    22.5970 
  175.7500   -19.0690     2.1280    73.0830    23.9660    18.2220    22.4000    23.1720 
  175.8750   -19.1170     2.1550    73.3990    24.1970    20.3040    23.4450    24.2480 
  176.0000   -19.0990     2.1880    75.2780    24.2990    22.2500    24.7690    25.6120 
  176.1250   -18.9890     2.2220    77.1010    24.2240    23.9200    26.0490    26.9300 
  176.2500   -18.7940     2.2310    75.9900    24.1100    25.2200    27.0320    27.9430 
  176.3750   -18.6030     2.2020    72.2950    24.0630    25.4490    27.6320    28.5610 
  176.5000   -18.4650     2.1510    69.4080    24.0720    24.4010    27.9100    28.8480 
  176.6250   -18.3980     2.1130    70.4890    24.0890    23.2440    28.0510    28.9930 
  176.7500   -18.3790     2.0970    73.1460    24.0460    22.6610    28.2440    29.1910 
  176.8750   -18.3880     2.0930    72.7600    23.9540    23.0240    28.4200    29.3730 
  177.0000   -18.4520     2.0860    69.5220    23.9630    23.9940    28.2900    29.2390 
  177.1250   -18.6110     2.0800    67.6650    24.0290    24.4780    27.4190    28.3410 
  177.2500   -18.8580     2.0910    69.5550    24.0660    23.2160    25.9150    26.7920 
  177.3750   -19.2100     2.1250    72.8000    24.0540    20.4190    24.1430    24.9680 
  177.5000   -19.6540     2.1700    74.5990    23.9650    18.6740    22.6230    23.4020 
  177.6250   -20.1010     2.2060    76.1840    23.7300    19.1600    21.9200    22.6770 
  177.7500   -20.4810     2.2330    77.7790    23.4660    19.6340    22.0120    22.7720 
  177.8750   -20.7830     2.2550    77.3770    23.3680    18.8280    22.7020    23.4830 
  178.0000   -20.9840     2.2710    74.4900    23.4470    18.6390    23.6640    24.4740 
  178.1250   -21.1470     2.2680    74.8530    23.5740    20.3350    24.5020    25.3370 
  178.2500   -21.3160     2.2510    80.5630    23.6860    22.4260    25.0610    25.9130 
  178.3750   -21.4630     2.2390    83.5020    23.7300    23.1600    25.5220    26.3880 
  178.5000   -21.6000     2.2530    77.0940    23.7210    23.3250    26.2720    27.1600 
  178.6250   -21.6890     2.3100    67.1700    23.8390    23.8360    27.8050    28.7390 
  178.7500   -21.7220     2.3930    63.7400    24.0970    24.1230    30.1790    31.1840 
  178.8750   -21.7690     2.4790    65.2340    24.1950    25.4130    33.2740    34.3720 
  179.0000   -21.8680     2.5470    65.1240    24.1230    29.5490    36.5470    37.7430 
  179.1250   -21.9690     2.5820    63.5390    24.0370    34.2770    38.6980    39.9590 
  179.2500   -22.0640     2.5890    64.5360    23.8900    36.0070    38.9390    40.2070 
  179.3750   -22.0940     2.5750    66.6220    23.6780    34.2710    37.2860    38.5040 
  179.5000   -22.0270     2.5520    65.9850    23.5610    29.9940    34.4820    35.6160 
  179.6250   -21.9040     2.5320    61.7100    23.5920    25.8660    31.6420    32.6910 
  179.7500   -21.7770     2.5180    57.8040    23.6980    24.6750    29.5810    30.5680 
  179.8750   -21.6730     2.5130    56.8240    23.7970    26.2060    28.5600    29.5170 
  180.0000   -21.6180     2.5210    57.8480    23.8890    29.1740    28.5340    29.4900 
  180.1250   -21.5760     2.5350    57.8900    23.9620    30.5790    29.2840    30.2630 
  180.2500   -21.5090     2.5490    58.2180    24.0400    31.5590    30.1720    31.1770 
  180.3750   -21.4190     2.5610    60.8750    24.1030    33.6470    30.7070    31.7280 
  180.5000   -21.3070     2.5710    63.1720    24.1630    34.5480    30.5980    31.6160 
  180.6250   -21.2810     2.5750    60.7230    24.2410    32.6130    29.8080    30.8020 
  180.7500   -21.3560     2.5730    57.9520    24.2770    29.2470    28.7450    29.7070 
  180.8750   -21.4400     2.5690    58.3230    24.2850    27.6550    27.7230    28.6540 
  181.0000   -21.4780     2.5640    60.0250    24.2670    27.5320    26.9850    27.8950 
  181.1250   -21.4800     2.5540    61.1580    24.2300    28.0530    26.7510    27.6530 
  181.2500   -21.4570     2.5470    62.4620    24.2110    29.2630    26.9700    27.8790 
  181.3750   -21.4570     2.5510    63.6370    24.2470    30.5580    27.5550    28.4820 
  181.5000   -21.5150     2.5660    62.7200    24.2810    31.2470    28.3300    29.2800 
  181.6250   -21.5800     2.5800    61.0800    24.2840    32.2450    29.0260    29.9970 
  181.7500   -21.6280     2.5840    61.7490    24.2600    33.2640    29.4260    30.4080 
  181.8750   -21.6430     2.5810    63.0870    24.1990    33.1120    29.4110    30.3940 
  182.0000   -21.6180     2.5730    62.2520    24.1060    30.7780    28.9520    29.9210 
  182.1250   -21.6000     2.5600    60.7760    24.0280    27.2780    28.0310    28.9720 
  182.2500   -21.6180     2.5470    61.4280    23.9100    25.2770    26.7790    27.6820 
  182.3750   -21.6920     2.5320    64.0300    23.7320    24.0440    25.2340    26.0910 
  182.5000   -21.7890     2.5160    66.3930    23.5420    22.2780    23.4620    24.2660 
  182.6250   -21.8300     2.5040    67.6120    23.4230    19.9710    21.5810    22.3290 
  182.7500   -21.8080     2.5030    67.6990    23.3710    17.7240    19.7790    20.4720 
  182.8750   -21.7710     2.5100    66.3800    23.3570    15.9390    18.2330    18.8800 
  183.0000   -21.7650     2.5140    66.8580    23.3550    14.6930    17.1070    17.7200 
  183.1250   -21.8110     2.5130    70.6540    23.3710    14.4600    16.5940    17.1920 
  183.2500   -21.8900     2.5160    73.1570    23.4090    15.4200    16.6180    17.2170 
  183.3750   -21.9690     2.5170    72.5010    23.4410    17.0330    17.1050    17.7180 
  183.5000   -22.0330     2.5060    69.8030    23.4290    18.5580    17.9120    18.5490 
  183.6250   -22.0560     2.4780    68.0700    23.4540    19.8130    18.8220    19.4870 
  183.7500   -22.0480     2.4560    65.6680    23.5790    20.6090    19.5830    20.2710 
  183.8750   -22.0640     2.4510    62.0250    23.6930    21.4480    20.0900    20.7920 
  184.0000   -22.0940     2.4630    60.0240    23.6250    22.7040    20.3650    21.0760 
  184.1250   -22.0700     2.4790    60.5580    23.5330    23.1340    20.4990    21.2140 
  184.2500   -21.9780     2.4920    61.8580    23.6020    22.7630    20.6050    21.3230 
  184.3750   -21.8000     2.5040    63.7290    23.8430    22.2680    20.6690    21.3890 
  184.5000   -21.5640     2.5150    65.3420    24.1070    22.2660    20.5900    21.3070 
  184.6250   -21.3350     2.5170    64.2350    24.2280    22.1390    20.1470    20.8520 
  184.7500   -21.1520     2.5040    61.9490    24.2350    20.8950    19.2870    19.9660 
  184.8750   -21.0050     2.4800    62.5910    24.1960    18.7630    18.0820    18.7240 
