~V
VERS. 2.00: Ver 2.00
~W
STRT.M 57.0000:
STOP.M 255.0000:
STEP.M 0.1250:
NULL. -999.2500:
UWI. F10046:
~C
DEPT.M :
GR.API :
RML.OHMM :
RI. :
RXO.OHMM :
CALI.CM :
DEN.GM/CC :
SP.MV :
~A
# ...
  135.7500    54.0380    14.2860    12.7250    16.5960    23.3460     2.3880    -7.5350 
  135.8750    52.8270    14.8180    13.4360    19.1530    23.5510     2.4570    -7.1010 
  136.0000    55.8940    14.1520    13.1600    19.8090    23.7520     2.4900    -6.6350 
  136.1250    61.5900    12.3250    11.7730    15.2470    23.9440     2.4710    -6.1920 
  136.2500    66.4330    10.1860     9.9530    10.2350    24.1000     2.4250    -5.8530 
  136.3750    70.8610     8.3340     8.2410     7.8750    24.1520     2.3750    -5.6340 
  136.5000    75.5870     7.0820     6.9550     7.0200    23.9930     2.3340    -5.5110 
  136.6250    76.5260     6.5530     6.2620     6.7000    23.7050     2.3040    -5.4520 
  136.7500    73.2120     6.5050     6.0270     6.7630    23.4580     2.2810    -5.4440 
  136.8750    68.6680     6.8070     6.1830     6.9800    23.2850     2.2660    -5.4600 
  137.0000    66.4620     7.3640     6.6700     7.2920    23.0590     2.2650    -5.4810 
  137.1250    67.9590     8.0970     7.4300     7.8950    22.8520     2.2910    -5.5080 
  137.2500    70.6860     8.8260     8.2500     8.5280    23.0030     2.3380    -5.5080 
  137.3750    72.0800     9.3540     8.9060     9.1450    23.4120     2.3950    -5.4670 
  137.5000    70.1610     9.4840     9.1630     9.6620    23.7020     2.4410    -5.3950 
  137.6250    66.5460     9.0450     8.7900     9.7690    23.4980     2.4570    -5.2990 
  137.7500    66.6390     8.2320     7.9680     8.8000    23.1120     2.4440    -5.1790 
  137.8750    71.4820     7.2860     6.9500     7.3070    23.0210     2.4130    -5.0670 
  138.0000    76.9680     6.4620     6.0180     6.0710    23.4420     2.3750    -5.0050 
  138.1250    79.8730     6.0070     5.4380     5.5240    23.9430     2.3400    -5.0400 
  138.2500    80.6370     5.9230     5.2350     5.5720    24.0090     2.3150    -5.1270 
  138.3750    79.3060     6.1360     5.3630     5.8340    23.7520     2.2980    -5.1860 
  138.5000    75.8000     6.7650     5.9990     6.2430    23.4180     2.2910    -5.1760 
  138.6250    76.5000     6.9090     6.2370     6.3700    23.2790     2.2900    -5.1420 
  138.7500    75.8700     6.8210     6.2610     6.5130    23.1450     2.2920    -5.1360 
  138.8750    73.9610     6.5920     6.0930     6.3490    23.2700     2.2940    -5.1350 
  139.0000    73.6130     6.3550     5.8240     5.8900    23.7240     2.2970    -5.0960 
  139.1250    74.5650     6.1130     5.5720     5.5560    24.1560     2.3020    -4.9610 
  139.2500    74.9150     5.9420     5.4130     5.5330    24.3370     2.3100    -4.7640 
  139.3750    74.8200     5.9100     5.3740     5.6220    24.3730     2.3210    -4.5940 
  139.5000    75.8100     5.9870     5.4550     5.8180    24.3680     2.3310    -4.5100 
  139.6250    77.5480     6.1660     5.6360     6.0300    24.3190     2.3340    -4.5100 
  139.7500    76.8760     6.3700     5.8540     6.2200    24.1810     2.3300    -4.5410 
  139.8750    73.1910     6.5100     6.0620     6.3820    23.9660     2.3230    -4.5720 
  140.0000    69.7440     6.5830     6.2240     6.5620    23.8130     2.3220    -4.6020 
  140.1250    70.5440     6.6050     6.3140     6.6100    23.7520     2.3310    -4.6190 
  140.2500    71.7380     6.5930     6.3530     6.6300    23.7200     2.3460    -4.6480 
  140.3750    71.4980     6.5660     6.3570     6.7180    23.6760     2.3600    -4.6860 
  140.5000    72.0520     6.5330     6.3440     6.8610    23.6160     2.3630    -4.7420 
  140.6250    73.9590     6.5120     6.3190     6.9440    23.5830     2.3460    -4.8100 
  140.7500    75.1650     6.4750     6.2860     6.8550    23.6510     2.3150    -4.8740 
  140.8750    75.2060     6.4220     6.2510     6.6870    23.8740     2.2810    -4.9510 
  141.0000    75.4670     6.3720     6.2230     6.5420    24.2610     2.2540    -5.0410 
  141.1250    74.5170     6.3940     6.2320     6.5010    24.5670     2.2430    -5.1940 
  141.2500    71.7910     6.5270     6.3000     6.6040    24.5210     2.2430    -5.4260 
  141.3750    69.0250     6.7870     6.4490     6.8000    24.1490     2.2480    -5.6950 
  141.5000    66.9960     7.2300     6.6920     7.0580    23.6000     2.2500    -5.9330 
  141.6250    65.7910     7.9320     7.0660     7.2900    23.1230     2.2480    -6.0810 
  141.7500    63.8230     8.8480     7.5800     7.5270    22.8320     2.2450    -6.1580 
  141.8750    60.7870     9.9080     8.2600     7.8800    22.6830     2.2450    -6.1900 
  142.0000    57.6050    10.9550     9.0850     8.3440    22.5630     2.2500    -6.2130 
  142.1250    55.5710    11.6800     9.9070     9.1880    22.5330     2.2640    -6.2130 
  142.2500    54.5950    11.8420    10.4620    10.2680    22.6110     2.2870    -6.1040 
  142.3750    54.2910    11.3560    10.5170    11.1800    22.8280     2.3190    -5.8520 
  142.5000    54.8830    10.2970     9.9760    11.6360    23.2600     2.3500    -5.5110 
  142.6250    58.8850     9.0490     8.9300    10.4780    23.8510     2.3690    -5.1730 
  142.7500    65.8900     7.9700     7.7890     8.2810    24.2950     2.3700    -4.9160 
  142.8750    71.6740     7.1410     6.8210     6.7890    24.4710     2.3620    -4.7290 
  143.0000    73.0940     6.5990     6.1560     6.5000    24.4890     2.3550    -4.5780 
  143.1250    71.9210     6.3740     5.8480     6.6090    24.4620     2.3590    -4.4390 
  143.2500    72.8310     6.3070     5.7630     6.5660    24.4600     2.3660    -4.3240 
  143.3750    76.1200     6.3560     5.8130     6.3880    24.4790     2.3720    -4.3240 
  143.5000    77.9900     6.5240     5.9250     6.2630    24.4830     2.3710    -4.4430 
  143.6250    76.5210     6.7610     6.0650     6.2800    24.4380     2.3660    -4.6740 
  143.7500    74.0590     6.9930     6.2360     6.3690    24.3300     2.3590    -4.9440 
  143.8750    72.3220     7.2240     6.4580     6.5010    24.1390     2.3490    -5.2280 
  144.0000    70.8670     7.4610     6.7440     6.7020    23.8150     2.3380    -5.5240 
  144.1250    68.6680     7.7880     7.0730     6.8340    23.4450     2.3270    -5.8010 
  144.2500    67.1060     8.0670     7.3680     6.9160    23.2670     2.3180    -6.0390 
  144.3750    66.6340     8.2910     7.5480     6.9500    23.2840     2.3140    -6.2090 
  144.5000    68.3780     8.4250     7.5640     6.9050    23.3370     2.3160    -6.3290 
  144.6250    72.9260     8.3950     7.4010     6.7630    23.3060     2.3210    -6.3920 
  144.7500    76.4420     8.2360     7.1570     6.5080    23.2830     2.3270    -6.3750 
  144.8750    76.3380     8.0250     6.9180     6.3070    23.2970     2.3310    -6.2900 
  145.0000    73.4500     7.8500     6.7470     6.3920    23.3090     2.3310    -6.1520 
  145.1250    70.4510     7.7610     6.6770     6.6540    23.3590     2.3280    -6.0470 
  145.2500    67.8840     7.7030     6.6630     6.7860    23.4280     2.3240    -6.0420 
  145.3750    66.8380     7.6050     6.6550     6.8890    23.5380     2.3210    -6.1110 
  145.5000    68.2380     7.4270     6.6020     6.9250    23.7260     2.3200    -6.1650 
  145.6250    70.5970     7.1830     6.4690     6.8770    23.9480     2.3220    -6.1660 
  145.7500    70.5620     6.9730     6.3040     6.8150    24.1100     2.3270    -6.1890 
  145.8750    67.5800     6.9150     6.1810     6.7750    24.1550     2.3340    -6.2800 
  146.0000    64.6730     7.1540     6.2140     6.8910    24.0400     2.3370    -6.4510 
  146.1250    63.8200     8.0120     6.6440     7.5210    23.6950     2.3330    -6.6570 
  146.2500    63.3660     9.6620     7.6590     9.0160    23.3280     2.3310    -6.8510 
  146.3750    62.4140    12.2360     9.4820    11.8070    23.0890     2.3410    -7.0080 
  146.5000    60.9980    15.6490    12.2300    16.0720    23.0090     2.3770    -7.1780 
  146.6250    58.6410    19.5150    15.8450    21.2630    23.1360     2.4390    -7.4140 
  146.7500    55.3600    23.0440    19.6140    25.5330    23.4270     2.5000    -7.6970 
  146.8750    53.4010    25.5970    22.7780    27.5760    23.6490     2.5290    -8.0020 
