~V
VERS. 2.00: Ver 2.00
~W
STRT.M 60.0000:
STOP.M 262.0000:
STEP.M 0.1250:
NULL. -999.2500:
UWI. F10018:
~C
DEPT.M :
GR.API :
RML.OHMM :
RI. :
RXO.OHMM :
CALI.CM :
DEN.GM/CC :
SP.MV :
~A
# ...
  228.7500    55.0660    51.3430    50.1640    48.3990    23.6790     2.2600   -13.5480 
  228.8750    53.8140    58.5470    57.1460    60.8360    23.7060     2.2640   -13.4520 
  229.0000    53.8810    67.0770    65.9410    73.5660    23.7730     2.2560   -13.3830 
  229.1250    54.3350    75.2050    74.8730    88.9280    24.0110     2.2310   -13.3680 
  229.2500    53.9510    81.5780    82.3400    94.6800    24.3510     2.2010   -13.4100 
  229.3750    53.0380    85.8120    87.7000    90.4220    24.5540     2.1750   -13.4740 
  229.5000    52.1810    88.4090    91.1980    84.1360    24.5720     2.1600   -13.4860 
  229.6250    51.8490    90.2430    93.4900    83.1780    24.4920     2.1600   -13.4020 
  229.7500    51.4730    91.8580    95.2080    85.6440    24.3820     2.1660   -13.2860 
  229.8750    50.5820    92.7610    95.9780    95.1580    24.3410     2.1720   -13.2000 
  230.0000    50.1280    91.5870    94.6280   104.6600    24.3690     2.1730   -13.1200 
  230.1250    51.2740    85.4850    88.4320   102.2110    24.4580     2.1710   -13.0280 
  230.2500    52.5260    74.5990    77.4030    87.9740    24.4360     2.1720   -12.8960 
  230.3750    53.3240    61.3210    63.8600    73.7980    24.3530     2.1820   -12.7260 
  230.5000    55.8080    49.2450    51.4220    60.7500    24.2390     2.2040   -12.5420 
  230.6250    59.2710    41.8790    43.5010    38.9970    24.1220     2.2300   -12.3380 
  230.7500    62.0940    39.8010    40.5730    26.2810    24.2150     2.2450   -12.1390 
  230.8750    63.8070    43.5350    43.2650    29.3330    24.5400     2.2410   -11.9510 
  231.0000    62.6400    53.4470    52.2680    61.5370    24.6730     2.2270   -11.7760 
  231.1250    57.5360    70.3000    68.7380   131.6210    24.6090     2.2240   -11.6340 
  231.2500    52.8420    90.5940    89.1050   162.2880    24.4920     2.2510   -11.5290 
  231.3750    51.7400   108.7830   107.7380   152.0940    24.4710     2.3040   -11.4680 
  231.5000    53.1030   118.6760   118.4660   136.1620    24.4300     2.3580   -11.4590 
  231.6250    53.5160   118.0260   118.6150   120.4380    24.4350     2.3730   -11.4790 
  231.7500    52.7990   113.5610   114.2920   129.7870    24.5100     2.3420   -11.4540 
  231.8750    51.4540   108.9510   109.1880   155.2680    24.5770     2.2780   -11.3740 
  232.0000    50.7960   105.1730   104.5720   146.7850    24.5440     2.2120   -11.2910 
  232.1250    52.3180   102.6670   101.0010   117.6750    24.4020     2.1830   -11.1680 
  232.2500    54.4380   101.8350    98.9520    92.6070    24.2300     2.2020   -10.9700 
  232.3750    56.6220   103.2650    99.0610    87.6910    23.9640     2.2640   -10.6940 
  232.5000    57.5630   107.3700   101.8230    85.4380    23.8540     2.3590   -10.3820 
  232.6250    56.8800   114.6060   107.8560    92.1840    23.9670     2.4620   -10.1080 
  232.7500    56.5590   123.6570   115.9880   110.1630    24.2160     2.5470    -9.9090 
  232.8750    57.0880   132.7880   124.5630   155.7680    24.3080     2.5980    -9.7550 
  233.0000    57.4850   139.7420   131.3290   183.1190    24.3100     2.6140    -9.5410 
  233.1250    57.4590   141.4270   133.2590   179.5710    24.3080     2.6000    -9.2830 
  233.2500    58.1420   137.5000   129.9560   154.3390    24.3070     2.5720    -9.0890 
  233.3750    60.2980   128.6500   122.0100   135.0170    24.2510     2.5430    -9.0130 
  233.5000    62.3350   116.6220   110.9740   122.3060    24.3470     2.5200    -9.0320 
  233.6250    62.6110   103.3770    98.6190   109.0750    24.3690     2.5190    -9.0810 
  233.7500    63.2820    90.7300    86.6640    95.1860    24.3150     2.5390    -9.0810 
  233.8750    65.6320    79.6900    76.0640    69.4760    24.2090     2.5660    -9.0480 
  234.0000    66.7310    70.9550    67.5140    47.5400    24.1640     2.5780    -9.0270 
  234.1250    63.2540    65.2800    61.7950    43.5100    23.9610     2.5510    -8.9940 
  234.2500    59.7090    62.1440    58.4930    42.7600    23.9020     2.5030    -8.8940 
  234.3750    59.4910    61.2420    57.3650    44.1260    23.9210     2.4640    -8.6970 
  234.5000    60.8930    62.1210    58.0190    49.8140    23.9540     2.4550    -8.4240 
  234.6250    62.3210    64.1920    59.9580    63.8950    23.9600     2.4740    -8.1450 
  234.7500    62.9840    66.3080    62.1080    73.2740    24.0260     2.4910    -7.9390 
  234.8750    61.8660    67.6530    63.7060    74.2700    24.1530     2.4900    -7.8010 
  235.0000    60.0690    67.6580    64.1820    68.6690    24.1720     2.4740    -7.7120 
  235.1250    59.5820    65.8120    62.9700    68.8550    24.0800     2.4640    -7.6970 
  235.2500    59.9110    62.6050    60.4030    70.9620    24.0490     2.4690    -7.7840 
  235.3750    60.4540    58.5820    56.9240    69.2430    24.2050     2.4860    -7.9740 
  235.5000    61.9460    54.3940    53.1390    61.3980    24.3060     2.5060    -8.2410 
  235.6250    63.1420    50.6590    49.6510    50.5250    24.3210     2.5210    -8.4890 
  235.7500    61.9030    47.5080    46.6470    47.4080    24.2960     2.5340    -8.6590 
  235.8750    59.1260    44.7770    43.9950    46.7840    24.2910     2.5470    -8.7500 
  236.0000    57.0280    42.1510    41.4040    47.3730    24.3070     2.5580    -8.8590 
  236.1250    57.0940    39.4310    38.6570    41.6160    24.2750     2.5700    -8.9840 
  236.2500    56.9700    36.7800    35.9040    34.1270    24.2530     2.5830    -9.0320 
  236.3750    55.3880    34.5060    33.4340    28.8910    24.2520     2.5970    -8.9760 
  236.5000    52.9150    32.8510    31.4960    25.0590    24.2720     2.6060    -8.8190 
  236.6250    51.0380    31.9730    30.2820    26.0450    24.2660     2.5990    -8.6530 
  236.7500    51.4270    31.6050    29.6050    28.2420    24.2660     2.5790    -8.5230 
  236.8750    53.6850    31.5780    29.3480    27.2080    24.2670     2.5550    -8.4110 
  237.0000    54.3860    31.9100    29.5240    27.5090    24.2610     2.5400    -8.2610 
  237.1250    52.2110    33.1820    30.6430    31.6540    24.2600     2.5440    -8.0530 
  237.2500    52.3820    36.0510    33.2960    34.8790    24.2730     2.5540    -7.8380 
  237.3750    56.5000    41.3600    38.3500    44.5380    24.2970     2.5580    -7.6410 
  237.5000    60.1050    50.0460    46.8640    66.5340    24.2990     2.5480    -7.4450 
  237.6250    57.4450    63.7210    60.4370   118.6700    24.2640     2.5310    -7.2050 
  237.7500    51.6420    80.4380    76.7980   205.8490    24.2690     2.5290    -6.9090 
  237.8750    46.8830    92.7110    89.4340   305.2300    24.3930     2.5520    -6.5790 
  238.0000    46.0980    87.5300    87.7180   296.8460    24.3860     2.5920    -6.2190 
  238.1250    48.5330    62.9200    66.4800   200.9840    24.3710     2.6190    -5.8700 
  238.2500    47.7290    38.9150    41.9820   108.6160    24.3190     2.6080    -5.5220 
  238.3750    41.3110    22.6820    23.8830    43.8910    24.3220     2.5560    -5.1360 
  238.5000    32.7690    13.3430    13.3310    16.5650    24.3650     2.4800    -4.7600 
  238.6250    28.0490     8.8650     8.4230     7.2920    24.3910     2.4090    -4.4420 
  238.7500    27.6300     6.1630     5.9610     5.0250    24.3250     2.3620    -4.2120 
  238.8750    28.5870     4.8140     4.8190     4.9440    24.2780     2.3410    -4.0560 
  239.0000    28.6830     4.6900     4.4330     4.7660    24.2770     2.3400    -3.9200 
  239.1250    28.1180     4.8930     4.5000     4.4870    24.3270     2.3450    -3.7790 
  239.2500    27.6120     5.1020     4.6820     4.2000    24.3920     2.3430    -3.7020 
  239.3750    26.6990     5.2040     4.8220     4.1330    24.4360     2.3290    -3.7330 
  239.5000    24.9030     5.1830     4.8600     4.1640    24.4100     2.3030    -3.8260 
  239.6250    23.2470     5.0490     4.7780     4.2210    24.3790     2.2680    -3.8890 
  239.7500    22.7980     4.8370     4.6170     4.2700    24.3620     2.2390    -3.8830 
  239.8750    23.2240     4.6030     4.4270     4.2990    24.3160     2.2270    -3.8320 
