~V
VERS. 2.00: Ver 2.00
~W
STRT.M 50.0000:
STOP.M 325.0000:
STEP.M 0.1250:
NULL. -999.2500:
UWI. F10039:
~C
DEPT.M :
GR.API :
RML.OHMM :
RI. :
RXO.OHMM :
CALI.CM :
DEN.GM/CC :
SP.MV :
~A
# ...
  173.7500    97.7370     5.9910     5.4240     7.0230    22.6920     2.3890   -24.8480 
  173.8750    94.0190     6.3030     5.6000     7.4810    22.6500     2.4270   -24.9700 
  174.0000    90.2980     6.9170     6.0280     7.6810    22.7240     2.4810   -25.1200 
  174.1250    88.4200     7.8160     6.7510     8.1680    22.9940     2.5240   -25.2830 
  174.2500    84.8890     8.7700     7.5970     9.3860    23.3090     2.5330   -25.4500 
  174.3750    81.5470     9.5510     8.3680    10.8410    23.4060     2.5010   -25.6120 
  174.5000    83.7200     9.9720     8.8810    11.4390    23.1150     2.4430   -25.7430 
  174.6250    89.1120     9.9190     8.9980     9.8590    22.6350     2.3830   -25.8320 
  174.7500    89.9320     9.5890     8.8290     8.4770    22.2810     2.3420   -25.8900 
  174.8750    87.6680     9.1520     8.4780     8.2120    22.0890     2.3230   -25.9250 
  175.0000    87.9140     8.7170     8.0280     8.1210    22.1210     2.3220   -25.9200 
  175.1250    90.6180     8.3070     7.5430     7.7090    22.5300     2.3310   -25.9110 
  175.2500    93.4440     7.8990     7.0920     7.0950    23.2060     2.3430   -25.9180 
  175.3750    96.0530     7.5160     6.7400     6.7190    23.8140     2.3530   -25.9470 
  175.5000    98.0040     7.2300     6.5350     6.6320    24.1210     2.3570   -26.0180 
  175.6250    96.7590     7.1730     6.5240     6.8140    24.1440     2.3470   -26.1560 
  175.7500    92.1800     7.3510     6.6640     7.0350    24.0330     2.3280   -26.3570 
  175.8750    87.1240     7.7290     6.9340     7.3520    23.8370     2.3070   -26.6050 
  176.0000    83.6410     8.2530     7.3280     7.8040    23.5230     2.2910   -26.8860 
  176.1250    81.7710     8.8900     7.8780     8.2780    23.2020     2.2820   -27.1240 
  176.2500    79.9330     9.5610     8.5380     8.5530    23.1280     2.2800   -27.3040 
  176.3750    77.6340    10.1620     9.2120     8.8130    23.2190     2.2850   -27.4150 
  176.5000    75.6470    10.5460     9.7400     9.0310    23.2840     2.2970   -27.4540 
  176.6250    74.6670    10.5270     9.8880     9.2490    23.2930     2.3120   -27.3990 
  176.7500    76.3620    10.1650     9.6470     9.0010    23.3420     2.3240   -27.2740 
  176.8750    81.2770     9.5890     9.1020     8.1710    23.4360     2.3280   -27.0980 
  177.0000    86.7020     8.9700     8.4280     7.2840    23.5390     2.3270   -26.9050 
  177.1250    88.7200     8.4870     7.8560     7.3610    23.5220     2.3250   -26.7390 
  177.2500    87.3070     8.2110     7.5250     7.8510    23.4150     2.3230   -26.6030 
  177.3750    84.8530     8.1600     7.4770     7.8690    23.3440     2.3220   -26.4810 
  177.5000    83.6490     8.2940     7.6620     7.5480    23.3540     2.3190   -26.3740 
  177.6250    83.9350     8.4860     7.9350     7.4160    23.3570     2.3220   -26.2740 
  177.7500    85.2520     8.5450     8.0890     7.8190    23.3130     2.3340   -26.1430 
  177.8750    88.1870     8.3450     7.9950     7.9840    23.3190     2.3560   -25.9700 
  178.0000    91.1030     7.8640     7.6180     7.1250    23.4920     2.3820   -25.7520 
  178.1250    93.9940     7.1930     7.0290     6.2230    23.8390     2.4000   -25.5110 
  178.2500    96.8070     6.5550     6.4450     6.0930    24.1240     2.4050   -25.2700 
  178.3750    98.7390     6.1100     6.0270     6.1450    24.2460     2.3980   -25.0480 
  178.5000    98.3250     5.9640     5.8810     6.0320    24.2870     2.3930   -24.8610 
  178.6250    93.1680     6.2020     6.0770     6.2780    24.2570     2.4030   -24.7140 
  178.7500    86.9390     6.6980     6.5040     7.5010    24.1210     2.4280   -24.6210 
  178.8750    84.4460     7.2960     7.0370     9.8370    23.9360     2.4580   -24.5780 
  179.0000    89.0590     7.7750     7.4980    12.1680    23.8630     2.4810   -24.5690 
  179.1250    96.8290     7.8400     7.6280    10.1300    23.9860     2.4880   -24.5660 
  179.2500   100.0380     7.4750     7.3610     7.1920    24.1280     2.4840   -24.5750 
  179.3750    99.8720     6.7980     6.7480     5.8820    24.2280     2.4740   -24.6120 
  179.5000    98.7460     6.0160     5.9530     5.4360    24.2790     2.4580   -24.6790 
  179.6250    98.5640     5.3680     5.1880     5.2140    24.2660     2.4340   -24.7880 
  179.7500   100.4690     4.9710     4.6140     5.1680    24.1960     2.4080   -24.9300 
  179.8750   102.0260     4.8920     4.3280     5.2470    24.1080     2.3960   -25.1220 
  180.0000    99.5370     5.1950     4.4200     5.5570    23.9130     2.4120   -25.3760 
  180.1250    91.0300     6.0800     5.0810     6.4910    23.5650     2.4630   -25.6590 
  180.2500    81.1170     7.5870     6.3170     8.2540    23.2190     2.5180   -25.9310 
  180.3750    72.6840     9.7110     8.1150    11.7570    23.1390     2.5460   -26.1800 
  180.5000    66.9470    12.1840    10.2630    19.5870    23.2060     2.5260   -26.4010 
  180.6250    64.9890    14.2160    12.1420    24.0490    23.1520     2.4570   -26.5980 
  180.7500    64.8330    15.0710    13.1330    17.0500    22.9800     2.3740   -26.7620 
  180.8750    64.4180    14.5650    13.0520    11.2800    22.8260     2.3030   -26.8610 
  181.0000    63.1310    13.1800    12.2320     9.4270    22.7040     2.2550   -26.8900 
  181.1250    62.3170    11.7980    11.2810     9.3390    22.6370     2.2320   -26.8640 
  181.2500    62.1240    11.0200    10.6500     9.7890    22.6120     2.2210   -26.8080 
  181.3750    61.5150    10.9680    10.4490    10.4770    22.6190     2.2160   -26.7240 
  181.5000    61.2920    11.5080    10.6340    11.1970    22.6670     2.2140   -26.6040 
  181.6250    63.2690    12.3880    11.1150    11.8100    22.8000     2.2110   -26.4360 
  181.7500    65.2980    13.2690    11.7270    12.3600    22.9220     2.2060   -26.2620 
  181.8750    64.9630    13.9920    12.3860    12.7200    22.9190     2.2000   -26.1020 
  182.0000    62.6090    14.4810    13.0020    12.6820    22.7380     2.1970   -25.9630 
  182.1250    60.8130    14.6520    13.3940    12.1890    22.4910     2.2010   -25.8530 
  182.2500    59.5980    14.5210    13.4390    11.7940    22.2340     2.2150   -25.7560 
  182.3750    60.6650    14.0750    13.0720    11.2910    22.1780     2.2360   -25.6770 
  182.5000    64.9860    13.3360    12.3340    10.1280    22.1510     2.2640   -25.6220 
  182.6250    70.5570    12.3710    11.3580     8.8050    22.1280     2.2950   -25.5960 
  182.7500    75.5330    11.3760    10.3900     8.4280    22.1970     2.3230   -25.5850 
  182.8750    78.2830    10.5110     9.5810     8.7160    22.3170     2.3410   -25.5980 
  183.0000    79.2910     9.9060     9.0260     8.3000    22.4250     2.3430   -25.6220 
  183.1250    79.1990     9.6980     8.8140     7.6410    22.4590     2.3270   -25.6770 
  183.2500    77.1210     9.8390     8.8850     7.7050    22.3320     2.3030   -25.7630 
  183.3750    73.1620    10.2920     9.2000     8.6770    22.1040     2.2820   -25.8620 
  183.5000    68.7090    10.9870     9.6970     9.7870    21.9050     2.2680   -25.9580 
  183.6250    67.3660    11.8270    10.2960    10.3860    21.7940     2.2640   -26.0520 
  183.7500    68.0760    12.6460    10.8770    10.5320    21.7290     2.2640   -26.1270 
  183.8750    68.5190    13.3280    11.3800    10.6640    21.7020     2.2670   -26.1790 
  184.0000    67.3100    13.8090    11.8020    10.8730    21.7000     2.2720   -26.2090 
  184.1250    64.4550    14.0850    12.1880    11.3270    21.7140     2.2780   -26.1800 
  184.2500    62.4010    14.2700    12.5820    11.7110    21.7790     2.2810   -26.0960 
  184.3750    62.9230    14.4390    12.9670    11.9390    21.8750     2.2820   -25.9670 
  184.5000    64.7540    14.6330    13.2870    11.8960    21.9760     2.2800   -25.8190 
  184.6250    66.5750    14.8550    13.4690    11.9190    21.9680     2.2740   -25.6530 
  184.7500    67.9430    15.0530    13.5430    11.7180    21.8950     2.2630   -25.4800 
  184.8750    67.0260    15.1470    13.5510    11.0650    21.9800     2.2530   -25.3040 
