~V
VERS. 2.00: Ver 2.00
~W
STRT.M 50.0000:
STOP.M 280.0000:
STEP.M 0.1250:
NULL. -999.2500:
UWI. F10023:
~C
DEPT.M :
SP.MV :
DEN.GM/CC :
GR.API :
CALI.CM :
RXO.OHMM :
RI. :
RML.OHMM :
~A
# ...
   83.7500   -36.8810     2.0910    71.1120    23.0970     8.0880     6.9900     8.6590 
   83.8750   -36.7720     2.0830    67.8120    23.1110     8.2330     7.0460     8.7390 
   84.0000   -36.6310     2.0400    66.9140    23.4670     8.4840     7.1310     8.8830 
   84.1250   -36.5270     1.9780    68.0670    24.1250     8.7510     7.2500     9.0800 
   84.2500   -36.3010     1.9520    67.8130    24.5940     8.9630     7.3850     9.2960 
   84.3750   -36.0160     1.9910    67.7620    24.5590     8.9870     7.5030     9.4890 
   84.5000   -35.7280     2.0730    70.3310    24.1560     8.8330     7.5720     9.6010 
   84.6250   -35.3600     2.1370    73.1730    23.6460     8.8120     7.5260     9.5460 
   84.7500   -35.0290     2.1490    74.4470    23.2750     9.1760     7.3620     9.3450 
   84.8750   -34.8220     2.1260    75.5550    23.0350     9.4580     7.1120     9.0570 
   85.0000   -34.6540     2.1020    78.9310    22.8950     9.4100     6.8410     8.7680 
   85.1250   -34.5380     2.0920    83.8250    22.8630     8.8980     6.6320     8.5740 
   85.2500   -34.5690     2.0850    86.7940    22.9290     8.2400     6.5210     8.5110 
   85.3750   -34.6590     2.0780    86.3340    23.0490     7.8160     6.5170     8.5830 
   85.5000   -34.8680     2.0720    82.6190    23.1760     7.7950     6.5990     8.7640 
   85.6250   -35.1830     2.0700    78.7550    23.3300     9.1360     6.7220     9.0040 
   85.7500   -35.4380     2.0700    76.8270    23.4170     9.7620     6.8360     9.2240 
   85.8750   -35.6880     2.0720    76.5570    23.4550     9.4200     6.9210     9.3680 
   86.0000   -35.9350     2.0750    77.2170    23.4880     9.1670     6.9740     9.3970 
   86.1250   -36.1430     2.0780    78.1350    23.5530     9.0840     7.0000     9.2820 
   86.2500   -36.3040     2.0760    78.9840    23.6190     9.0350     7.0130     9.0860 
   86.3750   -36.3880     2.0690    78.6130    23.7890     9.0950     7.0110     8.8710 
   86.5000   -36.3800     2.0580    75.4520    24.1750     9.3030     6.9860     8.6890 
   86.6250   -36.3270     2.0460    72.0000    24.7430     9.4150     6.9320     8.5670 
   86.7500   -36.2800     2.0330    71.0660    25.1810     9.3170     6.8630     8.4830 
   86.8750   -36.1360     2.0250    72.3420    25.3800     9.0330     6.7920     8.4260 
   87.0000   -36.0270     2.0280    73.5310    25.3990     8.7430     6.7350     8.4020 
   87.1250   -35.9590     2.0420    73.3060    25.3340     8.7280     6.7120     8.4290 
   87.2500   -35.8620     2.0550    74.1820    25.2640     8.8800     6.7170     8.4820 
   87.3750   -35.8700     2.0630    75.9970    25.2340     9.0780     6.7300     8.5170 
   87.5000   -35.9470     2.0700    76.6220    25.1920     9.1820     6.7260     8.4870 
   87.6250   -36.0130     2.0750    74.8490    25.0150     9.1440     6.6870     8.3720 
   87.7500   -36.1390     2.0760    72.6720    24.7710     9.0050     6.6180     8.2250 
   87.8750   -36.3580     2.0740    72.0100    24.7280     8.7900     6.5360     8.1060 
   88.0000   -36.5450     2.0720    73.4540    24.9890     8.5800     6.4740     8.0560 
   88.1250   -36.7540     2.0650    75.6940    25.2350     8.5040     6.4520     8.0980 
   88.2500   -36.9780     2.0530    76.4850    25.4730     8.6330     6.4640     8.1870 
   88.3750   -37.0880     2.0450    75.7400    25.7230     8.9310     6.4900     8.2670 
   88.5000   -37.1250     2.0480    75.0760    25.9100     9.1670     6.5020     8.2830 
   88.6250   -37.1750     2.0460    75.3600    25.9640     9.1520     6.4660     8.2110 
   88.7500   -37.1220     2.0340    74.2730    25.8990     8.9330     6.3930     8.1050 
   88.8750   -37.0450     2.0190    73.1910    25.7110     8.6930     6.3140     8.0240 
   89.0000   -36.9230     2.0140    75.2430    25.4750     8.5480     6.2600     8.0070 
   89.1250   -36.6230     2.0270    78.5660    25.3170     8.4640     6.2600     8.0620 
   89.2500   -36.2890     2.0580    79.2210    25.1930     8.3520     6.2970     8.1400 
   89.3750   -35.9410     2.1020    77.6420    24.9750     8.1550     6.3410     8.2140 
   89.5000   -35.5080     2.1400    78.1560    24.5790     7.8840     6.3680     8.2860 
   89.6250   -34.9990     2.1520    81.5430    24.2540     7.7060     6.3970     8.3940 
   89.7500   -34.3830     2.1400    85.8790    23.9700     7.6830     6.4780     8.5760 
   89.8750   -33.6290     2.1240    89.2900    23.6020     7.8300     6.6320     8.8240 
   90.0000   -32.8420     2.1330    89.7350    23.2040     8.3070     6.8340     9.0680 
   90.1250   -32.0360     2.1850    89.6040    23.0110     9.8590     6.9780     9.1410 
   90.2500   -31.1220     2.2500    92.6750    22.9880    11.5530     6.9520     8.9400 
   90.3750   -30.2220     2.2870    97.0160    22.9200    11.2320     6.7010     8.4680 
   90.5000   -29.3470     2.2800   100.3720    22.7140     8.7720     6.2700     7.8540 
   90.6250   -28.4760     2.2450   104.3980    22.4090     6.4280     5.7860     7.3020 
   90.7500   -27.7310     2.2150   108.6510    22.2840     5.6360     5.3780     6.9270 
   90.8750   -27.0670     2.1980   108.2650    22.4460     5.4780     5.1140     6.7450 
   91.0000   -26.4010     2.1940   101.9750    22.7840     5.5120     5.0060     6.7140 
   91.1250   -25.7710     2.2010    97.2030    22.9290     5.5820     5.0140     6.7480 
   91.2500   -25.2270     2.2170    97.9220    23.0500     5.5260     5.0210     6.7410 
   91.3750   -24.7280     2.2350   101.3240    23.2860     5.4120     4.9560     6.6430 
   91.5000   -24.3390     2.2440   104.6370    23.6270     5.3100     4.8050     6.4460 
   91.6250   -24.0510     2.2460   105.7410    24.0090     5.1470     4.5920     6.1820 
   91.7500   -23.7810     2.2510   106.8060    24.2250     4.9100     4.3880     5.9390 
   91.8750   -23.5930     2.2650   109.6350    24.2340     4.7650     4.2650     5.8030 
   92.0000   -23.5760     2.2810   114.3880    24.1790     4.7880     4.2720     5.8320 
   92.1250   -23.7290     2.2900   115.4690    24.1550     5.0200     4.4510     6.0650 
   92.2500   -24.0100     2.2890   109.7720    24.1500     5.6830     4.7670     6.4310 
   92.3750   -24.3220     2.2810   101.1800    24.1310     7.0520     5.1820     6.8660 
   92.5000   -24.5770     2.2640    94.5900    24.0940     8.0780     5.6380     7.2960 
   92.6250   -24.8190     2.2310    90.8000    24.0900     7.9630     6.0370     7.6440 
   92.7500   -25.0470     2.1850    89.6940    24.1390     7.2850     6.3100     7.8830 
   92.8750   -25.0860     2.1450    89.9450    24.1860     7.1710     6.4130     7.9770 
   93.0000   -24.9250     2.1310    90.0990    24.2810     7.2510     6.3350     7.8890 
   93.1250   -24.5880     2.1570    90.2330    24.5180     6.8840     6.0850     7.5800 
   93.2500   -24.1410     2.2010    92.9580    24.7900     6.1020     5.7380     7.1320 
   93.3750   -23.7080     2.2380    96.7360    24.9080     5.2830     5.3380     6.6260 
   93.5000   -23.3690     2.2490    99.8240    24.8140     4.7460     4.9210     6.1430 
   93.6250   -23.1210     2.2350   102.2560    24.5630     4.6620     4.5150     5.7440 
   93.7500   -22.9970     2.2170   104.6250    24.4110     4.6390     4.1610     5.4460 
   93.8750   -23.1110     2.1990   106.8760    24.3880     4.5050     3.9240     5.3020 
   94.0000   -23.4360     2.1880   108.6230    24.3860     4.4080     3.8830     5.3960 
   94.1250   -24.0800     2.2030   107.5110    24.3170     4.6310     4.1670     5.8810 
   94.2500   -24.9430     2.2490   102.3860    24.2010     5.7400     4.7810     6.7480 
   94.3750   -25.9110     2.3030    97.2280    24.0900     9.4470     5.6940     7.9210 
   94.5000   -26.8830     2.3320    94.2580    24.0280    16.6330     6.7520     9.1370 
   94.6250   -27.8660     2.3090    88.9010    23.9640    21.7880     7.5650     9.8500 
   94.7500   -28.7950     2.2530    81.5020    23.7990    19.0230     7.8630     9.8530 
   94.8750   -29.7100     2.1920    78.5650    23.5130    12.2740     7.6680     9.3360 
