~V
VERS. 2.00: Ver 2.00
~W
STRT.M 50.0000:
STOP.M 216.0000:
STEP.M 0.1250:
NULL. -999.2500:
UWI. F10015:
~C
DEPT.M :
GR.API :
RML.OHMM :
RI. :
RXO.OHMM :
CALI.CM :
DEN.GM/CC :
SP.MV :
~A
# ...
  128.7500    64.1420    48.0810    43.0760    47.4640    25.1050     2.1630    -5.4020 
  128.8750    62.4770    52.1260    47.2040    48.5690    25.0450     2.1390    -5.3040 
  129.0000    60.6160    56.0630    51.3570    46.4610    24.9680     2.1300    -5.2610 
  129.1250    57.7270    59.6230    55.2930    48.8240    24.8670     2.1320    -5.3110 
  129.2500    55.3650    62.5820    58.7510    54.6760    24.7300     2.1340    -5.4200 
  129.3750    55.3850    64.3230    61.1760    59.1570    24.6260     2.1330    -5.5770 
  129.5000    56.6870    64.6860    62.3690    57.7120    24.5610     2.1270    -5.7420 
  129.6250    57.2380    63.8690    62.4000    50.7720    24.5110     2.1190    -5.8840 
  129.7500    56.0890    62.3250    61.5180    48.4420    24.4490     2.1110    -6.0200 
  129.8750    56.3140    61.4210    60.9090    47.9120    24.3940     2.1050    -6.1650 
  130.0000    57.4390    61.3790    60.9640    45.4390    24.2820     2.1030    -6.2650 
  130.1250    57.5410    61.0900    60.8080    41.9530    24.1420     2.1070    -6.3120 
  130.2500    56.7090    58.8880    58.9410    39.3540    24.0240     2.1250    -6.3250 
  130.3750    55.9120    53.6510    54.2590    38.1220    23.9500     2.1640    -6.3320 
  130.5000    55.8690    45.9000    47.0800    34.9270    23.8590     2.2230    -6.3510 
  130.6250    55.0040    38.1310    39.5670    28.7120    23.6760     2.2930    -6.3910 
  130.7500    53.9280    32.4250    33.8810    23.7390    23.5120     2.3470    -6.4680 
  130.8750    53.8570    29.7430    30.9460    20.4780    23.4050     2.3630    -6.5730 
  131.0000    54.8060    30.0120    30.7670    20.0450    23.3700     2.3420    -6.6910 
  131.1250    56.2770    32.7670    33.0600    23.1080    23.4360     2.2950    -6.8310 
  131.2500    57.9640    37.7990    37.8810    28.7910    23.6710     2.2350    -7.0440 
  131.3750    59.8270    43.2760    43.6890    34.3380    23.9840     2.1910    -7.2010 
  131.5000    59.8980    46.9480    48.0260    40.1880    24.2990     2.1700    -7.3860 
  131.6250    57.6740    48.5760    50.3240    44.1290    24.5380     2.1660    -7.5160 
  131.7500    54.7420    48.3830    50.5690    44.8510    24.6830     2.1710    -7.5890 
  131.8750    53.3790    47.0000    49.2970    42.4430    24.7550     2.1790    -7.6330 
  132.0000    55.1440    45.4150    47.5840    38.8960    24.7860     2.1840    -7.6590 
  132.1250    57.8280    44.0340    45.9090    39.9420    24.7870     2.1780    -7.6730 
  132.2500    58.6630    42.7700    44.3490    40.0650    24.7880     2.1640    -7.6350 
  132.3750    58.5590    41.5890    42.9210    39.4300    24.7890     2.1460    -7.5820 
  132.5000    58.3830    40.5360    41.6780    38.7330    24.7900     2.1290    -7.5060 
  132.6250    58.6960    39.7840    40.7780    38.2540    24.7910     2.1150    -7.4130 
  132.7500    59.4800    39.6850    40.5540    36.9180    24.7900     2.1060    -7.3900 
  132.8750    60.5390    40.6020    41.3570    36.1780    24.7910     2.1110    -7.3380 
  133.0000    60.7490    42.3660    43.0750    38.3310    24.7920     2.1470    -7.2980 
  133.1250    59.5940    44.3180    45.0900    44.2460    24.7920     2.2170    -7.2600 
  133.2500    58.5840    45.5630    46.5310    50.5340    24.7910     2.3150    -7.2230 
  133.3750    59.4790    45.3400    46.6080    52.9140    24.7880     2.4240    -7.1850 
  133.5000    62.5100    43.3860    44.9490    49.5640    24.7850     2.5190    -7.1430 
  133.6250    62.1670    39.6200    41.2620    43.5920    24.7810     2.5570    -7.1030 
  133.7500    58.3300    35.8570    37.4170    37.5500    24.7640     2.5630    -7.1080 
  133.8750    53.1730    32.9010    34.2340    32.2530    24.7230     2.5480    -7.1310 
  134.0000    48.7940    31.0910    32.1020    28.5400    24.6760     2.5260    -7.1760 
  134.1250    46.9110    30.5840    31.2290    27.9540    24.6450     2.5090    -7.2370 
  134.2500    48.5680    31.6250    31.9010    33.4290    24.6390     2.5070    -7.2580 
  134.3750    49.6610    33.9980    33.9900    38.3500    24.6390     2.5180    -7.2970 
  134.5000    48.6100    37.1240    37.0020    40.1170    24.6390     2.5370    -7.3260 
  134.6250    47.3990    40.2940    40.2020    43.7680    24.6390     2.5550    -7.3260 
  134.7500    47.1820    42.6340    42.6620    47.5280    24.6390     2.5660    -7.2700 
  134.8750    47.8420    43.4400    43.6080    47.1950    24.6390     2.5690    -7.1410 
  135.0000    47.5500    42.5140    42.7570    40.5370    24.6390     2.5650    -6.9630 
  135.1250    46.8080    39.5270    39.7010    34.7210    24.6390     2.5560    -6.7310 
  135.2500    47.7980    36.1810    36.2290    31.0160    24.6340     2.5450    -6.5180 
  135.3750    49.2920    33.2250    33.1040    28.4930    24.6090     2.5310    -6.3190 
  135.5000    50.0500    31.0660    30.7440    26.9760    24.5630     2.5170    -6.1390 
  135.6250    49.5970    29.9370    29.3920    26.4220    24.5040     2.5100    -6.0060 
  135.7500    49.0000    30.0680    29.2760    26.3060    24.4510     2.5180    -5.9690 
  135.8750    49.0710    31.3370    30.3010    25.5400    24.3990     2.5440    -5.9920 
  136.0000    49.4780    33.3940    32.1580    27.0570    24.3670     2.5810    -6.0930 
  136.1250    50.1230    35.7220    34.3520    29.4990    24.3520     2.6180    -6.2370 
  136.2500    50.8240    37.7460    36.3290    31.9900    24.3480     2.6460    -6.3990 
  136.3750    51.6230    38.9700    37.6020    34.1460    24.3480     2.6610    -6.5610 
  136.5000    53.0820    39.1270    37.8840    36.0890    24.3480     2.6630    -6.7270 
  136.6250    53.3190    37.5960    36.5310    38.1320    24.3460     2.6490    -6.8670 
  136.7500    52.2790    35.4520    34.5370    36.9040    24.3260     2.6300    -6.9740 
  136.8750    51.5310    33.1680    32.3330    33.8970    24.2620     2.6110    -7.0410 
  137.0000    51.4110    31.0930    30.2650    30.6510    24.1710     2.5920    -7.0900 
  137.1250    51.7380    29.4880    28.6040    28.0880    24.0900     2.5750    -7.1340 
  137.2500    52.5380    28.5550    27.5610    25.8470    24.0640     2.5600    -7.1480 
  137.3750    53.2500    28.2860    27.1660    26.5030    24.0930     2.5520    -7.1390 
  137.5000    53.2680    28.5560    27.3190    25.8770    24.2120     2.5530    -7.0620 
  137.6250    53.0600    29.1760    27.8350    25.5790    24.3860     2.5580    -6.9880 
  137.7500    52.5370    29.9290    28.5100    27.1240    24.5400     2.5660    -6.8960 
  137.8750    51.2690    30.5490    29.1000    30.1020    24.6190     2.5730    -6.7640 
  138.0000    48.7040    30.7090    29.2870    30.3420    24.6390     2.5800    -6.6540 
  138.1250    48.6000    29.6920    28.3740    29.8350    24.6390     2.5870    -6.4880 
  138.2500    51.3340    27.9590    26.7640    27.0910    24.6390     2.5920    -6.3670 
  138.3750    53.4310    25.7410    24.6600    23.5740    24.6390     2.5950    -6.2890 
  138.5000    52.9890    23.3960    22.3970    20.8630    24.6390     2.5960    -6.2420 
  138.6250    50.7150    21.3110    20.3400    19.4460    24.6390     2.5930    -6.2150 
  138.7500    50.9660    19.8100    18.7920    17.4960    24.6390     2.5900    -6.2080 
  138.8750    54.2790    19.0910    17.9330    16.3500    24.6320     2.5910    -6.3040 
  139.0000    54.0520    19.1760    17.8010    15.7740    24.6110     2.5980    -6.3750 
  139.1250    51.1410    19.8530    18.2330    16.0740    24.5850     2.6050    -6.4720 
  139.2500    48.0790    20.9400    19.1210    17.3140    24.5670     2.6040    -6.6020 
  139.3750    46.9480    22.2350    20.3180    19.2530    24.5620     2.5890    -6.7640 
  139.5000    47.2490    23.4500    21.5630    21.2650    24.5620     2.5610    -6.9800 
  139.6250    47.2150    24.2070    22.4850    22.2340    24.5620     2.5340    -7.2040 
  139.7500    47.3670    24.5930    23.0350    22.4970    24.5620     2.5210    -7.3950 
  139.8750    48.9090    24.5110    23.0640    22.8240    24.5620     2.5260    -7.5820 
