~V
VERS. 2.00: Ver 2.00
~W
STRT.M 57.0000:
STOP.M 255.0000:
STEP.M 0.1250:
NULL. -999.2500:
UWI. F10046:
~C
DEPT.M :
GR.API :
RML.OHMM :
RI. :
RXO.OHMM :
CALI.CM :
DEN.GM/CC :
SP.MV :
~A
# ...
  225.7500    60.4550     9.7560     8.1870     5.8740    23.5480     2.4980    -1.9870 
  225.8750    57.3170     8.8750     7.3470     5.5370    23.6540     2.5010    -1.8940 
  226.0000    52.2190     8.2750     6.7180     5.2890    23.9550     2.4830    -1.7880 
  226.1250    48.2810     7.9490     6.3230     5.1570    24.3690     2.4510    -1.6950 
  226.2500    46.8300     7.7960     6.1000     5.1700    24.5780     2.4190    -1.5930 
  226.3750    46.8350     7.7910     6.0330     5.3920    24.5860     2.3950    -1.4950 
  226.5000    47.2670     7.9330     6.1190     5.7890    24.4790     2.3850    -1.4040 
  226.6250    47.6970     8.2530     6.3740     6.1890    24.3850     2.3940    -1.3210 
  226.7500    49.3040     8.6980     6.7480     6.4130    24.4060     2.4120    -1.2510 
  226.8750    51.7590     9.2090     7.1930     6.4200    24.5490     2.4270    -1.2080 
  227.0000    53.7030     9.7120     7.6490     6.4700    24.7150     2.4290    -1.2020 
  227.1250    54.7600    10.1340     8.0480     7.2590    24.7690     2.4140    -1.2500 
  227.2500    54.6580    10.4830     8.3710     8.4510    24.7200     2.3930    -1.3370 
  227.3750    53.8050    10.7990     8.6320     9.7220    24.6350     2.3760    -1.4140 
  227.5000    52.6100    11.1200     8.8600    10.4370    24.5990     2.3680    -1.4890 
  227.6250    53.0440    11.4420     9.0750     9.3740    24.6240     2.3610    -1.6070 
  227.7500    55.8230    11.7040     9.2640     7.8250    24.5640     2.3480    -1.7300 
  227.8750    57.9800    11.8280     9.3830     6.4320    24.3840     2.3350    -1.8540 
  228.0000    56.8710    11.7590     9.3820     5.3490    24.0840     2.3320    -1.9650 
  228.1250    54.8040    11.4600     9.2080     4.9520    23.6330     2.3500    -2.0480 
  228.2500    54.9260    11.0120     8.8980     5.0440    23.2830     2.3770    -2.1210 
  228.3750    56.6250    10.4770     8.4930     5.2690    23.1320     2.3980    -2.2080 
  228.5000    57.9470     9.9160     8.0490     5.4550    23.0230     2.4000    -2.2950 
  228.6250    57.7090     9.3990     7.6320     5.5580    23.2020     2.3890    -2.3220 
  228.7500    57.6150     8.9650     7.2870     5.5720    23.6230     2.3820    -2.3010 
  228.8750    57.8800     8.6400     7.0370     5.5960    23.9620     2.3870    -2.2430 
  229.0000    58.3090     8.4360     6.8910     5.7010    24.2320     2.3990    -2.1480 
  229.1250    57.6020     8.3710     6.8630     5.9020    24.4330     2.4050    -2.0370 
  229.2500    56.1190     8.4090     6.9200     6.2310    24.4730     2.3980    -1.9100 
  229.3750    54.7670     8.5230     7.0390     6.6420    24.2970     2.3840    -1.7880 
  229.5000    54.6980     8.6770     7.1900     7.0240    24.1110     2.3740    -1.6910 
  229.6250    56.6880     8.8300     7.3380     7.3390    24.0690     2.3810    -1.6010 
  229.7500    57.1220     8.9510     7.4580     7.3650    24.1320     2.4000    -1.5560 
  229.8750    55.1070     9.0370     7.5370     7.1280    24.2220     2.4200    -1.5400 
  230.0000    54.1440     9.0990     7.5790     7.2160    24.3120     2.4260    -1.5560 
  230.1250    56.3210     9.1690     7.5950     7.9620    24.3300     2.4110    -1.5910 
  230.2500    57.7810     9.2790     7.6160     8.9080    24.3110     2.3890    -1.6480 
  230.3750    58.1210     9.4530     7.6690     9.7180    24.2390     2.3750    -1.7180 
  230.5000    59.3180     9.7000     7.7760    10.1780    24.0830     2.3780    -1.7880 
  230.6250    59.2840    10.0220     7.9550    10.2280    23.8930     2.3940    -1.8710 
  230.7500    57.1580    10.3800     8.1870    10.4660    23.8430     2.4120    -1.9650 
  230.8750    55.6300    10.7450     8.4520    11.4640    23.9760     2.4290    -2.0830 
  231.0000    56.1320    11.0970     8.7300    12.9210    23.9760     2.4500    -2.1970 
  231.1250    56.0180    11.4450     9.0180    13.7870    23.6650     2.4790    -2.3180 
  231.2500    56.3100    11.8460     9.3430    13.7620    23.4110     2.5050    -2.4380 
  231.3750    58.5750    12.3720     9.7560    13.2370    23.3310     2.5130    -2.5500 
  231.5000    60.8660    13.0790    10.3080    14.4040    23.4360     2.4910    -2.6370 
  231.6250    60.6810    13.9940    11.0460    18.2700    23.7680     2.4470    -2.6920 
  231.7500    58.6150    14.9970    11.9020    23.8210    24.2390     2.4090    -2.7370 
  231.8750    57.7910    15.9580    12.7930    29.4080    24.5470     2.3960    -2.7470 
  232.0000    60.3760    16.7610    13.6270    33.1250    24.5350     2.4110    -2.7340 
  232.1250    63.6300    17.3340    14.3230    30.1480    24.3890     2.4450    -2.6890 
  232.2500    65.6470    17.7820    14.9160    26.1170    24.3570     2.4720    -2.6310 
  232.3750    66.4260    18.2140    15.4640    24.0460    24.4310     2.4810    -2.5590 
  232.5000    67.0830    18.6890    16.0020    26.7330    24.4220     2.4740    -2.4900 
  232.6250    67.7230    19.1160    16.4700    32.3590    24.2930     2.4650    -2.4510 
  232.7500    68.1390    19.2840    16.7220    36.7650    24.1980     2.4650    -2.3960 
  232.8750    68.3660    18.9930    16.5990    36.4770    24.0580     2.4770    -2.3500 
  233.0000    67.2880    18.1510    16.0080    30.9100    23.9330     2.4970    -2.3190 
  233.1250    65.7250    16.7930    14.9400    23.5840    23.8460     2.5160    -2.3350 
  233.2500    65.0370    15.2680    13.6660    16.7700    23.7390     2.5260    -2.3500 
  233.3750    64.6750    13.8300    12.4010    11.7960    23.8110     2.5240    -2.3790 
  233.5000    63.7480    12.6530    11.3080    10.1350    24.1940     2.5120    -2.3990 
  233.6250    61.2040    11.8570    10.5210     9.9060    24.5490     2.4950    -2.4110 
  233.7500    57.3940    11.3670    10.0050     9.3230    24.6850     2.4840    -2.4350 
  233.8750    54.1310    11.1310     9.7330     8.4350    24.6610     2.4790    -2.4320 
  234.0000    53.7280    11.0970     9.6610     7.9250    24.5710     2.4750    -2.4350 
  234.1250    55.5430    11.2370     9.7650     8.0270    24.4920     2.4620    -2.3820 
  234.2500    56.5130    11.4690     9.9720     8.7700    24.4780     2.4450    -2.3130 
  234.3750    56.2190    11.7440    10.2470    10.0350    24.4390     2.4340    -2.2540 
  234.5000    56.5330    12.0150    10.5580    11.5470    24.3610     2.4370    -2.1910 
  234.6250    59.5750    12.2400    10.8650    13.1400    24.3260     2.4560    -2.1470 
  234.7500    62.4350    12.4070    11.1310    14.6230    24.3670     2.4800    -2.0870 
  234.8750    62.7450    12.5130    11.3250    15.3550    24.4140     2.4970    -2.0780 
  235.0000    61.9840    12.5620    11.4270    14.4160    24.4660     2.5010    -2.1240 
  235.1250    63.7200    12.5650    11.4230    12.1330    24.2400     2.4920    -2.1840 
  235.2500    65.9140    12.5660    11.3580     9.8810    23.9060     2.4790    -2.2740 
  235.3750    64.6970    12.5990    11.2710     9.0710    23.5680     2.4710    -2.3540 
  235.5000    60.7360    12.6720    11.1910     9.5810    23.2630     2.4710    -2.3990 
  235.6250    59.4060    12.7460    11.1200    10.3590    23.3600     2.4820    -2.4610 
  235.7500    60.7470    12.7580    11.0330    10.8700    23.8020     2.4990    -2.5540 
  235.8750    62.2880    12.6830    10.9150    10.4810    24.2320     2.5130    -2.6060 
  236.0000    62.2950    12.5590    10.7860     9.4200    24.4730     2.5180    -2.6250 
  236.1250    60.2660    12.5350    10.7410     9.7990    24.5890     2.5120    -2.6810 
  236.2500    57.2630    12.7550    10.8780    11.0670    24.6240     2.4980    -2.7040 
  236.3750    55.2190    13.2890    11.2640    12.7400    24.6440     2.4800    -2.7450 
  236.5000    55.8580    14.0960    11.8970    14.3730    24.5830     2.4650    -2.8560 
  236.6250    58.1200    15.0080    12.6950    15.8390    24.2760     2.4640    -2.9160 
  236.7500    58.8010    15.7730    13.4540    16.3900    23.9140     2.4780    -2.9570 
  236.8750    57.0650    16.2380    14.0220    15.5810    23.7880     2.5050    -3.0260 
