~V
VERS. 2.00: Ver 2.00
~W
STRT.M 50.0000:
STOP.M 265.0000:
STEP.M 0.1250:
NULL. -999.2500:
UWI. F10025:
~C
DEPT.M :
SP.MV :
DEN.GM/CC :
GR.API :
CALI.CM :
RXO.OHMM :
RI. :
RML.OHMM :
~A
   50.0000    54.1090     2.0680    66.9010    25.4220  2000.0000     0.3960    15.1850 
   50.1250    53.9510     2.0850    66.0610    25.4110  2000.0000     0.3750    16.4180 
   50.2500    53.9930     2.0840    65.5140    25.3880  2000.0000     0.3510    16.4530 
   50.3750    54.2010     2.0710    63.4000    25.3640  2000.0000     0.3270    14.7690 
   50.5000    54.6220     2.0540    60.3600    25.3520  1694.1590     0.3070    12.0740 
   50.6250    55.1860     2.0320    59.0620    25.3490   908.7160     0.2900     9.4940 
   50.7500    55.8260     2.0000    59.3860    25.3480    96.7080     0.2790     8.1270 
   50.8750    56.4850     1.9700    59.8500    25.3480    54.4740     0.2780     8.4770 
   51.0000    57.0250     1.9560    59.6620    25.3480    44.6160     0.2900     9.5650 
   51.1250    57.3440     1.9650    58.5310    25.3480    41.0160     0.3160    10.4380 
   51.2500    57.5250     1.9730    55.1820    25.3470    32.9720     0.3520    10.6960 
   51.3750    57.6150     1.9680    50.9180    25.3450    29.5710     0.3800    10.4970 
   51.5000    57.6530     1.9500    49.2010    25.3450    18.1820     0.3880    10.1860 
   51.6250    57.7050     1.9350    50.5370    25.3440     5.5620     0.3810     9.8190 
   51.7500    57.7480     1.9500    51.5560    25.3440     1.4110     0.3720     9.2690 
   51.8750    57.8640     2.0120    49.9750    25.3220     1.0870     0.3750     8.5890 
   52.0000    58.2270     2.1100    47.9620    25.1820     0.9980     0.3940     8.1350 
   52.1250    58.8640     2.1880    48.3950    24.8020     1.0190     0.4130     8.1540 
   52.2500    59.8620     2.1960    51.1960    24.4120     1.1510     0.4180     8.5280 
   52.3750    61.3480     2.1270    53.7490    24.3550     1.3750     0.4130     8.6540 
   52.5000    63.4420     2.0190    54.3820    24.6060     1.3520     0.4110     8.3340 
   52.6250    66.5520     1.9400    53.6350    24.9680     1.0530     0.4200     8.1030 
   52.7500    70.8480     1.9180    51.1200    25.1240     0.7530     0.4390     8.6400 
   52.8750    76.3930     1.9390    48.5040    25.1190     0.7580     0.4580    10.2270 
   53.0000    83.1150     1.9680    47.1310    25.0370     1.2520     0.4730    11.6950 
   53.1250    90.9240     1.9810    47.3930    24.9620     4.0570     0.4830    12.0170 
   53.2500    99.1760     1.9840    48.6740    25.0680   161.3820     0.4910    11.2240 
   53.3750   107.4510     1.9970    48.7990    25.2550   455.7180     0.4970    10.3740 
   53.5000   115.2620     2.0270    47.4190    25.4170   480.0060     0.4980    10.2410 
   53.6250   122.0180     2.0520    46.5490    25.4720   226.9810     0.4880    10.4240 
   53.7500   127.5650     2.0490    49.4040    25.4780    51.2120     0.4710     9.9950 
   53.8750   131.7820     2.0140    54.2700    25.4630    14.3480     0.4650     8.3610 
   54.0000   134.6720     1.9630    55.4040    25.4350     6.1640     0.4790     6.4720 
   54.1250   136.2950     1.9210    52.3140    25.4070     3.0720     0.5120     5.4580 
   54.2500   137.1180     1.9020    48.6530    25.3760     1.8100     0.5470     5.8990 
   54.3750   137.2920     1.9090    49.1090    25.3520     1.3320     0.5570     7.7310 
   54.5000   137.0510     1.9330    52.2810    25.3420     1.0100     0.5370     9.8570 
   54.6250   136.4670     1.9590    55.0590    25.3420     0.7370     0.5000    10.9710 
   54.7500   135.4950     1.9860    55.8240    25.3420     0.5410     0.4520     9.4640 
   54.8750   133.9380     2.0220    55.5710    25.3400     0.4980     0.3750     5.4270 
   55.0000   131.5550     2.0630    55.6370    25.3370     0.6250     0.2770     2.3610 
   55.1250   127.7670     2.0850    55.4490    25.3370     0.9530     0.1900     0.9180 
   55.2500   122.2340     2.0810    53.8470    25.3410     1.1970     0.1330     0.4470 
   55.3750   114.4600     2.0500    51.5530    25.3440     1.1810     0.1160     0.4730 
   55.5000   103.9710     1.9940    51.9080    25.3480     1.2850     0.1380     0.6970 
   55.6250    90.6680     1.9570    55.2260    25.3240     2.1580     0.2270     1.0990 
   55.7500    76.0360     1.9960    59.7090    25.1590     3.9280     0.4520     1.7660 
   55.8750    60.9410     2.0990    63.8060    24.7400     6.0170     1.0120     2.9950 
   56.0000    45.9720     2.1840    66.8320    24.2660     7.1780     2.0070     4.8720 
   56.1250    31.8520     2.1750    68.3250    24.2250     7.4600     3.3520     6.8890 
   56.2500    19.2140     2.1210    70.2510    24.4610     7.4520     4.6750     8.0620 
   56.3750     8.6810     2.0740    74.1040    24.5420     7.4900     5.6010     8.4350 
   56.5000     0.7950     2.0470    75.7640    24.4400     7.5870     6.2310     8.9710 
   56.6250    -4.2310     2.0360    73.6110    24.3190     7.7450     6.7010     9.9170 
   56.7500    -7.7170     2.0290    69.6930    24.2820     7.9480     7.0710    11.0940 
   56.8750   -10.2930     2.0240    68.8370    24.3190     8.0410     7.3340    11.9420 
   57.0000   -12.2830     2.0180    69.8830    24.4270     8.0400     7.5210    11.9170 
   57.1250   -13.8220     2.0100    69.5460    24.5340     8.1630     7.6460    10.8440 
   57.2500   -15.1590     2.0060    68.7140    24.7620     8.4660     7.7130     9.0630 
   57.3750   -16.2540     2.0100    71.6250    25.2190     8.5200     7.7150     7.4100 
   57.5000   -17.1330     2.0180    76.9420    25.5710     8.2880     7.6790     6.5360 
   57.6250   -17.7960     2.0230    80.4890    25.0580     7.9760     7.6280     6.4820 
   57.7500   -18.3070     2.0280    80.5910    24.0860     7.7490     7.5820     6.9280 
   57.8750   -18.7310     2.0370    79.4070    23.5560     7.7420     7.5480     7.4360 
   58.0000   -19.0720     2.0470    77.5730    23.7000     7.9130     7.5220     7.7900 
   58.1250   -19.4050     2.0470    76.5050    23.8840     8.1590     7.5040     8.1030 
   58.2500   -19.7340     2.0450    76.8960    23.5830     8.3760     7.5020     8.4940 
   58.3750   -20.0910     2.0500    78.2940    23.1650     8.4840     7.5200     9.0020 
   58.5000   -20.3720     2.0660    77.4580    23.0330     8.4330     7.5430     9.4250 
   58.6250   -20.5750     2.0840    73.5100    23.2990     8.4110     7.5590     9.4820 
   58.7500   -20.7260     2.0960    68.9000    23.8290     8.4030     7.5660     9.0470 
   58.8750   -20.7350     2.0960    67.9670    24.5220     8.1840     7.5630     8.2260 
   59.0000   -20.6220     2.0850    70.7050    24.8900     7.9440     7.5520     7.4440 
   59.1250   -20.2630     2.0700    74.3920    24.8110     7.9580     7.5270     7.0310 
   59.2500   -19.6730     2.0610    78.4550    24.6020     8.1970     7.4800     7.1160 
   59.3750   -18.9460     2.0630    83.8550    24.2450     8.2080     7.4030     7.6560 
   59.5000   -18.1700     2.0770    89.9320    23.6010     7.9230     7.3000     8.3470 
   59.6250   -17.3430     2.0920    93.8960    22.9380     7.5650     7.1770     8.9860 
   59.7500   -16.4310     2.0960    93.8560    22.7190     7.3740     7.0350     9.3620 
   59.8750   -15.5280     2.0950    92.0810    22.7800     7.1280     6.8730     9.1960 
   60.0000   -14.7170     2.1100    93.0390    22.8640     6.7330     6.7030     8.7010 
   60.1250   -14.0830     2.1470    98.0490    22.9880     6.3960     6.5270     8.2930 
   60.2500   -13.5610     2.1820   103.9270    23.3080     6.2610     6.3640     8.2580 
   60.3750   -13.1720     2.1980   106.9970    23.8130     6.1640     6.2510     8.5570 
   60.5000   -12.8930     2.1980   106.9330    24.1360     6.0080     6.2020     8.7520 
   60.6250   -12.7800     2.1940   106.0300    24.2380     5.9040     6.1990     8.4810 
   60.7500   -12.8840     2.1950   106.8210    24.2220     6.0020     6.1960     7.7370 
   60.8750   -13.1480     2.1980   107.0700    24.1660     6.4140     6.1520     6.9940 
   61.0000   -13.5090     2.1980   104.9550    24.0970     6.6050     6.0850     6.7090 
   61.1250   -13.9930     2.1900   103.8630    23.9820     6.4900     6.0570     6.9450 
