~V
VERS. 2.00: Ver 2.00
~W
STRT.M 56.0000:
STOP.M 269.0000:
STEP.M 0.1250:
NULL. -999.2500:
UWI. F10026:
~C
DEPT.M :
GR.API :
RML.OHMM :
RI. :
RXO.OHMM :
CALI.CM :
DEN.GM/CC :
SP.MV :
~A
# ...
   78.5000    69.7700     9.3510     8.1380    10.6570    24.2830     2.2160   -32.1420 
   78.6250    70.4840     8.9000     7.7130    10.3100    24.1690     2.1860   -32.0080 
   78.7500    68.8080     8.6870     7.4350     9.9760    23.7290     2.1620   -31.8440 
   78.8750    66.8680     8.6850     7.3230     9.7810    23.2820     2.1430   -31.6520 
   79.0000    67.3280     8.8060     7.3420     9.7550    23.0750     2.1300   -31.4350 
   79.1250    69.1060     8.9470     7.4330     9.9290    23.2030     2.1210   -31.2080 
   79.2500    69.2110     9.0480     7.5220    10.1580    23.3670     2.1180   -30.9870 
   79.3750    67.0790     9.0990     7.5750    10.2190    23.5370     2.1220   -30.7710 
   79.5000    63.5290     9.1100     7.5780    10.1170    23.7040     2.1330   -30.5640 
   79.6250    62.6530     9.0720     7.5120    10.1950    23.9110     2.1500   -30.3780 
   79.7500    66.9340     8.9650     7.3780     9.9560    24.1000     2.1670   -30.2250 
   79.8750    72.7310     8.7580     7.1740     9.3130    24.2100     2.1780   -30.1330 
   80.0000    75.2910     8.4410     6.9110     8.6720    24.1900     2.1830   -30.1130 
   80.1250    75.5170     8.0460     6.6300     8.5070    24.1340     2.1800   -30.1610 
   80.2500    76.4410     7.6870     6.3990     8.2170    24.1060     2.1750   -30.2690 
   80.3750    76.3140     7.4780     6.2750     7.5220    24.2780     2.1680   -30.4330 
   80.5000    73.9100     7.5120     6.2960     6.7130    24.5880     2.1640   -30.6210 
   80.6250    70.8030     7.8570     6.4920     7.1220    24.9010     2.1670   -30.8070 
   80.7500    67.4770     8.3940     6.8080     8.7890    24.3680     2.1760   -30.9600 
   80.8750    64.2370     8.9930     7.1930    10.2680    23.9610     2.1870   -31.0580 
   81.0000    63.6360     9.5170     7.5840    10.8560    23.8630     2.1940   -31.0980 
   81.1250    66.1860     9.8340     7.9010    10.9240    23.9610     2.1880   -31.0740 
   81.2500    67.5160     9.9540     8.1040    11.0150    24.0860     2.1680   -30.9950 
   81.3750    66.0240     9.8920     8.1600    10.9590    24.0990     2.1420   -30.8740 
   81.5000    64.0250     9.6520     8.0430    10.6630    23.9780     2.1200   -30.7450 
   81.6250    64.3490     9.2060     7.7210    10.3500    23.9020     2.1230   -30.6690 
   81.7500    67.3550     8.6290     7.2700     9.9770    23.9070     2.1510   -30.6870 
   81.8750    72.8890     8.0340     6.7770     9.1210    23.9660     2.1960   -30.8210 
   82.0000    77.4440     7.5680     6.3530     7.6320    24.0240     2.2360   -31.0570 
   82.1250    76.0120     7.4120     6.1280     6.2640    23.9540     2.2470   -31.3510 
   82.2500    71.3350     7.5580     6.1200     6.7780    23.8820     2.2290   -31.6500 
   82.3750    67.6710     7.9360     6.3100     8.0740    23.9510     2.1940   -31.9260 
   82.5000    65.4740     8.4150     6.6300     9.1670    24.1240     2.1600   -32.1510 
   82.6250    63.8360     8.8130     6.9650     9.8940    24.2550     2.1450   -32.2320 
   82.7500    63.0030     9.0310     7.2040    10.2820    24.0400     2.1420   -32.1550 
   82.8750    61.9450     9.0840     7.3200    10.3250    23.8430     2.1410   -31.8980 
   83.0000    60.0460     9.1090     7.3750    10.3310    23.7380     2.1350   -31.4870 
   83.1250    59.8540     9.3620     7.5310    10.5830    23.8100     2.1350   -30.9960 
   83.2500    62.2390     9.9630     7.9090    11.0850    23.9760     2.1630   -30.5020 
   83.3750    63.9650    10.8850     8.5390    11.8650    24.0880     2.2320   -30.0490 
   83.5000    62.7730    11.9120     9.3200    14.0630    24.0120     2.3280   -29.6690 
   83.6250    62.6480    12.5610     9.9420    19.7360    23.7690     2.4100   -29.4210 
   83.7500    64.9160    12.5070    10.1000    23.8930    23.6470     2.4380   -29.2700 
   83.8750    66.2920    11.7030     9.6750    19.7990    23.5940     2.4080   -29.1830 
   84.0000    65.0820    10.4270     8.8000    13.4500    23.5750     2.3380   -29.1390 
   84.1250    65.0820     9.1540     7.7990    10.4770    23.5780     2.2640   -29.1160 
   84.2500    67.9520     8.2230     6.9910     8.6710    23.5990     2.2130   -29.0910 
   84.3750    70.7230     7.7190     6.5010     7.7290    23.6040     2.1910   -29.0330 
   84.5000    71.5070     7.5890     6.3370     7.9560    23.5370     2.1910   -28.9020 
   84.6250    71.9070     7.7580     6.4680     8.7380    23.5110     2.2080   -28.6570 
   84.7500    72.9920     8.0810     6.7510     9.0990    23.5830     2.2280   -28.3170 
   84.8750    73.5940     8.4840     7.1000     9.0780    23.9290     2.2420   -27.8990 
   85.0000    72.7860     8.8790     7.4350     8.9330    24.4740     2.2440   -27.4140 
   85.1250    71.8480     9.1160     7.6480     9.3540    25.0080     2.2290   -26.8470 
   85.2500    73.3540     9.0940     7.6810     9.5160    24.5020     2.2080   -26.2210 
   85.3750    76.5070     8.7680     7.5100     9.2670    23.9090     2.1910   -25.5730 
   85.5000    79.6000     8.1850     7.1620     8.6050    23.6500     2.1870   -24.9490 
   85.6250    81.8750     7.4750     6.7070     7.9650    23.6280     2.1970   -24.3900 
   85.7500    83.1200     6.8320     6.2610     7.2690    23.6670     2.2110   -23.9120 
   85.8750    84.7060     6.3750     5.8900     6.5430    23.7690     2.2200   -23.5490 
   86.0000    86.9210     6.1670     5.6330     6.0730    23.8830     2.2210   -23.3150 
   86.1250    87.5670     6.2380     5.5220     5.9050    23.9180     2.2240   -23.2430 
   86.2500    85.9500     6.4630     5.5190     6.0080    23.8920     2.2410   -23.2720 
   86.3750    84.5310     6.7160     5.5890     6.5530    23.8240     2.2740   -23.3610 
   86.5000    86.7260     6.8620     5.6800     8.2390    23.7320     2.3140   -23.4990 
   86.6250    90.4390     6.7830     5.7310     9.6170    23.6180     2.3400   -23.6720 
   86.7500    93.3790     6.5870     5.7460     9.5120    23.6270     2.3450   -23.8720 
   86.8750    95.3090     6.4810     5.7950     7.5010    23.7290     2.3390   -24.0860 
   87.0000    95.5820     6.6950     5.9880     6.3400    23.7820     2.3430   -24.2990 
   87.1250    91.6350     7.4320     6.4680     6.7790    23.7150     2.3770   -24.5160 
   87.2500    83.3680     8.5200     7.2080     9.3320    23.6500     2.4240   -24.7580 
   87.3750    74.9240     9.6660     8.0870    15.6760    23.6560     2.4580   -25.0270 
   87.5000    70.7540    10.4750     8.8540    19.0250    23.6680     2.4550   -25.3020 
   87.6250    73.6890    10.5100     9.1340    13.6720    23.5530     2.4100   -25.5660 
   87.7500    81.3330     9.8990     8.8890     9.2000    23.4180     2.3490   -25.8120 
   87.8750    88.1610     8.9250     8.2560     8.0440    23.3510     2.2910   -26.0580 
   88.0000    89.6820     7.9100     7.4620     7.7050    23.3840     2.2480   -26.3280 
   88.1250    86.8710     7.0940     6.7130     6.8630    23.5320     2.2230   -26.6620 
   88.2500    86.5140     6.4710     6.0820     6.3490    23.7010     2.2120   -27.0820 
   88.3750    90.2580     6.0010     5.5790     6.0470    23.8150     2.2150   -27.6030 
   88.5000    94.3120     5.7020     5.2360     5.9070    23.8360     2.2340   -28.2460 
   88.6250    94.0580     5.7480     5.1810     5.6090    23.7960     2.2680   -29.0350 
   88.7500    86.7980     6.2430     5.4840     5.5840    23.7770     2.3130   -29.9190 
   88.8750    75.1370     7.2450     6.2080     6.7640    23.7900     2.3600   -30.8430 
   89.0000    65.3640     8.6570     7.3280    10.2360    23.7340     2.3970   -31.7680 
   89.1250    64.0540    10.1200     8.6350    16.5770    23.5150     2.4020   -32.6110 
   89.2500    66.8960    11.1170     9.6770    17.1000    23.2240     2.3680   -33.3250 
   89.3750    68.3700    11.3430    10.1170    12.4860    23.1050     2.3000   -33.8800 
   89.5000    68.1130    10.8410     9.8870     9.5580    23.2160     2.2160   -34.2600 
   89.6250    67.7520     9.9630     9.2010     8.7170    23.5860     2.1460   -34.4570 
