~V
VERS. 2.00: Ver 2.00
~W
STRT.M 56.0000:
STOP.M 268.0000:
STEP.M 0.1250:
NULL. -999.2500:
UWI. F10027:
~C
DEPT.M :
GR.API :
RML.OHMM :
RI. :
RXO.OHMM :
CALI.CM :
DEN.GM/CC :
SP.MV :
~A
# ...
   67.2500    67.0890     8.2880     7.1520     9.2610    24.2450     2.1110   -18.7220 
   67.3750    70.7650     8.3790     7.2430     9.2110    24.0220     2.1070   -17.9900 
   67.5000    73.3390     8.3980     7.2970     9.0860    23.8070     2.1050   -17.1200 
   67.6250    77.1730     8.2190     7.2230     9.1980    23.6680     2.1030   -16.0920 
   67.7500    84.3540     7.8180     6.9890     9.2500    23.6890     2.1000   -15.0020 
   67.8750    95.4040     7.2380     6.5970     8.8310    23.8370     2.1000   -13.9080 
   68.0000   108.1400     6.5860     6.1010     7.8370    23.9960     2.1090   -12.8230 
   68.1250   117.7510     6.0110     5.5940     6.4910    24.0690     2.1370   -11.7570 
   68.2500   121.2750     5.5860     5.1600     6.0300    24.1040     2.1790   -10.7640 
   68.3750   118.8390     5.3190     4.8380     5.8580    24.1130     2.2260    -9.8940 
   68.5000   112.3040     5.1720     4.6320     5.7150    24.1150     2.2670    -9.2160 
   68.6250   106.4210     5.0830     4.5300     5.6960    24.1160     2.2930    -8.7920 
   68.7500   104.0600     4.9920     4.4820     5.8000    24.1170     2.3080    -8.5080 
   68.8750   105.3580     4.8930     4.4730     5.8850    24.1130     2.3170    -8.3110 
   69.0000   107.8610     4.8250     4.5080     5.9360    24.0920     2.3240    -8.1970 
   69.1250   109.0340     4.8690     4.6190     5.8210    24.0490     2.3340    -8.2200 
   69.2500   107.3170     5.0560     4.8150     5.8850    24.0140     2.3490    -8.3220 
   69.3750   101.1940     5.3830     5.0900     6.1870    23.9870     2.3690    -8.4700 
   69.5000    93.1730     5.7940     5.4090     6.8380    23.9390     2.3880    -8.6000 
   69.6250    88.0520     6.1780     5.6890     7.3790    23.8580     2.3950    -8.6930 
   69.7500    86.6280     6.4330     5.8570     7.5770    23.7990     2.3850    -8.7980 
   69.8750    86.4660     6.5190     5.8820     7.6410    23.7080     2.3600    -8.9400 
   70.0000    86.0240     6.4550     5.7790     7.1000    23.6040     2.3290    -9.1190 
   70.1250    85.8940     6.3100     5.6090     6.7580    23.2170     2.3040    -9.2800 
   70.2500    86.3670     6.1830     5.4560     6.5430    23.0240     2.2910    -9.4090 
   70.3750    85.9670     6.1300     5.3680     6.6360    22.9880     2.2850    -9.5180 
   70.5000    84.5270     6.1960     5.3780     6.8730    23.0750     2.2810    -9.6560 
   70.6250    81.8340     6.4550     5.5410     7.2420    23.2220     2.2700    -9.8360 
   70.7500    77.0450     6.9280     5.8830     7.7980    23.4330     2.2520   -10.0520 
   70.8750    72.4220     7.6750     6.4600     8.6780    23.6710     2.2360   -10.3100 
   71.0000    72.0250     8.7810     7.3400    10.4250    23.8600     2.2290   -10.5830 
   71.1250    75.7150    10.3950     8.6470    13.8670    23.9840     2.2450   -10.8660 
   71.2500    76.1890    12.4140    10.3080    17.2300    24.0270     2.2850   -11.1940 
   71.3750    73.6530    14.6330    12.1790    18.6490    24.0370     2.3440   -11.5680 
   71.5000    73.4160    16.6620    13.9610    21.1290    24.0140     2.4110   -12.0180 
   71.6250    75.0080    17.8290    15.1010    23.7610    23.9360     2.4670   -12.5630 
   71.7500    73.7550    17.9090    15.3570    22.2250    23.8560     2.4990   -13.1620 
   71.8750    70.4780    16.9870    14.7470    18.4250    23.8160     2.5030   -13.7850 
   72.0000    70.1000    15.4540    13.5630    16.1510    23.7780     2.4820   -14.4160 
   72.1250    72.3850    13.8290    12.2210    14.9640    23.7270     2.4420   -15.0850 
   72.2500    73.1430    12.5040    11.0690    13.4930    23.6940     2.3890   -15.7710 
   72.3750    72.3260    11.6100    10.2320    12.2860    23.6590     2.3240   -16.4310 
   72.5000    71.1210    11.1330     9.7200    11.7540    23.3350     2.2510   -16.9740 
   72.6250    70.8030    11.0200     9.5110    11.7480    23.1960     2.1820   -17.3750 
   72.7500    71.8000    11.0920     9.4740    11.8640    23.2270     2.1350   -17.7120 
   72.8750    73.8860    11.2420     9.5360    11.9170    23.3370     2.1190   -17.9900 
   73.0000    75.5370    11.3830     9.6310    11.8140    23.4220     2.1340   -18.2250 
   73.1250    75.6120    11.4470     9.7020    11.5790    23.4730     2.1690   -18.4080 
   73.2500    77.1430    11.4330     9.7160    11.1210    23.4540     2.2040   -18.5450 
   73.3750    80.9940    11.3450     9.6560    10.6340    23.3250     2.2250   -18.6510 
   73.5000    81.1010    11.1840     9.5070    10.4070    23.1470     2.2290   -18.7870 
   73.6250    72.7290    10.9270     9.2490    10.5880    23.2130     2.2200   -18.9680 
   73.7500    63.7010    10.5940     8.9120    10.7820    23.4420     2.2100   -19.1340 
   73.8750    60.8280    10.2070     8.5320    10.5620    23.6640     2.1990   -19.2550 
   74.0000    62.2990     9.7920     8.1510    10.0690    23.7920     2.1860   -19.2930 
   74.1250    62.2290     9.3680     7.8130     9.6570    23.9200     2.1620   -19.2340 
   74.2500    63.4960     8.9500     7.5300     9.4290    24.0690     2.1310   -19.1070 
   74.3750    68.5700     8.5630     7.3120     9.3190    24.1490     2.1010   -18.9530 
   74.5000    73.0350     8.2530     7.1630     9.1540    24.0530     2.0850   -18.7440 
   74.6250    71.5170     8.1110     7.1100     8.9200    23.8330     2.0930   -18.4690 
   74.7500    67.9820     8.1570     7.1520     8.9750    23.6930     2.1190   -18.1640 
   74.8750    67.0440     8.3760     7.2870     9.8550    23.7010     2.1520   -17.9090 
   75.0000    68.3520     8.7130     7.4920    10.7280    23.7300     2.1760   -17.7490 
   75.1250    68.0640     9.0850     7.7310    10.9860    23.6820     2.1790   -17.6480 
   75.2500    66.5010     9.4060     7.9420    10.8510    23.6680     2.1650   -17.5690 
   75.3750    64.9060     9.5980     8.0570    10.6890    23.7080     2.1440   -17.4710 
   75.5000    65.4400     9.5630     8.0010    10.5860    23.6980     2.1280   -17.3580 
   75.6250    70.2390     9.1500     7.6670    10.3570    23.6190     2.1230   -17.2440 
   75.7500    79.3930     8.4180     7.1090     9.9800    23.5990     2.1260   -17.1750 
   75.8750    90.4430     7.5060     6.4280     9.2400    23.6060     2.1340   -17.1200 
   76.0000    97.3470     6.6390     5.7740     7.9580    23.5820     2.1460   -17.0960 
   76.1250    97.5730     6.1180     5.3340     6.4540    23.6050     2.1650   -17.2730 
   76.2500    93.8010     6.0380     5.1710     6.0560    23.6430     2.1860   -17.6270 
   76.3750    87.1160     6.3940     5.2990     6.6490    23.5820     2.2010   -18.1090 
   76.5000    78.6150     7.0590     5.6690     8.0700    23.4190     2.1990   -18.6710 
   76.6250    70.9580     7.8020     6.1810     8.6990    23.3410     2.1810   -19.2550 
   76.7500    66.4910     8.3690     6.6640     8.8950    23.3550     2.1600   -19.7690 
   76.8750    64.5810     8.6700     7.0220     8.6920    23.4020     2.1450   -20.2240 
   77.0000    64.3960     8.7610     7.2400     8.6150    23.4450     2.1380   -20.6300 
   77.1250    66.2300     8.8230     7.3820     9.2190    23.3470     2.1370   -20.8850 
   77.2500    68.5110     9.0230     7.5630     9.7810    23.1340     2.1350   -20.9900 
   77.3750    70.5130     9.4170     7.8500    10.0890    22.9470     2.1350   -20.9850 
   77.5000    69.8940     9.9890     8.2690    10.0140    22.8510     2.1380   -20.9110 
   77.6250    66.9310    10.6870     8.8000     9.8650    22.8190     2.1470   -20.8110 
   77.7500    65.8720    11.3650     9.3350     9.9290    22.7820     2.1580   -20.7150 
   77.8750    66.2420    11.8790     9.7550    10.1460    22.7430     2.1670   -20.6370 
   78.0000    64.8970    12.0950     9.9550    10.2200    22.7230     2.1710   -20.5750 
   78.1250    62.7390    11.9010     9.8500    10.1120    22.7500     2.1710   -20.4790 
   78.2500    63.9950    11.4360     9.5360    10.0190    22.8140     2.1730   -20.3610 
   78.3750    66.8540    10.8530     9.1160     9.9990    22.8450     2.1780   -20.2670 
