~V
VERS. 2.00: Ver 2.00
~W
STRT.M 55.0000:
STOP.M 247.0000:
STEP.M 0.1250:
NULL. -999.2500:
UWI. F10032:
~C
DEPT.M :
GR.API :
RML.OHMM :
RI. :
RXO.OHMM :
CALI.CM :
DEN.GM/CC :
SP.MV :
~A
# ...
  100.0000    90.5580     7.5740     6.7120     8.0060    24.5860     2.2720   -11.4900 
  100.1250    95.3000     7.5160     6.6430     9.1180    24.7170     2.2740   -11.2510 
  100.2500    99.3780     7.2130     6.4730     8.3120    24.8080     2.2900   -11.0970 
  100.3750   100.2640     6.7760     6.2350     6.9310    24.8290     2.3140   -11.0750 
  100.5000    97.6570     6.3890     6.0200     6.2690    24.8000     2.3350   -11.1910 
  100.6250    94.7370     6.2670     5.9630     6.3020    24.7760     2.3420   -11.4310 
  100.7500    92.7520     6.4580     6.1030     6.3780    24.7270     2.3360   -11.7190 
  100.8750    89.7240     6.9280     6.4290     6.9250    24.5830     2.3240   -12.0310 
  101.0000    85.0020     7.5530     6.8820     7.8700    24.3450     2.3130   -12.3820 
  101.1250    79.6510     8.1170     7.3480     8.2870    24.2470     2.3070   -12.7720 
  101.2500    74.3740     8.4330     7.6790     8.4640    24.1640     2.3040   -13.1630 
  101.3750    68.7760     8.4200     7.7710     8.3620    23.9400     2.3030   -13.5310 
  101.5000    66.2890     8.1360     7.6220     7.9110    23.7120     2.3050   -13.8770 
  101.6250    69.7860     7.7660     7.3390     7.3450    23.7080     2.3120   -14.2220 
  101.7500    74.9950     7.5220     7.0860     7.1120    23.9340     2.3180   -14.5730 
  101.8750    77.2280     7.4960     6.9430     6.9760    24.3030     2.3170   -14.9280 
  102.0000    76.2860     7.6920     6.9500     7.0170    24.6290     2.3030   -15.3230 
  102.1250    76.3470     8.0510     7.1290     7.5300    24.8020     2.2770   -15.8150 
  102.2500    77.4020     8.4370     7.3940     8.2950    24.8280     2.2470   -16.3580 
  102.3750    76.1950     8.7790     7.6680     8.8800    24.7530     2.2190   -16.9010 
  102.5000    72.5770     9.1060     7.9420     9.0390    24.7010     2.1900   -17.3800 
  102.6250    71.4320     9.6060     8.3280     9.1460    24.6320     2.1620   -17.7830 
  102.7500    72.1590    10.4270     8.9300     9.5180    24.4750     2.1480   -18.1770 
  102.8750    70.7720    11.5900     9.7910    10.0020    24.2390     2.1690   -18.5480 
  103.0000    67.8460    12.9400    10.8510    10.5780    24.0700     2.2370   -18.8630 
  103.1250    70.0360    14.0360    11.8390    11.3980    23.9730     2.3350   -19.0720 
  103.2500    76.3120    14.4420    12.3740    11.6390    23.9520     2.4140   -19.2210 
  103.3750    79.9780    14.0170    12.2580    11.6240    24.0090     2.4440   -19.3690 
  103.5000    78.2760    13.0200    11.6100    11.7230    24.0560     2.4230   -19.5710 
  103.6250    75.9130    11.9380    10.7570    11.8440    24.0880     2.3740   -19.7840 
  103.7500    75.0290    11.1300    10.0190    11.5280    24.1430     2.3300   -19.9500 
  103.8750    73.7170    10.6930     9.5200    11.3040    24.2100     2.2990   -20.0930 
  104.0000    71.0870    10.5830     9.2900    11.3800    24.2800     2.2750   -20.1760 
  104.1250    70.2070    10.6920     9.2980    11.4380    24.3250     2.2500   -20.1680 
  104.2500    70.9840    10.8650     9.3980    11.3230    24.3380     2.2270   -20.1090 
  104.3750    70.6660    11.0160     9.5070    11.0460    24.3020     2.2080   -19.9580 
  104.5000    68.6170    11.0480     9.5560    10.8190    24.2750     2.1960   -19.6750 
  104.6250    66.6350    10.8300     9.4430    10.9010    24.2720     2.1900   -19.2390 
  104.7500    66.9250    10.3990     9.1650    10.8520    24.2240     2.1890   -18.7020 
  104.8750    69.5080     9.8510     8.7810    10.2390    24.1320     2.1970   -18.0820 
  105.0000    71.9530     9.3150     8.3950     9.3020    24.0370     2.2110   -17.4600 
  105.1250    72.6660     8.9490     8.1090     8.6380    23.9100     2.2300   -16.8900 
  105.2500    72.4970     8.8000     7.9290     8.4670    23.7490     2.2470   -16.3370 
  105.3750    72.4020     8.8560     7.8490     8.4830    23.6290     2.2570   -15.7920 
  105.5000    71.7550     9.0330     7.8550     8.5870    23.5760     2.2600   -15.2750 
  105.6250    70.8140     9.1800     7.9060     8.6150    23.5710     2.2560   -14.8720 
  105.7500    71.5020     9.1620     7.9290     8.6910    23.5800     2.2510   -14.5600 
  105.8750    73.6220     8.9420     7.8820     8.8010    23.5870     2.2490   -14.2950 
  106.0000    76.9160     8.5880     7.7570     8.8490    23.6240     2.2540   -14.0110 
  106.1250    81.2300     8.2680     7.5810     8.2290    23.7110     2.2660   -13.7320 
  106.2500    83.1920     8.1090     7.4260     7.4690    23.7950     2.2800   -13.5260 
  106.3750    81.3260     8.1270     7.3530     7.4050    23.7960     2.2910   -13.4070 
  106.5000    77.4440     8.2290     7.3680     7.8930    23.7720     2.2970   -13.3580 
  106.6250    73.0910     8.2370     7.3930     8.4710    23.7680     2.2940   -13.3500 
  106.7500    69.6530     8.0690     7.3440     8.6590    23.8110     2.2870   -13.3370 
  106.8750    70.9570     7.7980     7.2310     8.1170    23.9670     2.2800   -13.3050 
  107.0000    77.2120     7.6000     7.1370     6.9560    24.2710     2.2730   -13.2790 
  107.1250    80.1370     7.6870     7.1670     6.7390    24.4160     2.2670   -13.2860 
  107.2500    76.2560     8.0260     7.3280     7.2610    24.2980     2.2620   -13.2820 
  107.3750    70.7220     8.4460     7.5510     8.4380    24.0110     2.2600   -13.2360 
  107.5000    69.9680     8.6780     7.6780     9.1410    23.8050     2.2640   -13.1440 
  107.6250    75.1620     9.0480     7.4900     8.6260    23.8920     2.2780   -13.0090 
  107.7500    80.4980     8.3600     7.0380     7.3530    24.2730     2.2970   -12.9030 
  107.8750    83.3050     7.5300     6.5030     6.2990    24.6850     2.3130   -12.8940 
  108.0000    83.7840     6.8560     6.0680     5.9480    24.9050     2.3180   -13.0220 
  108.1250    82.2050     6.6360     5.8860     6.0620    24.8470     2.3050   -13.2820 
  108.2500    79.4730     6.9120     6.0010     6.2950    24.6650     2.2840   -13.6360 
  108.3750    77.2680     7.6860     6.4650     6.8390    24.3760     2.2670   -14.0770 
  108.5000    75.4760     8.8810     7.2640     7.6070    23.9910     2.2710   -14.5850 
  108.6250    72.6570    10.3050     8.3250     8.6360    23.7030     2.3030   -15.1540 
  108.7500    71.5780    11.5490     9.4080     9.4690    23.5590     2.3450   -15.7380 
  108.8750    73.6960    12.2700    10.2550    10.3180    23.6200     2.3750   -16.3000 
  109.0000    75.6850    12.3190    10.6450    10.7210    23.7910     2.3790   -16.7760 
  109.1250    75.2200    11.8170    10.5160    10.6630    23.8990     2.3510   -17.0890 
  109.2500    73.2340    11.2270    10.1930    10.5670    23.8730     2.3120   -17.2640 
  109.3750    70.0000    10.8140     9.8900    10.7720    23.7850     2.2710   -17.2980 
  109.5000    66.3640    10.6870     9.7120    11.0330    23.7190     2.2340   -17.1910 
  109.6250    66.8680    10.8180     9.7080    10.9270    23.7470     2.2020   -16.9700 
  109.7500    71.1740    10.9850     9.7830    10.6520    23.7790     2.1760   -16.6570 
  109.8750    72.9470    10.9850     9.7870    10.4960    23.7580     2.1590   -16.2340 
  110.0000    71.1150    10.6470     9.5590    10.2600    23.6220     2.1570   -15.6840 
  110.1250    72.7090     9.8490     8.9890     9.6340    23.4660     2.1770   -15.0200 
  110.2500    79.3290     8.8100     8.2160     8.3970    23.3790     2.2120   -14.2830 
  110.3750    85.5300     7.7870     7.4000     6.9990    23.6250     2.2550   -13.5690 
  110.5000    87.4750     7.0140     6.7070     6.2570    24.0500     2.2940   -12.9670 
  110.6250    88.4660     6.7060     6.3160     5.8660    24.5240     2.3180   -12.5330 
  110.7500    89.0140     6.7810     6.2070     5.9240    24.5620     2.3250   -12.2200 
  110.8750    86.6590     7.0850     6.2930     6.5780    24.3780     2.3210   -11.9990 
  111.0000    81.6040     7.3670     6.4320     7.2630    24.1720     2.3120   -11.8810 
  111.1250    80.2120     7.3320     6.4590     6.9320    24.1790     2.3080   -11.9360 
