~V
VERS. 2.00: Ver 2.00
~W
STRT.M 57.0000:
STOP.M 255.0000:
STEP.M 0.1250:
NULL. -999.2500:
UWI. F10046:
~C
DEPT.M :
GR.API :
RML.OHMM :
RI. :
RXO.OHMM :
CALI.CM :
DEN.GM/CC :
SP.MV :
~A
# ...
  214.5000    84.2880     8.6030     7.4510     8.4830    22.2590     2.4310    -9.1130 
  214.6250    84.7580     9.5860     8.0180     9.0880    22.2350     2.4190    -9.1260 
  214.7500    82.0380    10.8570     9.0100    10.1320    22.1970     2.4030    -9.0910 
  214.8750    76.3840    12.5850    10.4680    11.9240    22.2110     2.3840    -9.0330 
  215.0000    69.3510    14.4320    12.2850    14.5360    22.3030     2.3650    -8.9660 
  215.1250    66.5030    16.0020    14.1320    17.5420    22.4800     2.3530    -8.8940 
  215.2500    65.7260    17.0170    15.5450    19.2980    22.5280     2.3550    -8.7890 
  215.3750    63.1830    17.4820    16.2100    18.0330    22.3860     2.3690    -8.6010 
  215.5000    59.8990    17.1120    16.0690    15.2310    22.1810     2.3900    -8.3130 
  215.6250    61.4270    16.1820    15.3110    13.2720    22.0720     2.4050    -7.9120 
  215.7500    65.1370    15.2160    14.4460    11.8170    22.0510     2.4110    -7.3940 
  215.8750    67.4190    14.5220    13.7800    10.9200    22.1010     2.4110    -6.7990 
  216.0000    67.7730    14.2660    13.4790    10.9520    22.2140     2.4100    -6.1950 
  216.1250    67.5410    14.5240    13.6160    11.6690    22.3570     2.4120    -5.6120 
  216.2500    64.2060    15.2520    14.1490    13.4990    22.3970     2.4130    -5.0660 
  216.3750    59.2380    15.8100    14.5820    15.5900    22.3290     2.4120    -4.5790 
  216.5000    57.9530    15.6800    14.4930    16.4290    22.2200     2.4120    -4.1870 
  216.6250    60.6460    15.0080    13.9600    14.5510    22.0250     2.4170    -3.9580 
  216.7500    64.6570    14.0620    13.1930    11.7030    21.8000     2.4260    -3.8600 
  216.8750    66.9820    13.0760    12.3800    10.0780    21.6860     2.4330    -3.8450 
  217.0000    67.7110    12.2380    11.6680     9.5880    21.7670     2.4340    -3.8450 
  217.1250    68.1650    11.6900    11.1480     9.5400    21.7480     2.4280    -3.8480 
  217.2500    67.6020    11.3710    10.7660     9.2260    21.5290     2.4230    -3.8730 
  217.3750    66.9360    11.2040    10.4750     8.8300    21.3560     2.4210    -3.9290 
  217.5000    67.5530    11.1060    10.2490     8.7040    21.4910     2.4190    -4.0100 
  217.6250    67.3090    11.0400    10.1100     8.9120    21.8550     2.4110    -4.1240 
  217.7500    64.2850    11.0140    10.0670     9.2130    22.1840     2.3970    -4.2720 
  217.8750    60.2810    11.0560    10.1210     9.4050    22.5130     2.3830    -4.4200 
  218.0000    59.4480    11.1750    10.2460     9.6440    22.8930     2.3770    -4.5470 
  218.1250    61.5490    11.3490    10.4000     9.9740    23.2770     2.3860    -4.6050 
  218.2500    62.3950    11.5350    10.5460    10.6830    23.4910     2.4030    -4.6050 
  218.3750    61.8370    11.7410    10.6930    11.3940    23.5380     2.4180    -4.5590 
  218.5000    61.3300    12.0240    10.8930    11.7120    23.6370     2.4230    -4.4740 
  218.6250    60.3540    12.5060    11.2520    11.4770    23.5870     2.4160    -4.3400 
  218.7500    58.9210    13.2060    11.8100    11.0740    23.3480     2.4050    -4.1870 
  218.8750    58.7470    14.0660    12.5400    11.1420    23.1930     2.3990    -4.0340 
  219.0000    60.9250    14.9320    13.3240    11.9070    23.2360     2.4060    -3.8760 
  219.1250    61.8800    15.5450    13.9180    12.6490    23.0720     2.4220    -3.7230 
  219.2500    59.8650    15.7770    14.1530    12.8500    22.8120     2.4370    -3.5640 
  219.3750    57.6110    15.5960    13.9750    12.2450    22.8200     2.4420    -3.3920 
  219.5000    56.9790    15.1070    13.4720    11.0970    23.2420     2.4390    -3.2100 
  219.6250    58.6990    14.4060    12.8290    10.5940    23.6770     2.4370    -3.0180 
  219.7500    60.4180    13.7080    12.2480    10.4410    23.9840     2.4450    -2.8230 
  219.8750    60.2540    13.0600    11.8050    10.5860    24.1720     2.4580    -2.6410 
  220.0000    60.4100    12.5060    11.5030    11.2510    24.3990     2.4710    -2.4900 
  220.1250    62.3030    12.3320    11.3220    12.6260    24.5020     2.4770    -2.3910 
  220.2500    63.1950    12.2670    11.2050    13.8500    24.2940     2.4780    -2.3350 
  220.3750    61.5970    12.2940    11.1370    14.5580    23.7900     2.4810    -2.3100 
  220.5000    60.9880    12.3850    11.1200    14.7860    23.2510     2.4840    -2.3070 
  220.6250    63.4500    12.5050    11.1660    13.0760    23.0160     2.4890    -2.2950 
  220.7500    64.7120    12.6210    11.2570    11.1700    23.2240     2.4930    -2.2490 
  220.8750    64.3120    12.7120    11.3660    10.6620    23.4050     2.4960    -2.1580 
  221.0000    64.5530    12.7620    11.4510    11.4770    23.4680     2.4920    -2.0320 
  221.1250    64.6200    12.7380    11.4560    12.9230    23.6610     2.4750    -1.8890 
  221.2500    63.7450    12.6400    11.3770    14.3130    24.0770     2.4450    -1.7610 
  221.3750    63.3400    12.4770    11.2330    14.9680    24.2540     2.4130    -1.6510 
  221.5000    64.3430    12.2730    11.0550    14.5250    24.1910     2.3930    -1.5500 
  221.6250    65.2870    12.0560    10.8700    12.5710    24.1140     2.4050    -1.4770 
  221.7500    66.2550    11.8380    10.6860    10.8620    24.0520     2.4410    -1.4130 
  221.8750    68.0890    11.6090    10.4940     9.8370    23.9030     2.4850    -1.3440 
  222.0000    68.5560    11.3600    10.2880     9.0230    23.5940     2.5160    -1.2820 
  222.1250    65.2980    11.1020    10.0690     8.3810    23.4570     2.5160    -1.2270 
  222.2500    59.5380    10.8640     9.8590     8.2840    23.6250     2.4950    -1.1600 
  222.3750    52.6610    10.6650     9.6710     8.5150    23.9750     2.4650    -1.0880 
  222.5000    48.1750    10.5090     9.5040     8.6910    24.2430     2.4400    -1.0310 
  222.6250    50.9790    10.3760     9.3430     8.5170    24.3760     2.4270    -0.9900 
  222.7500    57.1220    10.2180     9.1550     8.1000    24.5160     2.4260    -0.9860 
  222.8750    60.1020     9.9970     8.9170     7.5530    24.6020     2.4340    -1.0310 
  223.0000    59.1920     9.6960     8.6200     6.8070    24.5900     2.4500    -1.1050 
  223.1250    58.9890     9.3130     8.2690     6.1510    24.5750     2.4640    -1.1810 
  223.2500    59.6660     8.9020     7.8960     5.8640    24.6190     2.4660    -1.2570 
  223.3750    58.5740     8.5130     7.5330     6.1510    24.6320     2.4500    -1.3290 
  223.5000    55.5750     8.2040     7.2180     6.7970    24.5720     2.4190    -1.3980 
  223.6250    55.2070     8.0460     7.0080     7.8030    24.4820     2.3900    -1.4720 
  223.7500    57.1350     8.0400     6.9140     8.8930    24.3770     2.3750    -1.5380 
  223.8750    57.1170     8.1750     6.9380     9.5100    24.2260     2.3810    -1.5950 
  224.0000    53.2190     8.4150     7.0600     9.6690    24.0930     2.4030    -1.6480 
  224.1250    50.6440     8.7140     7.2570     9.0180    24.1230     2.4310    -1.7210 
  224.2500    52.7760     9.0250     7.4920     8.0600    24.2650     2.4530    -1.8190 
  224.3750    57.0240     9.3570     7.7650     7.5680    24.4150     2.4680    -1.9210 
  224.5000    59.9680     9.7680     8.1070     7.8810    24.5080     2.4780    -2.0080 
  224.6250    60.5460    10.3780     8.5960     8.7160    24.5110     2.4840    -2.0830 
  224.7500    60.0860    11.2080     9.2500     9.6240    24.4550     2.4830    -2.1480 
  224.8750    59.5300    12.1950    10.0360    10.4170    24.3610     2.4730    -2.2090 
  225.0000    60.1400    13.1560    10.8300    10.7920    24.2560     2.4540    -2.2640 
  225.1250    62.1430    13.7420    11.3670    11.1740    24.0570     2.4310    -2.2720 
  225.2500    63.0900    13.7670    11.4710    10.8790    23.7990     2.4180    -2.2400 
  225.3750    61.8350    13.1840    11.0690     9.2570    23.5440     2.4220    -2.1900 
  225.5000    60.6500    12.1330    10.2430     7.4710    23.4740     2.4440    -2.1360 
  225.6250    61.0560    10.8870     9.1940     6.4130    23.5160     2.4760    -2.0660 
