~V
VERS. 2.00: Ver 2.00
~W
STRT.M 51.0000:
STOP.M 262.0000:
STEP.M 0.1250:
NULL. -999.2500:
UWI. F10019:
~C
DEPT.M :
DEN.GM/CC :
SP.MV :
GR.API :
CALI.CM :
RXO.OHMM :
RI. :
RML.OHMM :
~A
# ...
  141.0000     2.0880   -31.0690    71.3610    24.7320    23.4570    26.6040    26.0030 
  141.1250     2.0990   -30.2590    70.8190    24.5660    22.6860    26.1200    25.5210 
  141.2500     2.1140   -29.3440    73.0760    24.4890    22.4970    25.8430    25.3910 
  141.3750     2.1200   -28.3470    75.4280    24.4740    22.2610    25.7480    25.5090 
  141.5000     2.1090   -27.2400    75.1120    24.4720    21.5840    25.6430    25.5610 
  141.6250     2.0850   -26.0720    74.1860    24.4690    20.7000    25.1780    25.1430 
  141.7500     2.0610   -24.8210    73.3020    24.4740    19.4550    24.0670    23.9710 
  141.8750     2.0540   -23.5160    72.0880    24.4790    17.2370    22.2630    22.0360 
  142.0000     2.0710   -22.2450    71.7540    24.4010    14.2170    20.0160    19.6630 
  142.1250     2.0880   -21.0910    73.6610    24.2230    11.6470    17.8590    17.4630 
  142.2500     2.0880   -20.0970    77.0430    24.0790    10.3050    16.1110    15.7860 
  142.3750     2.0830   -19.2820    79.6140    23.9990     9.8920    14.9280    14.7770 
  142.5000     2.0900   -18.6600    81.6290    23.9790     9.9050    14.4110    14.5000 
  142.6250     2.1040   -18.2270    83.2200    23.9860    10.0020    14.3720    14.6920 
  142.7500     2.1100   -17.9720    83.6200    24.0120    10.1680    14.6660    15.1710 
  142.8750     2.1050   -17.8430    82.2190    24.0180    10.3540    15.1240    15.7520 
  143.0000     2.1010   -17.8090    80.3990    23.9930    10.5030    15.5780    16.2550 
  143.1250     2.1050   -17.8300    79.8820    23.9530    10.5250    15.9240    16.6010 
  143.2500     2.1090   -17.8930    79.1710    23.9220    10.4380    16.1220    16.7890 
  143.3750     2.1060   -17.9650    76.2460    23.9050    10.3580    16.1760    16.8740 
  143.5000     2.1000   -18.1160    72.7180    23.8870    10.3070    16.1210    16.9340 
  143.6250     2.1020   -18.3400    72.0600    23.8790    10.2070    16.0450    17.0170 
  143.7500     2.1110   -18.6420    74.0310    23.9070    10.0330    16.0050    17.1340 
  143.8750     2.1140   -19.0200    75.1440    23.9760     9.9400    16.0440    17.2950 
  144.0000     2.1130   -19.4840    73.4000    24.0250    10.0350    16.1970    17.5450 
  144.1250     2.1170   -19.9900    70.9390    24.0400    10.2220    16.4400    17.8920 
  144.2500     2.1250   -20.5420    69.7790    24.0480    10.3100    16.7820    18.3470 
  144.3750     2.1270   -21.1120    70.5350    24.0640    10.2640    17.2550    18.9480 
  144.5000     2.1150   -21.6570    71.1620    24.0930    10.2700    17.9400    19.8050 
  144.6250     2.0970   -22.0940    70.2990    24.1130    10.7060    18.8360    20.9500 
  144.7500     2.0870   -22.4090    68.3640    24.1530    11.5220    19.9010    22.3400 
  144.8750     2.0910   -22.5700    68.6390    24.2450    12.3740    20.9790    23.7360 
  145.0000     2.1020   -22.5690    73.1370    24.3460    12.8490    21.7340    24.6470 
  145.1250     2.1090   -22.4060    77.8990    24.3800    12.6940    21.9880    24.8670 
  145.2500     2.1090   -22.1190    79.5100    24.3630    12.0090    21.7480    24.4810 
  145.3750     2.1110   -21.7530    76.5440    24.3190    10.9300    21.1920    23.8000 
  145.5000     2.1190   -21.2790    74.2910    24.2780    10.0090    20.6020    23.2110 
  145.6250     2.1270   -20.7370    76.6370    24.2830     9.5420    20.1900    22.9000 
  145.7500     2.1310   -20.2000    80.6590    24.3400     9.5720    19.9920    22.8020 
  145.8750     2.1310   -19.7220    81.2170    24.3400     9.8370    19.9310    22.7370 
  146.0000     2.1350   -19.2910    78.0970    24.3270    10.2580    19.8880    22.5210 
  146.1250     2.1420   -18.8680    76.7600    24.2300    10.5660    19.7780    22.1380 
  146.2500     2.1440   -18.3800    78.0280    24.0810    10.5970    19.5900    21.6620 
  146.3750     2.1290   -17.7940    78.7700    23.9100    10.4450    19.3350    21.1680 
  146.5000     2.1050   -17.0910    75.5620    23.8190    10.2750    18.9170    20.5570 
  146.6250     2.0870   -16.3020    72.4370    23.8440    10.0960    18.2100    19.6500 
  146.7500     2.0750   -15.3630    70.9750    23.8940     9.8750    17.1870    18.4290 
  146.8750     2.0600   -14.2740    70.9170    23.9450     9.5090    16.0060    17.1070 
  147.0000     2.0470   -12.9930    73.6760    24.0280     8.7380    14.9050    15.9440 
  147.1250     2.0480   -11.6150    78.7830    24.0890     8.0610    13.9100    14.9040 
  147.2500     2.0690   -10.1770    84.0480    24.1190     8.1060    12.8830    13.7950 
  147.3750     2.1060    -8.7350    86.0250    24.1160     9.1740    11.6590    12.4240 
  147.5000     2.1610    -7.3950    86.2160    24.0570    10.1750    10.1470    10.7400 
  147.6250     2.2270    -6.2280    90.2400    24.0080     9.7520     8.5650     9.0320 
  147.7500     2.2860    -5.2260    99.2270    24.0710     8.1190     7.1570     7.5820 
  147.8750     2.3160    -4.3920   110.9450    24.1680     6.7740     6.0980     6.5690 
  148.0000     2.3080    -3.7490   117.7810    24.2130     6.5580     5.5200     6.1180 
  148.1250     2.2890    -3.3130   118.8610    24.2060     6.7200     5.3260     6.0910 
  148.2500     2.2760    -3.0780   119.1660    24.1900     6.8700     5.4360     6.3630 
  148.3750     2.2750    -3.0140   119.7220    24.1840     6.9430     5.7220     6.7610 
  148.5000     2.2810    -3.0580   116.2260    24.1860     7.0270     6.0280     7.0830 
  148.6250     2.2830    -3.1080   111.2060    24.1910     7.1360     6.2450     7.2420 
  148.7500     2.2800    -3.2000   109.9150    24.1980     7.1850     6.3410     7.2470 
  148.8750     2.2780    -3.2880   111.4320    24.1880     7.1760     6.3230     7.1490 
  149.0000     2.2860    -3.4570   109.4440    24.1590     7.0630     6.2080     7.0020 
  149.1250     2.2990    -3.6510   105.9750    24.1410     6.8630     6.0430     6.8460 
  149.2500     2.3060    -3.9090   104.6200    24.1600     6.6950     5.8430     6.6770 
  149.3750     2.3080    -4.2270   105.2550    24.1800     6.7130     5.6180     6.4900 
  149.5000     2.3130    -4.6700   105.9490    24.1780     6.9110     5.4250     6.3690 
  149.6250     2.3130    -5.2280   107.3930    24.1570     7.0180     5.3760     6.4600 
  149.7500     2.3010    -5.9600   108.8910    24.1450     7.0930     5.5950     6.9100 
  149.8750     2.2890    -6.8500   109.9260    24.1320     7.5690     6.1920     7.8420 
  150.0000     2.3000    -7.8520   110.2690    24.0410     9.3960     7.3390     9.4230 
  150.1250     2.3190    -8.9120   106.3810    23.8170    12.2350     8.9290    11.4330 
  150.2500     2.3110   -10.0180    96.6500    23.4600    13.4620    10.7020    13.4650 
  150.3750     2.2630   -11.1690    85.2530    23.1690    11.7230    12.1860    14.9480 
  150.5000     2.1980   -12.3300    82.6650    23.0090     9.0970    12.8610    15.3860 
  150.6250     2.1490   -13.4870    86.6490    22.9630     8.0830    12.9690    15.2190 
  150.7500     2.1220   -14.5720    89.4190    22.9750     7.9350    12.9300    14.9900 
  150.8750     2.1100   -15.6040    87.9280    23.0200     8.0630    13.1180    15.1300 
  151.0000     2.1030   -16.5540    85.4690    23.0610     8.3780    13.7710    15.8820 
  151.1250     2.0970   -17.4070    83.1270    23.0950     8.7710    14.7460    17.0440 
  151.2500     2.0950   -18.1350    79.5820    23.0990     9.0730    15.8660    18.3960 
  151.3750     2.0990   -18.7270    74.8530    23.0840     9.1590    16.9360    19.6650 
  151.5000     2.1000   -19.1600    71.4370    23.0460     9.1000    17.7340    20.5510 
  151.6250     2.0950   -19.4470    69.6010    23.0050     9.0780    18.2070    21.0490 
  151.7500     2.0900   -19.5780    68.7100    22.9700     9.1370    18.3670    21.2410 
  151.8750     2.0940   -19.5690    68.8450    22.9510     9.1730    18.2840    21.2250 
  152.0000     2.1040   -19.4160    68.2140    22.9530     9.1170    18.0210    21.0270 
  152.1250     2.1030   -19.1660    67.5740    22.8950     9.0110    17.7110    20.7500 
