~V
VERS. 2.00: Ver 2.00
~W
STRT.M 55.0000:
STOP.M 292.0000:
STEP.M 0.1250:
NULL. -999.2500:
UWI. F10078:
~C
DEPT.M :
GR.API :
RML.OHMM :
RI. :
RXO.OHMM :
CALI.CM :
DEN.GM/CC :
SP.MV :
~A
# ...
  201.2500    63.3200    67.3440    62.8830    64.3190    24.0120     2.2580   -16.2810 
  201.3750    64.1520    70.0040    65.2400    71.9730    24.6100     2.2580   -16.3820 
  201.5000    66.3180    73.6760    68.5590    76.9870    25.1270     2.2520   -16.4370 
  201.6250    65.0540    78.0790    72.6300    80.8400    25.4020     2.2380   -16.5330 
  201.7500    60.5900    82.3180    76.6700    86.5980    25.4960     2.2200   -16.6260 
  201.8750    57.4320    85.4510    79.8260    93.9920    25.5360     2.2010   -16.6960 
  202.0000    58.0980    86.6430    81.2700    99.8470    25.5710     2.1860   -16.7910 
  202.1250    60.3370    85.2980    80.2630   100.1540    25.5850     2.1770   -16.8490 
  202.2500    62.1510    82.5860    77.7160    91.9140    25.5620     2.1720   -16.8520 
  202.3750    62.9370    79.7750    74.7870    82.6610    25.5230     2.1700   -16.8730 
  202.5000    61.9650    77.8910    72.5940    77.9510    25.4760     2.1710   -16.9130 
  202.6250    59.7900    77.3430    71.8630    76.3560    25.4390     2.1760   -16.8580 
  202.7500    58.0390    77.3540    72.0640    78.8590    25.4560     2.1890   -16.8210 
  202.8750    56.5540    77.2870    72.5780    85.4340    25.5480     2.2070   -16.7940 
  203.0000    56.2790    76.9470    72.9910    91.3560    25.6580     2.2250   -16.6990 
  203.1250    58.6040    76.8990    73.4740    82.9390    25.7180     2.2360   -16.6530 
  203.2500    59.8500    77.8150    74.5340    72.9820    25.7350     2.2370   -16.6660 
  203.3750    58.6240    79.7260    76.2860    74.3050    25.7470     2.2270   -16.6270 
  203.5000    56.2760    81.8040    78.1540    82.1900    25.7610     2.2130   -16.5950 
  203.6250    53.5750    82.1870    78.6090    92.5860    25.7690     2.1990   -16.6270 
  203.7500    51.7990    79.8570    76.6770    96.3630    25.7650     2.1910   -16.6320 
  203.8750    53.5990    75.0290    72.3870    88.6680    25.7480     2.1910   -16.6550 
  204.0000    59.5290    69.4010    67.1110    74.1500    25.7220     2.2020   -16.6870 
  204.1250    65.2070    66.2630    63.7120    64.9710    25.7030     2.2210   -16.6700 
  204.2500    65.7210    67.8270    64.3430    65.4780    25.6970     2.2410   -16.6600 
  204.3750    61.8620    75.2480    70.3000    77.3660    25.7160     2.2540   -16.6670 
  204.5000    56.9870    88.3750    81.7840   100.8660    25.7660     2.2550   -16.6320 
  204.6250    54.8810   105.7150    97.8260   131.4040    25.7970     2.2430   -16.6210 
  204.7500    53.4030   122.9450   114.3550   155.2480    25.8040     2.2290   -16.6260 
  204.8750    50.2390   136.4850   127.7910   165.6110    25.7810     2.2180   -16.5300 
  205.0000    47.7320   144.1630   135.7190   163.4830    25.7300     2.2120   -16.4550 
  205.1250    47.8230   146.2120   137.8450   152.2050    25.6920     2.2090   -16.4060 
  205.2500    48.0530   147.1610   138.2690   143.5590    25.6620     2.2070   -16.2810 
  205.3750    47.5910   149.8830   139.8590   141.1320    25.6370     2.2050   -16.1970 
  205.5000    47.0290   154.9250   143.5900   146.1140    25.6130     2.2040   -16.1380 
  205.6250    47.2180   159.9430   147.9100   152.6310    25.5620     2.2030   -16.0000 
  205.7500    46.8440   161.1390   149.4610   156.3650    25.4510     2.1980   -15.8750 
  205.8750    46.3780   155.7900   145.5720   156.2580    25.2550     2.1890   -15.8780 
  206.0000    47.0660   143.4860   135.3870   150.9850    24.9990     2.1760   -15.8870 
  206.1250    49.6070   126.7990   120.5640   138.8670    24.7680     2.1640   -15.8810 
  206.2500    53.5940   111.1810   105.9740   115.7110    24.5730     2.1600   -15.9610 
  206.3750    57.3400    99.5780    94.6240    86.0730    24.4190     2.1660   -16.0490 
  206.5000    59.6290    92.8290    87.7470    65.8930    24.2700     2.1790   -16.1320 
  206.6250    58.4660    90.6310    85.4540    65.0760    24.1190     2.1940   -16.2960 
  206.7500    54.7400    90.5160    85.4840    73.5950    23.9350     2.2070   -16.4790 
  206.8750    53.1050    90.7910    86.1760    83.6310    23.7730     2.2180   -16.5760 
  207.0000    55.8840    90.0710    86.0730    90.4540    23.7040     2.2290   -16.7110 
  207.1250    58.5260    87.1830    83.8570    92.1430    23.7140     2.2390   -16.8930 
  207.2500    57.8050    82.4450    79.7100    91.7250    23.7330     2.2480   -17.0350 
  207.3750    55.6870    76.4800    74.2240    89.0430    23.7340     2.2550   -17.1810 
  207.5000    56.0920    70.1350    68.2790    83.7200    23.6670     2.2600   -17.3160 
  207.6250    57.2810    64.4950    62.9760    76.3070    23.5810     2.2650   -17.3570 
  207.7500    55.9280    60.4470    59.1620    71.1890    23.4840     2.2720   -17.3400 
  207.8750    53.4010    58.8590    57.5780    71.4790    23.4070     2.2790   -17.2770 
  208.0000    52.1740    60.3450    58.7230    77.4420    23.3410     2.2840   -17.1260 
  208.1250    51.9620    65.1470    62.8550    88.1100    23.2830     2.2850   -16.9630 
  208.2500    49.6470    71.2630    68.2910   100.5840    23.2330     2.2780   -16.7820 
  208.3750    47.0820    76.4520    73.0630   109.6590    23.2020     2.2640   -16.5130 
  208.5000    46.1200    78.4880    75.0690   111.5040    23.1890     2.2440   -16.2840 
  208.6250    46.6630    75.5820    72.4480   104.1230    23.1860     2.2240   -16.1860 
  208.7500    47.7680    69.5420    66.7140    86.2970    23.1680     2.2150   -16.1320 
  208.8750    50.0700    62.4680    59.7970    66.9390    23.1190     2.2200   -16.1130 
  209.0000    52.9540    56.0420    53.3490    57.4650    23.0390     2.2380   -16.1740 
  209.1250    55.9810    51.0470    48.2400    58.9800    22.9060     2.2590   -16.2460 
  209.2500    57.5320    47.0370    44.1460    60.3270    22.7680     2.2720   -16.2750 
  209.3750    57.8570    43.8380    40.9060    55.9540    22.6920     2.2760   -16.3540 
  209.5000    60.1230    41.6810    38.6570    45.4720    22.6460     2.2760   -16.4490 
  209.6250    64.5630    41.4590    38.0950    41.9210    22.5710     2.2800   -16.4380 
  209.7500    64.3570    43.3620    39.3770    49.0110    22.4700     2.2900   -16.4060 
  209.8750    57.8190    47.2190    42.4540    64.3890    22.4020     2.2990   -16.4250 
  210.0000    52.2660    52.1820    46.6860    85.0570    22.3360     2.2990   -16.3880 
  210.1250    56.1690    56.3220    50.5750   100.9300    22.2510     2.2870   -16.3360 
  210.2500    62.8770    58.0710    52.5510   104.1390    22.2000     2.2710   -16.3570 
  210.3750    64.9480    56.7320    51.8770    94.6030    22.1960     2.2600   -16.3600 
  210.5000    61.0750    53.1290    48.9710    81.1080    22.2880     2.2590   -16.3570 
  210.6250    55.2160    48.4640    45.2180    67.7160    22.5210     2.2680   -16.3990 
  210.7500    52.1780    44.6020    42.1080    56.5690    22.8200     2.2760   -16.3730 
  210.8750    51.5850    42.5620    40.1240    50.8170    23.0320     2.2800   -16.2320 
  211.0000    52.8590    42.0180    39.2050    51.7030    23.1060     2.2760   -16.0950 
  211.1250    56.7280    42.1150    39.0820    54.5600    23.1060     2.2670   -15.9360 
  211.2500    60.9710    42.3760    39.2160    55.9360    23.1030     2.2580   -15.7320 
  211.3750    64.2240    42.5490    39.3040    54.0480    23.0950     2.2510   -15.5780 
  211.5000    64.8400    42.4230    39.1290    51.7480    23.0760     2.2470   -15.4240 
  211.6250    61.7580    41.7250    38.4650    50.1610    23.0340     2.2470   -15.2110 
  211.7500    58.1630    40.4190    37.2930    49.2300    22.9700     2.2520   -15.0970 
  211.8750    56.0920    38.5430    35.6260    47.8000    22.9020     2.2620   -15.1200 
  212.0000    57.7450    36.3100    33.6150    44.1910    22.8490     2.2720   -15.1240 
  212.1250    61.6130    34.1460    31.5820    39.9910    22.8000     2.2800   -15.0310 
  212.2500    64.2150    32.4200    29.8650    36.1010    22.7700     2.2820   -14.9200 
  212.3750    64.7590    31.2480    28.6100    33.3300    22.7780     2.2800   -14.7400 
