~V
VERS. 2.00: Ver 2.00
~W
STRT.M 56.0000:
STOP.M 268.0000:
STEP.M 0.1250:
NULL. -999.2500:
UWI. F10027:
~C
DEPT.M :
GR.API :
RML.OHMM :
RI. :
RXO.OHMM :
CALI.CM :
DEN.GM/CC :
SP.MV :
~A
# ...
  258.5000    61.7870     5.6770     5.1360     6.1560    24.1480     2.4000    -5.9330 
  258.6250    61.7870     6.0940     5.4730     7.2290    24.1360     2.3560    -6.2000 
  258.7500    61.7870     6.5180     5.8070     8.4370    24.1250     2.3160    -6.4360 
  258.8750    61.7870     6.8770     6.0690     9.1580    24.1150     2.2940    -6.6410 
  259.0000    61.7870     7.1290     6.2250     8.6040    24.1020     2.2920    -6.7870 
  259.1250    61.7870     7.2530     6.2740     7.2240    24.1040     2.3050    -6.8940 
  259.2500    61.7870     7.2950     6.2730     6.5400    24.1010     2.3200    -6.9640 
  259.3750    61.7870     7.2790     6.2560     6.5740    24.0870     2.3320    -7.0070 
  259.5000    61.7870     7.2290     6.2410     6.5550    24.0410     2.3390    -7.0190 
  259.6250    61.7870     7.1710     6.2360     6.0600    23.9660     2.3410    -7.0530 
  259.7500    61.7870     7.1380     6.2390     5.7700    23.9400     2.3350    -7.0890 
  259.8750    61.7870     7.1510     6.2520     5.9330    23.9160     2.3210    -7.1300 
  260.0000    61.7870     7.2000     6.2740     6.2670    23.9050     2.3060    -7.2510 
  260.1250    61.7870     7.2280     6.2930     6.3710    23.9380     2.3010    -7.4250 
  260.2500    61.7870     7.1940     6.2990     5.8930    24.0050     2.3100    -7.5900 
  260.3750    61.7870     7.1160     6.2880     5.4730    24.0580     2.3340    -7.7500 
  260.5000    61.7870     7.0530     6.2640     5.0910    24.0620     2.3660    -7.9160 
  260.6250    61.7870     7.0750     6.2380     4.9080    24.0320     2.3960    -8.0440 
  260.7500    61.7870     7.1570     6.2220     4.8500    23.9750     2.4070    -8.1760 
  260.8750    61.7870     7.2340     6.2160     4.8950    23.9170     2.3900    -8.3070 
  261.0000    61.7870     7.2540     6.2220     5.0230    23.8880     2.3470    -8.3980 
  261.1250    61.7870     7.2200     6.2330     5.0840    23.8790     2.3010    -8.4640 
  261.2500    61.7870     7.1920     6.2380     5.0020    23.8710     2.2810    -8.5140 
  261.3750    61.7870     7.1990     6.2260     5.0280    23.8720     2.2950    -8.5690 
  261.5000    61.7870     7.2260     6.1910     5.0940    23.8910     2.3290    -8.5940 
  261.6250    61.7870     7.2300     6.1450     5.4680    23.8830     2.3550    -8.5950 
  261.7500    61.7870     7.1920     6.1220     6.4230    23.8680     2.3590    -8.6030 
  261.8750    61.7870     7.1250     6.1350     7.9660    23.8400     2.3460    -8.6110 
  262.0000    61.7870     7.0590     6.1720     8.7560    23.8140     2.3320    -8.5880 
  262.1250    61.7870     7.0180     6.2020     7.7980    23.7960     2.3330    -8.5360 
  262.2500    61.7870     7.0000     6.2140     6.1800    23.7920     2.3460    -8.4900 
  262.3750    61.7870     6.9950     6.2170     5.4550    23.7430     2.3650    -8.4300 
  262.5000    61.7870     6.9940     6.2170     5.6930    23.6850     2.3860    -8.3740 
  262.6250    61.7870     6.9940     6.2170     6.3450    23.7150     2.4070    -8.3560 
  262.7500    61.7870     6.9940     6.2170     6.4180    23.8030     2.4230    -8.3160 
  262.8750    61.7870     6.9940     6.2170     6.0820    23.8520     2.4270    -8.2670 
  263.0000    61.7870     6.9940     6.2170     6.3790    23.8800     2.4140    -8.2340 
  263.1250    61.7870     6.9940     6.2170     7.6130    23.9350     2.3770    -8.2210 
  263.2500    61.7870     6.9940     6.2170     8.5800    23.9570     2.3190    -8.2280 
  263.3750    61.7870     6.9940     6.2170     8.9770    23.7480     2.2420    -8.2290 
  263.5000    61.7870     6.9940     6.2170     8.4380    23.1540     2.1510    -8.2280 
  263.6250    61.7870     6.9940     6.2170     7.0580    22.1480     2.0590    -8.2290 
  263.7500    61.7870     6.9940     6.2170     5.8760    21.2880     1.9830    -8.2490 
  263.8750    61.7870     6.9940     6.2170     5.4490    20.9260     1.9310    -8.2960 
  264.0000    61.7870     6.9940     6.2170     5.3940    20.8650     1.9040    -8.3430 
  264.1250    61.7870     6.9940     6.2170     5.3930    20.8630     1.8970    -8.3430 
  264.2500    61.7870     6.9940     6.2170     5.3920    20.8610     1.8970    -8.3530 
  264.3750    61.7870     6.9940     6.2170     5.3920    20.8580     1.8990    -8.3850 
  264.5000    61.7870     6.9940     6.2170     5.3930    20.8570     1.9020    -8.4110 
  264.6250    61.7870     6.9940     6.2170     5.3940    20.8570     1.9040    -8.4300 
  264.7500    61.7870     6.9940     6.2170     5.3940    20.8570     1.9040    -8.4260 
  264.8750    61.7870     6.9940     6.2170     5.3950    20.8570     1.9030    -8.4260 
  265.0000    61.7870     6.9940     6.2170     5.3930    20.8570     1.9010    -8.4590 
  265.1250    61.7870     6.9940     6.2170     5.3920    20.8570     1.8980    -8.4850 
  265.2500    61.7870     6.9940     6.2170     5.3920    20.8570     1.8960    -8.5240 
  265.3750    61.7870     6.9940     6.2170     5.3950    20.8570     1.8940    -8.5570 
  265.5000    61.7870     6.9940     6.2170     5.3950    20.8570     1.8940    -8.5940 
  265.6250    61.7870     6.9940     6.2170     5.3940    20.8560     1.8960    -8.6180 
  265.7500    61.7870     6.9940     6.2170     5.3940    20.8530     1.8930    -8.6430 
  265.8750    61.7870     6.9940     6.2170     5.3950    20.8500     1.8910    -8.6300 
  266.0000    61.7870     6.9940     6.2170     5.3950    20.8490     1.8940    -8.6060 
  266.1250    61.7870     6.9940     6.2170     5.3930    20.8490  -999.2500    -8.6010 
  266.2500    61.7870     6.9940     6.2170     5.3940    20.8490  -999.2500    -8.5720 
  266.3750    61.7870     6.9940     6.2170     5.3940    20.8490  -999.2500    -8.5430 
  266.5000    61.7870     6.9940     6.2170     5.3930    20.8420  -999.2500    -8.5270 
  266.6250    61.7870     6.9940     6.2170     5.3930    20.8190  -999.2500    -8.4880 
  266.7500    61.7870     6.9940     6.2170     5.3940    20.7850  -999.2500    -8.4630 
  266.8750    61.7870     6.9940     6.2170     5.3940    20.7620  -999.2500    -8.4640 
  267.0000    61.7870     6.9940     6.2170     5.3940    20.7500  -999.2500    -8.4780 
  267.1250  -999.2500  -999.2500  -999.2500  -999.2500  -999.2500  -999.2500    -8.4810 
  267.2500  -999.2500  -999.2500  -999.2500  -999.2500  -999.2500  -999.2500    -8.4720 
  267.3750  -999.2500  -999.2500  -999.2500  -999.2500  -999.2500  -999.2500    -8.4760 
  267.5000  -999.2500  -999.2500  -999.2500  -999.2500  -999.2500  -999.2500    -8.4470 
  267.6250  -999.2500  -999.2500  -999.2500  -999.2500  -999.2500  -999.2500    -8.4380 
  267.7500  -999.2500  -999.2500  -999.2500  -999.2500  -999.2500  -999.2500    -8.4470 
  267.8750  -999.2500  -999.2500  -999.2500  -999.2500  -999.2500  -999.2500    -8.4470 
  268.0000  -999.2500  -999.2500  -999.2500  -999.2500  -999.2500  -999.2500    -8.4470 
