~V
VERS. 2.00: Ver 2.00
~W
STRT.M 55.0000:
STOP.M 264.0000:
STEP.M 0.1250:
NULL. -999.2500:
UWI. F10017:
~C
DEPT.M :
DEN.GM/CC :
SP.MV :
GR.API :
CALI.CM :
RXO.OHMM :
RI. :
RML.OHMM :
~A
# ...
  212.5000     2.1660   -47.6650    63.0360    23.9970    26.7910    24.2440    26.1910 
  212.6250     2.1500   -47.6350    63.8780    23.9970    29.1840    24.4700    26.6220 
  212.7500     2.1520   -47.5710    64.6790    23.9970    29.2570    24.8020    27.1050 
  212.8750     2.1690   -47.4980    63.9890    23.9970    27.9660    25.2800    27.6970 
  213.0000     2.1790   -47.4400    60.9730    23.9970    28.2290    26.0050    28.5630 
  213.1250     2.1660   -47.3240    58.6830    23.9970    30.9430    27.1440    29.9410 
  213.2500     2.1460   -47.1470    59.7770    23.9970    34.5120    28.6210    31.7280 
  213.3750     2.1380   -47.0070    62.5920    23.9970    38.1430    30.2110    33.6110 
  213.5000     2.1430   -46.9090    62.2800    23.9960    40.9070    31.5260    35.0840 
  213.6250     2.1510   -46.8160    59.2440    23.9930    40.9360    32.1270    35.6500 
  213.7500     2.1580   -46.6800    58.4540    23.9930    38.8100    32.2410    35.6770 
  213.8750     2.1640   -46.5450    59.2440    24.0010    36.6100    32.3480    35.8030 
  214.0000     2.1700   -46.3970    59.7430    24.0140    36.3090    32.9990    36.6950 
  214.1250     2.1780   -46.3020    61.4800    24.0390    38.0860    34.8550    39.0520 
  214.2500     2.1990   -46.2260    65.0500    24.0340    41.1210    37.9450    42.7240 
  214.3750     2.2480   -46.1270    67.3170    23.9960    46.5220    41.9560    47.2070 
  214.5000     2.3280   -45.9390    65.5740    23.8890    58.2390    45.9640    51.3860 
  214.6250     2.4250   -45.7010    60.9770    23.8360    73.2380    48.2300    53.3340 
  214.7500     2.5020   -45.4420    57.0300    23.8770    78.2020    47.9870    52.3850 
  214.8750     2.5390   -45.1280    55.5270    23.9700    68.1180    45.1100    48.5350 
  215.0000     2.5440   -44.7560    56.7990    24.0530    50.6910    39.8360    42.1950 
  215.1250     2.5200   -44.3000    61.0730    24.1090    37.3920    32.6130    34.0650 
  215.2500     2.4560   -43.8070    65.9660    24.0930    28.9710    25.0770    25.8660 
  215.3750     2.3600   -43.2780    68.9020    24.0550    22.3810    18.4300    18.7710 
  215.5000     2.2830   -42.8220    68.5020    24.0860    14.7650    13.2990    13.3570 
  215.6250     2.2750   -42.5110    67.1890    24.1790     8.4110     9.9450     9.8790 
  215.7500     2.2970   -42.3310    66.7920    24.2190     4.7480     7.7900     7.7300 
  215.8750     2.3070   -42.3250    66.5160    24.0640     3.5230     6.5290     6.5780 
  216.0000     2.3020   -42.4800    66.3640    23.8540     3.4690     5.9330     6.1460 
  216.1250     2.2990   -42.8250    67.6710    23.8130     4.1090     5.9130     6.2710 
  216.2500     2.3030   -43.3070    70.0960    23.9220     5.2720     6.2480     6.6740 
  216.3750     2.3100   -43.8940    74.0060    23.9940     6.6480     6.8170     7.2200 
  216.5000     2.3210   -44.5480    80.2570    24.0370     7.6760     7.5080     7.8080 
  216.6250     2.3290   -45.1720    85.6910    24.0970     8.2520     8.2110     8.3590 
  216.7500     2.3270   -45.7710    86.8440    24.1230     8.8410     8.8340     8.8360 
  216.8750     2.3160   -46.3250    85.6800    24.1290     9.4810     9.3220     9.2300 
  217.0000     2.3010   -46.8300    86.1880    24.1290    10.0090     9.6560     9.5640 
  217.1250     2.2730   -47.2440    90.2500    24.1290    10.4520     9.8200     9.8490 
  217.2500     2.2330   -47.6380    95.2970    24.1290    10.7710     9.8450    10.0500 
  217.3750     2.2020   -48.0180    99.5690    24.1290    10.9350     9.7540    10.1240 
  217.5000     2.2090   -48.3360    99.5610    24.1290    10.9820     9.6090    10.0750 
  217.6250     2.2540   -48.5770    96.0440    24.1290    10.9400     9.5140    10.0070 
  217.7500     2.2970   -48.7570    94.1700    24.1290    10.9420     9.5680    10.1170 
  217.8750     2.3170   -48.8820    94.9490    24.1290    11.3010     9.8600    10.5810 
  218.0000     2.3150   -48.9830    97.5950    24.1150    12.3960    10.4830    11.5290 
  218.1250     2.3080   -49.0760    97.2110    24.0830    14.4250    11.6110    13.1150 
  218.2500     2.3020   -49.0960    93.1640    24.0490    17.1360    13.2430    15.2350 
  218.3750     2.2960   -49.1020    86.2350    24.0340    20.9280    15.3590    17.7860 
  218.5000     2.2910   -49.1110    80.0860    24.0110    26.1780    17.7750    20.5000 
  218.6250     2.2950   -49.1050    77.4510    23.9960    29.9980    19.9870    22.7330 
  218.7500     2.3110   -49.1050    75.6360    23.9920    30.1590    21.4670    23.9880 
  218.8750     2.3310   -49.1230    73.2140    23.9920    27.0920    22.0380    24.2280 
  219.0000     2.3490   -49.1420    70.7600    23.9990    23.4490    22.0010    23.9850 
  219.1250     2.3580   -49.1360    72.1210    24.0200    21.6030    22.0920    24.2440 
  219.2500     2.3630   -49.1200    75.1280    24.0450    22.1660    23.0250    25.7040 
  219.3750     2.3710   -49.0780    73.9140    24.0440    25.2450    25.3260    28.8360 
  219.5000     2.3920   -49.0010    67.8480    24.0150    34.0990    29.4070    33.9680 
  219.6250     2.4200   -48.9080    63.5990    24.0010    52.2390    35.6920    41.3540 
  219.7500     2.4300   -48.8340    63.1980    23.9970    70.0620    43.1800    49.6660 
  219.8750     2.4010   -48.7180    63.4790    23.9940    76.3830    50.4780    57.1390 
  220.0000     2.3410   -48.5260    62.5210    24.0050    75.0170    56.1730    62.2010 
  220.1250     2.2750   -48.2740    62.2340    24.0460    77.6520    59.4900    64.4740 
  220.2500     2.2280   -48.0590    63.3140    24.1050    83.8290    61.5390    65.9310 
  220.3750     2.2040   -47.7980    63.7290    24.1460    86.3470    63.1920    67.8020 
  220.5000     2.1940   -47.5070    62.7280    24.1790    84.3980    64.8970    70.4550 
  220.6250     2.1840   -47.2960    61.8470    24.2070    83.1700    66.6210    73.4510 
  220.7500     2.1710   -47.0980    62.9000    24.2450    87.9930    68.1690    75.9790 
  220.8750     2.1600   -46.8820    64.4620    24.2740    93.4510    69.4870    77.5430 
  221.0000     2.1530   -46.6960    64.5350    24.2850    92.1820    70.6480    78.0430 
  221.1250     2.1560   -46.5960    63.4870    24.2840    87.1070    71.8100    77.9150 
  221.2500     2.1650   -46.4580    62.6700    24.2830    87.0690    73.0930    78.0160 
  221.3750     2.1690   -46.3050    62.4450    24.2810    91.6580    74.5020    78.6660 
  221.5000     2.1610   -46.1830    62.4740    24.2740    96.1360    75.9100    78.1870 
  221.6250     2.1530   -46.0400    61.5700    24.2660    96.9190    76.9290    79.2370 
  221.7500     2.1590   -45.8660    59.8900    24.2510    95.5430    77.2410    79.5580 
  221.8750     2.1740   -45.6870    58.2220    24.2360    93.9040    76.7800    79.0830 
  222.0000     2.1810   -45.5430    58.1610    24.2520    92.0190    75.8700    78.1460 
  222.1250     2.1690   -45.3930    60.4220    24.3030    88.2490    75.1820    77.4380 
  222.2500     2.1540   -45.2280    63.6670    24.3280    83.6180    75.2000    77.4560 
  222.3750     2.1450   -45.1280    65.4520    24.3330    80.6570    75.9790    78.2580 
  222.5000     2.1420   -45.0490    64.2150    24.3260    83.1340    77.0570    79.3690 
  222.6250     2.1410   -44.9460    62.2590    24.2910    88.7560    77.1650    79.4800 
  222.7500     2.1500   -44.8590    61.1410    24.2140    91.7400    75.3590    77.6200 
  222.8750     2.1740   -44.8090    61.5170    24.1160    87.3790    71.5340    73.6800 
  223.0000     2.2040   -44.7920    63.7970    24.0420    75.0490    66.5840    68.5820 
  223.1250     2.2130   -44.7880    68.1830    23.9730    59.0020    62.2110    64.0780 
  223.2500     2.1970   -44.8200    70.7670    23.8270    47.9170    59.6730    61.4630 
  223.3750     2.1560   -44.7920    68.8880    23.5230    45.3610    59.5200    61.3060 
  223.5000     2.1020   -44.7370    63.9420    23.1550    51.1050    61.7280    63.5800 
  223.6250     2.0710   -44.7310    61.0150    22.9500    59.3190    65.8270    67.8020 
