~V
VERS. 2.00: Ver 2.00
~W
STRT.M 56.0000:
STOP.M 261.0000:
STEP.M 0.1250:
NULL. -999.2500:
UWI. F10028:
~C
DEPT.M :
GR.API :
RML.OHMM :
RI. :
RXO.OHMM :
CALI.CM :
DEN.GM/CC :
SP.MV :
~A
# ...
  191.0000    48.6490     8.6890     6.7070     8.0390    24.6840     2.4350    -1.7100 
  191.1250    45.1060     8.7170     6.7170     7.7800    24.7240     2.4290    -1.7000 
  191.2500    42.6090     8.7740     6.7380     7.3940    24.7650     2.4280    -1.6620 
  191.3750    44.0420     8.8600     6.7820     7.4910    24.8000     2.4270    -1.5820 
  191.5000    46.6230     8.9420     6.8340     8.1610    24.8160     2.4240    -1.4740 
  191.6250    45.4810     8.9560     6.8510     8.2450    24.7940     2.4220    -1.3480 
  191.7500    43.1650     8.8840     6.8140     7.8190    24.7210     2.4220    -1.2270 
  191.8750    42.3350     8.7500     6.7350     7.4270    24.6120     2.4260    -1.1280 
  192.0000    42.4890     8.6150     6.6460     7.3270    24.5340     2.4330    -1.0310 
  192.1250    42.4910     8.5650     6.5970     7.3180    24.5720     2.4390    -0.9110 
  192.2500    42.2550     8.6120     6.6030     7.3590    24.6500     2.4420    -0.8010 
  192.3750    41.1390     8.7200     6.6560     7.5530    24.6870     2.4440    -0.7190 
  192.5000    39.3860     8.8270     6.7240     7.8440    24.6790     2.4450    -0.6770 
  192.6250    38.2300     8.8610     6.7600     8.0710    24.6450     2.4470    -0.6880 
  192.7500    36.9630     8.8000     6.7390     7.8070    24.5960     2.4480    -0.7110 
  192.8750    35.0140     8.6570     6.6610     7.3650    24.5710     2.4450    -0.7210 
  193.0000    34.2300     8.4800     6.5510     7.0220    24.5650     2.4370    -0.7560 
  193.1250    36.6400     8.3410     6.4510     6.8230    24.5650     2.4270    -0.8340 
  193.2500    40.1700     8.2740     6.3920     6.8340    24.5650     2.4150    -0.9100 
  193.3750    42.8490     8.2740     6.3770     6.9610    24.5710     2.4070    -0.9390 
  193.5000    45.0450     8.3090     6.3930     7.0590    24.5930     2.4030    -0.9020 
  193.6250    47.1260     8.3270     6.4190     7.1490    24.6400     2.4060    -0.8030 
  193.7500    47.2370     8.3070     6.4370     7.2090    24.6700     2.4140    -0.7190 
  193.8750    45.3120     8.2660     6.4530     7.2870    24.6750     2.4240    -0.6520 
  194.0000    44.4290     8.2490     6.4860     7.4020    24.6820     2.4350    -0.5650 
  194.1250    46.0610     8.3100     6.5600     7.4400    24.6890     2.4450    -0.4610 
  194.2500    47.4050     8.4430     6.6670     7.6310    24.6960     2.4560    -0.3710 
  194.3750    47.6610     8.6140     6.7820     8.0880    24.7110     2.4640    -0.3230 
  194.5000    47.1150     8.7520     6.8680     8.7320    24.7490     2.4650    -0.3230 
  194.6250    45.3990     8.7510     6.8710     8.5960    24.7720     2.4560    -0.3300 
  194.7500    42.8540     8.5950     6.7860     7.8830    24.7650     2.4410    -0.2840 
  194.8750    41.2830     8.3220     6.6380     7.4010    24.7240     2.4240    -0.1790 
  195.0000    41.5120     8.0120     6.4710     7.1090    24.6740     2.4120    -0.0420 
  195.1250    42.1090     7.7720     6.3430     6.8730    24.5950     2.4070     0.0560 
  195.2500    42.3010     7.6470     6.2770     6.6710    24.5000     2.4060     0.1120 
  195.3750    42.7660     7.6310     6.2700     6.7730    24.4510     2.4070     0.1300 
  195.5000    43.1470     7.6750     6.2910     7.1190    24.4480     2.4070     0.1370 
  195.6250    41.7980     7.7060     6.3080     7.2810    24.4600     2.4050     0.1570 
  195.7500    40.9520     7.6940     6.3060     7.1590    24.4560     2.4030     0.1570 
  195.8750    42.5590     7.6560     6.2990     6.8670    24.4430     2.4060     0.1020 
  196.0000    45.4180     7.6360     6.3100     6.5940    24.4190     2.4170    -0.0140 
  196.1250    46.4170     7.7020     6.3830     6.5660    24.3340     2.4330    -0.1370 
  196.2500    46.0290     7.8580     6.5250     6.7240    24.2070     2.4450    -0.2220 
  196.3750    47.4540     8.0680     6.7180     7.0180    24.1980     2.4450    -0.2450 
  196.5000    51.8760     8.2580     6.9160     7.3550    24.4000     2.4320    -0.2220 
  196.6250    59.1680     8.3120     7.0270     7.6880    24.6540     2.4100    -0.1950 
  196.7500    67.8560     8.1980     7.0040     7.9110    24.7760     2.3900    -0.1770 
  196.8750    74.9680     7.9350     6.8450     7.8240    24.7470     2.3780    -0.1550 
  197.0000    77.7300     7.5940     6.5970     7.3430    24.6890     2.3740    -0.1100 
  197.1250    76.0810     7.2880     6.3380     6.8270    24.7860     2.3750    -0.0210 
  197.2500    74.4150     7.0900     6.1390     6.6490    24.8320     2.3770     0.0810 
  197.3750    73.6250     7.0290     6.0400     6.7570    24.8130     2.3780     0.1710 
  197.5000    72.7230     7.1200     6.0660     6.9890    24.7610     2.3780     0.2380 
  197.6250    73.6250     7.3910     6.2510     6.9860    24.7190     2.3760     0.2760 
  197.7500    75.7260     7.7730     6.5510     7.1490    24.6870     2.3730     0.2860 
  197.8750    76.0260     8.1850     6.9040     7.8940    24.6660     2.3700     0.2620 
  198.0000    73.8480     8.5440     7.2430     9.1000    24.6670     2.3650     0.2210 
  198.1250    72.6420     8.7790     7.5060    10.2190    24.6850     2.3570     0.1710 
  198.2500    71.8890     8.9290     7.7020    10.2210    24.7070     2.3470     0.1260 
  198.3750    69.9850     9.0660     7.8670     9.8030    24.7460     2.3340     0.1190 
  198.5000    69.3880     9.2850     8.0630    10.2920    24.7930     2.3200     0.1320 
  198.6250    71.6700     9.7200     8.3890    12.2020    24.8360     2.3080     0.1290 
  198.7500    73.1890    10.4220     8.9160    13.8550    24.8740     2.2980     0.1090 
  198.8750    71.9000    11.4490     9.7150    14.1730    24.9100     2.2930     0.0730 
  199.0000    70.0080    12.8530    10.8450    14.5690    24.9380     2.2950     0.0080 
  199.1250    68.4930    14.6800    12.3650    17.4250    24.9470     2.3100    -0.0900 
  199.2500    66.1400    16.7630    14.1550    21.6360    24.9470     2.3310    -0.1970 
  199.3750    64.3480    18.9400    16.1050    24.9610    24.9460     2.3510    -0.3290 
  199.5000    64.9230    21.0210    18.0770    26.2690    24.9340     2.3580    -0.4580 
  199.6250    67.2190    22.7240    19.8510    27.6140    24.8640     2.3440    -0.5580 
  199.7500    68.5100    23.8800    21.2340    28.8290    24.6910     2.3160    -0.6180 
  199.8750    67.6790    24.3350    22.0440    30.1980    24.4980     2.2880    -0.6320 
  200.0000    65.5990    24.0000    22.1510    32.3220    24.5370     2.2670    -0.5930 
  200.1250    65.9510    22.8470    21.4690    31.5260    24.7660     2.2610    -0.5000 
  200.2500    69.2400    21.3380    20.3730    26.8160    24.9360     2.2630    -0.4100 
  200.3750    71.4380    19.8710    19.2070    21.9460    24.9980     2.2690    -0.3370 
  200.5000    70.1540    18.7020    18.2200    19.9800    24.9960     2.2720    -0.2560 
  200.6250    67.1020    17.8500    17.4670    20.0450    24.8760     2.2690    -0.1460 
  200.7500    67.0200    17.0110    16.7220    19.8990    24.5510     2.2650    -0.0140 
  200.8750    69.1590    15.9270    15.7690    19.2050    24.1330     2.2640     0.1260 
  201.0000    71.0630    14.4870    14.5050    17.8810    24.0460     2.2710     0.2610 
  201.1250    72.9570    12.8280    13.0290    15.5140    24.3810     2.2830     0.4070 
  201.2500    75.3520    11.3000    11.6370    12.6400    24.6930     2.2950     0.5390 
  201.3750    76.3980    10.1130    10.5110    10.7390    24.7840     2.3050     0.6330 
  201.5000    74.6530     9.3320     9.7220     9.9570    24.6560     2.3130     0.6540 
  201.6250    74.8970     8.9540     9.2980     9.9080    24.2650     2.3240     0.5610 
  201.7500    78.4320     8.8190     9.1300     9.8630    23.7530     2.3360     0.3870 
  201.8750    79.4950     8.8690     9.1830     9.9590    23.4390     2.3440     0.1790 
  202.0000    75.2930     9.1180     9.4610    10.1960    23.3380     2.3430    -0.0420 
  202.1250    70.5700     9.6820    10.0440    10.6900    23.3370     2.3320    -0.3040 
