~V
VERS. 2.00: Ver 2.00
~W
STRT.M 55.0000:
STOP.M 314.0000:
STEP.M 0.1250:
NULL. -999.2500:
UWI. F10048:
~C
DEPT.M :
DEN.GM/CC :
GR.API :
RML.OHMM :
RI. :
RXO.OHMM :
CALI.CM :
SP.MV :
~A
# ...
  257.5000     2.2630    55.3150    41.2500    37.4990    41.3080    23.2450   -16.0250 
  257.6250     2.2520    56.6170    43.8520    39.8630    44.6960    23.2620   -16.3330 
  257.7500     2.2370    58.2270    45.7410    41.6630    49.7900    23.3110   -16.6390 
  257.8750     2.2260    58.1070    46.2570    42.3070    55.1110    23.4200   -16.9160 
  258.0000     2.2230    56.2180    45.0980    41.4740    58.8640    23.5900   -17.1790 
  258.1250     2.2300    55.0750    42.5570    39.3330    57.8870    23.7850   -17.4230 
  258.2500     2.2400    56.5290    40.0930    37.1170    52.1250    23.9340   -17.6580 
  258.3750     2.2490    60.3880    39.0410    35.9580    43.2360    24.0150   -17.8740 
  258.5000     2.2560    62.9550    40.4610    36.8150    38.4800    24.0950   -18.1190 
  258.6250     2.2610    60.2480    45.3090    40.7220    43.7310    24.2050   -18.3780 
  258.7500     2.2640    56.0520    52.5650    47.0830    54.2360    24.2510   -18.6340 
  258.8750     2.2590    56.1260    60.8110    54.8670    67.0500    24.1940   -18.8680 
  259.0000     2.2440    60.3160    68.0040    62.2880    74.7380    24.0550   -19.0890 
  259.1250     2.2170    62.0470    71.4300    66.6970    74.9820    23.8540   -19.2890 
  259.2500     2.1900    60.7650    70.9400    67.4520    72.3160    23.6180   -19.4670 
  259.3750     2.1740    59.4710    67.8300    65.4060    69.5600    23.3790   -19.6550 
  259.5000     2.1740    58.2900    64.4090    62.5500    63.9500    23.1780   -19.8220 
  259.6250     2.1880    56.4520    63.3000    61.3270    59.4340    23.1260   -19.9570 
  259.7500     2.2070    56.1510    65.2070    62.6850    59.1130    23.2700   -20.0810 
  259.8750     2.2220    58.2160    69.7530    66.5100    63.8720    23.5560   -20.1950 
  260.0000     2.2290    59.9890    75.4660    71.6780    73.5130    23.8890   -20.2980 
  260.1250     2.2250    57.7680    79.5250    75.8150    82.4590    24.1120   -20.3940 
  260.2500     2.2180    53.8350    79.8950    76.8980    89.0540    24.1880   -20.4620 
  260.3750     2.2150    52.2930    76.2520    74.3150    88.3180    24.1460   -20.4850 
  260.5000     2.2220    54.7580    70.3590    69.2870    79.0810    24.0330   -20.4200 
  260.6250     2.2420    58.2220    65.7470    64.7630    65.6540    23.8670   -20.2720 
  260.7500     2.2670    58.9330    64.9660    63.4000    58.4040    23.6930   -20.0600 
  260.8750     2.2880    58.0300    69.2750    66.7180    63.2520    23.5760   -19.7790 
  261.0000     2.3030    57.6830    79.0680    75.4310    77.6450    23.5850   -19.4190 
  261.1250     2.3200    58.6670    94.2880    89.9110    99.2100    23.6870   -19.0040 
  261.2500     2.3520    60.0350   111.4990   107.0860   119.6080    23.7850   -18.5760 
  261.3750     2.4040    60.0610   126.7230   123.3130   135.8270    23.7730   -18.1350 
  261.5000     2.4720    58.2350   135.4630   134.2610   156.6790    23.6460   -17.6850 
  261.6250     2.5470    57.2370   132.7220   134.7520   173.8530    23.4600   -17.1710 
  261.7500     2.6180    57.7030   120.6360   125.7370   180.0710    23.2980   -16.6080 
  261.8750     2.6830    57.5700   102.8920   109.7770   165.1750    23.2000   -16.0310 
  262.0000     2.7420    57.2550    84.0130    90.8840   140.8460    23.1680   -15.4510 
  262.1250     2.7880    59.8700    67.6170    73.0090   107.3160    23.1390   -14.8040 
  262.2500     2.8060    62.7560    53.9180    57.5080    62.5330    23.0710   -14.0230 
  262.3750     2.7880    62.5680    42.1980    44.2030    36.1020    22.9410   -13.1370 
  262.5000     2.7320    60.0800    31.8770    32.7680    25.7500    22.7590   -12.2350 
  262.6250     2.6520    59.8770    23.2140    23.5860    21.6280    22.6240   -11.3510 
  262.7500     2.5700    61.4860    16.3410    16.5410    17.2900    22.5830   -10.4740 
  262.8750     2.5000    61.6890    11.3980    11.5440    12.7660    22.6020    -9.6200 
  263.0000     2.4480    59.3650     8.1900     8.2430     8.4280    22.6130    -8.8470 
  263.1250     2.4170    56.2050     6.4510     6.3410     6.1980    22.5810    -8.2170 
  263.2500     2.3990    55.0470     5.5070     5.2320     5.5560    22.5160    -7.7920 
  263.3750     2.3910    56.1410     5.0890     4.6860     5.3510    22.4300    -7.5440 
  263.5000     2.3900    59.7730     5.0550     4.5650     5.1360    22.3550    -7.4250 
  263.6250     2.3970    65.6740     5.4000     4.8470     5.1880    22.3000    -7.3760 
  263.7500     2.4080    71.8380     6.0270     5.4200     5.5670    22.2590    -7.3980 
  263.8750     2.4200    76.6320     6.8460     6.2000     6.4050    22.2400    -7.4470 
  264.0000     2.4310    80.9860     7.6920     7.0480     7.5580    22.2510    -7.4620 
  264.1250     2.4370    84.7410     8.3090     7.7250     8.3150    22.2930    -7.4500 
  264.2500     2.4410    87.5910     8.5780     8.0770     8.4960    22.3510    -7.4160 
  264.3750     2.4410    89.8530     8.5090     8.0660     8.3390    22.4180    -7.3690 
  264.5000     2.4390    91.8610     8.2060     7.7790     8.1630    22.4770    -7.2910 
  264.6250     2.4340    93.2270     7.8400     7.3790     8.0290    22.5220    -7.2510 
  264.7500     2.4260    92.5630     7.5160     7.0250     7.9990    22.5580    -7.2480 
  264.8750     2.4170    89.3520     7.2710     6.7760     7.9380    22.5780    -7.2820 
  265.0000     2.4080    85.3310     7.1460     6.6370     7.7470    22.5950    -7.3460 
  265.1250     2.4030    84.0320     7.1240     6.6000     7.4260    22.6420    -7.4310 
  265.2500     2.4020    84.6890     7.1950     6.6190     7.1990    22.7510    -7.5170 
  265.3750     2.4090    84.9550     7.2960     6.6740     7.2080    22.9390    -7.5840 
  265.5000     2.4220    84.8660     7.4120     6.7490     7.3520    23.1960    -7.6330 
  265.6250     2.4390    86.1050     7.5610     6.8280     7.4870    23.4580    -7.6360 
  265.7500     2.4530    87.5810     7.6780     6.8890     7.5270    23.6400    -7.6150 
  265.8750     2.4580    88.4780     7.7120     6.9090     7.6240    23.7180    -7.5750 
  266.0000     2.4510    89.6190     7.6450     6.8680     7.7990    23.7360    -7.5230 
  266.1250     2.4350    89.7770     7.4610     6.7490     7.8950    23.7350    -7.4890 
  266.2500     2.4190    89.8670     7.2010     6.5820     7.8550    23.7290    -7.4740 
  266.3750     2.4070    92.5330     6.9190     6.4020     7.5860    23.7100    -7.4630 
  266.5000     2.4010    96.7900     6.6900     6.2500     7.1130    23.6850    -7.4440 
  266.6250     2.4020    98.8410     6.5800     6.1650     6.8960    23.6550    -7.4160 
  266.7500     2.4020    97.2400     6.5720     6.1330     6.9470    23.6260    -7.3640 
  266.8750     2.3980    93.6370     6.6320     6.1280     7.1860    23.6040    -7.2940 
  267.0000     2.3870    89.9750     6.6430     6.1120     7.4680    23.5920    -7.1870 
  267.1250     2.3740    88.3270     6.5520     6.0420     7.4520    23.6020    -7.0150 
  267.2500     2.3650    89.5450     6.3810     5.9110     7.0320    23.6310    -6.7910 
  267.3750     2.3610    91.8140     6.1460     5.7190     6.5100    23.6740    -6.5430 
  267.5000     2.3590    94.2480     5.8520     5.4730     6.0690    23.7200    -6.2600 
  267.6250     2.3560    96.2240     5.5030     5.1830     5.7530    23.7560    -5.9380 
  267.7500     2.3490    97.1840     5.1370     4.8770     5.3590    23.7620    -5.6130 
  267.8750     2.3400    97.2240     4.8020     4.5830     4.8410    23.7330    -5.3010 
  268.0000     2.3360    96.0000     4.5470     4.3310     4.3850    23.6660    -5.0330 
  268.1250     2.3390    93.8970     4.4140     4.1540     4.2110    23.5660    -4.7990 
  268.2500     2.3480    92.5970     4.3680     4.0440     4.2250    23.4660    -4.5720 
  268.3750     2.3590    90.1000     4.3660     3.9850     4.2660    23.4100    -4.3540 
  268.5000     2.3700    84.7950     4.3650     3.9550     4.2370    23.4260    -4.1900 
  268.6250     2.3780    79.1700     4.3440     3.9390     4.1380    23.5040    -4.1220 
