~V
VERS. 2.00: Ver 2.00
~W
STRT.M 50.0000:
STOP.M 313.0000:
STEP.M 0.1250:
NULL. -999.2500:
UWI. F10034:
~C
DEPT.M :
GR.API :
RML.OHMM :
RI. :
RXO.OHMM :
CALI.CM :
DEN.GM/CC :
SP.MV :
~A
# ...
  117.5000    57.7250     8.5730     7.2700     9.4100    23.2390     2.2000   -19.2290 
  117.6250    53.6040     8.6370     7.3530     9.2710    23.1660     2.2020   -17.9860 
  117.7500    50.6510     8.5850     7.3460     9.2330    23.0150     2.2090   -16.5080 
  117.8750    50.3690     8.3080     7.1670     9.1720    22.9290     2.2270   -14.8050 
  118.0000    54.1720     7.7520     6.7700     8.8600    22.9980     2.2590   -12.9010 
  118.1250    63.7100     6.9450     6.1600     8.0680    23.2510     2.3000   -10.8510 
  118.2500    75.6610     6.0830     5.4830     6.7320    23.5730     2.3360    -8.7910 
  118.3750    86.5050     5.3240     4.8620     5.2640    23.8090     2.3550    -6.8420 
  118.5000    93.8230     4.7740     4.3890     4.4840    23.9310     2.3580    -5.0840 
  118.6250    95.3410     4.5000     4.1310     4.2690    23.9450     2.3540    -3.6340 
  118.7500    91.6380     4.4210     4.0400     4.2270    23.9240     2.3570    -2.4970 
  118.8750    87.8570     4.4770     4.0660     4.1980    23.8960     2.3690    -1.7180 
  119.0000    90.8090     4.6030     4.1490     4.2160    23.8660     2.3860    -1.3080 
  119.1250    96.5640     4.7230     4.2190     4.2680    23.8200     2.3990    -1.2400 
  119.2500    97.5820     4.7640     4.2230     4.2990    23.8060     2.4040    -1.3600 
  119.3750    94.4890     4.6710     4.1330     4.2970    23.8660     2.4020    -1.5730 
  119.5000    93.0570     4.4220     3.9430     4.2670    23.9540     2.3940    -1.8460 
  119.6250    96.6470     4.0510     3.6750     4.1870    24.0150     2.3820    -2.1890 
  119.7500   100.3000     3.7410     3.4290     4.1280    24.0340     2.3710    -2.6070 
  119.8750   100.7280     3.7330     3.3450     4.2590    24.0370     2.3630    -3.1030 
  120.0000    98.9020     4.3070     3.6120     4.9330    24.0370     2.3650    -3.6970 
  120.1250    98.4560     5.8040     4.5070     7.4370    24.0340     2.3910    -4.4580 
  120.2500    96.0120     7.9960     5.9750    12.0810    24.0150     2.4420    -5.3890 
  120.3750    87.6920    10.4370     7.8000    17.9030    23.9580     2.5030    -6.5310 
  120.5000    75.7960    12.4260     9.5360    23.3870    23.8490     2.5470    -7.8620 
  120.6250    66.5590    13.0220    10.4430    24.3600    23.6830     2.5330    -9.4000 
  120.7500    61.3320    12.2800    10.3310    18.6830    23.4920     2.4690   -11.0700 
  120.8750    59.6140    10.8040     9.5060    12.3250    23.3420     2.3820   -12.7760 
  121.0000    60.6170     9.4340     8.5690     9.8030    23.2770     2.3080   -14.4120 
  121.1250    62.3750     8.7890     8.0080    10.0930    23.2710     2.2760   -15.8540 
  121.2500    64.0540     8.6920     7.8040    11.5650    23.2840     2.2780   -17.0370 
  121.3750    65.2490     8.8160     7.7880    13.2900    23.3060     2.2960   -17.9410 
  121.5000    64.0010     8.8380     7.7500    14.7440    23.3010     2.3090   -18.6190 
  121.6250    61.2430     8.5410     7.5160    14.2160    23.2320     2.3030   -19.0190 
  121.7500    61.5050     8.0500     7.1290    10.6880    23.1390     2.2850   -19.2270 
  121.8750    64.7280     7.5580     6.7120     7.8270    23.0610     2.2680   -19.3480 
  122.0000    67.0770     7.2320     6.3880     6.9090    23.0100     2.2560   -19.4750 
  122.1250    65.4770     7.1680     6.2470     6.8700    23.0160     2.2450   -19.6950 
  122.2500    62.9720     7.2660     6.2440     6.9260    23.0800     2.2290   -20.0340 
  122.3750    61.2700     7.4240     6.3190     6.9580    23.1360     2.2090   -20.4650 
  122.5000    59.7280     7.5580     6.4100     7.0030    23.1790     2.1910   -20.9230 
  122.6250    57.3930     7.6250     6.4710     7.0900    23.1950     2.1840   -21.4030 
  122.7500    54.9390     7.6440     6.4990     7.1410    23.2020     2.1840   -21.8490 
  122.8750    54.2560     7.6310     6.5020     7.1210    23.2060     2.1860   -22.2210 
  123.0000    55.6120     7.5930     6.4870     7.0860    23.2090     2.1830   -22.4810 
  123.1250    58.2910     7.5250     6.4520     7.0590    23.2090     2.1750   -22.5760 
  123.2500    60.4450     7.4350     6.3990     7.0490    23.2150     2.1660   -22.5400 
  123.3750    60.2850     7.3440     6.3380     7.0410    23.2310     2.1610   -22.3620 
  123.5000    58.3490     7.2840     6.2880     7.0120    23.2460     2.1620   -22.0740 
  123.6250    56.9420     7.3000     6.2810     6.9420    23.2620     2.1710   -21.6910 
  123.7500    57.4080     7.3970     6.3250     6.9340    23.3030     2.1820   -21.2480 
  123.8750    57.9870     7.5550     6.4100     7.0590    23.3530     2.1900   -20.7490 
  124.0000    56.6420     7.7150     6.4990     7.2230    23.3990     2.1930   -20.2140 
  124.1250    55.0220     7.7650     6.5180     7.2850    23.4330     2.1860   -19.6270 
  124.2500    55.2230     7.6400     6.4180     7.1740    23.4460     2.1770   -18.9880 
  124.3750    56.7590     7.3290     6.1820     6.9140    23.3970     2.1750   -18.3080 
  124.5000    57.8100     6.9040     5.8500     6.5680    23.2910     2.1890   -17.5910 
  124.6250    59.3890     6.5310     5.5180     6.2040    23.1530     2.2210   -16.8860 
  124.7500    62.1100     6.3560     5.2890     5.9750    23.0540     2.2570   -16.3190 
  124.8750    64.6910     6.4450     5.2220     6.0610    22.9730     2.2830   -15.9580 
  125.0000    65.0070     6.7750     5.3310     6.5370    22.9220     2.2910   -15.8100 
  125.1250    61.0610     7.2590     5.6070     7.2370    22.9080     2.2810   -15.8810 
  125.2500    56.4030     7.7420     5.9660     7.9380    22.9560     2.2660   -16.1340 
  125.3750    54.9660     8.1490     6.3480     8.5040    23.0260     2.2540   -16.5620 
  125.5000    57.3760     8.4740     6.7140     9.0170    23.0770     2.2460   -17.1300 
  125.6250    59.4650     8.7700     7.0520     9.4860    23.1150     2.2420   -17.8020 
  125.7500    58.7080     9.1090     7.3790     9.9080    23.1280     2.2380   -18.4340 
  125.8750    56.6150     9.5000     7.7030    10.2340    23.1420     2.2350   -18.9520 
  126.0000    52.2120     9.8930     8.0050    10.4030    23.1750     2.2330   -19.3410 
  126.1250    47.6760    10.1700     8.2200    10.4310    23.2190     2.2350   -19.6190 
  126.2500    49.2900    10.2630     8.3060    10.4650    23.2020     2.2400   -19.8240 
  126.3750    55.8640    10.1520     8.2440    10.6340    23.1700     2.2440   -19.9920 
  126.5000    60.6550     9.8800     8.0550    10.8820    23.1780     2.2470   -20.1480 
  126.6250    59.9670     9.5300     7.7930    11.0100    23.1840     2.2490   -20.3010 
  126.7500    58.6430     9.2080     7.5390    10.8540    23.1660     2.2520   -20.4910 
  126.8750    57.0380     8.9620     7.3400    10.4160    23.1420     2.2560   -20.7030 
  127.0000    53.1420     8.8090     7.2230    10.0020    23.1320     2.2610   -20.9250 
  127.1250    50.0020     8.7490     7.1980     9.8810    23.1430     2.2600   -21.1570 
  127.2500    51.3650     8.7390     7.2250    10.0060    23.1750     2.2520   -21.3900 
  127.3750    55.8750     8.7480     7.2750    10.2120    23.2200     2.2370   -21.5810 
  127.5000    60.1870     8.7410     7.3180    10.3520    23.2490     2.2190   -21.6830 
  127.6250    60.6880     8.6840     7.3240    10.3420    23.2180     2.2040   -21.6320 
  127.7500    57.7440     8.5810     7.2970    10.1700    23.1370     2.1960   -21.4550 
  127.8750    53.9830     8.4600     7.2530     9.9000    23.0600     2.1960   -21.1780 
  128.0000    51.6580     8.3690     7.2190     9.6490    23.0260     2.2030   -20.8120 
  128.1250    51.7420     8.3640     7.2200     9.4900    23.0150     2.2120   -20.3580 
  128.2500    53.0590     8.4280     7.2500     9.3880    23.0360     2.2210   -19.8240 
  128.3750    55.2190     8.5000     7.2750     9.3210    23.1060     2.2260   -19.2220 
  128.5000    57.1560     8.4840     7.2430     9.2460    23.1920     2.2300   -18.5680 
  128.6250    57.5500     8.2690     7.0760     9.1450    23.2370     2.2340   -17.8660 
