~V
VERS. 2.00: Ver 2.00
~W
STRT.M 50.0000:
STOP.M 279.0000:
STEP.M 0.1250:
NULL. -999.2500:
UWI. F10075:
~C
DEPT.M :
GR.API :
RML.OHMM :
RI. :
RXO.OHMM :
CALI.CM :
DEN.GM/CC :
SP.MV :
~A
   50.0000  -999.2500  -999.2500  -999.2500  -999.2500  -999.2500     2.0080     0.0000 
   50.1250  -999.2500  -999.2500  -999.2500  -999.2500  -999.2500     1.9900     0.0000 
   50.2500  -999.2500  -999.2500  -999.2500  -999.2500  -999.2500     1.9620     0.0000 
   50.3750    46.5130    11.7780     1.1350    42.2060    25.5800     1.9370     0.0000 
   50.5000    46.5130    11.7780     1.1350    42.2060    25.5800     1.9230    32.1580 
   50.6250    46.8220    11.9740     1.1420    46.4830    25.5860     1.9230    32.8780 
   50.7500    50.0160    11.0920     1.1680    65.9660    25.5810     1.9300    34.1220 
   50.8750    50.7420    10.9280     1.1850   146.5050    25.5800     1.9370    35.7530 
   51.0000    52.7850    10.7810     1.1980   349.6470    25.5760     1.9390    37.4960 
   51.1250    55.6410    10.7420     1.2060   444.8770    25.5750     1.9360    39.0670 
   51.2500    57.9590    10.8800     1.2120   392.3520    25.5780     1.9320    40.4360 
   51.3750    59.7100    11.1990     1.2180   306.5140    25.5810     1.9300    41.5240 
   51.5000    60.6840    11.6880     1.2250   394.3320    25.5820     1.9290    42.2290 
   51.6250    61.5000    12.2750     1.2380   362.8240    25.5780     1.9290    42.2120 
   51.7500    62.0200    12.7920     1.2550   304.5120    25.5650     1.9300    41.5070 
   51.8750    62.4980    13.1100     1.2720   325.1910    25.5400     1.9320    40.1780 
   52.0000    61.2990    13.1640     1.2900   446.8020    25.5200     1.9390    38.4490 
   52.1250    57.3780    12.9300     1.3040   284.1980    25.5050     1.9490    36.8020 
   52.2500    53.1370    12.5230     1.3120   154.4670    25.4840     1.9600    35.4510 
   52.3750    49.4050    12.0140     1.3100   112.9160    25.4630     1.9680    34.3820 
   52.5000    44.7580    11.4310     1.2940   194.2780    25.4610     1.9690    33.4740 
   52.6250    39.7760    10.6750     1.2590   240.1550    25.4810     1.9650    32.8130 
   52.7500    37.0660     9.7530     1.2110   218.2610    25.5150     1.9630    32.3830 
   52.8750    36.0440     8.7990     1.1610   192.2720    25.5560     1.9700    32.1700 
   53.0000    35.0640     8.0190     1.1210   136.9170    25.6010     1.9900    32.3130 
   53.1250    35.1950     7.7100     1.1060    57.9990    25.5970     2.0240    32.9400 
   53.2500    37.6460     7.8870     1.1130    15.0960    25.5170     2.0620    34.0210 
   53.3750    41.0510     8.4300     1.1340     5.3550    25.3110     2.0970    35.5150 
   53.5000    43.6850     9.1080     1.1520     2.8160    24.9360     2.1290    37.3810 
   53.6250    45.8740     9.6170     1.1510     2.0860    24.6590     2.1600    39.5990 
   53.7500    47.1760     9.7330     1.1260     1.7460    24.7040     2.1940    42.0540 
   53.8750    47.8360     9.3670     1.0830     1.5740    24.8540     2.2330    44.8470 
   54.0000    48.9740     8.6130     1.0320     1.5540    24.8400     2.2750    48.0030 
   54.1250    50.1570     7.7460     0.9880     1.5020    24.6710     2.3160    51.4340 
   54.2500    50.7000     7.0730     0.9590     1.5100    24.5250     2.3580    54.9520 
   54.3750    51.0060     6.6970     0.9450     1.4960    24.4090     2.4050    58.4550 
   54.5000    52.0710     6.5370     0.9420     1.4720    24.2900     2.4590    61.9610 
   54.6250    55.1000     6.3720     0.9420     1.5020    24.1750     2.5170    65.3180 
   54.7500    58.0720     6.0850     0.9360     1.5730    24.0690     2.5690    68.4870 
   54.8750    57.6520     5.7360     0.9220     1.6790    23.9390     2.6020    71.2580 
   55.0000    53.1640     5.4250     0.9060     1.7810    23.8130     2.6090    73.4010 
   55.1250    48.9360     5.2450     0.8960     1.8580    23.7120     2.5870    74.6690 
   55.2500    47.9380     5.2150     0.8960     1.8570    23.6680     2.5500    75.0600 
   55.3750    48.1010     5.3080     0.9050     1.8310    23.6740     2.5050    74.4840 
   55.5000    46.5770     5.4250     0.9200     1.7980    23.7150     2.4580    72.8440 
   55.6250    44.2820     5.4440     0.9290     1.7980    23.7690     2.4130    70.0060 
   55.7500    43.4760     5.3670     0.9250     1.8660    23.8360     2.3720    66.1770 
   55.8750    44.0350     5.2460     0.9000     2.0170    24.0030     2.3350    61.5930 
   56.0000    44.7780     5.1220     0.8500     2.1620    24.3790     2.3040    56.6230 
   56.1250    44.7110     4.7860     0.7600     2.3720    24.8780     2.2830    51.3870 
   56.2500    43.9080     3.8790     0.6200     2.7620    25.2430     2.2850    45.9350 
   56.3750    42.0870     2.4570     0.4410     3.0480    25.3820     2.3320    40.3020 
   56.5000    38.9950     1.1130     0.2670     2.6080    25.3080     2.4260    34.6820 
   56.6250    36.1260     0.3170     0.1460     2.1030    25.1660     2.5240    29.5700 
   56.7500    34.4990    -0.0900     0.0780     1.8180    25.0420     2.5450    25.1290 
   56.8750    35.7920    -0.2380     0.0590     1.7960    24.9300     2.4390    21.1510 
   57.0000    41.5650    -0.1790     0.1030     2.1990    24.8880     2.2200    17.2260 
   57.1250    50.4110     0.1620     0.2780     3.4860    25.4720     1.9810    13.1140 
   57.2500    58.3950     0.8690     0.6720     5.1440    26.4710     1.8310     9.1530 
   57.3750    62.9690     2.1050     1.4250     6.2860    26.7230     1.8090     5.6850 
   57.5000    64.2530     3.8960     2.6420     7.4520    25.6180     1.8840     2.6510 
   57.6250    63.7450     5.6700     4.2120     9.0190    24.5940     1.9890    -0.1910 
   57.7500    62.7420     6.7030     5.6530     9.9810    24.1920     2.0690    -3.0020 
   57.8750    61.9310     7.0610     6.7150    10.2470    24.2050     2.1160    -5.6680 
   58.0000    62.3800     7.1590     7.4060    10.2850    24.2910     2.1440    -7.9640 
   58.1250    64.1950     7.2540     7.8020    10.3350    24.3770     2.1620    -9.6310 
   58.2500    65.4120     7.4020     8.0420    10.6120    24.4770     2.1730   -10.8980 
   58.3750    64.6430     7.6070     8.1950    11.0870    24.6840     2.1700   -12.0590 
   58.5000    63.4880     7.8420     8.3070    11.3750    24.9850     2.1530   -13.1000 
   58.6250    63.3960     8.0520     8.3890    11.1890    25.2580     2.1260   -14.0320 
   58.7500    63.4110     8.2090     8.4470    11.1210    25.4940     2.0960   -14.9030 
   58.8750    63.1290     8.3170     8.4800    10.9450    25.6140     2.0670   -15.6880 
   59.0000    63.2240     8.4240     8.4930    10.8980    25.6360     2.0460   -16.4100 
   59.1250    63.8130     8.6100     8.4990    10.9910    25.4470     2.0420   -17.0780 
   59.2500    63.3110     8.9070     8.5200    11.2540    25.1880     2.0570   -17.7290 
   59.3750    62.0500     9.3070     8.5810    11.5160    24.9430     2.0840   -18.3650 
   59.5000    62.8200     9.7650     8.7000    11.8080    24.5820     2.1090   -18.9950 
   59.6250    63.8780    10.1690     8.8750    12.0970    24.2480     2.1140   -19.5050 
   59.7500    63.2130    10.4310     9.0580    12.2420    24.1010     2.1000   -19.9080 
   59.8750    61.9380    10.4970     9.1900    12.2850    24.0810     2.0800   -20.2200 
   60.0000    61.5710    10.3540     9.2070    12.1210    24.2390     2.0680   -20.5050 
   60.1250    61.2210    10.0400     9.0570    11.6850    24.3270     2.0760   -20.7920 
   60.2500    60.9830     9.6900     8.8050    11.4000    24.2900     2.0970   -21.0730 
   60.3750    62.1570     9.3720     8.5240    10.8850    24.1700     2.1230   -21.2720 
   60.5000    62.1340     9.1140     8.2770     9.9560    24.1710     2.1430   -21.3580 
   60.6250    60.1180     8.9270     8.1060     9.6030    24.5240     2.1460   -21.4990 
   60.7500    61.1280     8.7830     7.9870     9.6230    25.0050     2.1320   -21.6500 
   60.8750    65.1460     8.6490     7.8840     9.6030    25.2970     2.1040   -21.7660 
   61.0000    67.8920     8.5030     7.7700     9.2870    25.2620     2.0700   -21.8080 
   61.1250    68.8320     8.3480     7.6360     9.1610    25.1120     2.0440   -21.7000 
