~V
VERS. 2.00: Ver 2.00
~W
STRT.M 50.0000:
STOP.M 255.0000:
STEP.M 0.1250:
NULL. -999.2500:
UWI. F10005:
~C
DEPT.M :
SP.MV :
GR.API :
RML.OHMM :
RI. :
RXO.OHMM :
CALI.CM :
DEN.GM/CC :
~A
   50.0000  -999.2500    34.1790    37.4120     1.6620     2.5780    25.7810  -999.2500 
   50.1250  -999.2500    33.7670    36.9750     1.6180     2.6180    25.7780     0.0000 
   50.2500  -999.2500    34.4520    36.6030     1.5930     2.6290    25.7730     0.0000 
   50.3750  -999.2500    34.8180    36.1690     1.5900     2.6190    25.7730     0.0000 
   50.5000  -999.2500    34.5030    35.5180     1.6010     2.6000    25.7930     0.0000 
   50.6250  -999.2500    34.0060    34.6840     1.6140     2.5760    25.8670     0.0000 
   50.7500  -999.2500    34.7050    34.0750     1.6240     2.5300    25.9960     0.0000 
   50.8750   139.0710    36.4250    34.0790     1.6360     2.4440    26.1580     1.5200 
   51.0000   139.0710    37.6570    34.8400     1.6490     2.2750    26.2960     2.0500 
   51.1250   139.7370    37.4370    36.1420     1.6590     2.0010    26.3170     2.0700 
   51.2500   140.7790    35.9720    37.3790     1.6650     1.7470    26.2390     2.0740 
   51.3750   141.8710    34.4520    38.1500     1.6600     1.6870    26.1280     2.0680 
   51.5000   142.5040    33.8700    38.1890     1.6340     1.7460    26.0610     2.0670 
   51.6250   142.3340    34.0880    37.2130     1.5750     1.8500    26.1050     2.0830 
   51.7500   141.6440    34.4430    35.3950     1.4940     1.9470    26.1980     2.1160 
   51.8750   140.5590    34.3040    33.0460     1.4140     2.0370    26.2300     2.1570 
   52.0000   139.2630    34.7210    30.7240     1.3620     2.0200    26.1580     2.1970 
   52.1250   137.8430    35.2150    29.0510     1.3610     1.9700    25.9860     2.2330 
   52.2500   136.5270    36.0260    28.1040     1.3990     2.0010    25.8050     2.2660 
   52.3750   135.4800    37.5770    27.6830     1.4590     2.1240    25.6830     2.2990 
   52.5000   135.0660    38.2710    27.4180     1.5230     2.2360    25.6390     2.3310 
   52.6250   135.4730    36.9190    26.9740     1.5750     2.2910    25.6360     2.3550 
   52.7500   136.1950    35.3470    26.3250     1.6070     2.2920    25.6360     2.3720 
   52.8750   136.8560    35.4000    25.6850     1.6130     2.2810    25.6360     2.3860 
   53.0000   137.1430    36.6150    25.3050     1.5930     2.2760    25.6360     2.4020 
   53.1250   136.8800    38.5690    25.2990     1.5530     2.3090    25.6360     2.4200 
   53.2500   136.2720    41.0550    25.4350     1.5110     2.3320    25.6360     2.4360 
   53.3750   135.8570    41.9770    25.4520     1.4810     2.2730    25.6360     2.4460 
   53.5000   135.9340    40.3580    25.1790     1.4690     2.2450    25.6360     2.4490 
   53.6250   136.5320    38.9500    24.5770     1.4790     2.2870    25.6360     2.4510 
   53.7500   137.4500    41.0030    23.8310     1.5010     2.4240    25.6360     2.4570 
   53.8750   138.5830    46.0120    23.0850     1.5280     2.5660    25.6360     2.4660 
   54.0000   139.7030    51.3550    22.3950     1.5500     2.6540    25.6360     2.4770 
   54.1250   140.7640    54.0590    21.7050     1.5570     2.7050    25.6360     2.4860 
   54.2500   141.8560    54.8190    20.9090     1.5500     2.7610    25.6360     2.4940 
   54.3750   142.7950    55.1490    19.9470     1.5310     2.7320    25.6360     2.5030 
   54.5000   143.3170    55.2320    18.8930     1.5090     2.6620    25.6360     2.5150 
   54.6250   143.1810    54.4920    18.0200     1.4970     2.6620    25.6360     2.5240 
   54.7500   142.5210    53.6600    17.5710     1.4970     2.6510    25.6360     2.5260 
   54.8750   141.4730    53.9780    17.6110     1.5070     2.6200    25.6360     2.5210 
   55.0000   140.3010    55.2000    17.9670     1.5230     2.5630    25.6360     2.5120 
   55.1250   139.0650    55.8340    18.2690     1.5350     2.5070    25.6360     2.5090 
   55.2500   137.8620    55.2950    18.2620     1.5390     2.4820    25.6380     2.5140 
   55.3750   136.5850    52.2410    17.9160     1.5430     2.4860    25.6390     2.5240 
   55.5000   135.1760    46.6300    17.3330     1.5540     2.4960    25.6400     2.5340 
   55.6250   133.7120    42.5990    16.6650     1.5800     2.5020    25.6270     2.5410 
   55.7500   132.1520    44.2390    16.0540     1.6140     2.5990    25.6070     2.5430 
   55.8750   130.3240    49.2600    15.5510     1.6480     2.7260    25.5760     2.5430 
   56.0000   128.1500    52.6140    15.1420     1.6720     2.8070    25.5360     2.5430 
   56.1250   125.4050    51.2440    14.8190     1.6750     2.8410    25.5340     2.5420 
   56.2500   121.9350    48.9120    14.5440     1.6580     2.8580    25.5290     2.5400 
   56.3750   117.7640    48.2290    14.1870     1.6090     2.8080    25.5200     2.5320 
   56.5000   113.0170    49.1350    13.3580     1.5000     2.6660    25.5080     2.5200 
   56.6250   107.5530    49.6800    11.2960     1.2620     2.4990    25.4980     2.5050 
   56.7500   101.7530    49.0300     8.2740     0.9240     2.4310    25.4870     2.4950 
   56.8750    96.1190    47.3940     5.2230     0.5820     2.3060    25.4660     2.4990 
   57.0000    90.9010    45.4270     2.9390     0.3290     2.1270    25.4060     2.5250 
   57.1250    86.2170    43.7590     1.7060     0.2000     2.0720    25.2730     2.5720 
   57.2500    81.5360    43.4950     1.1480     0.1540     2.0950    25.0640     2.6110 
   57.3750    76.1540    46.6290     1.1130     0.1880     2.2500    24.8120     2.6130 
   57.5000    69.4780    52.7420     1.5750     0.3380     3.1100    24.5750     2.5570 
   57.6250    61.6260    58.9460     2.7200     0.7690     6.6770    24.4180     2.4460 
   57.7500    53.4440    62.5300     4.5150     1.6650    11.2490    24.3940     2.3260 
   57.8750    45.0600    63.8280     6.7090     3.2010    13.6870    24.5340     2.2310 
   58.0000    36.5190    64.1910     8.6290     5.2570    13.8460    24.7990     2.1750 
   58.1250    27.9400    64.7120     9.6950     7.3860    13.7820    25.1020     2.1530 
   58.2500    19.8420    65.9790    10.5920     9.4380    13.7980    25.3420     2.1480 
   58.3750    12.8890    66.7050    12.1060    11.7460    14.1440    25.4830     2.1650 
   58.5000     7.6360    64.7180    14.7840    14.7830    16.3090    25.5380     2.2160 
   58.6250     4.1510    61.5930    19.1100    19.0110    24.6670    25.5220     2.3100 
   58.7500     1.4920    60.5390    24.2640    23.6880    43.0670    25.4370     2.4170 
   58.8750    -0.6600    61.4810    28.3060    27.1180    60.7410    25.2730     2.5030 
   59.0000    -2.5100    61.9870    28.8840    27.4990    63.2290    25.0570     2.5330 
   59.1250    -4.1520    61.4550    25.6760    24.6120    41.7590    24.8760     2.4910 
   59.2500    -5.5970    60.0160    21.8080    20.9630    26.2890    24.8300     2.4060 
   59.3750    -6.8600    57.8840    18.8600    17.9250    18.2540    24.9270     2.3070 
   59.5000    -7.9970    56.2090    17.3110    16.0040    16.1790    25.1040     2.2200 
   59.6250    -8.9810    55.6560    17.2450    15.3630    16.3760    25.2360     2.1610 
   59.7500    -9.8290    55.7100    18.0860    15.6050    16.9710    25.2800     2.1300 
   59.8750   -10.5500    56.0310    19.4160    16.4570    18.2800    25.2740     2.1190 
   60.0000   -11.1450    56.4810    20.7130    17.5290    19.1730    25.2430     2.1180 
   60.1250   -11.5610    56.1190    21.2160    18.2150    19.2660    25.2030     2.1190 
   60.2500   -11.8810    56.0950    20.6460    18.1500    19.1640    25.1650     2.1180 
   60.3750   -12.1720    57.7350    19.1660    17.3350    19.0470    25.1270     2.1210 
   60.5000   -12.4300    60.1900    17.3170    16.1060    17.3460    25.0700     2.1320 
   60.6250   -12.6500    62.3810    15.8810    15.0080    14.1850    24.9760     2.1530 
   60.7500   -12.8420    65.1710    15.3040    14.4090    12.0920    24.8440     2.1720 
   60.8750   -13.0350    68.0180    15.6540    14.3950    12.7170    24.6750     2.1820 
   61.0000   -13.1880    68.1650    16.6050    14.7800    14.7720    24.4630     2.1800 
   61.1250   -13.3380    64.5420    17.2710    15.0140    15.7420    24.2350     2.1750 
