~V
VERS. 2.00: Ver 2.00
~W
STRT.M 56.0000:
STOP.M 235.0000:
STEP.M 0.1250:
NULL. -999.2500:
UWI. F10014:
~C
DEPT.M :
GR.API :
RML.OHMM :
RI. :
RXO.OHMM :
CALI.CM :
DEN.GM/CC :
SP.MV :
~A
# ...
  101.0000    60.7590    13.4150    11.6740    14.4390    25.4130     2.1490   -22.2820 
  101.1250    60.0980    12.8950    11.3160    14.0410    25.3420     2.1300   -22.1280 
  101.2500    61.4560    12.3410    10.9170    13.4110    25.2750     2.1120   -21.9390 
  101.3750    63.7470    11.8700    10.5660    12.9130    25.1510     2.1040   -21.7330 
  101.5000    65.4440    11.5690    10.3280    12.1610    24.9710     2.1130   -21.5780 
  101.6250    65.1100    11.4950    10.2600    11.9710    24.9340     2.1280   -21.4950 
  101.7500    63.9250    11.5450    10.3020    11.7340    25.0850     2.1350   -21.3480 
  101.8750    63.0910    11.5830    10.3580    11.6340    25.2880     2.1280   -21.1000 
  102.0000    62.6740    11.4640    10.3090    11.5900    25.3790     2.1180   -20.7720 
  102.1250    66.3700    11.0630    10.0320    11.7080    25.2500     2.1260   -20.2970 
  102.2500    74.4790    10.4590     9.5670    11.6790    25.0320     2.1590   -19.6630 
  102.3750    83.2690     9.7740     9.0000    10.7260    24.8430     2.2070   -18.8880 
  102.5000    89.4700     9.1590     8.4530     9.1650    24.6460     2.2550   -17.9510 
  102.6250    91.4490     8.7550     8.0460     8.8610    24.4490     2.2860   -16.9340 
  102.7500    89.4110     8.8450     7.7850     8.7800    24.2970     2.3020   -16.0100 
  102.8750    86.3370     9.0600     7.6360     8.6170    24.2460     2.3080   -15.2270 
  103.0000    87.3890     9.0090     7.5400     8.2920    24.2820     2.3120   -14.5800 
  103.1250    91.7590     8.8940     7.4260     8.1910    24.3990     2.3170   -14.0860 
  103.2500    93.2880     8.6810     7.2560     7.7460    24.5760     2.3240   -13.7420 
  103.3750    93.5570     8.3990     7.0410     7.4530    24.7650     2.3350   -13.5690 
  103.5000    94.9990     8.1310     6.8390     7.2010    24.8970     2.3520   -13.5640 
  103.6250    94.1630     8.0390     6.7640     7.1970    24.9600     2.3700   -13.6420 
  103.7500    90.1960     8.2290     6.8990     7.0580    24.9830     2.3790   -13.7200 
  103.8750    85.1400     8.7430     7.2880     7.2560    25.0000     2.3700   -13.8190 
  104.0000    80.3300     9.5130     7.9060     7.9890    25.0090     2.3410   -13.9670 
  104.1250    76.4950    10.3490     8.6310     9.2870    25.0210     2.2980   -14.1070 
  104.2500    75.4320    10.9840     9.2300    10.6840    25.0010     2.2620   -14.1850 
  104.3750    77.3780    11.2380     9.5170    10.6110    24.9550     2.2450   -14.1690 
  104.5000    80.1620    11.0520     9.4020     8.9790    24.9140     2.2500   -14.0690 
  104.6250    83.1800    10.4510     8.8860     8.0790    24.8760     2.2670   -13.9410 
  104.7500    86.0340     9.6460     8.1730     8.2630    24.8560     2.2820   -13.8130 
  104.8750    89.2130     8.7730     7.4000     8.3330    24.8330     2.2940   -13.6810 
  105.0000    93.3840     7.9820     6.7080     7.4250    24.8030     2.3060   -13.5350 
  105.1250    97.4490     7.5200     6.2790     6.3430    24.8200     2.3240   -13.4370 
  105.2500    98.6760     7.5300     6.1930     6.1380    24.8310     2.3380   -13.4500 
  105.3750    95.0900     8.1500     6.5370     6.5900    24.8140     2.3380   -13.6120 
  105.5000    88.1880     9.4650     7.3890     8.0000    24.7720     2.3190   -13.8980 
  105.6250    80.9140    11.5120     8.8770    10.8110    24.6920     2.2820   -14.2150 
  105.7500    74.7080    13.8710    10.7820    13.2690    24.5960     2.2440   -14.5170 
  105.8750    69.2460    16.0590    12.7620    13.8590    24.5350     2.2100   -14.8240 
  106.0000    63.8480    17.5190    14.3090    13.5210    24.5100     2.1840   -15.1420 
  106.1250    62.0870    17.6050    14.7380    13.1450    24.5400     2.1630   -15.4450 
  106.2500    65.3210    16.5440    14.1160    12.8650    24.5150     2.1450   -15.7290 
  106.3750    71.3910    14.8080    12.8180    12.4110    24.2680     2.1340   -15.9360 
  106.5000    74.2140    13.0050    11.3670    12.5120    23.9220     2.1360   -15.9990 
  106.6250    73.1180    11.7680    10.2630    11.4730    23.7130     2.1550   -15.9920 
  106.7500    72.8190    11.3400     9.7010     9.8440    23.5740     2.1820   -16.0300 
  106.8750    71.9500    11.7770     9.7570    10.2620    23.4440     2.2020   -16.0890 
  107.0000    67.9740    12.9210    10.4000    11.9720    23.5530     2.2070   -16.1120 
  107.1250    64.7570    14.3950    11.5070    13.7080    23.8490     2.1920   -16.0950 
  107.2500    66.8200    15.5830    12.6440    14.3070    23.9980     2.1710   -16.0550 
  107.3750    70.4780    16.0920    13.4370    13.9120    24.0060     2.1550   -15.9730 
  107.5000    71.6290    15.8910    13.7110    12.9810    23.9190     2.1490   -15.8910 
  107.6250    69.9440    15.3640    13.6140    13.0570    23.9030     2.1500   -15.8010 
  107.7500    68.3380    15.0850    13.5740    13.0430    23.9130     2.1520   -15.6550 
  107.8750    67.2160    15.2710    13.8090    12.9210    23.9460     2.1490   -15.4840 
  108.0000    65.8300    15.8100    14.3230    13.0500    23.9450     2.1400   -15.2950 
  108.1250    64.3970    16.1680    14.7750    13.5660    23.9190     2.1240   -15.1220 
  108.2500    64.9580    15.7490    14.6140    14.1720    23.8950     2.1080   -14.9630 
  108.3750    69.0490    14.3250    13.5330    14.1680    23.9200     2.1050   -14.7820 
  108.5000    76.4630    12.1820    11.7240    12.8140    23.9970     2.1290   -14.5460 
  108.6250    86.0270    10.0140     9.7830     9.4810    24.1340     2.1880   -14.2930 
  108.7500    93.7210     8.3760     8.2270     6.9340    24.3910     2.2660   -14.0290 
  108.8750    98.0420     7.4160     7.1990     5.8440    24.7020     2.3400   -13.6930 
  109.0000   100.4210     7.0480     6.6660     5.8240    24.9490     2.3930   -13.3190 
  109.1250   100.5640     7.0950     6.5290     6.1030    25.0200     2.4130   -12.9320 
  109.2500    97.3500     7.2110     6.5180     6.0060    25.0220     2.4140   -12.5500 
  109.3750    92.7840     7.1750     6.4360     5.6910    25.0240     2.4080   -12.2710 
  109.5000    92.7580     6.8740     6.1600     5.5260    25.0580     2.4010   -12.0820 
  109.6250    96.8000     6.3770     5.7260     5.4670    25.1080     2.3910   -11.8820 
  109.7500    97.4100     6.0000     5.3760     5.4960    25.1310     2.3800   -11.7050 
  109.8750    94.1210     6.0570     5.3330     5.5640    25.1110     2.3760   -11.6290 
  110.0000    89.4770     6.8440     5.8040     6.0510    25.0940     2.3940   -11.6510 
  110.1250    84.2880     8.8520     7.1780     7.9970    25.1010     2.4450   -11.7490 
  110.2500    76.0730    12.0860     9.6170    14.7240    25.0640     2.5000   -11.8440 
  110.3750    65.8070    16.3160    13.1860    31.3530    24.9770     2.5250   -11.8750 
  110.5000    57.8840    20.6850    17.3760    42.2430    24.9360     2.4930   -11.9000 
  110.6250    55.9340    23.5260    20.6780    31.0340    25.0550     2.4010   -11.8980 
  110.7500    57.3050    24.3930    22.2560    24.8660    25.2200     2.2950   -11.8240 
  110.8750    57.6470    23.9870    22.4720    23.7480    25.3500     2.2090   -11.6560 
  111.0000    55.9310    23.4180    22.2060    24.0300    25.4250     2.1590   -11.4460 
  111.1250    55.0690    23.4750    22.1690    24.2960    25.4890     2.1430   -11.2760 
  111.2500    54.2550    24.0210    22.4470    24.7980    25.5690     2.1370   -11.1510 
  111.3750    54.3070    24.7100    22.8610    25.3470    25.6470     2.1330   -11.0730 
  111.5000    56.6670    25.2670    23.2240    25.8310    25.6940     2.1280   -11.0320 
  111.6250    57.4660    25.5770    23.4300    25.6390    25.7190     2.1210   -11.0260 
  111.7500    54.3670    25.8510    23.5910    25.5790    25.7440     2.1140   -11.0920 
  111.8750    52.7100    26.3900    23.9180    25.4700    25.7530     2.1070   -11.2550 
  112.0000    56.3120    27.3020    24.5320    24.7290    25.7200     2.1020   -11.4580 
  112.1250    59.0340    28.0660    25.0780    23.4330    25.5980     2.1100   -11.6250 
