~V
VERS. 2.00: Ver 2.00
~W
STRT.M 57.0000:
STOP.M 177.0000:
STEP.M 0.1250:
NULL. -999.2500:
UWI. F10011:
~C
DEPT.M :
DEN.GM/CC :
SP.MV :
GR.API :
CALI.CM :
RXO.OHMM :
RI. :
RML.OHMM :
~A
# ...
  135.7500     2.2010   -19.7730    71.0070    22.6720    39.4190    62.7530    65.9980 
  135.8750     2.1980   -19.8860    70.4170    22.3850    36.7420    65.4240    69.4670 
  136.0000     2.1940   -19.9590    73.2590    22.2500    37.8500    67.8090    72.6240 
  136.1250     2.1870   -20.0260    77.4430    22.2240    38.1050    69.3460    74.5990 
  136.2500     2.1760   -20.0810    80.2220    22.1630    36.7410    70.0350    75.3180 
  136.3750     2.1650   -20.1590    79.6770    22.0110    36.1220    70.1440    75.1500 
  136.5000     2.1620   -20.2090    75.7660    21.9270    37.7750    70.0980    74.7390 
  136.6250     2.1720   -20.2110    71.8780    21.9630    41.6710    70.4150    74.8410 
  136.7500     2.1800   -20.2370    70.1190    22.1300    47.9680    71.3660    75.7370 
  136.8750     2.1790   -20.2350    69.6100    22.4270    57.6360    72.9900    77.3640 
  137.0000     2.1710   -20.2640    70.8690    22.8840    68.7030    75.1310    79.4710 
  137.1250     2.1690   -20.3280    72.5000    23.4070    77.9540    77.5580    81.7930 
  137.2500     2.1780   -20.4260    71.3650    23.7860    83.6520    79.9330    84.0530 
  137.3750     2.1950   -20.4780    69.1760    23.9410    85.4010    82.0060    86.0260 
  137.5000     2.2120   -20.5810    69.8890    23.9680    85.3320    83.5850    87.4500 
  137.6250     2.2230   -20.6970    73.6090    23.9570    88.5900    84.4350    87.9090 
  137.7500     2.2320   -20.7520    75.7000    23.9430    91.3800    84.6190    87.4380 
  137.8750     2.2400   -20.7750    74.6320    23.9430    89.7750    84.2610    86.3140 
  138.0000     2.2430   -20.7830    70.9190    23.9410    84.3210    83.6830    85.1570 
  138.1250     2.2310   -20.8010    67.0420    23.9350    79.1970    83.4340    84.9030 
  138.2500     2.2090   -20.7890    67.1490    23.9480    77.8690    83.8100    85.2860 
  138.3750     2.1910   -20.8130    71.1630    23.9620    80.5270    84.6850    86.1780 
  138.5000     2.1900   -20.8010    74.7800    23.9560    86.2630    85.4310    86.9390 
  138.6250     2.2130   -20.8450    73.8680    23.8460    88.4160    84.8300    86.3260 
  138.7500     2.2470   -20.9050    70.2620    23.6310    83.2030    82.4670    83.9160 
  138.8750     2.2820   -20.9320    67.8820    23.4840    74.0810    78.6420    80.0150 
  139.0000     2.3120   -20.9110    69.0400    23.5240    66.5890    74.3130    75.5990 
  139.1250     2.3310   -20.9230    71.3590    23.6970    63.7500    70.8850    72.1020 
  139.2500     2.3310   -20.9690    71.4940    23.6770    62.7800    69.0480    70.2290 
  139.3750     2.3050   -20.9870    71.1430    23.5020    64.7060    68.9050    70.0830 
  139.5000     2.2590   -21.0080    72.0780    23.3280    66.8920    70.1040    71.3060 
  139.6250     2.2120   -21.0590    71.4310    23.2350    67.0630    71.9660    73.2050 
  139.7500     2.1800   -21.1640    68.0080    23.1660    65.2740    73.5110    74.7810 
  139.8750     2.1650   -21.2740    66.8420    23.0760    63.2770    74.1630    75.4460 
  140.0000     2.1590   -21.4050    71.2620    22.9690    62.2410    73.7260    75.0010 
  140.1250     2.1520   -21.5070    76.5680    22.8580    62.2400    72.3170    73.5640 
  140.2500     2.1480   -21.6340    76.5160    22.7960    61.1590    70.6360    71.8490 
  140.3750     2.1580   -21.7470    71.9680    22.7630    58.5690    69.2100    70.3940 
  140.5000     2.1810   -21.8320    68.0320    22.7370    55.9450    68.4160    69.5850 
  140.6250     2.1950   -21.8940    68.3720    22.6720    55.3770    68.5340    69.7050 
  140.7500     2.1880   -21.9840    69.1610    22.5610    57.6140    69.3420    70.5290 
  140.8750     2.1750   -22.1110    69.2960    22.4670    59.4570    70.5710    71.7820 
  141.0000     2.1700   -22.2220    70.4100    22.3870    58.0690    71.7860    73.0220 
  141.1250     2.1750   -22.2950    73.3280    22.3210    55.0080    72.4220    73.6710 
  141.2500     2.1780   -22.3470    75.2030    22.2660    53.3390    72.4140    73.6630 
  141.3750     2.1770   -22.4500    74.3520    22.2290    51.3580    71.9690    73.2080 
  141.5000     2.1790   -22.5150    73.0790    22.2060    48.3740    71.3930    72.6200 
  141.6250     2.1830   -22.5440    72.7310    22.2130    46.8960    70.8000    72.0160 
  141.7500     2.1830   -22.5670    73.4380    22.2240    50.1750    69.8980    71.0960 
  141.8750     2.1750   -22.6080    75.7150    22.2060    56.1820    68.1860    69.3490 
  142.0000     2.1660   -22.6370    77.4660    22.1640    60.2100    65.2610    66.3660 
  142.1250     2.1700   -22.6570    75.5430    22.0930    59.3430    60.9670    61.9860 
  142.2500     2.1850   -22.6680    72.9470    22.0120    55.6510    56.0670    56.9890 
  142.3750     2.1990   -22.6420    72.5750    21.9780    50.4190    51.3070    52.1340 
  142.5000     2.2060   -22.6430    72.4830    21.9760    45.4690    47.3840    48.1320 
  142.6250     2.2060   -22.6110    69.4630    21.9590    42.5810    44.9860    45.6860 
  142.7500     2.2040   -22.5330    67.4760    21.8940    42.4900    44.0160    44.6970 
  142.8750     2.2000   -22.4740    70.4240    21.7740    43.8550    44.4020    45.0900 
  143.0000     2.1950   -22.5030    74.2290    21.6270    44.9110    46.0640    46.7850 
  143.1250     2.1920   -22.5390    73.9690    21.5390    44.4460    49.2200    50.0050 
  143.2500     2.1880   -22.6340    71.9980    21.5250    43.7510    53.7130    54.5870 
  143.3750     2.1780   -22.7830    71.4420    21.6000    44.4470    59.5250    60.5160 
  143.5000     2.1660   -22.9790    72.2890    21.6810    48.8760    66.4860    67.6160 
  143.6250     2.1680   -23.2000    72.0040    21.7140    58.2460    74.1740    75.4570 
  143.7500     2.1800   -23.4000    70.6020    21.8490    73.2550    81.4850    82.9140 
  143.8750     2.1850   -23.5900    69.2030    22.2490    90.8970    87.2220    88.7660 
  144.0000     2.1770   -23.7350    68.9430    22.8880   104.9990    90.3360    91.9430 
  144.1250     2.1630   -23.8770    70.7620    23.4850   109.0450    89.9320    91.5300 
  144.2500     2.1540   -23.9120    72.8150    23.8400   106.1100    87.0690    88.6110 
  144.3750     2.1460   -23.9240    73.8450    23.9520    99.0320    82.7650    84.2200 
  144.5000     2.1310   -23.9610    74.0710    23.9640    90.7060    78.0590    79.4200 
  144.6250     2.1130   -23.9550    74.2500    23.9640    83.0360    73.8490    75.1260 
  144.7500     2.1040   -23.9000    75.5570    23.9640    76.6990    70.6170    71.8290 
  144.8750     2.1040   -23.8270    77.5400    23.9640    72.0360    68.8510    70.0280 
  145.0000     2.1030   -23.7530    77.9670    23.9640    71.1260    69.0280    70.2080 
  145.1250     2.0990   -23.6360    75.6410    23.9640    75.0970    71.6480    72.8810 
  145.2500     2.1000   -23.5310    72.9950    23.9640    84.2030    75.7320    77.0470 
  145.3750     2.1080   -23.4160    72.8270    23.9640    99.2330    79.9520    81.3520 
  145.5000     2.1160   -23.3080    74.1100    23.9640   112.2330    82.5920    84.0440 
  145.6250     2.1210   -23.2180    75.6010    23.9640   108.1810    81.7350    83.1690 
  145.7500     2.1300   -23.1740    77.6410    23.9600    91.7050    78.0330    79.3930 
  145.8750     2.1390   -23.1250    79.1590    23.9450    76.7550    72.9200    74.1790 
  146.0000     2.1410   -23.1010    78.7150    23.9120    69.2190    68.0860    69.2470 
  146.1250     2.1300   -23.0870    77.3150    23.8950    68.7800    64.8840    65.9810 
  146.2500     2.1200   -23.0760    77.2480    23.8900    71.8720    63.0350    64.0960 
  146.3750     2.1180   -23.1110    77.1280    23.8970    76.4940    61.8090    62.8450 
  146.5000     2.1270   -23.0950    75.8550    23.9150    76.7920    60.4100    61.4180 
  146.6250     2.1420   -23.1020    75.3390    23.9400    68.3150    58.3480    59.3150 
  146.7500     2.1530   -23.1280    76.5710    23.9540    57.0530    55.9430    56.8610 
  146.8750     2.1600   -23.1270    77.1740    23.9590    50.6030    53.6610    54.5350 
