~V
VERS. 2.00: Ver 2.00
~W
STRT.M 51.0000:
STOP.M 262.0000:
STEP.M 0.1250:
NULL. -999.2500:
UWI. F10019:
~C
DEPT.M :
DEN.GM/CC :
SP.MV :
GR.API :
CALI.CM :
RXO.OHMM :
RI. :
RML.OHMM :
~A
# ...
  186.0000     2.3890    -2.0620    51.7100    24.2390    18.0810    15.4100    16.3350 
  186.1250     2.3410    -2.1900    55.0180    24.1380    19.0820    15.5680    16.6640 
  186.2500     2.3280    -2.3270    56.8860    24.1290    20.2210    15.9500    17.2140 
  186.3750     2.3490    -2.5070    58.1690    24.1460    21.2130    16.4620    17.8260 
  186.5000     2.3730    -2.6170    58.3110    24.1360    21.3930    16.9620    18.2940 
  186.6250     2.3810    -2.7210    56.3500    24.1160    21.0320    17.3500    18.5620 
  186.7500     2.3870    -2.7790    53.9950    24.1100    21.0850    17.6190    18.6890 
  186.8750     2.4020    -2.8790    52.2070    24.1590    21.7650    17.8310    18.8240 
  187.0000     2.4170    -2.9540    51.7490    24.3400    22.7120    18.1170    19.1590 
  187.1250     2.4200    -3.0110    53.4430    24.4610    23.2040    18.5510    19.7380 
  187.2500     2.4140    -3.0620    57.1680    24.4610    24.0560    19.1240    20.4920 
  187.3750     2.4120    -3.1110    60.0050    24.3890    26.1510    19.7290    21.2340 
  187.5000     2.4230    -3.2350    58.9630    24.3340    27.2550    20.1340    21.6590 
  187.6250     2.4350    -3.3580    57.6020    24.3120    26.7450    20.2040    21.6510 
  187.7500     2.4370    -3.5280    57.6610    24.3020    24.7670    19.9230    21.2350 
  187.8750     2.4290    -3.6360    57.7800    24.2660    22.5980    19.3990    20.5810 
  188.0000     2.4240    -3.7760    56.2030    24.1910    21.5170    18.8320    19.9420 
  188.1250     2.4270    -3.8920    54.1650    24.1440    21.1890    18.3950    19.4970 
  188.2500     2.4250    -3.9670    52.4480    24.1590    21.1810    18.1370    19.2830 
  188.3750     2.4100    -4.0140    51.7790    24.1860    21.2770    18.0260    19.2440 
  188.5000     2.3900    -3.9830    54.8420    24.1940    21.2110    18.0270    19.3120 
  188.6250     2.3790    -3.9500    58.9300    24.2460    20.7100    18.1150    19.4410 
  188.7500     2.3770    -3.8340    60.6090    24.3670    20.3820    18.3070    19.6480 
  188.8750     2.3800    -3.7580    58.9870    24.4550    21.0040    18.6040    19.9440 
  189.0000     2.3900    -3.6480    55.6150    24.4550    22.8080    18.9510    20.2660 
  189.1250     2.4070    -3.5530    52.5420    24.4320    24.6460    19.2050    20.4610 
  189.2500     2.4150    -3.4820    50.6540    24.4010    25.2060    19.2580    20.3900 
  189.3750     2.4030    -3.4530    50.8600    24.3700    24.0210    19.0870    20.0250 
  189.5000     2.3820    -3.5280    53.0740    24.4090    22.5420    18.7480    19.4950 
  189.6250     2.3820    -3.5780    55.4600    24.4250    21.3080    18.3850    19.0340 
  189.7500     2.4040    -3.6560    56.8360    24.3830    20.9160    18.0820    18.7580 
  189.8750     2.4260    -3.6780    57.4670    24.3220    21.4620    17.8860    18.6850 
  190.0000     2.4300    -3.7530    59.0200    24.3390    21.8770    17.8170    18.7740 
  190.1250     2.4250    -3.8310    61.4480    24.3610    21.4670    17.8170    18.9100 
  190.2500     2.4170    -3.9000    62.3870    24.3610    20.4180    17.8520    19.0360 
  190.3750     2.4070    -3.9650    60.2640    24.3150    19.8280    17.9030    19.1250 
  190.5000     2.3960    -3.9930    56.1920    24.2150    20.3150    17.9790    19.1360 
  190.6250     2.3860    -4.0540    53.2100    24.1540    21.1870    18.0990    19.0960 
  190.7500     2.3770    -4.0730    53.0880    24.1870    21.6260    18.2670    19.0850 
  190.8750     2.3740    -4.1240    56.0390    24.2210    21.4950    18.4550    19.1720 
  191.0000     2.3820    -4.1100    59.2690    24.2010    21.3110    18.6060    19.3850 
  191.1250     2.3920    -4.0630    60.4610    24.2300    21.6380    18.7080    19.6460 
  191.2500     2.3930    -3.9380    59.1990    24.3220    21.9460    18.7670    19.8650 
  191.3750     2.3860    -3.7520    57.0230    24.3240    21.6560    18.7810    19.9640 
  191.5000     2.3850    -3.5470    56.7270    24.1920    21.2390    18.7080    19.8830 
  191.6250     2.3890    -3.3400    57.0210    24.1020    21.4260    18.5400    19.6950 
  191.7500     2.3910    -3.1550    56.0390    24.0890    21.8790    18.3150    19.4940 
  191.8750     2.3880    -2.9280    53.7590    24.0870    21.8750    18.1400    19.4100 
  192.0000     2.3860    -2.7880    52.3200    24.0800    21.1130    18.2020    19.6350 
  192.1250     2.3950    -2.6720    52.7000    24.1290    21.2000    18.5650    20.1930 
  192.2500     2.4150    -2.6290    53.8370    24.1750    22.9640    19.2070    21.0310 
  192.3750     2.4380    -2.6350    55.2800    24.1770    26.2250    19.9960    21.9780 
  192.5000     2.4500    -2.6840    56.0760    24.1580    28.0800    20.6390    22.6780 
  192.6250     2.4430    -2.7730    55.8840    24.1460    26.9020    20.8830    22.8620 
  192.7500     2.4230    -2.8980    55.6540    24.0750    24.2270    20.6360    22.4660 
  192.8750     2.4000    -3.0620    55.5390    23.9750    22.3280    20.0130    21.6720 
  193.0000     2.3950    -3.1830    54.8300    23.9290    21.5570    19.2780    20.8370 
  193.1250     2.4080    -3.3770    52.5780    23.9160    21.0560    18.7160    20.2830 
  193.2500     2.4300    -3.5790    50.3110    23.9250    20.9060    18.4590    20.1450 
  193.3750     2.4450    -3.8000    50.1990    24.0020    21.6920    18.5450    20.4440 
  193.5000     2.4500    -3.9760    52.4170    24.0800    23.1070    18.9620    21.1020 
  193.6250     2.4490    -4.1330    55.1690    24.1170    24.4730    19.5060    21.8030 
  193.7500     2.4480    -4.2630    56.9250    24.0910    25.5720    19.9810    22.2810 
  193.8750     2.4480    -4.3370    56.7930    24.0320    26.2840    20.1960    22.3360 
  194.0000     2.4440    -4.4520    55.8660    23.9670    25.9340    19.9970    21.8750 
  194.1250     2.4360    -4.4960    56.5270    23.9700    24.0540    19.5170    21.1520 
  194.2500     2.4280    -4.5360    58.9560    24.0480    22.0690    18.9080    20.3890 
  194.3750     2.4180    -4.5020    60.4370    24.1270    21.2470    18.3110    19.7320 
  194.5000     2.4020    -4.4810    59.7700    24.1320    21.6170    17.8310    19.2410 
  194.6250     2.3780    -4.4470    60.5760    24.0450    21.8510    17.4440    18.8530 
  194.7500     2.3560    -4.4230    65.0280    23.9410    21.2420    17.0730    18.4840 
  194.8750     2.3500    -4.4230    69.7090    23.8820    19.5130    16.6250    18.0410 
  195.0000     2.3680    -4.3270    70.4300    23.7950    17.4660    16.0370    17.4610 
  195.1250     2.4030    -4.2460    69.5750    23.5860    16.0600    15.3850    16.8230 
  195.2500     2.4380    -4.1380    69.4580    23.3390    15.5470    14.7760    16.2250 
  195.3750     2.4600    -4.0450    67.9330    23.2060    15.3080    14.3000    15.7430 
  195.5000     2.4600    -3.9060    63.2080    23.3490    14.8030    14.0170    15.4290 
  195.6250     2.4430    -3.7430    59.5720    23.6290    14.4250    13.8680    15.2250 
  195.7500     2.4180    -3.5610    57.4030    23.8210    14.2700    13.8140    15.0930 
  195.8750     2.4000    -3.3430    55.1880    23.7810    14.2080    13.8270    15.0120 
  196.0000     2.4030    -3.2040    53.8550    23.5720    14.0120    13.8750    14.9750 
  196.1250     2.4160    -3.0590    54.4020    23.4120    14.1080    13.9220    14.9540 
  196.2500     2.4250    -2.9470    56.1850    23.3520    14.7540    13.9640    14.9280 
  196.3750     2.4240    -2.8310    56.8160    23.4400    15.4180    14.0090    14.8850 
  196.5000     2.4230    -2.7530    56.2230    23.6720    15.3380    14.0180    14.7790 
  196.6250     2.4260    -2.6720    55.0540    23.9320    14.9030    13.8850    14.5060 
  196.7500     2.4300    -2.5910    53.1480    24.1120    14.5440    13.5040    13.9510 
  196.8750     2.4260    -2.5930    51.3900    24.2070    14.0860    12.8540    13.1130 
  197.0000     2.4070    -2.5440    53.4060    24.2220    12.9620    12.0650    12.1830 
  197.1250     2.3820    -2.5290    60.4430    24.2110    11.7380    11.3630    11.4450 
