~V
VERS. 2.00: Ver 2.00
~W
STRT.M 57.0000:
STOP.M 208.0000:
STEP.M 0.1250:
NULL. -999.2500:
UWI. F10012:
~C
DEPT.M :
DEN.GM/CC :
SP.MV :
GR.API :
CALI.CM :
RXO.OHMM :
RI. :
RML.OHMM :
~A
# ...
  102.0000     2.1020   -20.3440    98.1630    21.8230    11.0330    13.2980    16.9570 
  102.1250     2.0940   -20.1530    88.8760    22.2420    14.2420    17.0850    21.6150 
  102.2500     2.0910   -19.9650    81.3410    22.9050    19.4230    22.0000    27.4330 
  102.3750     2.0840   -19.8190    79.0370    23.3170    25.4890    27.6160    33.8080 
  102.5000     2.0760   -19.7270    79.1140    23.5290    30.3640    32.9980    39.6150 
  102.6250     2.0740   -19.5950    78.9350    23.6190    32.6960    36.6320    43.1080 
  102.7500     2.0780   -19.4900    78.5260    23.6330    34.5140    38.0970    44.0300 
  102.8750     2.0790   -19.5030    79.9460    23.5550    34.5740    37.6260    42.8920 
  103.0000     2.0780   -19.5380    84.2550    23.4660    31.4010    35.9580    40.7360 
  103.1250     2.0800   -19.5570    86.6850    23.4240    27.1630    34.1020    38.8610 
  103.2500     2.0820   -19.6300    82.8250    23.4170    24.7030    32.9430    38.1340 
  103.3750     2.0770   -19.7260    76.2800    23.4270    24.3090    32.9690    38.9740 
  103.5000     2.0650   -19.8550    75.2180    23.4580    25.4810    34.5080    41.5620 
  103.6250     2.0490   -20.0200    78.7880    23.5120    28.7560    38.0490    46.1380 
  103.7500     2.0320   -20.2060    80.9760    23.5480    33.8320    43.1200    51.9300 
  103.8750     2.0170   -20.3920    78.4030    23.5530    38.5510    48.9950    57.9620 
  104.0000     2.0110   -20.6610    74.2620    23.5330    40.9760    54.6270    63.0750 
  104.1250     2.0160   -21.0240    70.8950    23.5000    41.7470    58.8980    66.2710 
  104.2500     2.0270   -21.3650    72.0790    23.4590    42.1920    61.6580    67.8420 
  104.3750     2.0360   -21.6930    77.2860    23.4480    42.1660    62.8000    67.8010 
  104.5000     2.0380   -22.0450    79.8750    23.4530    41.6280    61.8940    65.5330 
  104.6250     2.0290   -22.4970    78.3840    23.4530    40.3980    57.5330    59.4500 
  104.7500     2.0070   -23.0180    79.7860    23.3590    37.2910    49.9140    50.2040 
  104.8750     1.9880   -23.5310    90.1540    23.1340    31.3510    40.3260    39.5960 
  105.0000     1.9930   -23.9910   101.3460    22.8410    23.8330    30.9340    29.8610 
  105.1250     2.0270   -24.3770   108.2340    22.5310    17.9120    23.7240    22.7500 
  105.2500     2.0820   -24.7690   111.8740    22.2000    13.8950    18.6490    17.9680 
  105.3750     2.1390   -25.1840   116.6520    21.7260    11.2860    15.3010    15.0610 
  105.5000     2.1750   -25.5410   120.5010    21.1610     9.7420    13.2120    13.4840 
  105.6250     2.1830   -25.7300   120.3750    20.4380     8.9910    12.0760    12.7620 
  105.7500     2.1710   -25.6810   116.9040    19.5630     8.3210    11.4240    12.3080 
  105.8750     2.1550   -25.4130   113.6030    19.0320     7.6970    11.0720    11.9360 
  106.0000     2.1430   -24.9610   112.7490    19.0330     7.4020    10.9170    11.6540 
  106.1250     2.1370   -24.4000   112.4830    19.2950     7.5910    10.9110    11.5630 
  106.2500     2.1330   -23.7440   112.1650    19.4330     7.8600    10.9480    11.6290 
  106.3750     2.1300   -22.9920   112.5170    18.9740     8.0260    10.9570    11.7700 
  106.5000     2.1310   -22.2280   110.2960    17.9630     8.0150    10.9120    11.9090 
  106.6250     2.1290   -21.5150   104.6310    16.8870     7.8880    10.9060    12.1010 
  106.7500     2.1210   -20.9410    99.7860    16.2990     8.0120    11.1220    12.5550 
  106.8750     2.1050   -20.5690    98.9160    16.1380     8.6850    11.7380    13.5290 
  107.0000     2.0930   -20.3310    96.8920    16.1440     9.8400    12.8980    15.2250 
  107.1250     2.0880   -20.1280    93.4900    16.3030    11.1640    14.7590    17.7550 
  107.2500     2.0920   -19.9500    92.9040    16.6510    12.1140    17.0940    20.6860 
  107.3750     2.0980   -19.7900    94.1950    17.3430    12.4230    19.5730    23.4870 
  107.5000     2.0940   -19.6240    93.4010    18.3350    12.3040    21.7540    25.6230 
  107.6250     2.0760   -19.4530    91.7090    19.4820    12.5150    23.2620    26.8370 
  107.7500     2.0540   -19.2420    90.6870    20.4420    13.3750    24.4090    27.7640 
  107.8750     2.0400   -18.9590    88.9220    20.8360    14.5200    25.6780    29.0670 
  108.0000     2.0340   -18.6600    86.0000    20.9460    15.5990    27.5450    31.2590 
  108.1250     2.0330   -18.3820    83.7200    20.9030    16.5260    30.5190    34.8280 
  108.2500     2.0350   -18.1410    82.3890    20.7550    17.2590    34.4750    39.4590 
  108.3750     2.0370   -17.9420    80.1040    20.5770    17.3800    38.9340    44.4380 
  108.5000     2.0360   -17.7750    76.2150    20.5200    17.3340    42.8650    48.4450 
  108.6250     2.0240   -17.6490    73.9770    20.4960    17.9890    44.5850    49.5590 
  108.7500     1.9980   -17.5530    77.3580    20.4230    18.3850    43.8320    47.8640 
  108.8750     1.9680   -17.5070    83.0920    20.2680    17.6930    41.2130    44.3730 
  109.0000     1.9580   -17.5010    85.6970    20.0050    16.3240    37.9190    40.5170 
  109.1250     1.9750   -17.5220    84.5970    19.4530    14.9870    35.1960    37.5610 
  109.2500     2.0060   -17.5680    81.6190    18.5660    13.7590    33.4850    35.7760 
  109.3750     2.0260   -17.6230    78.7000    17.7400    12.6480    32.7970    35.1150 
  109.5000     2.0370   -17.6840    78.4080    16.9970    11.7770    32.9500    35.3290 
  109.6250     2.0480   -17.7620    80.7130    16.6000    11.1930    33.6940    36.0550 
  109.7500     2.0550   -17.8790    84.2640    16.6720    11.0430    34.5840    36.7940 
  109.8750     2.0510   -18.0060    86.5730    17.1660    11.4060    35.3450    37.2950 
  110.0000     2.0490   -18.1290    86.8070    17.9610    12.1240    35.7800    37.4100 
  110.1250     2.0580   -18.2100    85.9420    19.1290    13.1910    35.6940    37.0030 
  110.2500     2.0740   -18.2570    86.6430    20.5420    14.7570    35.1470    36.1960 
  110.3750     2.0860   -18.3270    87.2860    21.8270    16.7160    34.1870    35.0850 
  110.5000     2.0950   -18.4220    84.7440    22.7700    18.9700    32.8960    33.7900 
  110.6250     2.1000   -18.5530    82.3360    23.4000    21.0860    31.4200    32.4950 
  110.7500     2.0980   -18.6960    82.9630    23.5740    22.2620    30.0410    31.3970 
  110.8750     2.0940   -18.8350    84.4360    23.2770    22.0070    29.0090    30.6450 
  111.0000     2.0940   -18.9830    84.8110    22.8380    20.9750    28.5270    30.3520 
  111.1250     2.0960   -19.2380    84.9910    22.4610    20.7090    28.7910    30.6580 
  111.2500     2.0950   -19.5170    86.2510    22.2120    21.6950    29.6290    31.4310 
  111.3750     2.0940   -19.7370    88.3010    22.1360    23.5310    30.9000    32.5750 
  111.5000     2.0930   -19.8680    90.4890    22.1270    25.3520    32.4360    33.9710 
  111.6250     2.0890   -19.8660    89.5800    22.1560    26.4710    34.0970    35.5500 
  111.7500     2.0790   -19.7790    85.0920    22.2020    27.3150    35.8260    37.3350 
  111.8750     2.0720   -19.6970    81.5690    22.1890    28.4820    37.6710    39.4310 
  112.0000     2.0800   -19.6240    81.2380    22.1730    30.0800    39.5250    41.7000 
  112.1250     2.1010   -19.4770    84.3870    22.2090    32.0200    40.8180    43.4130 
  112.2500     2.1310   -19.3280    90.3860    22.2600    34.4530    41.1610    44.0140 
  112.3750     2.1510   -19.2010    95.6290    22.2940    35.9120    40.6560    43.6280 
  112.5000     2.1450   -19.1300    96.3190    22.2740    34.8470    39.9610    43.0930 
  112.6250     2.1100   -19.0960    92.4240    22.1700    32.5830    40.3420    43.8930 
  112.7500     2.0620   -19.0870    86.5080    22.0790    35.4210    42.7560    46.8850 
  112.8750     2.0310   -19.0500    80.4050    22.0490    42.5520    47.7420    52.4800 
  113.0000     2.0220   -18.9710    75.5630    22.0480    48.9460    55.0810    60.4910 
  113.1250     2.0270   -18.8920    72.8210    22.0480    51.7440    63.5140    69.8290 
