~V
VERS. 2.00: Ver 2.00
~W
STRT.M 55.0000:
STOP.M 297.0000:
STEP.M 0.1250:
NULL. -999.2500:
UWI. F10076:
~C
DEPT.M :
DEN.GM/CC :
SP.MV :
GR.API :
CALI.CM :
RXO.OHMM :
RI. :
RML.OHMM :
~A
# ...
  291.2500     2.2250   -19.8400    53.5990    24.4570     4.7410     8.6840     9.6250 
  291.3750     2.2190   -20.0830    53.5990    24.7090     5.3030     8.7390     9.6320 
  291.5000     2.2340   -20.2820    53.5990    24.9600     5.4930     8.7510     9.6320 
  291.6250     2.2690   -20.4300    53.5990    25.1340     5.3410     8.7510     9.6320 
  291.7500     2.3090   -20.5020    53.5990    25.2000     5.5460     8.7510     9.6320 
  291.8750     2.3480   -20.5140    53.5990    24.9830     5.9330     8.7510     9.6320 
  292.0000     2.3800   -20.5330    53.5990    24.5370     6.4600     8.7510     9.6320 
  292.1250     2.3910   -20.5720    53.5990    24.1880     7.1020     8.7510     9.6320 
  292.2500     2.3790   -20.5450    53.5990    24.0840     7.9390     8.7510     9.6320 
  292.3750     2.3560   -20.5130    53.5990    24.0840     8.6130     8.7510     9.6320 
  292.5000     2.3280   -20.4960    53.5990    24.0670     8.6170     8.7510     9.6320 
  292.6250     2.2980   -20.5170    53.5990    24.0080     8.8410     8.7510     9.6320 
  292.7500     2.2820   -20.5750    53.5990    23.9580     7.8220     8.7510     9.6320 
  292.8750     2.2870   -20.6330    53.5990    23.9670     6.0990     8.7510     9.6320 
  293.0000     2.3030   -20.6180    53.5990    23.9760     4.7510     8.7510     9.6320 
  293.1250     2.3050   -20.5970    53.5990    23.9320     4.1300     8.7510     9.6320 
  293.2500     2.2890   -20.5810    53.5990    23.8660     3.8550     8.7510     9.6320 
  293.3750     2.2690   -20.5480    53.5990    23.8080     3.6190     8.7510     9.6320 
  293.5000     2.2590   -20.4410    53.5990    23.7210     3.4300     8.7510     9.6320 
  293.6250     2.2620   -20.3330    53.5990    23.5960     3.3360     8.7510     9.6320 
  293.7500     2.2660   -20.2370    53.5990    23.5530     3.2780     8.7510     9.6320 
  293.8750     2.2570   -20.1130    53.5990    23.6480     3.3250     8.7510     9.6320 
  294.0000     2.2160   -20.0140    53.5990    23.6940     3.4250     8.7510     9.6320 
  294.1250     2.1210   -19.8970    53.5990    23.6570     3.5590     8.7510     9.6320 
  294.2500     1.9940   -19.7610    53.5990    23.5590     3.7010     8.7510     9.6320 
  294.3750     1.9400   -19.6160    53.5990    23.3220     3.8320     8.7510     9.6320 
  294.5000     1.7710   -19.5200    53.5990    22.6950     3.8410     8.7510     9.6320 
  294.6250     1.7180   -19.4930    53.5990    21.5830     3.7180     8.7510     9.6320 
  294.7500     1.6940   -19.4800    53.5990    20.4780     3.5730     8.7510     9.6320 
  294.8750     1.6860   -19.4770    53.5990    20.0560     3.5160     8.7510     9.6320 
  295.0000     1.6840   -19.4590    53.5990    19.9650     3.5050     8.7510     9.6320 
  295.1250     1.6830   -19.4290    53.5990    19.9650     3.5050     8.7510     9.6320 
  295.2500     1.6830   -19.4290    53.5990    19.9650     3.5050     8.7510     9.6320 
  295.3750     1.6850   -19.4290    53.5990    19.9650     3.5050     8.7510     9.6320 
  295.5000     1.6860   -19.4290    53.5990    19.9650     3.5050     8.7510     9.6320 
  295.6250     1.6860  -999.2500    53.5990    19.9650     3.5050     8.7510     9.6320 
  295.7500     1.6870  -999.2500    53.5990    19.9580     3.5050     8.7510     9.6320 
  295.8750     1.6890  -999.2500    53.5990    19.9370     3.5030     8.7510     9.6320 
  296.0000     1.6920  -999.2500    53.5990    19.9100     3.5020     8.7510     9.6320 
  296.1250     1.6930  -999.2500    53.5990    19.8980     3.5020     8.7510     9.6320 
  296.2500     1.6850  -999.2500    53.5990    19.8960     3.5010     8.7510     9.6320 
  296.3750     1.7200  -999.2500  -999.2500  -999.2500  -999.2500  -999.2500  -999.2500 
  296.5000     1.8500  -999.2500  -999.2500  -999.2500  -999.2500  -999.2500  -999.2500 
  296.6250     2.0200  -999.2500  -999.2500  -999.2500  -999.2500  -999.2500  -999.2500 
  296.7500     2.1100  -999.2500  -999.2500  -999.2500  -999.2500  -999.2500  -999.2500 
  296.8750     2.1110  -999.2500  -999.2500  -999.2500  -999.2500  -999.2500  -999.2500 
  297.0000     2.0960  -999.2500  -999.2500  -999.2500  -999.2500  -999.2500  -999.2500 
