~V
VERS. 2.00: Ver 2.00
~W
STRT.M 56.0000:
STOP.M 312.0000:
STEP.M 0.1250:
NULL. -999.2500:
UWI. F10077:
~C
DEPT.M :
GR.API :
RML.OHMM :
RI. :
RXO.OHMM :
CALI.CM :
DEN.GM/CC :
SP.MV :
~A
# ...
  292.2500    61.4850    86.5130    86.6420    99.5800    24.9650     2.3400   -14.7590 
  292.3750    63.0040    85.0800    84.1570    76.1650    24.8150     2.3520   -14.8880 
  292.5000    62.6000    85.9210    83.9350    63.1970    24.7820     2.3500   -15.0150 
  292.6250    61.0750    90.2760    87.1100    73.9340    24.7340     2.3320   -15.1150 
  292.7500    59.2720    97.4430    93.0350    93.9430    24.7670     2.3130   -15.2510 
  292.8750    58.0870   106.3140   100.7610   112.1830    24.8890     2.3070   -15.3830 
  293.0000    59.0020   115.0270   108.5820   113.7210    24.9860     2.3200   -15.5040 
  293.1250    61.1130   120.3050   113.5100   109.8580    24.9700     2.3520   -15.6180 
  293.2500    61.9720   120.1470   113.6330   117.2180    24.9390     2.3900   -15.7320 
  293.3750    62.0850   114.0360   108.3620   122.8030    24.8940     2.4190   -15.8500 
  293.5000    62.3230   103.7240    99.0680   106.2310    24.8280     2.4310   -15.9760 
  293.6250    63.0610    92.7290    88.6450    82.8690    24.8480     2.4190   -16.0650 
  293.7500    63.9470    84.1590    79.9890    65.1550    24.8640     2.3960   -16.0830 
  293.8750    64.6860    79.1950    74.3550    57.6050    24.8500     2.3770   -16.0930 
  294.0000    64.1070    77.8200    71.9610    58.7070    24.8110     2.3700   -16.0970 
  294.1250    61.3300    79.4060    72.5310    72.1500    24.7050     2.3740   -16.1010 
  294.2500    59.6380    82.2140    74.5640    78.9380    24.6010     2.3760   -16.0470 
  294.3750    60.2760    85.4030    77.2580    72.2830    24.5450     2.3700   -15.9320 
  294.5000    61.1110    88.5430    80.0480    66.1780    24.4720     2.3600   -15.8060 
  294.6250    60.7440    91.4130    82.4940    64.0940    24.3760     2.3610   -15.5590 
  294.7500    59.7700    93.8780    84.4420    68.6660    24.3350     2.3790   -15.3090 
  294.8750    59.0400    95.5880    85.7150    84.8350    24.3980     2.4160   -15.0050 
  295.0000    59.0630    96.1410    86.0740    95.1090    24.5720     2.4600   -14.6690 
  295.1250    59.2930    95.3580    85.3150    87.6420    24.6940     2.4970   -14.2940 
  295.2500    58.8330    94.1640    84.0690    81.0700    24.6970     2.5140   -13.9050 
  295.3750    59.2580    93.3450    82.9110    85.7010    24.6550     2.5090   -13.5700 
  295.5000    62.0570    93.1400    82.0990    89.9640    24.5550     2.4910   -13.2350 
  295.6250    63.5280    92.7000    81.1350    84.6030    24.5070     2.4800   -12.9950 
  295.7500    61.8550    90.5690    78.9750    91.0980    24.5600     2.4870   -12.7900 
  295.8750    59.6780    86.0070    74.9700    95.2090    24.7000     2.5080   -12.6140 
  296.0000    59.9050    79.6280    69.4340    84.3950    24.7570     2.5210   -12.4600 
  296.1250    62.8970    73.2820    63.7380    65.6030    24.7980     2.5010   -12.3640 
  296.2500    65.2020    68.5640    59.3380    52.6560    24.8370     2.4510   -12.2980 
  296.3750    64.7210    66.0840    56.8950    49.1890    24.8730     2.3940   -12.2410 
  296.5000    61.6450    65.9090    56.5390    54.9740    24.8190     2.3590   -12.1750 
  296.6250    59.7070    67.8610    58.0950    55.5650    24.7040     2.3680   -12.0950 
  296.7500    60.2550    70.4950    60.2830    59.5350    24.5980     2.4110   -11.9500 
  296.8750    61.6750    72.2350    61.8090    68.1860    24.6350     2.4670   -11.8080 
  297.0000    64.5330    71.5040    61.4090    66.7230    24.6510     2.5110   -11.6640 
  297.1250    68.4630    67.1560    58.0600    56.8720    24.5540     2.5170   -11.4520 
  297.2500    71.7200    60.5870    52.7410    48.4930    24.5180     2.4860   -11.2490 
  297.3750    73.4360    53.3090    46.6210    43.3880    24.5370     2.4310   -10.9800 
  297.5000    72.9860    46.8330    40.9630    41.6910    24.5850     2.3740   -10.7190 
  297.6250    70.3320    42.6640    37.0480    36.8710    24.6640     2.3440   -10.3910 
  297.7500    68.4100    40.6710    34.8800    31.2260    24.6940     2.3490   -10.0460 
  297.8750    68.2900    39.9370    33.8110    29.1600    24.7390     2.3850    -9.7060 
  298.0000    68.5460    38.7380    32.4800    32.6390    24.7910     2.4370    -9.3730 
  298.1250    67.2060    34.8860    29.0300    42.5060    24.7340     2.4870    -8.9970 
  298.2500    65.5150    28.7650    23.7690    44.3870    24.6440     2.5210    -8.6120 
  298.3750    63.9970    19.2380    18.1540    29.2970    24.5670     2.5330    -8.2650 
  298.5000    62.4140    13.3150    13.5410    12.0910    24.5190     2.5250    -7.9670 
  298.6250    63.2020    10.3410    10.6410     8.9600    24.4610     2.5020    -7.7830 
  298.7500    66.5840     8.7720     8.9880     9.0010    24.4430     2.4760    -7.6730 
  298.8750    70.9550     8.2790     8.2840     9.4770    24.4590     2.4520    -7.5630 
  299.0000    75.2220     8.5260     8.2790     9.1330    24.4950     2.4360    -7.4620 
  299.1250    79.4520     9.1230     8.7280     8.6650    24.6030     2.4300    -7.4520 
  299.2500    82.7660     9.5700     9.1900     9.0110    24.6820     2.4270    -7.4860 
  299.3750    82.7520     9.5960     9.3710     9.6320    24.7010     2.4150    -7.5830 
  299.5000    78.9660     9.1260     9.1460    11.0680    24.6810     2.3890    -7.6150 
  299.6250    73.7410     8.2560     8.5520    10.4050    24.6980     2.3550    -7.5870 
  299.7500    67.9230     7.3660     7.8620     8.0980    24.6730     2.3300    -7.5280 
  299.8750    61.8800     6.7210     7.2680     6.0830    24.6010     2.3260    -7.4640 
  300.0000    58.0480     6.4610     6.8870     5.6770    24.5160     2.3420    -7.4620 
  300.1250    59.6990     6.6380     6.7970     6.3610    24.4190     2.3670    -7.4520 
  300.2500    63.6950     7.0730     6.9310     7.2900    24.3380     2.3850    -7.4450 
  300.3750    65.8660     7.6080     7.2130     7.8030    24.3580     2.3940    -7.3890 
  300.5000    64.6940     8.0920     7.5310     7.6090    24.5070     2.4000    -7.3350 
  300.6250    61.3820     8.3990     7.7420     7.9150    24.5870     2.4100    -7.3460 
  300.7500    58.5350     8.5300     7.8010     8.3160    24.5950     2.4190    -7.3660 
  300.8750    57.6760     8.5130     7.7340     7.8960    24.5670     2.4200    -7.3480 
  301.0000    58.6080     8.4330     7.6170     7.0640    24.4770     2.4090    -7.2800 
  301.1250    60.3900     8.4460     7.5770     6.3770    24.2780     2.3890    -7.1290 
  301.2500    62.1460     8.6550     7.6940     6.5460    24.0780     2.3730    -6.9150 
  301.3750    63.3760     9.0520     7.9720     7.0980    24.0580     2.3720    -6.7130 
  301.5000    63.0620     9.5200     8.3340     7.1120    24.2890     2.3860    -6.5330 
  301.6250    61.4680     9.8060     8.6160     7.8420    24.6030     2.4130    -6.3120 
  301.7500    61.0610     9.7680     8.6930     9.6880    24.8400     2.4370    -6.1520 
  301.8750    61.3150     9.4440     8.5500    10.2300    24.9960     2.4490    -6.0610 
  302.0000    61.3150     9.0290     8.2810     9.3810    25.0510     2.4470    -6.0060 
  302.1250    61.3150     8.7750     8.0340     8.7400    25.0000     2.4350    -6.0360 
  302.2500    61.3150     8.7140     7.8930     8.9470    24.9640     2.4250    -6.0800 
  302.3750    61.3150     8.7740     7.8580     8.6020    24.9530     2.4220    -6.1360 
  302.5000    61.3150     8.8480     7.8770     8.2740    24.9030     2.4230    -6.1980 
  302.6250    61.3150     8.8110     7.8400     8.7440    24.8510     2.4160    -6.2500 
  302.7500    61.3150     8.6450     7.6840     8.8800    24.8020     2.3990    -6.2670 
  302.8750    61.3150     8.3740     7.4180     8.5020    24.7770     2.3780    -6.2170 
  303.0000    61.3150     8.0610     7.1010     8.2990    24.7870     2.3640    -6.1490 
  303.1250    61.3150     7.7900     6.8120     7.4100    24.7780     2.3660    -6.0640 
  303.2500    61.3150     7.6330     6.6110     6.7890    24.7250     2.3800    -5.9700 
  303.3750    61.3150     7.6260     6.5250     6.4090    24.7640     2.3970    -5.8930 
