~V
VERS. 2.00: Ver 2.00
~W
STRT.M 55.0000:
STOP.M 293.0000:
STEP.M 0.1250:
NULL. -999.2500:
UWI. F10038:
~C
DEPT.M :
SP.MV :
DEN.GM/CC :
GR.API :
RML.OHMM :
RI. :
RXO.OHMM :
CALI.CM :
~A
# ...
  133.7500   -10.2720     2.2470    76.4580     7.0870     6.1340     7.1530    23.5970 
  133.8750   -10.1970     2.2550    74.9090     6.7030     5.9210     6.9810    23.5270 
  134.0000   -10.0310     2.2750    73.8250     6.2570     5.6200     6.6940    23.5040 
  134.1250    -9.7760     2.3010    76.4700     5.9620     5.3700     6.1910    23.5730 
  134.2500    -9.5120     2.3200    80.8380     5.9270     5.2820     5.7380    23.7310 
  134.3750    -9.2670     2.3230    83.3120     6.1620     5.3890     5.6820    23.9560 
  134.5000    -9.0610     2.3070    80.8910     6.5710     5.6480     6.1550    24.1480 
  134.6250    -8.8500     2.2840    75.1460     6.9530     5.9310     6.8980    24.1480 
  134.7500    -8.5660     2.2710    72.7960     7.1000     6.0820     7.3920    23.9790 
  134.8750    -8.2410     2.2750    74.1810     6.9220     6.0190     7.2490    23.8820 
  135.0000    -7.9500     2.2930    76.0940     6.4900     5.7560     6.5710    23.9900 
  135.1250    -7.6970     2.3200    77.5650     6.0120     5.4060     5.9020    24.2630 
  135.2500    -7.4280     2.3450    79.8390     5.6860     5.1270     5.6190    24.4420 
  135.3750    -7.1410     2.3630    82.9670     5.5760     4.9900     5.6770    24.4880 
  135.5000    -6.8700     2.3710    85.4520     5.6770     5.0080     6.0250    24.4400 
  135.6250    -6.6670     2.3660    86.5920     5.9430     5.1610     6.5680    24.3740 
  135.7500    -6.5800     2.3510    85.8050     6.2540     5.3680     6.9750    24.3260 
  135.8750    -6.5940     2.3300    81.8920     6.5340     5.5820     6.9320    24.3780 
  136.0000    -6.6500     2.3070    77.8360     6.7330     5.7720     6.5900    24.4650 
  136.1250    -6.7290     2.2880    75.9670     6.8200     5.9030     6.4710    24.4810 
  136.2500    -6.8210     2.2780    75.1950     6.8120     5.9660     6.4960    24.4320 
  136.3750    -6.8940     2.2790    72.2860     6.7180     5.9480     6.5660    24.3610 
  136.5000    -6.9130     2.2930    67.3250     6.5530     5.8500     6.6860    24.3070 
  136.6250    -6.8610     2.3180    66.9280     6.3410     5.6890     6.7870    24.2760 
  136.7500    -6.7810     2.3410    73.7900     6.1330     5.5210     6.8780    24.2790 
  136.8750    -6.7020     2.3540    83.0050     5.9790     5.3940     6.8970    24.2560 
  137.0000    -6.6200     2.3510    86.8310     5.9340     5.3550     7.1140    24.1650 
  137.1250    -6.4900     2.3380    83.7230     6.0740     5.4650     7.1870    24.0050 
  137.2500    -6.3330     2.3320    80.1150     6.3780     5.7110     7.1030    23.9070 
  137.3750    -6.2120     2.3430    79.3050     6.7870     6.0530     7.0800    23.8410 
  137.5000    -6.1620     2.3680    80.2740     7.1830     6.4130     7.5920    23.7770 
  137.6250    -6.2020     2.3900    80.8450     7.3860     6.6530     8.4890    23.6520 
  137.7500    -6.2810     2.3970    80.4490     7.3270     6.6970     9.1040    23.4520 
  137.8750    -6.3600     2.3910    79.5200     7.0310     6.5360     8.6640    23.2870 
  138.0000    -6.4490     2.3800    80.6680     6.6180     6.2320     7.3740    23.2840 
  138.1250    -6.5940     2.3690    84.4280     6.2700     5.9190     6.6790    23.3710 
  138.2500    -6.7720     2.3530    88.3490     6.1070     5.7300     6.4170    23.4560 
  138.3750    -6.9280     2.3310    89.7930     6.1890     5.7430     6.4370    23.4970 
  138.5000    -7.0230     2.3120    87.9440     6.5270     5.9870     6.6970    23.4850 
  138.6250    -7.0470     2.3170    84.8050     7.0740     6.4400     7.4790    23.4970 
  138.7500    -6.9920     2.3520    83.1060     7.6390     6.9420     8.7370    23.5780 
  138.8750    -6.8820     2.4030    83.3000     8.0510     7.3520    10.0020    23.6960 
  139.0000    -6.7420     2.4420    84.2250     8.1790     7.5550    11.2440    23.8370 
  139.1250    -6.5940     2.4440    83.2250     7.9510     7.4720    11.6010    24.0510 
  139.2500    -6.4730     2.4160    83.0280     7.5510     7.2090    10.3290    24.2800 
  139.3750    -6.3800     2.3800    85.0180     7.1410     6.8760     8.8130    24.4210 
  139.5000    -6.3090     2.3540    85.9370     6.8240     6.5700     8.3040    24.4010 
  139.6250    -6.2830     2.3430    82.5920     6.6410     6.3570     8.1620    24.2300 
  139.7500    -6.3240     2.3390    80.2790     6.5410     6.2280     7.4000    24.0200 
  139.8750    -6.4020     2.3360    83.6340     6.4890     6.1620     6.6610    23.9050 
  140.0000    -6.4670     2.3340    88.0520     6.4570     6.1330     6.4690    23.9750 
  140.1250    -6.4800     2.3340    87.3580     6.4300     6.1210     6.4540    24.2020 
  140.2500    -6.4370     2.3360    84.9460     6.4050     6.1140     6.3510    24.3770 
  140.3750    -6.4030     2.3400    83.5860     6.3760     6.1020     6.2650    24.4360 
  140.5000    -6.4310     2.3440    81.8610     6.3360     6.0760     6.2680    24.3900 
  140.6250    -6.4780     2.3460    78.6200     6.2950     6.0310     6.2720    24.3300 
  140.7500    -6.5440     2.3480    78.2320     6.2790     5.9900     6.1590    24.2980 
  140.8750    -6.6420     2.3490    80.0440     6.3190     5.9750     5.9940    24.2890 
  141.0000    -6.7970     2.3480    80.4390     6.4340     6.0090     5.9250    24.2660 
  141.1250    -7.0690     2.3420    79.9510     6.6100     6.1090     6.0830    24.1220 
  141.2500    -7.3950     2.3310    79.6830     6.7530     6.1940     6.3470    23.8790 
  141.3750    -7.7170     2.3190    79.8320     6.7550     6.1930     6.6070    23.6210 
  141.5000    -8.0000     2.3120    81.2830     6.5330     5.9720     6.8450    23.4240 
  141.6250    -8.2620     2.3180    85.8100     6.0570     5.5300     6.7530    23.3840 
  141.7500    -8.5460     2.3380    92.2080     5.5150     4.9190     6.2730    23.4990 
  141.8750    -8.8660     2.3690    97.3210     5.1280     4.3600     5.7230    23.7120 
  142.0000    -9.2570     2.4070   100.1860     5.0940     4.2700     5.6270    23.9030 
  142.1250    -9.7650     2.4480    98.7020     5.6180     4.6830     6.4780    23.9450 
  142.2500   -10.3950     2.4830    93.6310     6.6090     5.4780     8.4630    23.9550 
  142.3750   -11.1450     2.4950    85.8970     7.8940     6.5200    11.1130    23.9960 
  142.5000   -12.0040     2.4710    77.4120     9.1550     7.5560    13.8730    24.0580 
  142.6250   -12.9510     2.4090    72.1930     9.8530     8.1980    15.1130    24.0500 
  142.7500   -13.8770     2.3340    69.9110     9.8120     8.3160    12.7100    23.9870 
  142.8750   -14.7080     2.2680    68.3760     9.2350     8.0050    10.0940    23.8830 
  143.0000   -15.3670     2.2250    67.3820     8.5520     7.5260     9.0600    23.8690 
  143.1250   -15.7360     2.2090    67.8400     8.0720     7.1580     8.9050    24.0060 
  143.2500   -15.9040     2.2090    67.6410     7.7840     6.9780     8.8920    24.1770 
  143.3750   -15.8800     2.2130    66.2010     7.6870     6.9480     8.9570    24.2280 
  143.5000   -15.6600     2.2130    66.8560     7.7990     7.0140     9.0100    24.1750 
  143.6250   -15.2460     2.2030    69.6460     8.1750     7.2110     9.0120    24.1220 
  143.7500   -14.7110     2.1960    69.4190     8.7900     7.6180     9.1610    24.1350 
  143.8750   -14.0880     2.2080    65.9910     9.5840     8.2890    10.1340    24.2070 
  144.0000   -13.3470     2.2530    64.1230    10.5160     9.1470    13.0140    24.3160 
  144.1250   -12.4750     2.3300    66.5510    11.2250     9.8870    17.2830    24.4250 
  144.2500   -11.5190     2.4070    70.3510    11.2700    10.1570    21.5190    24.4880 
  144.3750   -10.5570     2.4490    75.4950    10.4550     9.7450    23.6980    24.5000 
  144.5000    -9.6480     2.4420    82.2780     9.0180     8.7120    19.0650    24.4770 
  144.6250    -8.8550     2.3930    89.0510     7.5890     7.4080    11.0860    24.4570 
  144.7500    -8.2930     2.3400    92.4950     6.5840     6.2890     7.3260    24.4430 
  144.8750    -7.9470     2.3040    91.2790     6.0460     5.5340     6.4570    24.3820 
