~V
VERS. 2.00: Ver 2.00
~W
STRT.M 50.0000:
STOP.M 293.0000:
STEP.M 0.1250:
NULL. -999.2500:
UWI. F10045:
~C
DEPT.M :
DEN.GM/CC :
SP.MV :
GR.API :
CALI.CM :
RXO.OHMM :
RI. :
RML.OHMM :
~A
# ...
  218.7500     2.4560   -23.3110    61.5670    23.6800    16.4350    16.4170    15.8010 
  218.8750     2.5380   -22.3610    60.9210    23.6700    20.6590    21.8610    20.8250 
  219.0000     2.5880   -21.3560    60.2680    23.6040    30.9350    29.5730    27.8380 
  219.1250     2.5990   -20.2250    61.9660    23.6210    59.0070    38.1230    35.1050 
  219.2500     2.5940   -19.0660    65.6890    23.6730    93.4810    43.7580    38.5310 
  219.3750     2.5900   -17.9840    69.2750    23.7090   105.9550    44.2510    36.4100 
  219.5000     2.5920   -16.9640    73.7180    23.7190    88.8730    40.7640    31.3290 
  219.6250     2.5980   -15.9730    81.5120    23.7210    62.6820    36.2730    26.9410 
  219.7500     2.6010   -15.0910    88.2830    23.7400    43.1470    32.6340    24.2180 
  219.8750     2.5950   -14.3060    89.7220    23.7950    31.3110    29.6800    22.5460 
  220.0000     2.5830   -13.5730    90.6410    23.8720    26.6390    26.4560    20.7560 
  220.1250     2.5710   -13.0130    93.7380    23.9080    27.5050    21.9670    17.6170 
  220.2500     2.5590   -12.5290    90.6700    23.9170    26.7700    16.8520    13.5820 
  220.3750     2.5380   -12.0550    81.9380    23.9120    21.4470    12.1650     9.7220 
  220.5000     2.5080   -11.6510    78.4240    23.8960    13.1440     8.5850     6.8250 
  220.6250     2.4740   -11.3250    82.6820    23.8540     7.6170     6.3940     5.2400 
  220.7500     2.4430   -11.0110    81.9000    23.8030     5.8130     5.1450     4.5350 
  220.8750     2.4170   -10.7650    74.3740    23.7400     5.4710     4.6040     4.4480 
  221.0000     2.4000   -10.5840    66.7440    23.6860     5.3100     4.5660     4.7590 
  221.1250     2.3950   -10.3790    62.1850    23.6660     5.1890     4.8330     5.2210 
  221.2500     2.3910   -10.2390    59.3060    23.6620     5.1270     5.0950     5.5260 
  221.3750     2.3810   -10.1350    58.8640    23.6570     5.0410     5.1740     5.5200 
  221.5000     2.3650   -10.0220    59.5720    23.6420     4.9270     5.0310     5.2300 
  221.6250     2.3510    -9.9600    60.5080    23.6120     4.7270     4.7450     4.8130 
  221.7500     2.3430    -9.9370    60.7980    23.5990     4.4650     4.4820     4.4680 
  221.8750     2.3360    -9.8550    59.1590    23.5960     4.2750     4.3480     4.3180 
  222.0000     2.3320    -9.7970    57.5270    23.5990     4.3780     4.4030     4.4230 
  222.1250     2.3410    -9.8090    57.3810    23.6230     4.8440     4.6760     4.8060 
  222.2500     2.3640    -9.7870    56.5360    23.6810     5.3470     5.0640     5.3290 
  222.3750     2.3870    -9.7480    53.9360    23.7460     5.7190     5.4600     5.8480 
  222.5000     2.3950    -9.7840    51.8430    23.7790     5.9270     5.7550     6.2200 
  222.6250     2.3840    -9.8330    51.7980    23.7850     6.0180     5.8600     6.3460 
  222.7500     2.3750    -9.8420    52.4370    23.7850     6.0410     5.8300     6.3260 
  222.8750     2.3810    -9.8880    54.7110    23.7850     6.0170     5.7320     6.2660 
  223.0000     2.4060    -9.9670    57.3240    23.7850     5.9410     5.6270     6.2430 
  223.1250     2.4400   -10.1080    58.0840    23.7850     5.8640     5.5650     6.3300 
  223.2500     2.4640   -10.2820    60.1670    23.7850     5.9120     5.5590     6.5380 
  223.3750     2.4640   -10.5150    64.6020    23.7800     6.1250     5.6190     6.8530 
  223.5000     2.4420   -10.8030    70.3480    23.7520     6.4580     5.7500     7.2380 
  223.6250     2.4170   -11.1950    77.0680    23.6630     6.7530     5.9770     7.6780 
  223.7500     2.4050   -11.6450    89.9850    23.5440     7.0680     6.3020     8.1810 
  223.8750     2.3990   -12.1590   109.0770    23.4520     7.6590     6.7360     8.7840 
  224.0000     2.3900   -12.7180   122.7340    23.4130     8.9470     7.2720     9.4990 
  224.1250     2.3740   -13.2020   120.1770    23.3930    11.1030     7.8830    10.2640 
  224.2500     2.3670   -13.6430   109.7130    23.3580    13.3570     8.5350    11.0010 
  224.3750     2.3880   -14.0600   100.9730    23.3450    14.5530     9.2780    11.7820 
  224.5000     2.4410   -14.3230    97.2940    23.4160    14.7390    10.2360    12.8270 
  224.6250     2.5010   -14.4460    97.3890    23.5780    15.5370    11.6450    14.5180 
  224.7500     2.5240   -14.4720    97.7190    23.6960    19.4570    13.4870    16.8570 
  224.8750     2.4990   -14.3610    93.5990    23.8510    27.7020    15.4740    19.4420 
  225.0000     2.4460   -14.1520    90.0050    24.0490    35.5280    16.8140    21.0980 
  225.1250     2.3980   -13.8680    97.1570    24.0650    33.1950    16.2020    19.8360 
  225.2500     2.3670   -13.4140   106.5300    23.9700    23.6990    13.9830    16.3910 
  225.3750     2.3550   -12.8130   107.4440    23.8610    15.2800    11.1870    12.5230 
  225.5000     2.3620   -12.2310   100.0310    23.8180    10.2100     8.7180     9.4990 
  225.6250     2.3820   -11.6010    89.2230    23.8250     7.5840     7.0560     6.9630 
  225.7500     2.4040   -10.9890    79.9120    23.8150     6.4430     6.0450     6.2260 
  225.8750     2.4160   -10.4780    74.2250    23.8000     6.2250     5.5360     6.0860 
  226.0000     2.4180    -9.9920    71.7130    23.8050     6.2890     5.3730     6.3030 
  226.1250     2.4150    -9.5270    67.8470    23.8350     6.3050     5.4360     6.6580 
  226.2500     2.4120    -9.2140    62.2670    23.8480     6.2920     5.5670     6.9570 
  226.3750     2.4080    -9.0430    58.5100    23.8510     6.2880     5.6930     7.1250 
  226.5000     2.4040    -8.9370    57.9940    23.8510     6.3150     5.7890     7.1580 
  226.6250     2.3990    -8.9000    60.2490    23.8510     6.3930     5.8500     7.0600 
  226.7500     2.3940    -8.8880    63.0860    23.8510     6.5470     5.8820     6.8730 
  226.8750     2.3850    -8.8480    65.1290    23.8510     6.6980     5.8870     6.6390 
  227.0000     2.3770    -8.8390    65.8860    23.8510     6.7040     5.8710     6.4070 
  227.1250     2.3780    -8.8370    63.7120    23.8490     6.5310     5.8430     6.2310 
  227.2500     2.3850    -8.8480    58.5860    23.8460     6.3890     5.8160     6.1390 
  227.3750     2.3880    -8.9040    52.6990    23.8470     6.3750     5.8000     6.1370 
  227.5000     2.3850    -8.9180    49.7970    23.8490     6.4540     5.7960     6.1910 
  227.6250     2.3800    -8.8950    51.0700    23.8490     6.5420     5.7950     6.2400 
  227.7500     2.3740    -8.9030    53.5470    23.8350     6.5370     5.7850     6.2430 
  227.8750     2.3670    -8.8880    54.2550    23.7950     6.4360     5.7600     6.2020 
  228.0000     2.3610    -8.8450    52.0590    23.7460     6.3080     5.7180     6.1420 
  228.1250     2.3640    -8.8540    49.7450    23.7240     6.2090     5.6570     6.1030 
  228.2500     2.3730    -8.8720    49.7320    23.7130     6.1140     5.5790     6.0830 
  228.3750     2.3770    -8.8080    51.0080    23.6890     6.0010     5.4910     6.0470 
  228.5000     2.3710    -8.7540    53.1550    23.6420     5.8760     5.3980     5.9790 
  228.6250     2.3600    -8.7110    54.3670    23.6460     5.8010     5.3080     5.8880 
  228.7500     2.3550    -8.6590    53.5810    23.6850     5.8340     5.2230     5.7950 
  228.8750     2.3580    -8.6210    52.4280    23.7120     5.9010     5.1460     5.7060 
  229.0000     2.3670    -8.5400    53.6920    23.7190     5.8900     5.0890     5.6390 
  229.1250     2.3790    -8.4270    58.5500    23.7190     5.8010     5.0860     5.6400 
  229.2500     2.3900    -8.3450    63.7120    23.7190     5.7700     5.1650     5.7320 
  229.3750     2.3990    -8.3130    65.9110    23.7190     5.8830     5.3420     5.9230 
  229.5000     2.4050    -8.2660    65.8680    23.7190     6.1540     5.5940     6.1810 
  229.6250     2.4090    -8.2560    68.9180    23.7190     6.5290     5.8490     6.3930 
  229.7500     2.4120    -8.2590    77.5330    23.7190     6.9040     6.0190     6.4520 
  229.8750     2.4170    -8.2580    87.6170    23.7240     7.0830     6.0620     6.3290 
