~V
VERS. 2.00: Ver 2.00
~W
STRT.M 50.0000:
STOP.M 207.0000:
STEP.M 0.1250:
NULL. -999.2500:
UWI. F10009:
~C
DEPT.M :
GR.API :
RML.OHMM :
RI. :
RXO.OHMM :
CALI.CM :
DEN.GM/CC :
SP.MV :
~A
# ...
  196.2500    77.8730     6.9800     6.3610     7.7120    24.1250     2.2980   -12.0490 
  196.3750    78.3500     7.2210     6.5770     7.9120    24.0020     2.3100   -12.1730 
  196.5000    78.3500     7.3530     6.7440     7.9790    23.8860     2.3270   -12.3140 
  196.6250    78.3500     7.3520     6.8170     8.1240    23.8200     2.3430   -12.4420 
  196.7500    78.3500     7.2820     6.8240     8.3060    23.7920     2.3520   -12.5270 
  196.8750    78.3500     7.2110     6.8050     8.4390    23.7860     2.3560   -12.5590 
  197.0000    78.3500     7.2120     6.8130     8.6410    23.7850     2.3590   -12.5500 
  197.1250    78.3500     7.3710     6.9180     9.1070    23.7850     2.3650   -12.5420 
  197.2500    78.3500     7.6920     7.1430     9.6060    23.7850     2.3730   -12.6080 
  197.3750    78.3500     8.1480     7.4870    10.1230    23.7850     2.3790   -12.8020 
  197.5000    78.3500     8.6700     7.9110    10.9290    23.7840     2.3800   -13.1100 
  197.6250    78.3500     9.1300     8.3290    11.7600    23.7830     2.3770   -13.4910 
  197.7500    78.3500     9.4300     8.6450    12.1390    23.7810     2.3730   -13.8900 
  197.8750    78.3500     9.5210     8.7980    11.9960    23.7780     2.3700   -14.2890 
  198.0000    78.3500     9.4110     8.7700    11.5480    23.7790     2.3660   -14.6470 
  198.1250    78.3500     9.1420     8.5790    10.9850    23.7870     2.3620   -14.9440 
  198.2500    78.3500     8.8270     8.3200    10.4230    23.8070     2.3580   -15.1820 
  198.3750    78.3500     8.5290     8.0530     9.9460    23.8410     2.3540   -15.3370 
  198.5000    78.3500     8.2850     7.8250     9.5720    23.8770     2.3510   -15.4260 
  198.6250    78.3500     8.1290     7.6750     9.3610    23.8930     2.3480   -15.4720 
  198.7500    78.3500     8.0540     7.6030     9.2840    23.8970     2.3400   -15.4680 
  198.8750    78.3500     8.0500     7.6000     9.4000    23.8940     2.3260   -15.3800 
  199.0000    78.3500     8.0820     7.6340     9.6240    23.8850     2.3080   -15.2260 
  199.1250    78.3500     8.0830     7.6440     9.8070    23.8700     2.2940   -14.9970 
  199.2500    78.3500     7.9950     7.5800     9.6840    23.8530     2.2880   -14.7050 
  199.3750    78.3500     7.7990     7.4210     9.2780    23.8400     2.2910   -14.3670 
  199.5000    78.3500     7.5170     7.1820     8.7130    23.8240     2.2980   -14.0010 
  199.6250    78.3500     7.2070     6.9070     8.1470    23.8060     2.3020   -13.6340 
  199.7500    78.3500     6.9320     6.6520     7.8650    23.7910     2.3000   -13.2530 
  199.8750    78.3500     6.7180     6.4450     7.7170    23.7860     2.2990   -12.8520 
  200.0000    78.3500     6.5660     6.2950     7.5880    23.7850     2.3030   -12.4540 
  200.1250    78.3500     6.4660     6.2020     7.3800    23.7840     2.3170   -12.0970 
  200.2500    78.3500     6.3950     6.1450     7.1450    23.7820     2.3350   -11.7990 
  200.3750    78.3500     6.3420     6.1120     7.1180    23.7800     2.3500   -11.5870 
  200.5000    78.3500     6.3010     6.0920     7.5520    23.7780     2.3560   -11.4420 
  200.6250    78.3500     6.2690     6.0800     8.2840    23.7760     2.3480   -11.3080 
  200.7500    78.3500     6.2410     6.0720     8.7380    23.7720     2.3330   -11.1990 
  200.8750    78.3500     6.2190     6.0680     8.4790    23.7630     2.3180   -11.1170 
  201.0000    78.3500     6.2030     6.0690     7.6360    23.7500     2.3090   -11.0340 
  201.1250    78.3500     6.1940     6.0720     6.8780    23.7340     2.3070   -10.9460 
  201.2500    78.3500     6.1900     6.0740     6.4970    23.7220     2.3080   -10.8520 
  201.3750    78.3500     6.1880     6.0730     6.7550    23.7170     2.3090   -10.7290 
  201.5000    78.3500     6.1880     6.0690     7.5630    23.7160     2.3060   -10.5920 
  201.6250    78.3500     6.1920     6.0640     8.5170    23.7160     2.3030   -10.4910 
  201.7500    78.3500     6.1970     6.0610     9.2420    23.7150     2.3020   -10.4310 
  201.8750    78.3500     6.2030     6.0630     9.5770    23.7110     2.3060   -10.4210 
  202.0000    78.3500     6.2090     6.0670     9.6430    23.6990     2.3180   -10.4600 
  202.1250    78.3500     6.2110     6.0700     9.4990    23.6740     2.3360   -10.5200 
  202.2500    78.3500     6.2120     6.0720     9.4090    23.6360     2.3540   -10.5820 
  202.3750    78.3500     6.2120     6.0720     9.3780    23.5930     2.3670   -10.6550 
  202.5000    78.3500     6.2120     6.0720     9.2960    23.5650     2.3700   -10.7440 
  202.6250    78.3500     6.2120     6.0720     9.2260    23.5540     2.3610   -10.8280 
  202.7500    78.3500     6.2120     6.0720     9.0280    23.5560     2.3470   -10.9210 
  202.8750    78.3500     6.2120     6.0720     8.6490    23.5670     2.3360   -11.0230 
  203.0000    78.3500     6.2120     6.0720     8.0500    23.5780     2.3320   -11.1330 
  203.1250    78.3500     6.2120     6.0720     7.5500    23.5920     2.3370   -11.2540 
  203.2500    78.3500     6.2120     6.0720     7.3960    23.6170     2.3450   -11.3780 
  203.3750    78.3500     6.2120     6.0720     7.6570    23.6630     2.3520   -11.4800 
  203.5000    78.3500     6.2120     6.0720     8.2550    23.7280     2.3520   -11.5480 
  203.6250    78.3500     6.2120     6.0720     8.6340    23.7630     2.3430   -11.5840 
  203.7500    78.3500     6.2120     6.0720     8.7300    23.7740     2.3290   -11.5840 
  203.8750    78.3500     6.2120     6.0720     8.8240    23.7750     2.3140   -11.5840 
  204.0000    78.3500     6.2120     6.0720     8.8980    23.7740     2.3020  -999.2500 
  204.1250    78.3500     6.2120     6.0720     8.6640    23.7680     2.2980  -999.2500 
  204.2500    78.3500     6.2120     6.0720     8.1540    23.7550     2.3030  -999.2500 
  204.3750    78.3500     6.2120     6.0720     7.8690    23.7290     2.3120  -999.2500 
  204.5000    78.3500     6.2120     6.0720     8.0170    23.6910     2.3170  -999.2500 
  204.6250    78.3500     6.2120     6.0720     8.3220    23.6240     2.2940  -999.2500 
  204.7500    78.3500     6.2120     6.0720     8.6400    23.4480     2.2240  -999.2500 
  204.8750    78.3500     6.2120     6.0720     8.6690    22.9560     2.1060  -999.2500 
  205.0000    78.3500     6.2120     6.0720     8.1940    21.8460     1.9620  -999.2500 
  205.1250    78.3500     6.2120     6.0720     7.1380    19.8940     1.8310  -999.2500 
  205.2500    78.3500     6.2120     6.0720     5.8680    17.3430     1.7340  -999.2500 
  205.3750    78.3500     6.2120     6.0720     4.9630    14.8930     1.6730  -999.2500 
  205.5000    78.3500     6.2120     6.0720     4.6130    13.5520     1.6420  -999.2500 
  205.6250    78.3500     6.2120     6.0720     4.5630    13.2300     1.6320  -999.2500 
  205.7500    78.3500     6.2120     6.0720     4.5620    13.2170     1.6280  -999.2500 
  205.8750    78.3500     6.2120     6.0720     4.5620    13.2150     1.6270  -999.2500 
  206.0000    78.3500     6.2120     6.0720     4.5630    13.2130     1.6260  -999.2500 
  206.1250    78.3500     6.2120     6.0720     4.5630    13.2110     1.6270  -999.2500 
  206.2500    78.3500     6.2120     6.0720     4.5630    13.2100     1.6290  -999.2500 
  206.3750    78.3500     6.2120     6.0720     4.5620    13.2090     1.6300  -999.2500 
  206.5000    78.3500     6.2120     6.0720     4.5620    13.2080     1.6300  -999.2500 
  206.6250    78.3500     6.2120     6.0720     4.5610    13.2080     1.6290  -999.2500 
  206.7500    78.3500     6.2120     6.0720     4.5610    13.2080     1.6270  -999.2500 
  206.8750    78.3500     6.2120     6.0720     4.5600    13.2080     1.6260  -999.2500 
  207.0000    78.3500     6.2120     6.0720     4.5600    13.2080     1.6250  -999.2500 
