~V
VERS. 2.00: Ver 2.00
~W
STRT.M 51.0000:
STOP.M 262.0000:
STEP.M 0.1250:
NULL. -999.2500:
UWI. F10019:
~C
DEPT.M :
DEN.GM/CC :
SP.MV :
GR.API :
CALI.CM :
RXO.OHMM :
RI. :
RML.OHMM :
~A
# ...
  118.5000     2.2250    -8.7930   104.2930    24.4890     7.4630     6.0990     7.4360 
  118.6250     2.2410    -8.9610   105.4420    24.4830     7.0320     6.0010     7.3490 
  118.7500     2.2500    -9.1520   107.4530    24.4650     6.5700     5.7980     7.1480 
  118.8750     2.2550    -9.3270   109.9630    24.4430     6.1990     5.4780     6.8170 
  119.0000     2.2580    -9.5180   113.4910    24.4300     6.0090     5.0800     6.3990 
  119.1250     2.2600    -9.6870   117.0630    24.3950     5.7830     4.7540     6.0750 
  119.2500     2.2660    -9.8290   118.9220    24.3160     5.7110     4.6500     6.0310 
  119.3750     2.2800    -9.9190   117.6470    24.2310     6.4170     4.8870     6.4120 
  119.5000     2.3100   -10.0070   112.8140    24.1480    10.3000     5.6040     7.3610 
  119.6250     2.3450   -10.0710   103.7970    24.1170    17.3130     6.6920     8.6420 
  119.7500     2.3660   -10.1220    91.3260    24.2000    20.7710     7.9170     9.8580 
  119.8750     2.3600   -10.1380    80.0110    24.4610    17.1020     8.8400    10.4780 
  120.0000     2.3220   -10.1400    75.9260    24.7620    11.7090     8.9590    10.1290 
  120.1250     2.2670   -10.1510    79.5900    24.8920     9.4230     8.5290     9.3770 
  120.2500     2.2150   -10.1660    86.1250    24.9210     8.8340     7.9830     8.7560 
  120.3750     2.1800   -10.1870    91.5020    24.9120     9.0950     7.6780     8.5520 
  120.5000     2.1670   -10.2120    92.7560    24.7970    10.1480     7.8390     8.8470 
  120.6250     2.1580   -10.2570    90.7020    24.5530    11.2870     8.3450     9.4180 
  120.7500     2.1450   -10.3080    86.8800    24.2820    12.0370     9.0140    10.0800 
  120.8750     2.1320   -10.3760    81.1920    24.0440    12.3240     9.6210    10.6230 
  121.0000     2.1220   -10.4710    74.9570    23.8900    12.0960     9.9400    10.8530 
  121.1250     2.1120   -10.5680    69.2210    23.9060    11.7250     9.9790    10.8200 
  121.2500     2.1010   -10.6980    65.4870    24.0630    11.5140     9.8240    10.6200 
  121.3750     2.0870   -10.8640    64.6510    24.2920    11.5220     9.5790    10.3470 
  121.5000     2.0750   -11.0030    65.5950    24.5040    11.7160     9.3130    10.0570 
  121.6250     2.0710   -11.1300    66.4910    24.7040    12.1670     9.0440     9.7700 
  121.7500     2.0730   -11.2610    65.8860    24.8930    12.8410     8.8090     9.5490 
  121.8750     2.0640   -11.3830    64.4730    25.1360    13.2720     8.7370     9.5830 
  122.0000     2.0220   -11.5000    66.0120    25.4670    13.2470     9.1330    10.2580 
  122.1250     1.9800   -11.6300    68.8340    25.8430    15.8520    10.1320    11.6490 
  122.2500     1.9900   -11.7460    70.8360    26.0230    40.6230    11.7240    13.6190 
  122.3750     2.0800   -11.8650    71.5410    25.8010   104.7010    13.5280    15.5240 
  122.5000     2.2350   -12.0110    70.7470    25.0240   118.0180    14.3610    15.8200 
  122.6250     2.3780   -12.1970    70.1630    24.5600    67.9270    13.4890    14.1260 
  122.7500     2.4580   -12.4200    75.5510    24.3830    17.8410    11.3220    11.3970 
  122.8750     2.4580   -12.7070    90.4360    24.3550     6.8030     8.9060     8.8600 
  123.0000     2.4020   -13.0330   107.2930    24.3840     6.2760     7.0440     7.1640 
  123.1250     2.3460   -13.4170   114.5440    24.4100     6.0600     5.7810     6.1120 
  123.2500     2.3180   -13.8560   114.2290    24.4180     5.6970     5.0160     5.5240 
  123.3750     2.3190   -14.3780   113.8470    24.4170     5.3300     4.6300     5.2510 
  123.5000     2.3360   -15.0090   116.0100    24.4170     5.1580     4.5830     5.2590 
  123.6250     2.3500   -15.7380   116.5140    24.4030     5.0540     4.8210     5.5500 
  123.7500     2.3560   -16.5220   113.8320    24.3340     5.0110     5.4240     6.2460 
  123.8750     2.3520   -17.3490   107.1430    24.1680     5.6150     6.5190     7.4920 
  124.0000     2.3310   -18.2190    96.5490    23.9590     9.4120     8.3200     9.5030 
  124.1250     2.3000   -19.0840    84.8410    23.9170    12.4660    10.6550    12.0710 
  124.2500     2.2620   -19.8890    75.6130    24.0730    12.9710    13.1490    14.7330 
  124.3750     2.2180   -20.5570    71.5040    24.1710    12.4580    15.2240    16.7950 
  124.5000     2.1750   -21.0560    70.4490    24.1160    12.3710    16.3700    17.6910 
  124.6250     2.1540   -21.3530    69.9290    24.0820    12.5870    16.9170    17.9080 
  124.7500     2.1560   -21.4490    69.5820    24.0840    12.7630    17.2260    17.9410 
  124.8750     2.1590   -21.3140    69.1590    24.0570    12.7250    17.4730    18.0390 
  125.0000     2.1470   -20.9310    67.8130    23.9980    12.6660    17.5230    18.1160 
  125.1250     2.1350   -20.3100    66.3900    24.0230    12.6410    17.2120    17.9380 
  125.2500     2.1320   -19.5520    66.4700    24.0810    12.4370    16.4840    17.3710 
  125.3750     2.1340   -18.7030    68.8090    24.1140    11.9740    15.4150    16.4400 
  125.5000     2.1400   -17.8020    71.7360    24.1600    11.3430    14.1260    15.2220 
  125.6250     2.1520   -16.8760    75.6830    24.2620    10.8370    12.7810    13.8930 
  125.7500     2.1690   -15.9910    81.0630    24.3100    10.1410    11.4610    12.5630 
  125.8750     2.1890   -15.1890    85.3460    24.2350     8.9170    10.2470    11.3390 
  126.0000     2.2120   -14.5030    84.5830    24.2050     7.7900     9.2580    10.3700 
  126.1250     2.2420   -13.9630    83.0800    24.3540     7.2800     8.5300     9.6970 
  126.2500     2.2760   -13.5650    86.8540    24.6480     7.0580     8.0830     9.3310 
  126.3750     2.3110   -13.3040    96.3140    24.8070     6.9200     7.8990     9.2380 
  126.5000     2.3350   -13.1590   102.7640    24.6880     8.9480     7.9430     9.3580 
  126.6250     2.3390   -13.1000   101.7660    24.4050     9.6530     8.0750     9.5450 
  126.7500     2.3180   -13.1000    97.1640    24.2000     8.8470     8.1870     9.6960 
  126.8750     2.2790   -13.1700    94.3530    24.1680     8.4930     8.1920     9.7510 
  127.0000     2.2450   -13.2980    94.4020    24.2000     8.5740     8.0430     9.6750 
  127.1250     2.2340   -13.4750    94.0440    24.2410     8.6350     7.8250     9.5180 
  127.2500     2.2420   -13.6520    93.5830    24.2670     8.4870     7.6260     9.3490 
  127.3750     2.2550   -13.8290    95.0030    24.2730     8.2900     7.5250     9.2520 
  127.5000     2.2570   -13.9830    97.5810    24.2010     8.4280     7.5960     9.3250 
  127.6250     2.2480   -14.1490    99.3570    24.1190     8.9600     7.8270     9.5690 
  127.7500     2.2320   -14.2790    98.1210    24.1170     9.5230     8.1880     9.9520 
  127.8750     2.2180   -14.3960    93.3350    24.2460     9.8560     8.6170    10.4050 
  128.0000     2.2110   -14.4510    87.9160    24.4800    10.0400     9.0190    10.8050 
  128.1250     2.2100   -14.4210    86.6510    24.6980    10.0870     9.3000    11.0430 
  128.2500     2.2060   -14.3260    88.2920    24.7580    10.0410     9.3980    11.0390 
  128.3750     2.1960   -14.1890    88.6420    24.6250    10.0170     9.2830    10.7440 
  128.5000     2.1850   -14.0210    87.2750    24.5170     9.8620     8.9270    10.1280 
  128.6250     2.1800   -13.8290    87.6200    24.4760     9.6610     8.4090     9.3430 
  128.7500     2.1810   -13.6500    91.0890    24.4550     9.3590     7.8020     8.5450 
  128.8750     2.1920   -13.4200    96.4590    24.4320     8.7950     7.1970     7.8890 
  129.0000     2.2190   -13.2160   101.6380    24.4000     6.8440     6.7130     7.5110 
  129.1250     2.2530   -13.0730   105.1560    24.3570     7.2670     6.3920     7.3670 
  129.2500     2.2790   -12.9790   106.3760    24.3080     7.6170     6.2370     7.3770 
  129.3750     2.2900   -12.8900   106.4650    24.2950     7.6840     6.2080     7.4360 
  129.5000     2.2890   -12.8500   107.8320    24.3190     8.0420     6.2360     7.4400 
  129.6250     2.2870   -12.8130   110.5520    24.3260     9.0200     6.2370     7.3540 
