~V
VERS. 2.00: Ver 2.00
~W
STRT.M 50.0000:
STOP.M 266.0000:
STEP.M 0.1250:
NULL. -999.2500:
UWI. F10057:
~C
DEPT.M :
GR.API :
RML.OHMM :
RI. :
RXO.OHMM :
CALI.CM :
DEN.GM/CC :
SP.MV :
~A
# ...
  162.5000    66.4460   160.7890   149.9490   139.9230    23.9840     2.2710   -12.8060 
  162.6250    68.7560   160.6220   150.5410   138.9120    23.9830     2.2700   -12.9720 
  162.7500    69.4870   163.6070   154.1800   140.2830    23.9260     2.2720   -13.1800 
  162.8750    67.5060   167.2950   158.9920   145.7390    23.8680     2.2750   -13.4250 
  163.0000    64.6770   167.8650   161.6570   159.5520    23.9110     2.2710   -13.7240 
  163.1250    64.0440   161.3640   158.2300   177.9010    24.0940     2.2600   -14.0650 
  163.2500    68.1160   149.9860   149.8100   182.1750    24.2250     2.2500   -14.4520 
  163.3750    74.0710   137.5890   139.3810   153.1600    24.1520     2.2490   -14.8660 
  163.5000    76.1280   128.1760   130.6940   118.5830    23.9150     2.2610   -15.3010 
  163.6250    71.4460   136.3380   127.8920   109.0220    23.7380     2.2810   -15.7520 
  163.7500    66.4150   140.4230   131.3530   120.3300    23.7530     2.2980   -16.1840 
  163.8750    67.2570   150.2790   140.3590   142.3410    23.9120     2.3050   -16.6350 
  164.0000    72.1820   163.1830   152.6580   158.4510    24.1010     2.3020   -17.1040 
  164.1250    72.1790   172.4650   162.5690   170.7200    24.2250     2.2860   -17.6130 
  164.2500    65.7200   171.7910   164.0540   182.4470    24.2750     2.2650   -18.1580 
  164.3750    59.0320   160.3170   155.4230   187.8780    24.2880     2.2450   -18.7400 
  164.5000    57.9280   143.6260   140.6710   186.3580    24.2860     2.2330   -19.3830 
  164.6250    61.2730   130.7310   127.6040   157.2430    24.2750     2.2370   -20.0870 
  164.7500    63.8370   127.2870   122.5470   124.3160    24.2750     2.2480   -20.8550 
  164.8750    64.9710   137.1410   130.3590   115.8800    24.3010     2.2540   -21.6370 
  165.0000    64.8750   164.2490   156.1790   145.9840    24.3380     2.2480   -22.4000 
  165.1250    62.8790   219.0030   211.2420   259.7910    24.3510     2.2290   -23.1270 
  165.2500    59.3360   304.8530   297.1360   459.5090    24.3460     2.2080   -23.8480 
  165.3750    56.2590   420.0110   408.5290   616.9000    24.3460     2.1950   -24.5550 
  165.5000    55.8680   537.2170   517.9260   638.9440    24.3460     2.1940   -25.1860 
  165.6250    57.4110   590.1440   568.3040   619.0260    24.3460     2.2020   -25.6960 
  165.7500    58.3800   570.0160   552.0270   573.3230    24.3450     2.2120   -26.0780 
  165.8750    58.8820   509.5520   495.3210   475.3210    24.3480     2.2210   -26.3640 
  166.0000    59.5050   441.5740   428.6390   380.2330    24.3550     2.2270   -26.5920 
  166.1250    60.0350   385.9140   372.5290   341.9080    24.3610     2.2320   -26.7470 
  166.2500    59.9820   346.9010   332.4930   315.7130    24.3540     2.2390   -26.8250 
  166.3750    58.7610   325.6410   310.1090   267.1630    24.3370     2.2470   -26.8120 
  166.5000    56.8380   321.6380   305.3290   222.3570    24.3340     2.2530   -26.7410 
  166.6250    56.4440   335.3090   319.0790   227.2970    24.3450     2.2520   -26.6450 
  166.7500    58.0410   359.9600   344.8980   281.9210    24.3330     2.2480   -26.5400 
  166.8750    59.6740   388.6070   376.2170   356.2270    24.2870     2.2430   -26.4270 
  167.0000    60.0240   410.2680   402.4820   387.0110    24.2140     2.2420   -26.3220 
  167.1250    58.4060   408.9730   407.3420   358.8700    24.1200     2.2430   -26.2280 
  167.2500    56.9090   385.9370   389.3820   332.1840    24.0300     2.2470   -26.1030 
  167.3750    57.0280   351.3090   356.9390   312.8290    24.0020     2.2510   -25.9970 
  167.5000    58.4580   317.7040   322.9070   279.4080    24.0630     2.2570   -25.8790 
  167.6250    59.5340   295.7020   299.4090   238.8130    24.1230     2.2660   -25.7230 
  167.7500    58.4270   286.8180   289.4100   217.0760    24.0700     2.2760   -25.5680 
  167.8750    56.3020   290.9290   293.2320   223.5810    23.9050     2.2860   -25.4090 
  168.0000    55.2420   331.9740   309.1280   250.7140    23.7470     2.2950   -25.2770 
  168.1250    56.2030   356.7700   333.6600   267.5940    23.7440     2.3010   -25.1810 
  168.2500    57.8470   380.6240   358.0270   273.6340    23.8480     2.3020   -25.1250 
  168.3750    58.7640   395.1020   374.2120   283.3840    23.9500     2.2940   -25.0780 
  168.5000    59.0200   394.1210   376.0090   301.5120    23.9870     2.2780   -25.0290 
  168.6250    58.8140   375.0110   359.9390   300.3870    23.9750     2.2580   -25.0080 
  168.7500    57.5790   345.6600   333.0890   252.7110    23.9320     2.2410   -24.9630 
  168.8750    56.4000   311.9570   301.1380   183.0870    23.8500     2.2310   -24.9080 
  169.0000    56.5460   279.2420   269.4340   131.8060    23.7550     2.2280   -24.8480 
  169.1250    59.4730   253.0420   243.5930   107.3230    23.6960     2.2300   -24.8030 
  169.2500    62.1570   234.8890   225.5180    93.3500    23.6590     2.2340   -24.8150 
  169.3750    62.8700   225.2150   215.8690    83.4010    23.6110     2.2390   -24.8830 
  169.5000    62.4030   223.4860   214.2980    76.5200    23.5470     2.2450   -25.0270 
  169.6250    61.4370   229.5900   220.8990    76.6860    23.5190     2.2510   -25.2110 
  169.7500    59.9180   240.6940   232.9330    87.6760    23.6100     2.2550   -25.4250 
  169.8750    58.0970   254.6160   248.3500   113.5800    23.8240     2.2550   -25.6670 
  170.0000    57.2950   267.8710   263.7630   146.9130    24.0480     2.2520   -25.8780 
  170.1250    58.0050   273.4790   272.2640   165.6050    24.1410     2.2460   -26.0460 
  170.2500    59.8620   267.6790   269.5350   169.3050    24.1380     2.2400   -26.1810 
  170.3750    62.6500   251.0900   255.3470   161.4430    24.0800     2.2380   -26.2880 
  170.5000    64.4870   229.0300   234.2220   136.4160    23.9350     2.2410   -26.4050 
  170.6250    62.8920   209.1610   213.5130   100.4630    23.6570     2.2520   -26.5370 
  170.7500    60.4240   195.6510   198.3690    77.9750    23.3590     2.2650   -26.6840 
  170.8750    59.8320   188.8550   189.8690    74.1530    23.1750     2.2760   -26.8080 
  171.0000    60.0910   186.8480   186.4670    89.1580    23.1790     2.2790   -26.9500 
  171.1250    58.8370   187.1600   185.7820   127.4870    23.3230     2.2760   -27.1220 
  171.2500    57.1810   188.1510   185.8270   167.9880    23.4650     2.2730   -27.2990 
  171.3750    58.3440   190.8540   187.1910   170.8110    23.5980     2.2720   -27.4860 
  171.5000    62.7110   198.2210   192.5230   142.5200    23.7930     2.2720   -27.5940 
  171.6250    64.3900   216.7340   208.4250   135.1490    24.0820     2.2660   -27.5900 
  171.7500    60.8290   249.5070   238.1270   167.0190    24.3530     2.2520   -27.5460 
  171.8750    56.5650   298.9910   283.0340   253.6540    24.5210     2.2310   -27.5070 
  172.0000    55.8970   364.1610   340.1430   375.0310    24.5790     2.2080   -27.4620 
  172.1250    57.5890   403.2920   399.1480   431.6640    24.5760     2.1900   -27.3550 
  172.2500    57.5830   461.1030   446.3470   453.0820    24.5460     2.1780   -27.1700 
  172.3750    56.5980   501.5210   477.1380   460.6550    24.4900     2.1730   -26.8880 
  172.5000    54.8100   529.4720   497.8510   459.8950    24.4240     2.1750   -26.5480 
  172.6250    51.3300   558.2240   521.3630   454.6270    24.3830     2.1810   -26.1460 
  172.7500    49.3610   595.8760   555.0570   460.0090    24.3400     2.1860   -25.6280 
  172.8750    50.6960   642.4320   599.1870   497.6480    24.2380     2.1900   -24.9810 
  173.0000    53.3180   688.6220   645.9600   567.4220    24.0800     2.1890   -24.1950 
  173.1250    54.1860   702.0260   668.3850   611.2550    23.9970     2.1850   -23.2710 
  173.2500    52.1860   655.7510   640.9290   605.9020    24.0600     2.1800   -22.2550 
  173.3750    49.7680   551.1380   557.7370   581.8460    24.1830     2.1760   -21.1380 
  173.5000    50.0690   422.9600   441.9440   540.2100    24.2370     2.1770   -19.9670 
  173.6250    53.6450   313.3210   331.3590   407.8190    24.2180     2.1870   -18.8020 
