~V
VERS. 2.00: Ver 2.00
~W
STRT.M 60.0000:
STOP.M 262.0000:
STEP.M 0.1250:
NULL. -999.2500:
UWI. F10018:
~C
DEPT.M :
GR.API :
RML.OHMM :
RI. :
RXO.OHMM :
CALI.CM :
DEN.GM/CC :
SP.MV :
~A
# ...
  217.5000    55.5290     6.8340     6.7250     6.6520    24.2620     2.4240   -11.2670 
  217.6250    58.4060     6.9840     6.7160     9.0100    24.3070     2.4180   -10.2700 
  217.7500    60.3470     7.5990     7.2670     9.1200    24.3660     2.4240    -9.5510 
  217.8750    65.0370     8.3720     8.1540     9.0810    24.4170     2.4260    -9.1620 
  218.0000    74.2660     9.0380     9.0860     9.2240    24.4260     2.4220    -9.0810 
  218.1250    83.1310     9.4260     9.7710     9.0830    24.4150     2.4140    -9.2770 
  218.2500    86.5240     9.6430    10.2150     9.0980    24.4360     2.4080    -9.6280 
  218.3750    85.4520     9.8070    10.5170     9.7110    24.4780     2.4050   -10.0680 
  218.5000    82.5160     9.9780    10.7480    10.6570    24.4900     2.4020   -10.5250 
  218.6250    79.8280    10.1540    10.9010    11.3640    24.4960     2.3970   -10.9590 
  218.7500    78.0210    10.3080    10.9630    11.4760    24.4940     2.3870   -11.3730 
  218.8750    77.5080    10.4330    10.9250    11.3950    24.5100     2.3710   -11.8020 
  219.0000    78.4860    10.5680    10.8220    11.3980    24.5100     2.3480   -12.2800 
  219.1250    81.0030    10.8370    10.7790    11.3640    24.4730     2.3240   -12.7630 
  219.2500    83.4370    11.3440    10.9280    11.4110    24.4140     2.3060   -13.1280 
  219.3750    83.6740    12.1490    11.3560    11.7600    24.3600     2.3040   -13.3780 
  219.5000    81.7650    13.2410    12.0840    12.6000    24.3020     2.3210   -13.5900 
  219.6250    78.9630    14.8940    13.0910    14.5130    24.4030     2.3540   -13.8050 
  219.7500    75.9410    17.3600    14.2450    17.2830    24.6000     2.3900   -13.9930 
  219.8750    73.0880    18.9750    15.5120    18.8210    24.5420     2.4220   -14.0810 
  220.0000    70.9240    20.8310    16.9440    18.9980    24.3860     2.4470   -14.0350 
  220.1250    69.3910    23.2130    18.7350    19.7170    24.3020     2.4660   -13.9300 
  220.2500    67.2740    26.1300    20.9390    22.7250    24.2890     2.4840   -13.8670 
  220.3750    64.1160    29.3310    23.4500    28.9880    24.3340     2.5000   -13.8370 
  220.5000    60.7370    32.2530    25.8990    37.2020    24.4310     2.5150   -13.8130 
  220.6250    58.5800    34.1540    27.6890    35.4110    24.5740     2.5260   -13.7660 
  220.7500    58.0840    35.2350    28.8190    36.0430    24.4050     2.5290   -13.7110 
  220.8750    59.0630    36.1700    29.7030    37.7320    24.3340     2.5200   -13.6900 
  221.0000    60.5800    37.8200    30.9700    37.3630    24.4000     2.4940   -13.7040 
  221.1250    61.7090    41.0850    33.4040    42.9040    24.4440     2.4510   -13.7290 
  221.2500    62.4760    45.7550    37.0530    55.5590    24.4560     2.4030   -13.7510 
  221.3750    62.2350    51.2620    41.6350    65.3180    24.4420     2.3600   -13.7620 
  221.5000    59.8400    56.7790    46.5410    63.7590    24.4050     2.3270   -13.7580 
  221.6250    55.6960    61.4060    50.9740    62.2230    24.3630     2.3040   -13.7780 
  221.7500    52.1990    65.0550    54.6410    67.8740    24.3310     2.2880   -13.8300 
  221.8750    51.7460    68.0330    57.6630    74.8570    24.3680     2.2740   -13.8710 
  222.0000    53.8490    70.7220    60.3350    77.7030    24.4820     2.2640   -13.8720 
  222.1250    55.5740    73.0240    62.6400    73.4480    24.4980     2.2570   -13.8670 
  222.2500    55.5100    74.5600    64.3190    71.8320    24.4690     2.2550   -13.9090 
  222.3750    54.9340    75.2010    65.2450    73.6050    24.4210     2.2550   -13.9840 
  222.5000    55.6100    75.3510    65.7220    75.9640    24.3480     2.2550   -14.0550 
  222.6250    56.8220    75.9580    66.5280    72.4670    24.3060     2.2530   -14.1070 
  222.7500    56.7340    77.7450    68.3120    67.9410    24.3400     2.2450   -14.1410 
  222.8750    54.7250    80.9630    71.3390    71.3410    24.4330     2.2330   -14.2060 
  223.0000    51.3430    85.3330    75.4410    87.9890    24.4850     2.2170   -14.3760 
  223.1250    49.5570    89.9260    79.9280   101.3080    24.4600     2.2030   -14.6150 
  223.2500    50.5270    93.4010    83.6730   104.6210    24.4030     2.1920   -14.7870 
  223.3750    54.2670    94.8300    85.8250    94.6880    24.3330     2.1870   -14.8880 
  223.5000    58.3990    94.0770    86.0820    85.2830    24.3640     2.1870   -14.9500 
  223.6250    58.8420    91.8490    84.7910    84.8490    24.4950     2.1900   -14.9770 
  223.7500    56.2460    89.4800    83.1090    87.4450    24.5430     2.1920   -15.0210 
  223.8750    53.6360    87.3900    81.5280    88.2010    24.3960     2.1940   -15.0620 
  224.0000    53.2380    85.4710    80.0730    86.8830    24.3350     2.2010   -15.0490 
  224.1250    54.1010    83.4210    78.5290    84.1740    24.3570     2.2170   -14.9450 
  224.2500    54.2150    81.2150    76.8500    72.9140    24.0660     2.2390   -14.7960 
  224.3750    53.6670    79.1530    75.2700    63.3930    23.7340     2.2590   -14.6590 
  224.5000    53.9600    77.7580    74.2440    56.9080    23.5450     2.2680   -14.5390 
  224.6250    55.4080    77.9180    74.5940    59.0730    23.6000     2.2620   -14.4600 
  224.7500    55.6950    79.9920    76.7140    66.5700    23.7330     2.2500   -14.3640 
  224.8750    53.8930    84.3290    80.9940    76.0130    23.8650     2.2330   -14.2190 
  225.0000    51.1790    90.8740    87.4530    85.8040    23.9630     2.2130   -14.0890 
  225.1250    50.4060    98.3410    94.9920   101.3760    24.1510     2.1920   -14.0460 
  225.2500    52.4030   103.4300   100.5830   119.7900    24.2960     2.1750   -14.0520 
  225.3750    54.9070   103.0340   101.3510   135.3540    24.1890     2.1700   -14.0400 
  225.5000    54.4950    96.0220    95.9510   132.1790    23.8540     2.1790   -14.0250 
  225.6250    52.1900    84.1380    85.3050    90.1430    23.6830     2.1980   -14.0240 
  225.7500    53.2200    72.1760    73.7810    59.3470    23.6470     2.2160   -14.0770 
  225.8750    56.7650    62.7260    64.1210    49.0470    23.6570     2.2260   -14.1930 
  226.0000    57.8740    56.7330    57.5970    47.8790    23.6800     2.2250   -14.2230 
  226.1250    56.6050    54.4430    54.6980    46.9900    23.7190     2.2170   -14.1250 
  226.2500    56.3480    54.5290    54.2580    47.6500    23.7660     2.2070   -14.0550 
  226.3750    56.4090    56.1920    55.5700    56.0270    23.7840     2.2010   -14.0550 
  226.5000    55.2240    58.8070    58.0200    62.2580    23.7580     2.2010   -14.1040 
  226.6250    54.0200    62.3720    61.5420    60.8780    23.6990     2.2070   -14.1340 
  226.7500    53.6430    67.0950    66.2430    57.2330    23.6600     2.2140   -14.1190 
  226.8750    54.0010    73.2200    72.3490    62.0490    23.6530     2.2200   -14.0750 
  227.0000    55.1180    80.5740    79.7130    78.0770    23.6880     2.2270   -14.0600 
  227.1250    55.5900    88.5430    87.7710   111.9490    23.7310     2.2360   -14.0820 
  227.2500    53.1940    96.1970    95.5750   128.8890    23.7510     2.2460   -14.0820 
  227.3750    49.9330   103.0990   102.6060   115.4980    23.7770     2.2470   -14.0450 
  227.5000    49.0970   108.9210   108.4830    94.8890    23.8430     2.2350   -13.9960 
  227.6250    49.9800   111.7270   111.4800    96.7990    24.0580     2.2060   -13.9860 
  227.7500    49.1170   109.0800   109.5280   129.5100    24.3460     2.1770   -13.9810 
  227.8750    47.5440    99.3800   101.0390   169.7410    24.5790     2.1610   -13.9680 
  228.0000    49.3640    86.2290    86.9740   150.6680    24.5580     2.1630   -13.9610 
  228.1250    55.0350    69.8580    71.2370    82.1250    24.2950     2.1830   -13.9410 
  228.2500    58.7720    56.9300    58.2170    47.2350    23.8920     2.2050   -13.8790 
  228.3750    58.4290    48.7860    49.5830    36.4720    23.6960     2.2240   -13.7950 
  228.5000    56.9910    45.3450    45.4710    37.4370    23.6540     2.2370   -13.7090 
  228.6250    56.2570    46.6610    46.0600    40.1170    23.6650     2.2490   -13.6300 
