~V
VERS. 2.00: Ver 2.00
~W
STRT.M 50.0000:
STOP.M 300.0000:
STEP.M 0.1250:
NULL. -999.2500:
UWI. F10041:
~C
DEPT.M :
DEN.GM/CC :
GR.API :
RML.OHMM :
RI. :
RXO.OHMM :
CALI.CM :
SP.MV :
~A
# ...
  173.7500     2.1300    59.4220    19.5670    21.0330    17.9390    23.8230    -2.2770 
  173.8750     2.1420    58.8330    19.5020    20.8500    16.6980    24.4910    -2.0430 
  174.0000     2.1500    59.2860    19.5810    20.8190    16.5150    24.8660    -1.8530 
  174.1250     2.1490    58.6360    19.8470    21.0290    18.2110    24.9520    -1.6860 
  174.2500     2.1430    57.0730    20.2170    21.4180    19.8290    24.9500    -1.6070 
  174.3750     2.1380    56.6640    20.8490    21.9080    20.7740    24.9310    -1.5950 
  174.5000     2.1370    57.2920    21.8150    22.3970    20.9750    24.8500    -1.6010 
  174.6250     2.1410    57.5600    22.7320    22.7550    20.8200    24.6380    -1.6500 
  174.7500     2.1450    57.6320    23.1540    22.9200    20.8350    24.4230    -1.7330 
  174.8750     2.1490    57.1090    23.0660    22.8560    20.4080    24.2920    -1.8680 
  175.0000     2.1520    56.9240    22.7060    22.5650    19.3390    24.2400    -1.9780 
  175.1250     2.1610    58.3090    22.2200    22.0940    18.1890    24.1740    -2.0950 
  175.2500     2.1760    60.6950    21.6020    21.6080    17.3700    24.0190    -2.1920 
  175.3750     2.1750    61.4360    20.9420    21.2500    16.5920    23.8470    -2.2520 
  175.5000     2.1610    59.9690    20.4800    21.1260    15.8210    23.7320    -2.2610 
  175.6250     2.1380    59.5580    20.5600    21.2870    16.2670    23.7840    -2.1890 
  175.7500     2.1200    59.2610    21.0010    21.5540    17.3700    23.9530    -2.1350 
  175.8750     2.1120    57.1800    21.3830    21.7150    18.2650    24.1120    -2.0490 
  176.0000     2.1150    55.1960    21.3750    21.5430    18.0840    24.1470    -2.0160 
  176.1250     2.1190    58.0820    20.6520    20.7930    16.3130    24.1220    -1.9860 
  176.2500     2.1180    63.9360    19.2870    19.5680    14.6610    24.0690    -2.0410 
  176.3750     2.1120    69.4580    17.4900    18.0620    14.4760    24.0540    -2.1530 
  176.5000     2.1030    73.4880    15.6560    16.5570    14.6550    24.0290    -2.3240 
  176.6250     2.0960    74.1140    14.3790    15.4210    12.6800    23.8700    -2.5820 
  176.7500     2.0920    70.7780    13.9490    14.8360    11.0330    23.5830    -2.7700 
  176.8750     2.0930    64.9150    14.4560    14.9450    12.4080    23.4210    -2.9680 
  177.0000     2.0990    58.8620    15.7880    15.8450    16.1910    23.5990    -3.0910 
  177.1250     2.1080    54.0370    17.7490    17.6500    18.9730    23.6940    -3.1330 
  177.2500     2.1150    51.3280    19.9350    20.0050    19.8890    23.6690    -3.0630 
  177.3750     2.1180    51.4540    22.0900    22.4950    20.4690    23.6370    -2.9540 
  177.5000     2.1170    53.6290    23.9450    24.5880    21.2220    23.6200    -2.8460 
  177.6250     2.1190    56.3550    24.9720    25.5520    21.9770    23.5920    -2.7690 
  177.7500     2.1290    58.3830    24.8400    25.2000    21.0240    23.5030    -2.7520 
  177.8750     2.1460    60.4360    23.3520    23.5440    19.3240    23.3580    -2.7860 
  178.0000     2.1670    62.7080    20.7140    20.9350    17.2440    23.2390    -2.9460 
  178.1250     2.1810    64.1140    17.5950    18.0340    13.6250    23.1440    -3.3080 
  178.2500     2.1820    66.2250    14.9880    15.6080    10.2510    23.0700    -3.7980 
  178.3750     2.1660    70.3670    13.5020    14.0860     9.7840    23.0590    -4.3170 
  178.5000     2.1390    72.2260    13.3700    13.6570    12.0260    23.1940    -4.7570 
  178.6250     2.1150    66.7710    14.5520    14.4250    15.6230    23.4920    -5.1140 
  178.7500     2.1070    59.8830    16.2540    15.8430    17.5930    23.7290    -5.3760 
  178.8750     2.1210    57.0110    17.7750    17.3050    17.7570    23.7830    -5.5490 
  179.0000     2.1510    58.2940    18.5030    18.1540    16.5660    23.6190    -5.6180 
  179.1250     2.1770    62.8790    18.0450    17.8930    13.7910    23.3590    -5.5740 
  179.2500     2.1830    68.9870    16.9400    16.9680    12.1030    23.1680    -5.4610 
  179.3750     2.1670    72.5070    15.7830    15.9360    12.4510    23.1850    -5.3010 
  179.5000     2.1370    71.3900    15.0860    15.2580    13.4700    23.3730    -5.2410 
  179.6250     2.1040    68.9560    15.1960    15.2030    15.2610    23.7570    -5.1840 
  179.7500     2.0820    67.8110    15.8510    15.5720    16.0370    24.0940    -5.2250 
  179.8750     2.0880    67.4960    16.7170    16.1470    15.8100    24.2550    -5.2940 
  180.0000     2.1350    66.7070    17.4970    16.7400    15.3230    24.2580    -5.3350 
  180.1250     2.2220    65.0050    18.1070    17.2780    14.6850    24.1270    -5.3200 
  180.2500     2.3090    62.4070    18.8060    17.8660    13.8570    23.9420    -5.2540 
  180.3750     2.3640    60.9200    19.8510    18.6550    13.2970    23.8080    -5.1690 
  180.5000     2.3690    62.5310    21.3510    19.7580    12.5980    23.7540    -5.0080 
  180.6250     2.3310    65.7770    23.2050    21.2120    13.2770    23.7940    -4.8200 
  180.7500     2.2880    66.9690    25.0590    22.8190    16.2780    23.8180    -4.5780 
  180.8750     2.2630    64.9300    26.6870    24.3990    21.6140    23.8070    -4.2980 
  181.0000     2.2610    61.7640    27.9960    25.8130    23.5820    23.7920    -4.0470 
  181.1250     2.2780    61.2750    28.9800    26.9700    23.9960    23.7870    -3.8500 
  181.2500     2.2950    64.1510    29.7640    27.9310    24.6540    23.7880    -3.7320 
  181.3750     2.3020    68.2650    30.3640    28.6920    27.2870    23.7880    -3.6520 
  181.5000     2.2880    69.7470    30.7050    29.1540    29.3440    23.7880    -3.6130 
  181.6250     2.2510    68.2260    30.5090    28.9860    30.8340    23.7870    -3.5810 
  181.7500     2.2070    66.2850    29.6180    28.0500    31.5510    23.7850    -3.5190 
  181.8750     2.1710    64.2300    27.9300    26.3270    29.7910    23.7860    -3.4790 
  182.0000     2.1510    62.9420    25.5730    24.0500    22.8610    23.7870    -3.4490 
  182.1250     2.1440    63.4680    22.9680    21.7150    15.5590    23.7870    -3.4400 
  182.2500     2.1430    63.5260    20.7530    19.8420    12.3740    23.7870    -3.3900 
  182.3750     2.1420    60.5580    19.3660    18.7250    12.4210    23.8000    -3.3680 
  182.5000     2.1400    57.0840    19.0300    18.4640    14.2780    23.8360    -3.3170 
  182.6250     2.1410    55.7590    19.7820    19.0760    17.2750    23.8810    -3.2730 
  182.7500     2.1460    56.0870    20.9790    20.1040    20.8600    23.9010    -3.2540 
  182.8750     2.1540    57.0680    21.9940    21.0670    22.2930    23.9400    -3.2360 
  183.0000     2.1670    59.0610    22.2310    21.4010    22.0950    24.0170    -3.3110 
  183.1250     2.1860    61.5660    21.1720    20.4670    20.9690    24.1500    -3.4340 
  183.2500     2.2130    63.8980    19.1610    18.4560    17.5210    24.3670    -3.6540 
  183.3750     2.2510    67.7040    16.5050    15.7900    13.7760    24.5750    -3.8780 
  183.5000     2.2990    73.0420    13.6130    13.0250    12.4470    24.6730    -4.1530 
  183.6250     2.3430    78.5550    11.0950    10.6870     9.3740    24.6710    -4.4610 
  183.7500     2.3660    83.5790     9.2630     8.9090     7.4710    24.5950    -4.7950 
  183.8750     2.3610    87.1830     8.0740     7.6850     7.2290    24.4340    -5.1180 
  184.0000     2.3330    88.2100     7.3290     6.9390     7.2230    24.3190    -5.3600 
  184.1250     2.3000    87.3210     6.9680     6.6050     6.6250    24.3720    -5.5110 
  184.2500     2.2820    87.3180     6.8390     6.4800     6.0950    24.5200    -5.5930 
  184.3750     2.2830    86.5090     6.7890     6.4310     6.2100    24.6410    -5.6510 
  184.5000     2.3000    84.0290     6.6980     6.3450     6.4890    24.6870    -5.7130 
  184.6250     2.3170    86.0270     6.4790     6.1340     5.8750    24.6880    -5.7960 
  184.7500     2.3220    93.5580     6.1610     5.8280     5.1780    24.6870    -5.9110 
  184.8750     2.3160    98.4820     5.8080     5.4880     4.8500    24.6860    -6.0440 
