~V
VERS. 2.00: Ver 2.00
~W
STRT.M 55.0000:
STOP.M 297.0000:
STEP.M 0.1250:
NULL. -999.2500:
UWI. F10076:
~C
DEPT.M :
DEN.GM/CC :
SP.MV :
GR.API :
CALI.CM :
RXO.OHMM :
RI. :
RML.OHMM :
~A
# ...
  122.5000     2.3980    -4.2150    69.5330    23.3580    11.6320     9.6030    11.1050 
  122.6250     2.3570    -3.4750    71.8720    23.8190    10.4390     8.7700     9.9110 
  122.7500     2.2830    -2.8210    81.3100    24.1920     7.5520     7.5810     8.4960 
  122.8750     2.2070    -2.2680    92.4010    24.4280     5.5210     6.4690     7.3510 
  123.0000     2.1570    -1.8790   102.1640    24.4110     4.9980     5.6830     6.6850 
  123.1250     2.1440    -1.5780   108.8720    24.1450     5.1250     5.3360     6.5450 
  123.2500     2.1450    -1.3880   112.3590    23.8800     5.2310     5.2860     6.6950 
  123.3750     2.1470    -1.2660   113.0690    23.6960     5.2310     5.3970     6.9360 
  123.5000     2.1560    -1.1770   112.6730    23.5950     5.2490     5.5230     7.0850 
  123.6250     2.1830    -1.1070   112.2520    23.5700     5.2430     5.5430     7.0170 
  123.7500     2.2170    -1.0680   112.6890    23.5840     5.0240     5.4650     6.8150 
  123.8750     2.2430    -1.0280   115.0230    23.6100     4.7160     5.3460     6.5880 
  124.0000     2.2550    -1.0070   116.3320    23.6250     4.5950     5.2550     6.4420 
  124.1250     2.2450    -1.1120   114.3620    23.6280     4.7220     5.2650     6.4750 
  124.2500     2.2200    -1.2230   112.3340    23.6260     5.0740     5.3750     6.6590 
  124.3750     2.1930    -1.3850   114.2220    23.6080     6.0060     5.5410     6.9150 
  124.5000     2.1800    -1.5490   117.6840    23.5590     7.8430     5.6800     7.1120 
  124.6250     2.1870    -1.6810   114.1870    23.5430     8.8240     5.6950     7.1130 
  124.7500     2.2060    -1.7200   104.4970    23.7420     8.0020     5.6130     6.9820 
  124.8750     2.2420    -1.7740    98.8110    24.1440     6.4410     5.5220     6.8580 
  125.0000     2.3000    -1.7630   104.0920    24.4570     5.6550     5.5180     6.8790 
  125.1250     2.3580    -1.6780   112.1010    24.5510     6.0680     5.6850     7.1400 
  125.2500     2.3710    -1.7050   112.1810    24.5470     7.0470     5.9740     7.5470 
  125.3750     2.3260    -1.7920   107.8720    24.5190     7.9020     6.2890     7.9480 
  125.5000     2.2490    -1.8790   106.5010    24.5010     7.8730     6.4960     8.1630 
  125.6250     2.1880    -1.9120   107.2750    24.5280     7.0940     6.4480     8.0240 
  125.7500     2.1600    -2.0190   106.1590    24.6540     6.3340     6.1870     7.6370 
  125.8750     2.1550    -2.0890   104.2680    24.8990     5.7860     5.8280     7.1800 
  126.0000     2.1630    -2.1350   102.3700    25.1450     5.3270     5.5220     6.8380 
  126.1250     2.1950    -2.1620   100.3180    25.2430     5.1140     5.4180     6.7700 
  126.2500     2.2470    -2.1200    99.3040    25.2170     5.1340     5.5110     6.9410 
  126.3750     2.2900    -2.0080    99.2890    25.1190     5.7340     5.7450     7.2600 
  126.5000     2.3000    -1.8850    99.4290    24.9730     6.8740     6.0140     7.5780 
  126.6250     2.2750    -1.8120    99.1780    24.7650     7.4070     6.1600     7.6800 
  126.7500     2.2390    -1.7600    98.7400    24.6730     6.6540     6.1160     7.5360 
  126.8750     2.2050    -1.7130    98.7230    24.7900     5.4870     5.9130     7.2340 
  127.0000     2.1860    -1.6900   100.5290    24.9410     4.9490     5.6380     6.9110 
  127.1250     2.1960    -1.6650   104.9840    24.9860     4.9890     5.3850     6.6660 
  127.2500     2.2200    -1.5340   108.2220    24.9970     5.0330     5.1860     6.4890 
  127.3750     2.2380    -1.3300   109.8950    25.0180     4.8910     5.0300     6.3390 
  127.5000     2.2450    -1.1650   112.6140    25.0510     4.6510     4.8970     6.1910 
  127.6250     2.2450    -1.0250   115.0400    25.0650     4.4100     4.7840     6.0720 
  127.7500     2.2480    -0.8330   115.2530    25.0700     4.2910     4.7160     6.0310 
  127.8750     2.2500    -0.6770   114.0780    25.0700     4.3410     4.7090     6.0870 
  128.0000     2.2500    -0.5370   113.0830    25.0700     4.4850     4.7510     6.1980 
  128.1250     2.2480    -0.3830   111.8560    25.0680     4.5970     4.7860     6.2640 
  128.2500     2.2540    -0.3020   109.0140    25.0560     4.5930     4.7640     6.2130 
  128.3750     2.2770    -0.2710   107.1930    25.0370     4.4600     4.6710     6.0430 
  128.5000     2.3110    -0.2320   109.4480    25.0590     4.1830     4.5310     5.8120 
  128.6250     2.3320    -0.1970   112.8180    25.1520     3.8750     4.4150     5.6450 
  128.7500     2.3380    -0.2440   114.6550    25.2220     3.8200     4.3870     5.6270 
  128.8750     2.3350    -0.3000   114.4640    25.1980     4.0610     4.4770     5.7880 
  129.0000     2.3260    -0.4150   113.0820    25.0960     4.5430     4.6800     6.1010 
  129.1250     2.3050    -0.5460   109.5150    24.9460     5.1530     4.9570     6.4830 
  129.2500     2.2750    -0.6890   104.8610    24.7200     5.6250     5.2090     6.7790 
  129.3750     2.2410    -0.8830   101.8440    24.6000     5.5560     5.3610     6.8950 
  129.5000     2.2110    -1.0310    99.4830    24.8420     5.1090     5.3820     6.8310 
  129.6250     2.1980    -1.1420    95.2600    25.2090     4.9580     5.2970     6.6780 
  129.7500     2.2020    -1.2290    93.1350    25.2730     4.9080     5.1830     6.5410 
  129.8750     2.2150    -1.3250    96.6150    25.1610     4.8360     5.0830     6.4550 
  130.0000     2.2260    -1.3660   103.8040    25.0820     4.7950     5.0180     6.4120 
  130.1250     2.2310    -1.3970   106.9010    25.0610     4.8100     4.9880     6.3820 
  130.2500     2.2370    -1.3910   105.7830    25.0300     4.8070     4.9700     6.3480 
  130.3750     2.2400    -1.3760   106.1560    24.9840     4.6910     4.9640     6.3270 
  130.5000     2.2340    -1.3850   108.8210    24.9760     4.5210     4.9840     6.3510 
  130.6250     2.2130    -1.4580   108.8210    25.0210     4.5250     5.0490     6.4440 
  130.7500     2.1910    -1.4910   106.3560    25.0620     4.6630     5.1450     6.5800 
  130.8750     2.1820    -1.5070   106.5120    25.0740     4.8880     5.2430     6.7060 
  131.0000     2.1970    -1.5070   109.1280    25.0270     5.1250     5.2990     6.7570 
  131.1250     2.2330    -1.4960   109.6130    24.9790     5.1840     5.2640     6.6580 
  131.2500     2.2640    -1.5520   110.2520    25.1270     4.9040     5.1500     6.4530 
  131.3750     2.2750    -1.6230   113.1650    25.5300     4.5130     4.9980     6.2130 
  131.5000     2.2620    -1.7630   115.4300    25.7730     4.3420     4.8600     6.0200 
  131.6250     2.2440    -1.9230   112.1380    25.5780     4.4520     4.7950     5.9500 
  131.7500     2.2370    -2.2200   106.4820    25.2450     4.6000     4.8130     5.9990 
  131.8750     2.2370    -2.6230   101.5930    25.0920     4.7110     4.9160     6.1530 
  132.0000     2.2300    -3.1230    96.1020    25.1350     4.8680     5.0950     6.3820 
  132.1250     2.2080    -3.7260    89.8130    25.2300     5.0690     5.3390     6.6680 
  132.2500     2.1810    -4.3680    86.2150    25.2090     5.4110     5.6240     6.9890 
  132.3750     2.1610    -5.0140    85.6420    25.0230     6.0290     5.9450     7.3440 
  132.5000     2.1560    -5.6790    84.9640    24.6920     6.8900     6.2900     7.7200 
  132.6250     2.1590    -6.2720    83.6020    24.4850     7.5190     6.6050     8.0570 
  132.7500     2.1630    -6.7100    84.5480    24.3810     7.6430     6.8140     8.2610 
  132.8750     2.1700    -7.0420    86.6430    24.3280     7.7500     6.8370     8.2440 
  133.0000     2.1870    -7.2830    85.7030    24.3750     7.6950     6.6360     7.9630 
  133.1250     2.2170    -7.5010    82.9100    24.5480     6.8790     6.2460     7.4740 
  133.2500     2.2400    -7.7200    82.4400    24.7510     5.6960     5.8480     7.0120 
  133.3750     2.2400    -8.0520    85.4380    24.9410     4.9640     5.5870     6.7640 
  133.5000     2.2160    -8.4420    91.4650    24.9860     4.8270     5.5690     6.8530 
  133.6250     2.1900    -8.9990    95.3660    24.8320     5.3520     5.8950     7.3700 
