~V
VERS. 2.00: Ver 2.00
~W
STRT.M 60.0000:
STOP.M 242.0000:
STEP.M 0.1250:
NULL. -999.2500:
UWI. F10022:
~C
DEPT.M :
GR.API :
RML.OHMM :
RI. :
RXO.OHMM :
CALI.CM :
DEN.GM/CC :
SP.MV :
~A
# ...
  127.5000    82.7400     6.1250     5.8110     6.6370    24.1750     2.3480    -1.3150 
  127.6250    79.9330     6.0130     5.6980     6.5850    24.1750     2.3580    -1.2010 
  127.7500    82.7020     5.8720     5.5720     6.4120    24.1750     2.3700    -1.1300 
  127.8750    86.6100     5.7060     5.4330     6.2200    24.1750     2.3790    -1.1140 
  128.0000    88.4090     5.5410     5.3030     6.1510    24.1750     2.3830    -1.1340 
  128.1250    89.6920     5.4590     5.2370     6.1830    24.1700     2.3820    -1.2130 
  128.2500    90.6480     5.5530     5.2960     6.3750    24.1550     2.3790    -1.3280 
  128.3750    89.2080     5.9220     5.5500     6.6580    24.1280     2.3720    -1.4610 
  128.5000    85.3000     6.6190     6.0480     7.1470    24.1060     2.3600    -1.5950 
  128.6250    82.5900     7.6360     6.8150     8.1780    24.0580     2.3360    -1.6750 
  128.7500    80.2760     8.7340     7.6980     9.5460    23.9640     2.3050    -1.7270 
  128.8750    78.0400     9.6660     8.5200    11.0120    23.8680     2.2720    -1.7750 
  129.0000    76.7300    10.2050     9.0870    12.1120    23.8040     2.2490    -1.8350 
  129.1250    74.6590    10.1680     9.2140    11.8770    23.7220     2.2400    -1.8620 
  129.2500    72.1500     9.7930     9.0380    10.7950    23.5760     2.2440    -1.8060 
  129.3750    71.5810     9.4650     8.8020    10.2090    23.4260     2.2550    -1.6590 
  129.5000    73.8340     9.5980     8.8250    10.3850    23.3050     2.2710    -1.4110 
  129.6250    75.8110    10.8490     9.5530    11.6960    23.2460     2.2990    -1.1520 
  129.7500    75.3020    13.1660    11.1120    14.6100    23.2330     2.3400    -0.9090 
  129.8750    73.4420    16.4200    13.4980    19.7070    23.2990     2.3860    -0.6190 
  130.0000    69.5640    20.1190    16.4510    26.2150    23.3860     2.4170    -0.2540 
  130.1250    62.7820    22.9300    19.3370    31.4250    23.4550     2.4030     0.1820 
  130.2500    56.4050    24.5880    21.4250    33.6630    23.6360     2.3510     0.6150 
  130.3750    52.9300    24.8870    22.3070    31.2780    23.9860     2.2800     0.9790 
  130.5000    52.6150    24.1280    22.0640    25.9860    24.3070     2.2160     1.2630 
  130.6250    54.5320    22.9780    21.1880    23.8400    24.3980     2.1770     1.5330 
  130.7500    57.3850    22.1330    20.3920    22.9440    24.3630     2.1620     1.8240 
  130.8750    60.4960    21.8720    19.9980    22.4520    24.2630     2.1650     2.1010 
  131.0000    62.0540    22.2540    20.1320    22.1230    24.1200     2.1840     2.3290 
  131.1250    61.0490    23.2580    20.8490    22.3340    24.0200     2.2170     2.4980 
  131.2500    58.1950    24.5650    21.9200    23.2190    23.9950     2.2520     2.6140 
  131.3750    54.6510    25.8990    23.1430    24.6330    24.0210     2.2740     2.7500 
  131.5000    52.9390    26.9700    24.2750    26.3610    24.0840     2.2730     2.9180 
  131.6250    54.3570    27.4670    25.0220    28.0260    24.2150     2.2490     3.0980 
  131.7500    56.0780    27.4530    25.3390    28.9540    24.2400     2.2190     3.2650 
  131.8750    56.1460    27.1000    25.3030    28.9230    24.2430     2.1930     3.3950 
  132.0000    53.4600    26.6560    25.0900    28.5400    24.2790     2.1750     3.4710 
  132.1250    50.4180    26.3730    24.9070    28.3440    24.3780     2.1660     3.4990 
  132.2500    49.5760    26.3160    24.8650    28.5160    24.4390     2.1600     3.5340 
  132.3750    51.2860    26.4330    24.9590    28.5680    24.3560     2.1570     3.5680 
  132.5000    54.1870    26.6080    25.1220    28.6600    24.2290     2.1560     3.5660 
  132.6250    55.1750    26.6850    25.2400    28.7980    24.2540     2.1580     3.4740 
  132.7500    54.3560    26.5790    25.2240    28.7890    24.3690     2.1650     3.3050 
  132.8750    54.0890    26.2650    25.0230    28.4240    24.4970     2.1780     3.1050 
  133.0000    55.9200    25.7570    24.6210    27.3630    24.5890     2.1950     2.9470 
  133.1250    57.6200    25.0630    24.0060    25.7020    24.4740     2.2100     2.8670 
  133.2500    57.8340    24.2440    23.2470    24.7990    24.2680     2.2170     2.8120 
  133.3750    59.1790    23.3530    22.4080    24.5740    24.1430     2.2160     2.7470 
  133.5000    61.1490    22.4990    21.5910    24.4910    24.1030     2.2100     2.6760 
  133.6250    61.1640    21.9110    20.9920    24.1370    24.0950     2.2010     2.7040 
  133.7500    60.8670    21.7280    20.7400    24.1140    24.0780     2.1930     2.8490 
  133.8750    61.4730    22.0340    20.9230    24.7480    24.0790     2.1870     3.0480 
  134.0000    61.4880    22.8190    21.5660    26.1520    24.1850     2.1850     3.2590 
  134.1250    58.8890    24.0220    22.6670    28.0870    24.4300     2.1870     3.4000 
  134.2500    57.5430    25.3980    24.0140    29.1310    24.4890     2.1960     3.4960 
  134.3750    58.8140    26.7910    25.4500    28.8080    24.4360     2.2100     3.5820 
  134.5000    59.7200    28.0890    26.8380    28.3820    24.5540     2.2250     3.6900 
  134.6250    57.5060    29.1910    28.0420    29.4010    24.6240     2.2310     3.7560 
  134.7500    55.0180    30.0800    29.0250    30.8300    24.5490     2.2270     3.7370 
  134.8750    54.4510    30.7090    29.7440    32.3690    24.4180     2.2150     3.6540 
  135.0000    54.2580    31.0190    30.1500    33.8600    24.3040     2.2000     3.4980 
  135.1250    52.4390    30.8850    30.1250    34.5440    24.3270     2.1900     3.3100 
  135.2500    51.8050    30.3690    29.7180    34.0830    24.4300     2.1830     3.1370 
  135.3750    53.5760    29.5330    28.9750    32.7840    24.4760     2.1790     2.9550 
  135.5000    56.4820    28.4640    27.9800    31.6860    24.5040     2.1750     2.7570 
  135.6250    57.5900    27.2670    26.8330    30.1870    24.5450     2.1730     2.5000 
  135.7500    56.0890    26.0930    25.6950    28.4340    24.5080     2.1730     2.1940 
  135.8750    54.0690    25.0480    24.6820    26.6550    24.3580     2.1770     1.8980 
  136.0000    54.2360    24.2110    23.8790    25.5030    24.1890     2.1800     1.6560 
  136.1250    56.1570    23.6640    23.3650    25.0390    24.1180     2.1810     1.4770 
  136.2500    56.7000    23.3390    23.0710    24.9620    24.1050     2.1780     1.2850 
  136.3750    55.3030    23.1580    22.9230    25.0680    24.0970     2.1680     1.0800 
  136.5000    53.3720    23.0190    22.8240    24.9720    24.0690     2.1550     0.8720 
  136.6250    53.4020    22.8220    22.6780    24.3690    24.0120     2.1470     0.7310 
  136.7500    55.6140    22.5510    22.4560    23.6160    23.9600     2.1520     0.6570 
  136.8750    58.0670    22.2470    22.1900    22.9980    23.9100     2.1740     0.5970 
  137.0000    59.0720    21.9870    21.9470    22.5460    23.8250     2.2060     0.5150 
  137.1250    59.7010    21.8800    21.8200    22.3530    23.7910     2.2310     0.4400 
  137.2500    61.9120    21.9530    21.8350    22.3510    23.9050     2.2390     0.4380 
  137.3750    63.3390    22.2030    21.9970    22.7450    24.0370     2.2290     0.5040 
  137.5000    61.4910    22.5860    22.2880    23.4700    24.0540     2.2120     0.5860 
  137.6250    57.9520    23.0400    22.6790    24.0900    24.0720     2.1970     0.6360 
  137.7500    56.5520    23.4810    23.1020    24.8690    24.1220     2.1870     0.6430 
  137.8750    58.0810    23.8620    23.5000    25.5820    24.1000     2.1830     0.6450 
  138.0000    59.6380    24.1500    23.8180    26.0240    24.0270     2.1830     0.6630 
  138.1250    59.5380    24.3140    23.9910    26.2310    24.0290     2.1850     0.6860 
  138.2500    58.2680    24.3840    24.0380    26.3530    24.0880     2.1870     0.6740 
  138.3750    57.2070    24.3920    23.9910    26.2470    24.1830     2.1870     0.5970 
  138.5000    57.5700    24.3760    23.8980    25.8450    24.2690     2.1860     0.4710 
  138.6250    59.6250    24.3720    23.8040    25.2980    24.3780     2.1840     0.3560 
