~V
VERS. 2.00: Ver 2.00
~W
STRT.M 56.0000:
STOP.M 268.0000:
STEP.M 0.1250:
NULL. -999.2500:
UWI. F10027:
~C
DEPT.M :
GR.API :
RML.OHMM :
RI. :
RXO.OHMM :
CALI.CM :
DEN.GM/CC :
SP.MV :
~A
# ...
   78.5000    65.8580    10.3100     8.6970    10.2240    22.7790     2.1840   -20.2580 
   78.6250    61.0640     9.9480     8.3760    10.6120    22.6880     2.1880   -20.3220 
   78.7500    58.1750     9.7660     8.1700    10.9190    22.6260     2.1880   -20.4470 
   78.8750    58.1080     9.7320     8.0680    10.9100    22.6120     2.1820   -20.5810 
   79.0000    59.7710     9.7840     8.0350    10.6060    22.6640     2.1710   -20.6480 
   79.1250    61.0850     9.8370     8.0240    10.2550    22.8550     2.1590   -20.6440 
   79.2500    60.4480     9.8140     7.9860     9.9200    23.0410     2.1450   -20.6180 
   79.3750    58.5250     9.6650     7.8880     9.6930    23.2110     2.1330   -20.5550 
   79.5000    57.9530     9.3620     7.7120     9.5460    23.3180     2.1230   -20.3490 
   79.6250    61.4460     8.9060     7.4580     9.4260    23.3510     2.1200   -19.9810 
   79.7500    66.0300     8.4240     7.1920     9.2380    23.3310     2.1230   -19.5160 
   79.8750    68.4860     8.0740     6.9960     9.0090    23.2590     2.1350   -19.0050 
   80.0000    68.5190     8.0180     6.9580     8.7400    23.1270     2.1500   -18.5240 
   80.1250    67.5830     8.3860     7.1700     8.9720    23.0430     2.1630   -18.0830 
   80.2500    66.5990     9.0040     7.5620     9.3930    22.9740     2.1720   -17.6360 
   80.3750    65.3360     9.6400     8.0200    10.1750    22.9320     2.1850   -17.1430 
   80.5000    65.3420    10.0570     8.3970    11.7150    22.9300     2.2050   -16.6690 
   80.6250    69.3100    10.0930     8.5470    13.4920    22.9360     2.2310   -16.2640 
   80.7500    73.0620     9.9190     8.5140    12.2790    22.9330     2.2490   -15.9000 
   80.8750    73.4130     9.7360     8.3970    10.5130    22.9230     2.2510   -15.5210 
   81.0000    71.7260     9.6760     8.2930    10.4480    22.9340     2.2350   -15.0630 
   81.1250    71.1390     9.7080     8.2270    11.5810    22.9950     2.2130   -14.4930 
   81.2500    72.3090     9.6400     8.1140    12.3630    23.0800     2.2000   -13.8640 
   81.3750    75.0570     9.3250     7.8610    11.5450    23.1720     2.1980   -13.2670 
   81.5000    80.4080     8.7400     7.4310     9.4180    23.3140     2.2010   -12.7500 
   81.6250    87.6680     8.0070     6.8740     7.8900    23.4520     2.2020   -12.3080 
   81.7500    90.8770     7.3530     6.3400     7.1780    23.6110     2.2000   -11.9200 
   81.8750    88.6040     6.9000     5.9310     6.9550    23.7800     2.2000   -11.6470 
   82.0000    84.2980     6.6850     5.7020     6.8670    23.8990     2.2080   -11.5480 
   82.1250    81.5030     6.7300     5.6980     7.2160    23.8970     2.2230   -11.6490 
   82.2500    79.1260     6.9910     5.8830     7.9610    23.8260     2.2330   -11.8710 
   82.3750    75.7720     7.4920     6.2580     8.8370    23.7560     2.2220   -12.1310 
   82.5000    73.0630     8.2480     6.8230     9.3940    23.6370     2.1870   -12.3530 
   82.6250    72.7330     9.2450     7.5720    10.1940    23.5190     2.1540   -12.5210 
   82.7500    75.3020    10.2890     8.3850    11.3850    23.4400     2.1580   -12.6800 
   82.8750    78.8760    11.1520     9.1170    13.9950    23.4270     2.2100   -12.7650 
   83.0000    80.0220    11.6080     9.6010    17.1260    23.4470     2.2860   -12.7260 
   83.1250    79.2570    11.4510     9.6470    16.0730    23.5110     2.3310   -12.5870 
   83.2500    80.0540    10.8540     9.3200    12.0470    23.5060     2.3160   -12.3990 
   83.3750    82.1910    10.0230     8.7410    10.2790    23.4470     2.2520   -12.1930 
   83.5000    84.4340     9.1840     8.0750     9.7180    23.3960     2.1770   -12.0060 
   83.6250    85.9590     8.5490     7.4950     9.2690    23.3960     2.1350   -11.8270 
   83.7500    86.1370     8.1500     7.0680     8.7190    23.4340     2.1290   -11.6420 
   83.8750    85.9180     7.9530     6.7950     8.1010    23.4960     2.1430   -11.4810 
   84.0000    87.4750     7.8730     6.6330     8.0100    23.5470     2.1550   -11.3220 
   84.1250    91.6590     7.7870     6.5110     8.4310    23.5610     2.1560   -11.1620 
   84.2500    94.8930     7.6060     6.3620     8.1880    23.5770     2.1530   -11.0750 
   84.3750    95.4190     7.3280     6.1760     7.5080    23.5800     2.1550   -11.1250 
   84.5000    94.8960     7.0270     5.9850     7.1320    23.5610     2.1690   -11.2980 
   84.6250    95.9640     6.8660     5.8770     7.1170    23.5050     2.1950   -11.5940 
   84.7500    97.1850     6.9420     5.9180     7.0850    23.4340     2.2230   -11.9690 
   84.8750    93.3640     7.2850     6.1390     7.5420    23.3690     2.2450   -12.4540 
   85.0000    83.5910     7.8470     6.5290     9.0370    23.3090     2.2540   -13.1100 
   85.1250    76.5540     8.5040     7.0310    11.7180    23.2500     2.2460   -13.9080 
   85.2500    74.0210     9.0860     7.5230    11.7900    23.1990     2.2280   -14.6970 
   85.3750    72.0320     9.4940     7.9190    10.8230    23.2390     2.2040   -15.3810 
   85.5000    70.1610     9.6980     8.1730    10.6350    23.2910     2.1770   -15.9730 
   85.6250    70.3710     9.7260     8.2710    10.7960    23.3110     2.1490   -16.4700 
   85.7500    69.9710     9.7040     8.2860    10.9340    23.3050     2.1210   -16.8820 
   85.8750    68.3080     9.7070     8.2620    11.0330    23.2730     2.1010   -17.1750 
   86.0000    69.1450     9.7650     8.2250    10.9760    23.1820     2.0920   -17.3220 
   86.1250    71.8770     9.8620     8.1820    10.7130    23.1450     2.0970   -17.3640 
   86.2500    72.7500     9.9470     8.1390    10.4910    23.1670     2.1030   -17.4100 
   86.3750    73.7260     9.9970     8.1080    10.4080    23.2370     2.1040   -17.5160 
   86.5000    76.3110    10.0280     8.1030    10.4470    23.2960     2.1010   -17.6510 
   86.6250    77.4340    10.0890     8.1430    10.5610    23.3110     2.1000   -17.7960 
   86.7500    76.7740    10.2090     8.2170    10.6330    23.3140     2.1090   -17.9350 
   86.8750    76.6830    10.3710     8.3100    10.6790    23.3270     2.1240   -18.0650 
   87.0000    76.8000    10.5330     8.4020    10.7460    23.3420     2.1380   -18.2070 
   87.1250    76.0560    10.6480     8.4770    10.8560    23.3480     2.1390   -18.3810 
   87.2500    75.4870    10.7210     8.5420    10.9120    23.3390     2.1270   -18.5300 
   87.3750    74.7340    10.7770     8.6080    10.9080    23.2960     2.1080   -18.6070 
   87.5000    73.4320    10.8340     8.6800    10.8630    23.1830     2.0910   -18.6030 
   87.6250    72.8980    10.8840     8.7510    10.9080    23.1020     2.0860   -18.5680 
   87.7500    73.2780    10.8970     8.8020    11.1010    23.0370     2.0900   -18.5550 
   87.8750    72.8590    10.8480     8.8170    11.2960    22.9910     2.1030   -18.5590 
   88.0000    72.2050    10.7330     8.7820    11.1560    22.9330     2.1190   -18.5550 
   88.1250    72.2650    10.5640     8.6880    10.7470    22.8760     2.1330   -18.4550 
   88.2500    71.5240    10.3810     8.5600    10.4240    22.8340     2.1420   -18.2800 
   88.3750    70.0610    10.2160     8.4240    10.1620    22.8090     2.1450   -18.0860 
   88.5000    68.8430    10.0910     8.3030     9.7810    22.7820     2.1430   -17.9020 
   88.6250    69.3770    10.0120     8.2180     9.4550    22.7560     2.1380   -17.6590 
   88.7500    71.8620     9.9600     8.1650     9.2110    22.7080     2.1340   -17.3400 
   88.8750    75.8350     9.9260     8.1380     9.1480    22.6270     2.1320   -16.9800 
   89.0000    78.3850     9.9090     8.1300     9.2930    22.5370     2.1330   -16.6200 
   89.1250    76.7400     9.9160     8.1420     9.4870    22.4640     2.1340   -16.2920 
   89.2500    73.3770     9.9410     8.1690     9.4910    22.4260     2.1310   -16.0000 
   89.3750    69.6930     9.9810     8.2110     9.5990    22.4140     2.1250   -15.7040 
   89.5000    66.4740    10.0340     8.2650     9.8280    22.4130     2.1190   -15.3690 
   89.6250    64.6980    10.1030     8.3340     9.9870    22.4130     2.1150   -15.0010 
