~V
VERS. 2.00: Ver 2.00
~W
STRT.M 56.0000:
STOP.M 235.0000:
STEP.M 0.1250:
NULL. -999.2500:
UWI. F10014:
~C
DEPT.M :
GR.API :
RML.OHMM :
RI. :
RXO.OHMM :
CALI.CM :
DEN.GM/CC :
SP.MV :
~A
# ...
   89.7500    90.0770     6.7710     6.3410     5.8470    24.9160     2.3430   -13.6690 
   89.8750    85.7670     7.3360     6.6880     6.3460    24.8640     2.3380   -13.6690 
   90.0000    78.9320     8.3940     7.4340     8.2630    24.7440     2.3200   -13.7570 
   90.1250    75.1760    10.2880     8.8550    10.3010    24.6480     2.3080   -13.8930 
   90.2500    74.4950    13.1700    11.1290    13.2950    24.5750     2.3310   -14.0200 
   90.3750    72.8510    17.1540    14.4810    19.3800    24.5150     2.4020   -14.1010 
   90.5000    67.8690    21.9780    18.8640    29.9700    24.3860     2.5090   -14.1310 
   90.6250    61.3130    26.4900    23.4340    35.7150    24.2360     2.6120   -14.1330 
   90.7500    58.6590    29.0780    26.5190    42.8630    24.1940     2.6700   -14.1400 
   90.8750    61.8580    28.8440    27.0220    49.3450    24.1900     2.6620   -14.1130 
   91.0000    68.7940    26.3100    25.2170    42.0200    24.1230     2.5950   -14.0290 
   91.1250    74.3330    23.2090    22.5580    29.2270    23.9840     2.4880   -13.9080 
   91.2500    74.7980    21.0940    20.5020    23.8830    23.8980     2.3780   -13.7960 
   91.3750    71.2670    20.3040    19.4390    20.8070    23.8010     2.2830   -13.6840 
   91.5000    67.5630    20.4730    19.2170    18.5930    23.7650     2.2100   -13.5410 
   91.6250    65.2550    20.6400    19.2260    19.5080    23.8110     2.1580   -13.4190 
   91.7500    64.4890    19.7970    18.5750    21.5250    23.8730     2.1240   -13.3280 
   91.8750    65.9280    17.6580    16.8650    19.7820    24.0360     2.1090   -13.3050 
   92.0000    68.8670    14.7240    14.3960    14.2980    24.4080     2.1170   -13.3880 
   92.1250    71.0390    11.9670    11.9420     9.9920    24.8490     2.1490   -13.4850 
   92.2500    73.6880     9.9460    10.0140     8.6400    25.0760     2.1870   -13.5380 
   92.3750    78.2650     8.7160     8.7010     8.2540    25.1340     2.2200   -13.6160 
   92.5000    82.9900     8.1070     7.9140     7.6800    25.1510     2.2400   -13.7910 
   92.6250    83.7910     7.9110     7.5420     7.1210    25.1670     2.2480   -14.0290 
   92.7500    82.6480     7.8270     7.3480     7.4290    25.1690     2.2520   -14.2790 
   92.8750    82.5340     7.7200     7.2100     7.7140    25.1620     2.2590   -14.4730 
   93.0000    83.5670     7.5620     7.0800     6.8960    25.1320     2.2710   -14.5630 
   93.1250    82.2030     7.4610     7.0220     6.6480    25.1030     2.2860   -14.6050 
   93.2500    80.3920     7.5820     7.1490     7.0090    25.0820     2.2980   -14.6960 
   93.3750    81.5730     8.1030     7.5950     8.0130    25.0890     2.3040   -14.8040 
   93.5000    83.5090     9.2100     8.5130     8.6920    25.0980     2.3120   -14.8860 
   93.6250    80.8440    11.1930    10.1760     9.8780    25.0900     2.3290   -14.9190 
   93.7500    77.4340    13.9170    12.5520    12.4410    25.1150     2.3500   -14.8550 
   93.8750    74.8590    17.0690    15.4650    15.1200    25.2080     2.3620   -14.7140 
   94.0000    70.2990    19.9360    18.3410    16.4480    25.3760     2.3480   -14.5460 
   94.1250    64.3040    21.1450    19.8630    16.5790    25.4740     2.2990   -14.3990 
   94.2500    62.9870    20.2460    19.3810    16.6800    25.4810     2.2360   -14.2280 
   94.3750    65.0890    17.6910    17.2300    16.5790    25.3870     2.1860   -14.0600 
   94.5000    65.7400    14.5820    14.4470    15.1090    25.1950     2.1670   -13.9320 
   94.6250    68.0310    12.0580    12.0660    11.8930    25.0160     2.1910   -13.8520 
   94.7500    73.7020    10.4720    10.4100     8.8480    24.9400     2.2350   -13.8420 
   94.8750    77.9920     9.7900     9.4740     8.4080    24.9120     2.2800   -13.9170 
   95.0000    77.2670     9.7880     9.1310     9.2530    24.8820     2.3080   -14.0740 
   95.1250    77.3580    10.1740     9.2460    10.1740    24.8310     2.3090   -14.2380 
   95.2500    80.2690    10.5870     9.5520    10.5180    24.8070     2.2950   -14.3580 
   95.3750    80.2880    10.9360     9.9380    10.3850    24.7870     2.2770   -14.4400 
   95.5000    76.9120    11.3600    10.4340    10.1800    24.7550     2.2620   -14.4770 
   95.6250    74.3350    12.2770    11.2800     9.8610    24.6980     2.2520   -14.3720 
   95.7500    72.4310    13.8480    12.6240    10.9550    24.6170     2.2400   -14.1400 
   95.8750    68.7300    15.9390    14.4660    13.9420    24.6390     2.2230   -13.8810 
   96.0000    64.3740    18.0680    16.5210    18.0880    24.8200     2.2010   -13.6260 
   96.1250    62.5670    19.3070    18.0150    22.2720    24.9550     2.1790   -13.4300 
   96.2500    62.1140    19.2200    18.3600    21.9960    24.8800     2.1580   -13.3390 
   96.3750    61.6630    17.9630    17.5260    18.5370    24.7160     2.1450   -13.3250 
   96.5000    61.4910    16.1750    16.0270    15.4230    24.5060     2.1460   -13.3480 
   96.6250    64.2080    14.5640    14.4920    16.1090    24.2520     2.1690   -13.5450 
   96.7500    69.8500    13.3480    13.2100    14.8560    24.0600     2.2090   -13.9010 
   96.8750    75.0950    12.4380    12.1690    11.9270    24.0020     2.2520   -14.2660 
   97.0000    77.3130    11.6470    11.2640    10.8040    24.0410     2.2840   -14.5970 
   97.1250    79.1650    10.7930    10.3730    10.2050    24.2060     2.2950   -14.8890 
   97.2500    82.3860     9.8660     9.4700     9.4640    24.4480     2.2960   -15.0960 
   97.3750    84.8270     8.9860     8.6330     8.4680    24.6440     2.2970   -15.2180 
   97.5000    86.4460     8.3020     7.9700     7.5320    24.6990     2.3040   -15.2890 
   97.6250    87.2910     7.9890     7.6160     7.0090    24.5650     2.3100   -15.2920 
   97.7500    85.6710     8.0370     7.5650     6.8610    24.4380     2.3050   -15.2440 
   97.8750    81.5810     8.4000     7.7940     6.9910    24.3550     2.2880   -15.2170 
   98.0000    78.8910     8.9330     8.2070     7.6420    24.3430     2.2610   -15.2490 
   98.1250    80.2910     9.3690     8.5980     8.5450    24.4290     2.2360   -15.3600 
   98.2500    80.6000     9.4900     8.7490     8.9980    24.4600     2.2250   -15.5250 
   98.3750    78.6240     9.2550     8.5920     8.6160    24.4490     2.2310   -15.6890 
   98.5000    77.0250     8.8240     8.2410     8.2540    24.4690     2.2510   -15.8170 
   98.6250    78.9960     8.5260     7.9460     7.6670    24.4600     2.2770   -16.0070 
   98.7500    81.8980     8.6040     7.9010     7.2930    24.3780     2.2980   -16.3590 
   98.8750    81.9270     9.1480     8.1910     7.8420    24.2720     2.3100   -16.8170 
   99.0000    77.8030    10.0990     8.8090     9.7230    24.2420     2.3090   -17.2640 
   99.1250    72.0210    11.2560     9.6570    11.8190    24.3690     2.2940   -17.6150 
   99.2500    68.2980    12.2800    10.4770    12.9680    24.5900     2.2730   -17.9800 
   99.3750    67.2020    12.9750    11.0830    12.8610    24.8150     2.2530   -18.4810 
   99.5000    67.3810    13.3080    11.4080    12.5730    24.9720     2.2370   -19.1550 
   99.6250    65.7790    13.3900    11.5030    12.7790    24.9670     2.2250   -19.8570 
   99.7500    62.8550    13.4470    11.5470    13.2200    24.9980     2.2080   -20.4120 
   99.8750    61.3040    13.5610    11.6200    13.2250    25.1460     2.1860   -20.8220 
  100.0000    61.8080    13.7110    11.7300    12.9580    25.3420     2.1600   -21.1920 
  100.1250    62.8090    13.8180    11.8300    13.2630    25.4050     2.1370   -21.6040 
  100.2500    62.7990    13.8600    11.8920    14.0060    25.4680     2.1240   -21.9870 
  100.3750    62.5300    13.8720    11.9270    14.4170    25.4710     2.1200   -22.2640 
  100.5000    63.4890    13.8930    11.9580    14.2330    25.4250     2.1240   -22.4130 
  100.6250    66.0060    13.9250    11.9870    14.1030    25.4270     2.1350   -22.4380 
  100.7500    66.9150    13.9060    11.9840    14.2240    25.4600     2.1470   -22.4210 
  100.8750    64.2790    13.7550    11.8940    14.5070    25.4670     2.1540   -22.3790 
