~V
VERS. 2.00: Ver 2.00
~W
STRT.M 60.0000:
STOP.M 242.0000:
STEP.M 0.1250:
NULL. -999.2500:
UWI. F10022:
~C
DEPT.M :
GR.API :
RML.OHMM :
RI. :
RXO.OHMM :
CALI.CM :
DEN.GM/CC :
SP.MV :
~A
# ...
   71.2500    58.5870     6.9160     6.4970     7.6480    24.5430     2.1850   -24.2380 
   71.3750    60.1140     6.9600     6.4550     7.4800    24.5250     2.1870   -24.0500 
   71.5000    61.4600     7.0310     6.4360     7.3780    24.4400     2.1900   -23.8120 
   71.6250    65.1190     7.1140     6.4300     7.3250    24.3330     2.1930   -23.5230 
   71.7500    70.0060     7.1600     6.4060     7.3000    24.2350     2.1960   -23.2280 
   71.8750    72.2330     7.1140     6.3340     7.2870    24.1920     2.1990   -22.9280 
   72.0000    70.1540     6.9510     6.2020     7.2810    24.2250     2.2030   -22.6190 
   72.1250    65.4810     6.6870     6.0140     7.1860    24.2520     2.2100   -22.2780 
   72.2500    60.5990     6.4270     5.8240     6.9850    24.1390     2.2170   -21.9120 
   72.3750    57.9410     6.2870     5.7000     6.7920    23.9070     2.2170   -21.5560 
   72.5000    58.7610     6.4040     5.7330     6.7430    23.8160     2.2070   -21.1500 
   72.6250    61.1630     6.9970     6.0890     7.0010    23.8720     2.1880   -20.6950 
   72.7500    61.4020     8.0430     6.7940     7.4540    23.8210     2.1770   -20.1570 
   72.8750    59.5000     9.3820     7.7880     8.4810    23.5140     2.1880   -19.5690 
   73.0000    58.1540    10.6500     8.8510    10.6740    23.1390     2.2290   -18.9190 
   73.1250    59.6100    11.2450     9.5440    13.3460    23.0370     2.2950   -18.1980 
   73.2500    61.0270    10.9500     9.5900    15.6920    23.0740     2.3560   -17.4500 
   73.3750    61.3950     9.8640     8.9430    16.4130    23.0650     2.3920   -16.7100 
   73.5000    65.1060     8.3930     7.8390    12.4730    22.9720     2.3930   -16.0470 
   73.6250    74.5920     7.1060     6.6990     7.2980    22.9460     2.3700   -15.5180 
   73.7500    81.4990     6.2800     5.8280     5.5630    23.0120     2.3440   -15.0900 
   73.8750    80.7760     5.9110     5.2940     5.3490    23.1430     2.3240   -14.7310 
   74.0000    75.5130     5.8530     5.0490     5.5220    23.3690     2.3100   -14.4320 
   74.1250    72.7690     5.9110     5.0060     5.6140    23.6050     2.3030   -14.2850 
   74.2500    70.9870     5.9160     5.0190     5.6310    23.7580     2.3010   -14.2660 
   74.3750    69.4960     5.8410     5.0330     5.6200    23.8390     2.3060   -14.2880 
   74.5000    70.7330     5.7570     5.0530     5.6060    23.8850     2.3180   -14.3310 
   74.6250    75.0940     5.7890     5.1300     5.5660    23.9220     2.3340   -14.3930 
   74.7500    78.5240     5.9630     5.2800     5.5470    23.9300     2.3490   -14.4700 
   74.8750    77.6660     6.2350     5.4860     5.6680    23.9280     2.3540   -14.6150 
   75.0000    72.8780     6.5240     5.7080     5.9740    23.9430     2.3420   -14.8160 
   75.1250    67.6000     6.7340     5.8950     6.1730    24.0190     2.3140   -15.0290 
   75.2500    65.7040     6.8540     6.0370     6.0370    24.0490     2.2840   -15.1930 
   75.3750    67.6750     6.9270     6.1560     5.6660    24.0150     2.2640   -15.3700 
   75.5000    69.5490     7.0180     6.2810     5.4910    23.8830     2.2570   -15.5510 
   75.6250    69.7320     7.1680     6.4210     5.8290    23.6870     2.2600   -15.6980 
   75.7500    70.7690     7.3220     6.5390     6.3850    23.6050     2.2630   -15.8600 
   75.8750    72.1830     7.3890     6.5790     6.9580    23.6520     2.2630   -15.9770 
   76.0000    72.9880     7.2860     6.4950     7.4300    23.6880     2.2630   -16.0910 
   76.1250    73.8970     6.9720     6.2570     7.2630    23.6440     2.2690   -16.1950 
   76.2500    74.0330     6.5780     5.9420     6.6410    23.5770     2.2810   -16.3450 
   76.3750    72.3080     6.2400     5.6420     6.0320    23.5220     2.2950   -16.5180 
   76.5000    70.2440     6.0760     5.4490     5.7130    23.4800     2.3030   -16.7400 
   76.6250    70.1200     6.1750     5.4560     5.7830    23.4160     2.3000   -17.0370 
   76.7500    69.4040     6.4690     5.6420     6.1070    23.3530     2.2900   -17.3610 
   76.8750    67.6020     6.8920     5.9670     6.6430    23.3490     2.2760   -17.7260 
   77.0000    66.5140     7.3730     6.3740     7.1890    23.4390     2.2620   -18.1100 
   77.1250    68.3320     7.8690     6.8030     7.3620    23.5730     2.2480   -18.5380 
   77.2500    69.5680     8.3590     7.2130     7.4440    23.5720     2.2350   -18.9540 
   77.3750    67.8100     8.8340     7.5850     7.5020    23.4650     2.2250   -19.3240 
   77.5000    64.1370     9.2640     7.9060     7.6140    23.4930     2.2170   -19.6510 
   77.6250    61.7630     9.5740     8.1350     7.8110    23.6650     2.2140   -19.9000 
   77.7500    61.4410     9.7150     8.2460     8.1230    23.9560     2.2110   -20.0790 
   77.8750    62.3290     9.6610     8.2140     8.4120    24.0990     2.2060   -20.2080 
   78.0000    63.9600     9.4370     8.0470     8.5810    24.1190     2.1990   -20.3370 
   78.1250    64.3970     9.1150     7.7890     8.5670    24.1330     2.1940   -20.3990 
   78.2500    62.6760     8.8200     7.5310     8.5370    24.1950     2.1940   -20.4570 
   78.3750    60.6200     8.6250     7.3300     8.6140    24.2510     2.1980   -20.5340 
   78.5000    59.8320     8.5540     7.2070     8.8150    24.2750     2.2040   -20.6020 
   78.6250    59.9600     8.5860     7.1600     9.0280    24.2770     2.2100   -20.6620 
   78.7500    59.4970     8.6460     7.1440     9.1360    24.2760     2.2120   -20.7410 
   78.8750    58.5290     8.6880     7.1360     9.1370    24.2740     2.2070   -20.8280 
   79.0000    58.0750     8.6950     7.1210     9.0260    24.2690     2.1960   -20.8910 
   79.1250    59.1260     8.6740     7.1010     8.8490    24.2570     2.1820   -20.9700 
   79.2500    60.3220     8.6570     7.0860     8.7410    24.2300     2.1720   -21.0420 
   79.3750    61.4530     8.6560     7.0790     8.7230    24.1990     2.1680   -21.1100 
   79.5000    62.6920     8.6670     7.0850     8.7460    24.2140     2.1720   -21.1570 
   79.6250    63.3480     8.6810     7.1020     8.7880    24.3140     2.1820   -21.1890 
   79.7500    61.9690     8.6930     7.1280     8.8420    24.3920     2.1910   -21.1850 
   79.8750    58.3070     8.7010     7.1590     8.8720    24.4200     2.1970   -21.1540 
   80.0000    54.9580     8.7070     7.1880     8.8350    24.4150     2.2010   -21.1160 
   80.1250    54.2710     8.7080     7.2100     8.7020    24.3910     2.2050   -21.0350 
   80.2500    56.3340     8.6990     7.2190     8.4940    24.3600     2.2090   -20.9250 
   80.3750    60.6040     8.6750     7.2180     8.2880    24.3530     2.2100   -20.7890 
   80.5000    64.4830     8.6410     7.2110     8.2110    24.3710     2.2080   -20.6430 
   80.6250    64.0140     8.6080     7.2030     8.3240    24.4040     2.2030   -20.4710 
   80.7500    61.3250     8.5850     7.1970     8.5200    24.4090     2.1970   -20.3020 
   80.8750    60.9020     8.5720     7.1920     8.6910    24.3550     2.1930   -20.1250 
   81.0000    62.8430     8.5630     7.1840     8.7820    24.1950     2.1910   -19.9380 
   81.1250    62.4470     8.5450     7.1690     8.7470    23.9420     2.1910   -19.7180 
   81.2500    59.8620     8.5170     7.1440     8.6850    23.7500     2.1930   -19.4870 
   81.3750    59.7040     8.4920     7.1170     8.6480    23.7170     2.1960   -19.2470 
   81.5000    62.4160     8.4880     7.0940     8.6860    23.8420     2.1990   -18.9940 
   81.6250    63.8740     8.5250     7.0890     8.7780    24.0460     2.2020   -18.7280 
   81.7500    63.1180     8.5930     7.1050     8.8500    24.0630     2.2020   -18.4490 
   81.8750    61.2920     8.6690     7.1360     8.8710    23.9080     2.1980   -18.1480 
   82.0000    60.2010     8.7140     7.1660     8.8210    23.7880     2.1910   -17.7820 
   82.1250    60.9670     8.6620     7.1560     8.7590    23.8900     2.1840   -17.3980 
   82.2500    63.4800     8.4880     7.0780     8.6070    23.9130     2.1810   -16.9780 
   82.3750    67.0850     8.1920     6.9130     8.3280    23.5970     2.1850   -16.5020 
