~V
VERS. 2.00: Ver 2.00
~W
STRT.M 50.0000:
STOP.M 244.0000:
STEP.M 0.1250:
NULL. -999.2500:
UWI. F10003:
~C
DEPT.M :
GR.API :
RML.OHMM :
RI. :
RXO.OHMM :
CALI.CM :
DEN.GM/CC :
SP.MV :
~A
# ...
  162.5000    66.0860    27.0970    22.6220    38.0850    24.7600     2.4430   -26.0700 
  162.6250    67.5280    30.7340    26.2820    42.6780    24.7500     2.4260   -26.2240 
  162.7500    68.3720    33.9000    29.6470    46.8520    24.7410     2.4080   -26.3620 
  162.8750    66.7860    36.6050    32.6090    51.0250    24.7440     2.3950   -26.4730 
  163.0000    64.6650    39.0000    35.2130    55.7230    24.7440     2.3890   -26.5860 
  163.1250    63.7370    41.2000    37.4790    58.4110    24.7410     2.3890   -26.6760 
  163.2500    65.5470    43.1050    39.3280    58.6760    24.7090     2.3910   -26.6860 
  163.3750    67.2130    44.2060    40.3530    58.4700    24.6690     2.3920   -26.6140 
  163.5000    64.6730    43.6920    39.9020    57.9190    24.6330     2.3890   -26.4680 
  163.6250    59.7240    40.3610    36.9540    56.5430    24.6440     2.3880   -26.2950 
  163.7500    58.6100    34.6660    31.9130    52.6540    24.6480     2.3950   -26.1280 
  163.8750    62.0050    27.6700    25.7190    43.5920    24.6280     2.4160   -25.9750 
  164.0000    66.8900    20.8890    19.7070    29.7420    24.6150     2.4450   -25.7760 
  164.1250    71.4030    15.8510    15.1620    18.1070    24.7010     2.4680   -25.5250 
  164.2500    75.0300    12.6480    12.1280    12.1060    24.7880     2.4660   -25.2710 
  164.3750    76.5060    10.9690    10.3620    10.3480    24.7820     2.4340   -25.0260 
  164.5000    75.8800    10.2990     9.4970    10.1460    24.8070     2.3800   -24.7420 
  164.6250    75.3680    10.1170     9.1800    10.3460    24.9720     2.3280   -24.2620 
  164.7500    75.4560     9.8960     8.9610    10.4530    25.1360     2.2930   -23.5780 
  164.8750    73.0130     9.4310     8.6200    10.0970    25.1930     2.2720   -22.6690 
  165.0000    65.1180     8.7250     8.0870     8.8860    25.1780     2.2590   -21.6330 
  165.1250    54.2810     7.9420     7.4390     7.3010    24.9860     2.2420   -20.5760 
  165.2500    47.1410     7.2870     6.8480     6.2150    24.7440     2.2140   -19.5440 
  165.3750    45.1240     6.8450     6.4030     5.7040    24.5310     2.1730   -18.5810 
  165.5000    44.7490     6.6130     6.1310     5.5770    24.4770     2.1240   -17.7420 
  165.6250    43.2970     6.5580     6.0240     5.6730    24.6410     2.0850   -17.1760 
  165.7500    43.1870     6.6010     6.0170     5.8730    24.8660     2.0760   -16.8740 
  165.8750    46.7280     6.7470     6.0940     6.1590    24.9130     2.1050   -16.8890 
  166.0000    53.1050     7.0200     6.2670     6.5430    24.9350     2.1670   -17.1720 
  166.1250    59.4450     7.4740     6.5920     7.1110    24.9580     2.2410   -17.6350 
  166.2500    64.8870     8.0700     7.0740     7.9330    24.8900     2.3010   -18.2420 
  166.3750    68.3770     8.7710     7.7150     9.0830    24.7100     2.3390   -18.9170 
  166.5000    70.2200     9.4700     8.4800    10.3610    24.4980     2.3630   -19.5870 
  166.6250    70.2550    10.1340     9.2930    11.1180    24.2350     2.3830   -20.1840 
  166.7500    68.6380    10.7510    10.0280    11.6660    23.9460     2.3980   -20.6870 
  166.8750    65.1960    11.3370    10.5730    12.2980    23.7790     2.4070   -21.0890 
  167.0000    62.7630    11.6090    10.8300    13.1010    23.9190     2.4090   -21.3600 
  167.1250    65.8290    11.4490    10.6870    13.5960    24.2490     2.4110   -21.3690 
  167.2500    68.0870    10.9560    10.2280    13.3970    24.5240     2.4160   -21.1120 
  167.3750    65.0140    10.2450     9.5540    12.5540    24.6470     2.4250   -20.6760 
  167.5000    60.5730     9.4800     8.8050    11.3290    24.7170     2.4360   -20.1430 
  167.6250    62.6450     8.8510     8.1470     9.9670    24.8030     2.4430   -19.6440 
  167.7500    70.3050     8.4310     7.6620     8.8060    24.8240     2.4430   -19.2300 
  167.8750    76.1880     8.2300     7.3780     8.5810    24.7310     2.4340   -18.8570 
  168.0000    77.8560     8.2150     7.2850     8.9310    24.6460     2.4160   -18.5170 
  168.1250    77.5680     8.3650     7.3800     9.2150    24.6160     2.3960   -18.3050 
  168.2500    76.2200     8.6220     7.6000     9.3460    24.6260     2.3820   -18.2050 
  168.3750    73.5910     8.9560     7.9090     9.6390    24.6100     2.3800   -18.1830 
  168.5000    70.2810     9.3300     8.2650    10.3290    24.5570     2.3870   -18.2400 
  168.6250    69.3750     9.6720     8.6050    11.1920    24.5030     2.3960   -18.3220 
  168.7500    71.5470     9.9050     8.8630    11.8410    24.5180     2.4020   -18.3700 
  168.8750    75.6530     9.9800     8.9880    11.8260    24.5580     2.4070   -18.3680 
  169.0000    79.9990     9.8940     8.9660    11.4040    24.5590     2.4150   -18.3540 
  169.1250    79.8600     9.7070     8.8270    10.9280    24.5670     2.4240   -18.3830 
  169.2500    76.6860     9.5560     8.6830    10.6690    24.5850     2.4320   -18.4350 
  169.3750    73.7330     9.5540     8.6290    10.6650    24.5930     2.4370   -18.5000 
  169.5000    71.6700     9.7810     8.7410    11.1240    24.6050     2.4420   -18.5590 
  169.6250    70.6050    10.2950     9.0950    12.0690    24.6340     2.4480   -18.5270 
  169.7500    71.7410    10.9980     9.6410    13.2680    24.6460     2.4550   -18.4510 
  169.8750    72.8030    11.7780    10.3150    14.6620    24.6410     2.4580   -18.3640 
  170.0000    71.8020    12.5020    11.0160    15.8540    24.6210     2.4530   -18.2690 
  170.1250    69.9880    13.0110    11.6070    16.5150    24.5920     2.4440   -18.1740 
  170.2500    69.1620    13.3040    12.0350    16.7750    24.5680     2.4360   -18.0730 
  170.3750    68.8890    13.4760    12.3280    16.4350    24.5430     2.4320   -17.9070 
  170.5000    68.7440    13.7290    12.6110    15.9690    24.5380     2.4320   -17.6870 
  170.6250    69.3860    14.3530    13.1010    16.4170    24.5600     2.4290   -17.5280 
  170.7500    68.0690    15.3560    13.8590    17.6870    24.5510     2.4210   -17.4050 
  170.8750    64.0970    16.5140    14.7710    19.6230    24.4700     2.4110   -17.3230 
  171.0000    60.6860    17.3870    15.5370    21.4950    24.2890     2.4050   -17.2330 
  171.1250    61.0590    17.3120    15.6310    22.2120    24.0480     2.4110   -17.0570 
  171.2500    63.7620    16.2190    14.9070    20.4360    23.9090     2.4250   -16.8410 
  171.3750    66.8240    14.3860    13.5100    16.8000    23.9310     2.4400   -16.6570 
  171.5000    69.3160    12.4040    11.8760    12.3120    24.0230     2.4480   -16.5160 
  171.6250    70.1380    11.0440    10.6220    10.5790    24.0660     2.4440   -16.3900 
  171.7500    70.1400    10.5670    10.0350    10.4480    24.0610     2.4350   -16.2710 
  171.8750    70.1360    10.9170    10.1540    11.6310    24.0190     2.4260   -16.1560 
  172.0000    69.0270    11.7940    10.8250    13.6440    23.9560     2.4220   -16.0620 
  172.1250    65.5520    12.7080    11.7200    16.1320    23.9730     2.4210   -16.0260 
  172.2500    63.4760    13.1800    12.3720    17.7680    24.0400     2.4200   -16.0240 
  172.3750    64.7700    12.9890    12.4870    16.7130    24.1650     2.4170   -16.0400 
  172.5000    68.0790    12.1770    11.9910    13.5940    24.3140     2.4140   -16.0780 
  172.6250    71.3130    11.0110    11.0350    11.5590    24.3750     2.4120   -16.1120 
  172.7500    73.2790     9.9090    10.0200    10.6860    24.3890     2.4140   -16.1410 
  172.8750    72.6730     9.0770     9.1700    10.0860    24.3960     2.4190   -16.1230 
  173.0000    70.1670     8.5870     8.5900     9.5520    24.4020     2.4270   -16.0880 
  173.1250    69.2410     8.4470     8.3330     9.2300    24.3750     2.4350   -16.0760 
  173.2500    69.7180     8.5100     8.2920     9.3190    24.3490     2.4410   -16.0710 
  173.3750    68.7420     8.6800     8.3910     9.6630    24.3330     2.4440   -16.0520 
  173.5000    66.7630     8.8590     8.5430    10.1240    24.3130     2.4460   -16.0060 
  173.6250    65.6220     8.9510     8.6580    10.5030    24.2980     2.4520   -15.9370 
