~V
VERS. 2.00: Ver 2.00
~W
STRT.M 51.0000:
STOP.M 262.0000:
STEP.M 0.1250:
NULL. -999.2500:
UWI. F10019:
~C
DEPT.M :
DEN.GM/CC :
SP.MV :
GR.API :
CALI.CM :
RXO.OHMM :
RI. :
RML.OHMM :
~A
# ...
  231.0000     2.1810    -6.1050    75.3270    24.1320    67.9510    60.3740    55.6020 
  231.1250     2.1980    -6.1830    73.9170    24.2210    66.2850    56.9790    52.3380 
  231.2500     2.2030    -6.3240    72.1060    24.2950    64.5640    53.5750    49.2280 
  231.3750     2.1950    -6.4240    71.2900    24.3150    62.8810    50.4980    46.5070 
  231.5000     2.1830    -6.5300    71.8900    24.2870    58.4570    48.5240    45.0230 
  231.6250     2.1760    -6.6950    72.1180    24.2640    54.7930    48.4500    45.6690 
  231.7500     2.1830    -6.8640    70.8970    24.2550    55.4670    51.2800    49.4440 
  231.8750     2.2210    -7.0270    69.3830    24.2510    62.8390    57.6380    56.9440 
  232.0000     2.2980    -7.0840    68.3940    24.2030    85.2380    66.9240    67.7350 
  232.1250     2.3870    -7.1370    66.9110    24.1020   146.6100    75.3040    77.4470 
  232.2500     2.4640    -7.1950    64.0440    24.0030   212.9690    78.9500    80.8490 
  232.3750     2.5140    -7.2350    61.3390    23.9550   207.4260    76.1040    75.8370 
  232.5000     2.5160    -7.3060    63.4710    23.9420   124.1260    68.6450    66.4340 
  232.6250     2.4860    -7.3870    68.8490    23.9530    69.8240    61.9310    59.2270 
  232.7500     2.4560    -7.4220    74.2420    23.9810    60.3860    58.9790    56.6080 
  232.8750     2.4500    -7.3930    77.9410    24.0690    84.1610    60.8150    58.9730 
  233.0000     2.4610    -7.4930    79.6790    23.9530   113.9680    67.1550    66.3950 
  233.1250     2.4740    -7.6470    79.6930    23.7860   128.2510    75.0470    76.4340 
  233.2500     2.4860    -7.7000    78.6220    23.7970   127.7350    81.9360    86.1770 
  233.3750     2.4940    -7.7660    78.5950    23.9130   128.4040    85.8880    92.3560 
  233.5000     2.4920    -7.8710    79.7860    23.9890   129.1790    86.3280    93.3830 
  233.6250     2.4930    -7.9700    80.2460    24.0050   125.0430    85.3870    92.4250 
  233.7500     2.5080    -8.0780    79.0980    24.0060   123.1950    84.4820    91.6620 
  233.8750     2.5300    -8.1920    78.0980    23.9860   118.7010    84.1990    91.8530 
  234.0000     2.5400    -8.1990    79.0280    24.0080   104.8230    84.2530    92.5230 
  234.1250     2.5380    -8.1470    80.0880    24.0380    88.0080    83.6010    92.0780 
  234.2500     2.5300    -8.1130    78.4740    24.0340    81.1620    81.2080    88.8600 
  234.3750     2.5290    -8.0520    75.3370    23.9980    88.9330    76.4820    82.1270 
  234.5000     2.5390    -7.9130    73.2200    23.9260    94.4670    69.4800    72.6580 
  234.6250     2.5510    -7.7010    71.8820    23.8770    85.8670    61.8740    63.1860 
  234.7500     2.5570    -7.4940    69.9500    23.8900    65.7180    55.0270    55.3260 
  234.8750     2.5530    -7.2710    68.2240    23.8890    50.9370    49.7160    49.5840 
  235.0000     2.5510    -7.0320    68.1270    23.9060    49.0250    46.1390    45.8220 
  235.1250     2.5480    -6.7770    69.3390    23.9050    48.2190    43.6150    43.1390 
  235.2500     2.5310    -6.5270    72.6830    23.9220    51.0820    41.8580    41.2100 
  235.3750     2.4880    -6.2830    76.9410    23.9070    53.3810    40.7610    39.9680 
  235.5000     2.4290    -6.0320    78.1100    23.9690    46.7440    40.5570    39.7480 
  235.6250     2.3840    -5.7650    76.8990    24.0690    41.9520    41.2800    40.6250 
  235.7500     2.3680    -5.4610    76.9870    24.1080    46.6090    42.8410    42.5110 
  235.8750     2.3840    -5.1610    79.2270    24.0130    57.7810    44.8340    44.9410 
  236.0000     2.4280    -4.9050    79.6860    23.8260    59.4540    46.4690    47.0050 
  236.1250     2.4760    -4.7030    79.5800    23.7690    52.6930    47.0410    47.8380 
  236.2500     2.5160    -4.5480    80.5310    23.8450    48.4040    46.2260    47.0420 
  236.3750     2.5410    -4.4530    80.5250    23.9240    50.9440    44.2350    44.8880 
  236.5000     2.5510    -4.4210    78.3290    23.9640    52.6400    41.5850    42.0120 
  236.6250     2.5490    -4.4710    77.7870    23.9450    51.6160    38.8440    39.0490 
  236.7500     2.5450    -4.5580    78.9050    23.8940    49.4420    36.2020    36.2170 
  236.8750     2.5440    -4.6420    77.9830    23.8470    49.1610    33.8720    33.7870 
  237.0000     2.5470    -4.7120    74.8870    23.8530    48.1930    32.4660    32.4720 
  237.1250     2.5500    -4.7670    74.0510    23.8760    46.5880    32.5930    32.8500 
  237.2500     2.5580    -4.8630    74.8290    23.8200    49.3310    35.1200    35.6590 
  237.3750     2.5710    -4.9780    74.1470    23.7070    66.5430    40.7850    41.5290 
  237.5000     2.5870    -5.0530    69.5960    23.6290   114.5920    48.6590    49.4960 
  237.6250     2.5990    -5.1240    63.3260    23.6920   163.0070    52.8620    52.3550 
  237.7500     2.5990    -5.2140    55.6930    23.7290   153.1430    47.5460    43.6300 
  237.8750     2.5810    -5.3130    45.8940    23.6510    86.3760    34.2460    28.6190 
  238.0000     2.5380    -5.3850    35.9940    23.5420    31.0130    21.3000    17.3340 
  238.1250     2.4690    -5.4170    30.1810    23.2600    11.5350    12.6920    10.6500 
  238.2500     2.3770    -5.3900    29.3420    23.0630     5.6710     7.8490     7.0100 
  238.3750     2.2790    -5.3440    31.2930    23.1260     4.0700     5.3880     5.1730 
  238.5000     2.2110    -5.2780    32.4220    23.4080     3.7570     4.3440     4.5150 
  238.6250     2.1880    -5.2100    32.1550    23.4750     3.7430     3.9520     4.4320 
  238.7500     2.2010    -5.1500    32.2790    23.3620     3.8690     3.9620     4.6580 
  238.8750     2.2310    -5.0570    34.5220    23.2680     4.0980     4.1630     4.9660 
  239.0000     2.2600    -5.0220    37.6600    23.3210     4.3770     4.3620     5.1530 
  239.1250     2.2810    -5.0080    38.8630    23.3370     4.5530     4.4480     5.1760 
  239.2500     2.2900    -4.9850    38.3600    23.3620     4.5070     4.4050     5.0750 
  239.3750     2.2870    -4.9110    37.4600    23.4380     4.2680     4.2650     4.9100 
  239.5000     2.2800    -4.8410    35.7660    23.5260     4.0780     4.0840     4.7270 
  239.6250     2.2720    -4.7160    33.2150    23.5370     4.0370     3.9130     4.5510 
  239.7500     2.2630    -4.5720    30.5970    23.5570     4.0650     3.7670     4.4000 
  239.8750     2.2510    -4.4900    29.3500    23.7300     3.9660     3.6490     4.2990 
  240.0000     2.2360    -4.3910    30.0460    23.9200     3.7260     3.5630     4.2720 
  240.1250     2.2210    -4.2700    30.5500    24.0310     3.5590     3.5070     4.3030 
  240.2500     2.2090    -4.1770    30.7550    24.0470     3.4410     3.4800     4.3760 
  240.3750     2.1930    -4.0870    30.4660    23.9960     3.3460     3.4790     4.4660 
  240.5000     2.1730    -4.0310    29.8990    24.0740     3.3580     3.4940     4.5470 
  240.6250     2.1530    -3.9770    29.4850    24.0970     3.5450     3.5110     4.6030 
  240.7500     2.1400    -3.9380    29.6150    24.0780     3.7960     3.5220     4.6340 
  240.8750     2.1360    -3.9100    29.9720    23.8560     3.9250     3.5210     4.6400 
  241.0000     2.1460    -3.8510    29.7210    23.5710     3.8840     3.4910     4.6130 
  241.1250     2.1760    -3.8740    28.9660    23.3740     3.8130     3.4270     4.5440 
  241.2500     2.2230    -3.9240    27.8520    23.2100     3.7540     3.3380     4.4370 
  241.3750     2.2720    -3.9840    26.7850    23.0690     3.7450     3.2600     4.3450 
  241.5000     2.2970    -4.0600    26.7470    23.0750     3.8390     3.2990     4.4250 
  241.6250     2.3020    -4.1660    28.7620    23.2430     4.1360     3.5500     4.8040 
  241.7500     2.3080    -4.2460    31.5490    23.5690     4.9780     4.0920     5.5680 
  241.8750     2.3360    -4.2950    32.9700    23.8590     7.0970     4.9410     6.6980 
  242.0000     2.3880    -4.3770    31.6120    23.9770    11.5930     5.9460     7.9100 
  242.1250     2.4330    -4.4380    29.4080    23.9980    16.3870     6.6530     8.5790 
