~V
VERS. 2.00: Ver 2.00
~W
STRT.M 55.0000:
STOP.M 314.0000:
STEP.M 0.1250:
NULL. -999.2500:
UWI. F10048:
~C
DEPT.M :
DEN.GM/CC :
GR.API :
RML.OHMM :
RI. :
RXO.OHMM :
CALI.CM :
SP.MV :
~A
# ...
  235.0000     2.4780    38.9580     7.0780     6.3600     6.0160    23.4920    -3.2630 
  235.1250     2.4810    39.2280     7.1430     6.3870     6.1390    23.4690    -3.2550 
  235.2500     2.4810    39.2240     7.1450     6.3720     6.2090    23.4710    -3.2020 
  235.3750     2.4780    37.5490     7.1170     6.3310     6.2370    23.4990    -3.1390 
  235.5000     2.4740    34.8230     7.0500     6.2820     6.2520    23.5510    -3.1160 
  235.6250     2.4720    35.3510     7.0190     6.2430     6.2470    23.6160    -3.0920 
  235.7500     2.4720    39.3120     6.9730     6.2150     6.2170    23.6440    -2.9970 
  235.8750     2.4710    44.2290     6.9100     6.1890     6.1840    23.6050    -2.8200 
  236.0000     2.4690    47.5480     6.8540     6.1530     6.1620    23.5300    -2.6520 
  236.1250     2.4680    47.3870     6.7800     6.0880     6.1390    23.4620    -2.5520 
  236.2500     2.4680    44.4050     6.7010     5.9930     6.0620    23.4060    -2.4780 
  236.3750     2.4680    41.0280     6.6050     5.8700     5.9510    23.3590    -2.3910 
  236.5000     2.4690    39.8040     6.4680     5.7320     5.8060    23.3210    -2.2740 
  236.6250     2.4690    41.1790     6.3370     5.6010     5.5700    23.2870    -2.2040 
  236.7500     2.4680    42.0490     6.2120     5.4950     5.3520    23.2490    -2.2040 
  236.8750     2.4670    42.6760     6.1130     5.4320     5.1890    23.2210    -2.2450 
  237.0000     2.4660    44.4010     6.0880     5.4210     5.0930    23.2030    -2.3410 
  237.1250     2.4650    48.7860     6.1270     5.4780     5.1270    23.1970    -2.4940 
  237.2500     2.4670    54.0820     6.2740     5.5920     5.2560    23.2090    -2.6860 
  237.3750     2.4700    57.6570     6.4840     5.7540     5.4660    23.2450    -2.8870 
  237.5000     2.4750    60.7230     6.7310     5.9530     5.7730    23.3170    -3.1040 
  237.6250     2.4780    65.2220     7.0000     6.1670     6.1720    23.4320    -3.3330 
  237.7500     2.4770    68.6140     7.1720     6.3610     6.5560    23.5820    -3.5860 
  237.8750     2.4710    68.3570     7.3580     6.4970     6.8820    23.7350    -3.8990 
  238.0000     2.4620    66.9630     7.4500     6.5410     7.1150    23.8450    -4.1900 
  238.1250     2.4540    69.0540     7.4350     6.4530     7.1660    23.8800    -4.4320 
  238.2500     2.4480    72.0760     7.3320     6.2760     7.0670    23.8870    -4.6760 
  238.3750     2.4440    72.1460     7.1540     6.0660     6.7700    23.8850    -4.9880 
  238.5000     2.4430    68.4330     6.9390     5.8820     6.4610    23.8760    -5.3320 
  238.6250     2.4430    65.7030     6.7490     5.7640     6.2920    23.8590    -5.6640 
  238.7500     2.4450    67.5970     6.6180     5.6930     6.2700    23.8310    -5.9700 
  238.8750     2.4470    72.1510     6.5510     5.6430     6.2690    23.7970    -6.2560 
  239.0000     2.4480    75.6070     6.5500     5.6080     6.2800    23.7660    -6.5830 
  239.1250     2.4450    74.9180     6.6650     5.6400     6.3720    23.7420    -6.9480 
  239.2500     2.4380    73.3770     6.9560     5.8130     6.7570    23.7270    -7.2850 
  239.3750     2.4290    72.5710     7.5130     6.2140     7.6430    23.7120    -7.5530 
  239.5000     2.4180    70.8350     8.4310     6.9290     9.0010    23.6970    -7.7920 
  239.6250     2.4090    67.8450     9.8800     8.1200    11.2530    23.6870    -8.0490 
  239.7500     2.4010    64.8610    11.8310     9.7800    14.2690    23.6930    -8.3350 
  239.8750     2.3940    62.4530    14.2550    11.9070    17.7550    23.7090    -8.6020 
  240.0000     2.3870    60.0340    17.0490    14.4250    21.7050    23.7230    -8.8290 
  240.1250     2.3800    58.7810    20.0260    17.1850    25.8980    23.7110    -9.0750 
  240.2500     2.3740    58.8720    22.9160    19.9190    29.0830    23.6560    -9.3600 
  240.3750     2.3700    58.4030    25.5770    22.4670    30.2100    23.5640    -9.6500 
  240.5000     2.3660    58.2930    27.9990    24.7740    31.1430    23.4700    -9.9700 
  240.6250     2.3590    60.8080    30.3360    26.9140    33.1500    23.4110   -10.3280 
  240.7500     2.3490    63.5120    32.8700    29.1260    35.7850    23.3800   -10.7180 
  240.8750     2.3390    65.0560    35.8560    31.6430    38.9880    23.3610   -11.1270 
  241.0000     2.3330    65.5390    39.5020    34.6760    42.6150    23.3450   -11.5450 
  241.1250     2.3350    64.5910    44.0670    38.5150    46.0200    23.3290   -11.9220 
  241.2500     2.3410    62.4070    49.3950    43.1050    49.8530    23.3140   -12.2870 
  241.3750     2.3460    59.8550    55.2490    48.3240    54.2670    23.2910   -12.6610 
  241.5000     2.3460    58.0020    61.1330    53.8180    58.2410    23.2500   -12.9980 
  241.6250     2.3360    57.5750    66.0790    58.8090    61.5760    23.1800   -13.2050 
  241.7500     2.3200    57.4960    69.3970    62.5670    63.6510    23.1040   -13.3210 
  241.8750     2.3030    55.6180    70.7320    64.6150    64.4490    23.0520   -13.4240 
  242.0000     2.2900    52.5790    70.2160    64.9100    64.2420    23.0050   -13.4800 
  242.1250     2.2870    52.4650    68.1480    63.6990    61.3920    22.9380   -13.4450 
  242.2500     2.2940    54.2990    65.5380    61.8100    57.8610    22.8670   -13.3090 
  242.3750     2.3040    53.8020    62.6880    59.5800    55.4070    22.8250   -13.1410 
  242.5000     2.3120    50.7560    60.0500    57.0570    54.8200    22.8120   -12.9920 
  242.6250     2.3140    49.6850    57.1450    54.0250    53.9330    22.8080   -12.8730 
  242.7500     2.3110    51.3260    54.3950    50.4950    50.6860    22.8000   -12.7080 
  242.8750     2.3050    52.4260    51.5480    46.6330    45.8680    22.7860   -12.5020 
  243.0000     2.2990    52.2000    47.4100    42.7880    40.3330    22.7670   -12.3330 
  243.1250     2.2960    52.9450    43.6730    39.5410    35.8120    22.7460   -12.2100 
  243.2500     2.3010    54.6230    41.0270    37.2140    33.1410    22.7290   -12.1070 
  243.3750     2.3160    55.3130    39.5770    35.9400    31.8350    22.7090   -11.9660 
  243.5000     2.3400    54.3410    39.1440    35.6060    31.4270    22.6840   -11.8140 
  243.6250     2.3600    53.1650    39.2880    35.8730    32.0060    22.6700   -11.6930 
  243.7500     2.3660    53.8350    39.2270    36.0550    32.7880    22.6940   -11.6060 
  243.8750     2.3560    55.8980    38.4410    35.6700    32.9580    22.7670   -11.4920 
  244.0000     2.3370    56.9610    36.7420    34.4900    31.9030    22.8800   -11.3440 
  244.1250     2.3250    55.4940    34.3430    32.5980    29.4370    22.9910   -11.2020 
  244.2500     2.3270    53.5740    31.9420    30.5630    26.6640    23.0370   -11.0840 
  244.3750     2.3410    53.4410    29.9810    28.7700    24.7660    23.0250   -10.9710 
  244.5000     2.3570    55.3230    28.6390    27.4230    24.3450    22.9930   -10.8070 
  244.6250     2.3640    57.1190    27.9010    26.5970    25.2360    23.0110   -10.6270 
  244.7500     2.3610    57.9080    27.4640    26.0970    25.8340    23.1090   -10.4710 
  244.8750     2.3500    58.8530    27.2210    25.8280    25.7080    23.3040   -10.3430 
  245.0000     2.3360    59.5600    27.2000    25.7680    25.8980    23.5670   -10.2020 
  245.1250     2.3240    57.7490    27.5790    26.0160    26.8450    23.7930   -10.0620 
  245.2500     2.3160    55.2410    28.3610    26.5910    28.1180    23.9100    -9.9640 
  245.3750     2.3100    54.8790    29.4670    27.4780    29.4300    23.9430    -9.9540 
  245.5000     2.3070    55.8550    30.7000    28.5600    31.0920    23.9440   -10.0070 
  245.6250     2.3080    54.9030    31.7650    29.6020    33.1080    23.9370   -10.0440 
  245.7500     2.3140    52.3960    32.5100    30.4010    34.3420    23.9240   -10.0410 
  245.8750     2.3250    50.3650    32.9390    30.9000    34.5160    23.9040   -10.0510 
  246.0000     2.3380    50.6670    33.1780    31.1910    34.2590    23.8770   -10.1230 
  246.1250     2.3490    53.5260    33.4130    31.4610    34.2080    23.8580   -10.2130 
