~V
VERS. 2.00: Ver 2.00
~W
STRT.M 50.0000:
STOP.M 221.0000:
STEP.M 0.1250:
NULL. -999.2500:
UWI. F10024:
~C
DEPT.M :
GR.API :
RML.OHMM :
RI. :
RXO.OHMM :
CALI.CM :
DEN.GM/CC :
SP.MV :
~A
# ...
   83.7500    77.7760     7.0900     5.6890     6.1750    23.6980     2.2600    -6.9610 
   83.8750    79.9730     6.8830     5.4930     5.8200    23.7160     2.2610    -7.2010 
   84.0000    82.3740     6.7360     5.3710     6.0740    23.6640     2.2600    -7.5200 
   84.1250    82.3800     6.8170     5.4380     6.6120    23.5800     2.2540    -7.8750 
   84.2500    80.8030     7.2540     5.7710     7.1830    23.4960     2.2510    -8.2730 
   84.3750    78.1430     8.1400     6.4380     7.8910    23.4390     2.2590    -8.7080 
   84.5000    75.8830     9.4450     7.4410     9.3820    23.4480     2.2840    -9.1670 
   84.6250    75.4070    10.9320     8.6680    12.3600    23.5250     2.3220    -9.7000 
   84.7500    75.9770    12.1020     9.7710    16.3570    23.5720     2.3540   -10.2110 
   84.8750    77.5450    12.5550    10.4160    17.3340    23.4870     2.3640   -10.6950 
   85.0000    81.7980    12.1910    10.4380    14.5970    23.3630     2.3450   -11.1570 
   85.1250    88.0930    11.2810     9.9200    11.5760    23.2690     2.3060   -11.5680 
   85.2500    89.1490    10.4010     9.2600    10.3330    23.1920     2.2710   -11.9570 
   85.3750    82.6620     9.8250     8.6820     9.8050    23.1590     2.2500   -12.2910 
   85.5000    74.2710     9.4350     8.2860     9.4170    23.1720     2.2410   -12.5670 
   85.6250    71.2010     9.0390     8.0880     9.0990    23.2280     2.2310   -12.7550 
   85.7500    71.3970     8.8130     7.9860     8.9790    23.3700     2.2140   -12.8720 
   85.8750    71.7840     8.7370     7.9390     8.8630    23.4640     2.1940   -12.8940 
   86.0000    71.6030     8.7300     7.9520     8.6210    23.4850     2.1800   -12.8230 
   86.1250    71.9670     8.7300     8.0570     8.2830    23.5160     2.1780   -12.6510 
   86.2500    73.0380     8.7790     8.2220     8.0520    23.6020     2.1810   -12.3720 
   86.3750    75.2650     9.3080     8.3450     7.8890    23.6850     2.1780   -12.0190 
   86.5000    77.4280     9.1290     8.2680     7.7960    23.7330     2.1610   -11.5840 
   86.6250    76.6560     8.4110     7.8300     7.6540    23.7330     2.1350   -11.1100 
   86.7500    75.1920     7.5190     7.1520     7.2110    23.6350     2.1200   -10.6930 
   86.8750    77.1810     6.6760     6.4260     6.4210    23.5630     2.1280   -10.4100 
   87.0000    82.1620     6.1010     5.8440     5.7760    23.5990     2.1600   -10.3090 
   87.1250    85.6770     6.0120     5.5880     5.7520    23.7460     2.2010   -10.4290 
   87.2500    86.1260     6.3710     5.6530     6.3350    23.9020     2.2320   -10.7120 
   87.3750    85.0000     7.1090     6.0230     7.7840    23.9940     2.2430   -11.1220 
   87.5000    82.7450     8.0750     6.6370     9.2500    24.0650     2.2410   -11.6640 
   87.6250    78.8440     9.0380     7.3860     9.9010    24.0980     2.2330   -12.3060 
   87.7500    76.8510     9.8270     8.1140     9.9460    24.0940     2.2290   -12.9420 
   87.8750    78.1490    10.4200     8.7600     9.8600    24.0400     2.2260   -13.5240 
   88.0000    81.2130    10.8910     9.3360     9.7980    23.9710     2.2220   -13.9890 
   88.1250    83.0590    11.3110     9.8670     9.8780    23.9080     2.2170   -14.3340 
   88.2500    82.2140    11.6790    10.3460     9.9790    23.8600     2.2130   -14.6330 
   88.3750    80.0490    11.9200    10.7150     9.9600    23.8220     2.2130   -14.8820 
   88.5000    77.9870    11.9650    10.8990     9.7190    23.7480     2.2150   -15.1240 
   88.6250    74.7700    11.7890    10.8170     9.6200    23.7340     2.2150   -15.3110 
   88.7500    69.3920    11.5100    10.5360     9.6380    23.8430     2.2080   -15.4540 
   88.8750    64.0200    11.2190    10.1230     9.6000    24.1030     2.1950   -15.6070 
   89.0000    62.2720    10.9550     9.6530     9.6400    24.3380     2.1790   -15.7100 
   89.1250    62.7060    10.7010     9.2120     9.6270    24.4640     2.1640   -15.7850 
   89.2500    62.5100    10.4250     8.8670     9.5070    24.4840     2.1470   -15.8320 
   89.3750    62.6100    10.1360     8.6600     9.3750    24.5190     2.1270   -15.8290 
   89.5000    63.7750     9.8840     8.6040     9.2910    24.5340     2.1040   -15.8080 
   89.6250    65.1900     9.7470     8.6920     9.4270    24.4840     2.0900   -15.7610 
   89.7500    66.2570     9.7290     8.8420     9.5860    24.4310     2.0930   -15.7130 
   89.8750    67.0640     9.7940     8.9780     9.5060    24.4190     2.1150   -15.6660 
   90.0000    66.8950     9.8820     9.0360     9.3120    24.4350     2.1480   -15.6130 
   90.1250    67.5930     9.9230     8.9570     9.3320    24.4300     2.1710   -15.5960 
   90.2500    71.2600     9.8930     8.7800     9.5820    24.4310     2.1750   -15.5820 
   90.3750    75.1360     9.7940     8.5610     9.7380    24.4260     2.1600   -15.6100 
   90.5000    74.2770     9.6540     8.3660     9.6050    24.4060     2.1380   -15.6250 
   90.6250    69.1830     9.5200     8.2530     9.2560    24.3790     2.1250   -15.6420 
   90.7500    64.9620     9.4370     8.2100     8.9750    24.3500     2.1250   -15.6770 
   90.8750    62.9140     9.4220     8.2050     9.1200    24.3330     2.1350   -15.6620 
   91.0000    63.2150     9.4680     8.2130     9.5880    24.3260     2.1500   -15.6680 
   91.1250    65.0980     9.5500     8.2320     9.6870    24.3770     2.1650   -15.6400 
   91.2500    65.8540     9.6360     8.2890     9.7180    24.4710     2.1780   -15.5700 
   91.3750    63.8280     9.7070     8.4100     9.5600    24.5870     2.1910   -15.5040 
   91.5000    61.6650     9.7460     8.5860     9.3000    24.6770     2.1990   -15.4170 
   91.6250    63.8770     9.7230     8.7780     9.0690    24.6930     2.1990   -15.3260 
   91.7500    67.0180     9.6290     8.9120     9.1420    24.6020     2.1890   -15.2310 
   91.8750    68.1720     9.4710     8.9280     9.1950    24.4560     2.1730   -15.1370 
   92.0000    68.6990     9.2850     8.8110     9.0640    24.3300     2.1550   -15.0510 
   92.1250    70.4500     9.1350     8.5790     8.9870    24.2610     2.1440   -14.9610 
   92.2500    69.4560     9.0450     8.3090     8.9360    24.2130     2.1400   -14.8830 
   92.3750    64.5050     9.0000     8.0440     8.9160    24.1800     2.1390   -14.8240 
   92.5000    59.0190     8.9590     7.8220     8.7370    24.2570     2.1400   -14.7640 
   92.6250    58.2120     8.8730     7.6870     8.5700    24.2770     2.1390   -14.6850 
   92.7500    61.0370     8.7470     7.6480     8.4110    24.2150     2.1360   -14.5870 
   92.8750    63.8920     8.6220     7.7170     8.3740    24.1350     2.1320   -14.4810 
   93.0000    64.6320     8.5610     7.8900     8.3730    24.1260     2.1250   -14.3550 
   93.1250    62.8100     8.6370     8.1480     8.6840    24.1570     2.1180   -14.1800 
   93.2500    61.8330     8.8280     8.4330     9.1770    24.2180     2.1150   -13.9560 
   93.3750    62.0640     9.0720     8.6880     9.4470    24.2490     2.1200   -13.6670 
   93.5000    63.5830     9.2730     8.8380     9.4900    24.2160     2.1350   -13.3240 
   93.6250    66.8610     9.3230     8.8000     9.5420    24.1630     2.1560   -12.9460 
   93.7500    68.2660     9.2220     8.6020     9.6510    24.1440     2.1750   -12.4970 
   93.8750    66.3420     9.0040     8.2960     9.3950    24.1680     2.1830   -12.0030 
   94.0000    63.4930     8.7190     7.9470     8.8530    24.2220     2.1770   -11.4620 
   94.1250    64.5990     8.4030     7.6140     8.5030    24.2440     2.1590   -10.8690 
   94.2500    69.3900     8.0710     7.2990     8.4260    24.1620     2.1480   -10.2720 
   94.3750    73.7360     7.7230     6.9790     8.1580    23.9380     2.1560    -9.6530 
   94.5000    75.8780     7.3640     6.6390     7.6870    23.6270     2.1890    -9.1130 
   94.6250    77.8190     7.0060     6.2960     7.0060    23.4030     2.2390    -8.6880 
   94.7500    81.6460     6.6670     6.0060     6.5060    23.3070     2.2820    -8.3500 
   94.8750    86.0740     6.3560     5.8230     6.3000    23.3060     2.3020    -8.1120 
