~V
VERS. 2.00: Ver 2.00
~W
STRT.M 55.0000:
STOP.M 314.0000:
STEP.M 0.1250:
NULL. -999.2500:
UWI. F10048:
~C
DEPT.M :
DEN.GM/CC :
GR.API :
RML.OHMM :
RI. :
RXO.OHMM :
CALI.CM :
SP.MV :
~A
# ...
  223.7500     2.3100    55.3960    11.5910    10.6880    14.1450    22.9480   -32.7370 
  223.8750     2.3110    56.7960    11.5380    10.6450    13.7970    22.9030   -32.5990 
  224.0000     2.3110    55.5450    11.3720    10.5610    13.4000    22.9670   -32.4560 
  224.1250     2.3110    52.7180    11.1190    10.4160    12.9340    23.1250   -32.2150 
  224.2500     2.3100    50.9680    10.8870    10.2530    12.5100    23.2530   -31.8610 
  224.3750     2.3100    51.4860    10.7560    10.1270    12.1520    23.2460   -31.4520 
  224.5000     2.3110    52.2500    10.7660    10.0920    11.9760    23.1280   -31.0760 
  224.6250     2.3120    50.8980    10.9080    10.1980    11.9260    22.9560   -30.7380 
  224.7500     2.3120    49.4180    11.0890    10.4010    11.9750    22.8010   -30.4420 
  224.8750     2.3130    49.4900    11.2430    10.6370    12.0890    22.7100   -30.2190 
  225.0000     2.3140    50.6120    11.3150    10.8260    12.1430    22.6810   -30.0880 
  225.1250     2.3110    49.2400    11.2630    10.8850    12.0680    22.6650   -30.1260 
  225.2500     2.3040    45.7040    11.1100    10.8250    11.8200    22.6380   -30.2860 
  225.3750     2.2940    42.9420    10.8940    10.6850    11.4780    22.5990   -30.4970 
  225.5000     2.2820    42.5410    10.6710    10.5280    11.1960    22.5590   -30.6980 
  225.6250     2.2730    43.4330    10.5200    10.4240    11.2260    22.5330   -30.9510 
  225.7500     2.2690    42.9630    10.4720    10.3950    11.3380    22.5120   -31.2170 
  225.8750     2.2700    43.1000    10.5240    10.4330    11.4650    22.5030   -31.3950 
  226.0000     2.2760    46.0710    10.6490    10.5180    11.5730    22.5260   -31.4730 
  226.1250     2.2850    50.7670    10.8080    10.6220    11.7270    22.6290   -31.4260 
  226.2500     2.2920    54.5870    10.9550    10.7130    11.9520    22.8220   -31.3360 
  226.3750     2.2970    56.0500    11.0660    10.7670    12.2190    23.0450   -31.2270 
  226.5000     2.2980    55.6010    11.1100    10.7660    12.5590    23.2100   -31.0700 
  226.6250     2.2940    54.1260    11.0230    10.7060    12.9080    23.2900   -30.7470 
  226.7500     2.2900    51.7290    10.9330    10.6500    13.2740    23.2720   -30.2950 
  226.8750     2.2910    48.5920    10.9960    10.7120    13.6540    23.1510   -29.7840 
  227.0000     2.3040    46.3200    11.6080    11.0480    14.3220    22.9450   -29.2210 
  227.1250     2.3340    46.8230    13.0360    11.9270    16.0740    22.7040   -28.5800 
  227.2500     2.3770    47.8510    15.4490    13.4050    19.2170    22.5320   -27.8570 
  227.3750     2.4230    47.6790    18.5730    15.4700    23.5170    22.4550   -27.0740 
  227.5000     2.4630    49.4420    21.4520    17.9420    27.9630    22.4430   -26.2490 
  227.6250     2.4900    55.1340    23.8130    20.3960    30.5360    22.4460   -25.4550 
  227.7500     2.5050    59.0900    25.3680    22.3290    29.5450    22.4310   -24.7010 
  227.8750     2.5100    59.0100    25.9610    23.4290    27.9460    22.3920   -23.9750 
  228.0000     2.5080    58.1880    25.7310    23.6490    27.4690    22.3670   -23.2880 
  228.1250     2.5000    59.8720    24.9710    23.1230    27.1650    22.3740   -22.6440 
  228.2500     2.4920    60.4160    24.0640    22.2650    26.6490    22.4040   -22.0130 
  228.3750     2.4880    59.7520    23.0990    21.2490    25.9760    22.4610   -21.3630 
  228.5000     2.4910    60.7850    22.0640    20.1550    25.3430    22.5550   -20.7430 
  228.6250     2.4990    62.9960    21.0180    19.0850    24.9480    22.6940   -20.1690 
  228.7500     2.5040    64.6650    20.2450    18.2400    24.4550    22.8610   -19.5900 
  228.8750     2.5050    65.6600    20.2200    17.9390    24.0790    23.0160   -19.0140 
  229.0000     2.5040    64.4370    21.6340    18.7340    26.3570    23.1310   -18.4600 
  229.1250     2.5140    60.0060    26.2660    22.3530    36.0670    23.2350   -17.9770 
  229.2500     2.5390    55.7950    35.5880    30.5890    57.4920    23.3480   -17.4990 
  229.3750     2.5720    53.9350    50.9450    45.2960    90.4020    23.4500   -16.9850 
  229.5000     2.6030    53.4800    71.8950    66.5700   130.3050    23.5280   -16.4160 
  229.6250     2.6210    51.9950    94.1790    90.6250   168.0190    23.5730   -15.8040 
  229.7500     2.6320    51.6610   109.5630   108.6290   190.7610    23.5780   -15.2260 
  229.8750     2.6490    52.9190   110.7220   112.5590   197.3320    23.5420   -14.6470 
  230.0000     2.6830    54.2590    95.0220    98.8980   189.1680    23.4690   -13.9870 
  230.1250     2.7300    54.7130    68.3870    72.1610   158.7000    23.3740   -13.1790 
  230.2500     2.7680    54.5930    43.9570    46.2340   112.6020    23.3010   -12.3050 
  230.3750     2.7740    54.6180    26.4860    27.4260    60.1620    23.2800   -11.3760 
  230.5000     2.7400    52.8660    15.7040    16.0270    24.5490    23.3180   -10.3610 
  230.6250     2.6790    49.0860    10.2040    10.2940    11.3130    23.4090    -9.2990 
  230.7500     2.6230    47.1620     7.3600     7.2120     6.6840    23.4820    -8.2890 
  230.8750     2.5900    47.6630     6.0950     5.6820     5.1470    23.5120    -7.3660 
  231.0000     2.5800    49.1810     5.7170     5.0840     4.8810    23.5260    -6.5830 
  231.1250     2.5820    50.2670     5.8430     5.1060     5.0520    23.5440    -6.0410 
  231.2500     2.5770    52.4630     6.1500     5.4070     5.3220    23.5810    -5.7470 
  231.3750     2.5570    58.1770     6.5400     5.8470     5.7130    23.6330    -5.7590 
  231.5000     2.5290    67.0310     6.9780     6.3440     6.2290    23.6900    -6.0700 
  231.6250     2.5060    74.5440     7.5000     6.8830     6.8390    23.7510    -6.6140 
  231.7500     2.4930    78.5280     8.1450     7.4800     7.5140    23.8070    -7.2360 
  231.8750     2.4930    79.9680     8.9400     8.1570     8.4390    23.8530    -7.9000 
  232.0000     2.4980    79.9590     9.8590     8.9050     9.7330    23.8870    -8.6340 
  232.1250     2.4990    78.1560    10.7840     9.6390    11.2640    23.9150    -9.4210 
  232.2500     2.4920    76.7610    11.5460    10.2300    12.8770    23.9390   -10.1500 
  232.3750     2.4770    76.4610    12.0320    10.5780    14.1940    23.9440   -10.7700 
  232.5000     2.4590    75.6920    12.2380    10.6600    14.8040    23.9330   -11.2950 
  232.6250     2.4450    75.1640    12.3170    10.5730    14.4800    23.9100   -11.7390 
  232.7500     2.4410    75.9240    12.5530    10.5550    13.9580    23.8890   -12.0910 
  232.8750     2.4480    76.3560    13.1210    10.7660    13.8680    23.8800   -12.3200 
  233.0000     2.4640    75.2910    14.0160    11.2380    14.7590    23.8860   -12.3690 
  233.1250     2.4820    76.6400    14.9630    11.8220    16.1840    23.8830   -12.1850 
  233.2500     2.4920    80.4610    15.5000    12.1870    17.1620    23.8380   -11.8440 
  233.3750     2.4880    82.5770    15.2860    12.0520    16.8910    23.7570   -11.3120 
  233.5000     2.4710    80.9020    14.2350    11.2860    15.3690    23.6890   -10.5560 
  233.6250     2.4480    77.4380    12.5370     9.9660    12.2920    23.6960    -9.5710 
  233.7500     2.4310    74.7930    10.7640     8.5340     9.4100    23.7310    -8.5180 
  233.8750     2.4240    71.6110     9.2380     7.2860     7.3760    23.7660    -7.4740 
  234.0000     2.4290    67.2090     8.1000     6.3790     6.2650    23.7630    -6.4550 
  234.1250     2.4420    61.5290     7.3380     5.8970     5.8890    23.6870    -5.5120 
  234.2500     2.4550    55.3530     6.7980     5.7060     5.7800    23.6310    -4.7030 
  234.3750     2.4640    49.0280     6.5000     5.7140     5.6940    23.6070    -4.0820 
  234.5000     2.4680    43.6940     6.4770     5.8340     5.6220    23.5980    -3.6470 
  234.6250     2.4690    40.9600     6.6120     5.9970     5.6370    23.5850    -3.4240 
  234.7500     2.4700    39.8910     6.7750     6.1520     5.7230    23.5610    -3.3120 
  234.8750     2.4730    39.3430     6.9300     6.2770     5.8610    23.5270    -3.2670 
