~V
VERS. 2.00: Ver 2.00
~W
STRT.M 50.0000:
STOP.M 307.0000:
STEP.M 0.1250:
NULL. -999.2500:
UWI. F10044:
~C
DEPT.M :
GR.API :
RML.OHMM :
RI. :
RXO.OHMM :
CALI.CM :
DEN.GM/CC :
SP.MV :
~A
# ...
  218.7500    57.5880    12.8310    11.2320    13.2400    23.6020     2.2880   -22.9670 
  218.8750    58.7260    12.6760    11.1300    13.1310    23.6550     2.2710   -23.4920 
  219.0000    61.0080    12.5350    11.0450    13.0330    23.7020     2.2620   -24.0420 
  219.1250    59.1060    12.4260    10.9860    12.8300    23.7390     2.2610   -24.5310 
  219.2500    55.7150    12.3450    10.9450    12.7110    23.7250     2.2650   -24.9420 
  219.3750    54.3000    12.2770    10.9160    12.7390    23.6700     2.2690   -25.2880 
  219.5000    54.8160    12.2060    10.8900    12.8040    23.6430     2.2670   -25.5680 
  219.6250    54.8640    12.1260    10.8600    12.8020    23.7020     2.2560   -25.7220 
  219.7500    55.8180    12.0500    10.8320    12.7150    23.7740     2.2420   -25.7510 
  219.8750    58.6930    11.9950    10.8210    12.5920    23.7910     2.2310   -25.6740 
  220.0000    61.3350    11.9810    10.8380    12.4880    23.7480     2.2280   -25.5250 
  220.1250    61.0520    12.0190    10.8970    12.5670    23.6560     2.2350   -25.2810 
  220.2500    59.7050    12.0880    10.9820    12.7610    23.5420     2.2480   -24.9480 
  220.3750    60.5960    12.1590    11.0770    12.9630    23.4040     2.2620   -24.5560 
  220.5000    62.1390    12.2110    11.1650    13.0880    23.2710     2.2730   -24.1760 
  220.6250    61.1710    12.2250    11.2300    13.1320    23.2150     2.2780   -23.8510 
  220.7500    58.7240    12.2140    11.2730    13.1690    23.2240     2.2810   -23.5260 
  220.8750    57.0710    12.1900    11.3020    13.1320    23.2500     2.2850   -23.1780 
  221.0000    56.2670    12.1660    11.3300    13.0030    23.2730     2.2900   -22.8820 
  221.1250    55.6150    12.1540    11.3780    12.8090    23.3010     2.2970   -22.7190 
  221.2500    56.1400    12.1600    11.4550    12.6140    23.3390     2.3040   -22.5950 
  221.3750    58.7070    12.1940    11.5670    12.5180    23.3710     2.3080   -22.4210 
  221.5000    61.1840    12.2670    11.7100    12.5960    23.3830     2.3060   -22.2050 
  221.6250    59.4190    12.3960    11.8750    12.7210    23.3590     2.3000   -21.9850 
  221.7500    56.4600    12.5730    12.0470    12.8200    23.2880     2.2910   -21.7680 
  221.8750    55.5940    12.7810    12.2160    12.9380    23.1580     2.2840   -21.5060 
  222.0000    55.9030    12.9840    12.3600    13.0690    22.9700     2.2780   -21.1550 
  222.1250    54.2060    13.1010    12.4210    13.2470    22.8010     2.2760   -20.7630 
  222.2500    52.8010    13.0630    12.3450    13.4210    22.7470     2.2740   -20.4010 
  222.3750    53.8010    12.8160    12.0850    13.5350    22.8610     2.2710   -20.0580 
  222.5000    54.9760    12.3670    11.6440    13.5200    23.0790     2.2650   -19.6840 
  222.6250    54.0810    11.9220    11.1360    13.3370    23.2970     2.2650   -19.2630 
  222.7500    51.9950    11.9970    10.9020    13.1960    23.4470     2.2820   -18.8290 
  222.8750    50.0710    13.3630    11.5130    13.8620    23.5110     2.3280   -18.3590 
  223.0000    49.7310    16.8570    13.7570    17.6790    23.5270     2.4060   -17.8040 
  223.1250    49.4040    23.2480    18.7040    35.6210    23.5370     2.5040   -17.1080 
  223.2500    49.3100    31.2190    25.7470    67.9380    23.5520     2.5920   -16.3210 
  223.3750    49.8160    38.6400    33.4120   103.2470    23.5700     2.6410   -15.4510 
  223.5000    49.8650    42.7890    39.2120   133.3360    23.5880     2.6430   -14.5020 
  223.6250    50.9210    40.7230    39.5880   128.1390    23.5980     2.6030   -13.5160 
  223.7500    56.3930    34.3310    35.0590    61.4290    23.6150     2.5530   -12.5460 
  223.8750    64.3100    26.9540    28.4090    25.9390    23.6730     2.5080   -11.6760 
  224.0000    69.6520    21.5450    22.7280    16.3850    23.7640     2.4770   -10.9250 
  224.1250    71.6650    19.6640    20.0160    14.5470    23.8400     2.4660   -10.2650 
  224.2500    72.7990    20.5040    20.0710    14.6610    23.8810     2.4760    -9.6860 
  224.3750    72.0750    22.9800    22.4550    16.4940    23.8570     2.5110    -9.2640 
  224.5000    69.7080    26.5870    26.0640    22.8850    23.7610     2.5680    -8.9900 
  224.6250    68.8260    29.0370    28.6650    37.5230    23.6300     2.6350    -8.7480 
  224.7500    68.8010    28.1010    28.1960    52.2590    23.4830     2.6840    -8.4630 
  224.8750    68.1180    23.4770    23.9710    64.5020    23.3370     2.6980    -8.1360 
  225.0000    65.8610    16.8630    17.5100    65.2540    23.2290     2.6720    -7.8120 
  225.1250    62.9070    11.2020    11.8250    31.3800    23.2020     2.6160    -7.4810 
  225.2500    60.9360     7.6430     8.0880    12.0700    23.2360     2.5530    -7.0800 
  225.3750    58.8900     5.8910     6.0250     6.7220    23.2520     2.4910    -6.6190 
  225.5000    54.8360     5.3160     5.1090     5.6530    23.1770     2.4350    -6.1710 
  225.6250    50.4820     5.4420     4.9840     5.6370    23.1000     2.3890    -5.7880 
  225.7500    48.6610     5.7760     5.2050     5.7010    23.1170     2.3590    -5.4380 
  225.8750    47.0330     6.1040     5.5520     5.7220    23.2640     2.3470    -5.1300 
  226.0000    44.2510     6.3170     5.8680     5.7220    23.4900     2.3510    -4.8890 
  226.1250    43.2130     6.3920     6.0570     5.8350    23.5600     2.3640    -4.7300 
  226.2500    44.4210     6.3940     6.1390     6.0540    23.4840     2.3760    -4.6110 
  226.3750    45.1010     6.3580     6.1390     6.1740    23.2940     2.3880    -4.4830 
  226.5000    43.5240     6.3050     6.0830     6.0250    23.0600     2.4000    -4.3330 
  226.6250    40.8710     6.2530     5.9950     5.6400    22.8350     2.4150    -4.2110 
  226.7500    39.1350     6.2180     5.9060     5.3960    22.6250     2.4260    -4.1200 
  226.8750    37.9250     6.2050     5.8330     5.3560    22.4050     2.4290    -4.0050 
  227.0000    36.9400     6.2130     5.7880     5.4050    22.1740     2.4210    -3.8450 
  227.1250    36.5290     6.2400     5.7810     5.5290    21.9830     2.4090    -3.7060 
  227.2500    36.8280     6.2760     5.8010     5.7040    21.8620     2.4020    -3.6440 
  227.3750    37.1120     6.3400     5.8350     5.8860    21.8070     2.4050    -3.6180 
  227.5000    36.2360     6.4260     5.8730     6.0230    21.8120     2.4170    -3.5640 
  227.6250    35.8550     6.4890     5.9060     6.0650    21.9440     2.4290    -3.4870 
  227.7500    36.2920     6.5190     5.9340     6.0040    22.2870     2.4350    -3.4520 
  227.8750    36.4880     6.5240     5.9590     5.9690    22.8450     2.4340    -3.4480 
  228.0000    35.8140     6.5240     5.9860     6.0380    23.4610     2.4300    -3.4240 
  228.1250    36.1910     6.5130     6.0090     6.2210    23.9280     2.4280    -3.3490 
  228.2500    37.7940     6.4940     6.0180     6.3450    24.1350     2.4310    -3.2620 
  228.3750    38.1170     6.4630     6.0000     6.3660    24.1980     2.4380    -3.2260 
  228.5000    37.2910     6.4170     5.9510     6.2700    24.2180     2.4470    -3.2170 
  228.6250    37.9940     6.3780     5.8690     6.1270    24.2420     2.4530    -3.1860 
  228.7500    38.1910     6.3200     5.7760     6.0650    24.2700     2.4550    -3.1710 
  228.8750    36.9210     6.2690     5.6960     6.0480    24.2970     2.4510    -3.2150 
  229.0000    35.9010     6.2640     5.6560     6.0950    24.3120     2.4450    -3.3200 
  229.1250    37.3760     6.3600     5.6970     6.2580    24.2930     2.4410    -3.4470 
  229.2500    39.6970     6.5690     5.8280     6.5000    24.2460     2.4380    -3.6010 
  229.3750    41.8460     6.8910     6.0520     6.7940    24.1800     2.4340    -3.7690 
  229.5000    44.4950     7.2910     6.3460     7.1250    24.1090     2.4260    -3.9370 
  229.6250    48.3420     7.6890     6.6620     7.5610    24.0660     2.4170    -4.1020 
  229.7500    53.5210     7.9960     6.9240     8.0160    24.0470     2.4140    -4.2420 
  229.8750    58.0730     8.1600     7.0850     8.3230    24.0100     2.4200    -4.3370 
