~V
VERS. 2.00: Ver 2.00
~W
STRT.M 56.0000:
STOP.M 268.0000:
STEP.M 0.1250:
NULL. -999.2500:
UWI. F10027:
~C
DEPT.M :
GR.API :
RML.OHMM :
RI. :
RXO.OHMM :
CALI.CM :
DEN.GM/CC :
SP.MV :
~A
# ...
  179.7500    63.2810    65.5750    66.4700    85.9610    24.2200     2.2640   -20.0960 
  179.8750    64.9910    64.9700    66.1910    86.1930    24.2920     2.2740   -19.9160 
  180.0000    65.6820    64.1110    65.5750    83.9230    24.2610     2.2710   -19.7570 
  180.1250    64.6970    63.1060    64.6500    83.0010    24.1970     2.2550   -19.5950 
  180.2500    63.8000    61.9350    63.4270    83.3440    24.1070     2.2350   -19.3760 
  180.3750    65.7190    60.2380    61.6390    84.2620    24.0010     2.2190   -19.1280 
  180.5000    70.8200    57.4230    58.8220    83.8040    23.9030     2.2100   -18.9090 
  180.6250    72.8580    52.7820    54.3600    82.2160    23.8090     2.2090   -18.6370 
  180.7500    71.3140    46.9160    48.7420    74.8350    23.7530     2.2110   -18.3230 
  180.8750    70.3270    40.8200    42.8180    58.7830    23.7180     2.2160   -18.0590 
  181.0000    70.4210    35.6380    37.6300    41.9880    23.6780     2.2230   -17.8340 
  181.1250    69.9420    32.5140    34.2960    37.0690    23.6380     2.2320   -17.5740 
  181.2500    69.7600    31.3490    32.8250    35.7420    23.6050     2.2430   -17.3190 
  181.3750    69.2160    31.8800    33.0480    37.9160    23.5440     2.2550   -17.0870 
  181.5000    64.9520    33.5820    34.5460    49.1980    23.4290     2.2670   -16.8090 
  181.6250    59.7050    35.5280    36.4910    54.0440    23.3190     2.2770   -16.4550 
  181.7500    59.3430    36.3790    37.4570    52.0950    23.2510     2.2780   -16.0800 
  181.8750    61.4020    35.0670    36.2070    46.0790    23.1480     2.2710   -15.6400 
  182.0000    61.2150    31.2020    32.2190    43.8720    22.9570     2.2590   -15.0880 
  182.1250    60.0560    25.1020    26.0460    49.9280    22.7760     2.2650   -14.4620 
  182.2500    61.0250    18.5540    19.6850    49.6650    22.6890     2.3000   -13.8430 
  182.3750    62.2120    12.9680    14.3070    32.2610    22.7220     2.3620   -13.2320 
  182.5000    60.9220     9.1250    10.3820    14.2130    22.8740     2.4310   -12.6280 
  182.6250    58.7880     7.1360     8.0370     7.3840    23.1660     2.4730   -12.0850 
  182.7500    57.2360     6.3770     6.7300     5.9450    23.4590     2.4780   -11.6210 
  182.8750    55.4350     6.2930     6.1970     5.8910    23.6800     2.4510   -11.2440 
  183.0000    53.5580     6.5880     6.2120     6.0060    23.8210     2.4120   -10.9680 
  183.1250    53.2080     7.1610     6.6010     6.1900    23.8590     2.3840   -10.7620 
  183.2500    52.9990     7.7240     7.1000     6.7350    23.8020     2.3750   -10.6050 
  183.3750    51.2090     8.0660     7.5590     7.3960    23.7510     2.3840   -10.4980 
  183.5000    50.5370     8.1730     7.8690     7.7200    23.7450     2.3990   -10.4310 
  183.6250    50.9420     8.0820     7.9620     7.8050    23.7660     2.4070   -10.4050 
  183.7500    49.5880     7.9160     7.9040     7.8030    23.7750     2.4030   -10.4000 
  183.8750    48.4190     7.8100     7.7690     7.7940    23.7900     2.3940   -10.3820 
  184.0000    51.9860     7.7980     7.6320     7.9620    23.8100     2.3850   -10.3580 
  184.1250    62.1010     7.8380     7.5650     8.2180    23.7970     2.3850   -10.4050 
  184.2500    70.8780     7.8990     7.5710     8.3680    23.7410     2.3910   -10.4370 
  184.3750    73.4490     7.9650     7.6250     8.4760    23.6380     2.3970   -10.4190 
  184.5000    69.9900     7.9880     7.6760     8.9540    23.5870     2.3990   -10.4130 
  184.6250    64.6800     7.9070     7.6570     9.3410    23.6650     2.3920   -10.4060 
  184.7500    60.9420     7.7900     7.5450     9.1320    23.7790     2.3840   -10.3240 
  184.8750    58.0590     7.6360     7.3500     8.4520    23.7560     2.3790   -10.2330 
  185.0000    56.3710     7.4420     7.1010     7.5730    23.6390     2.3800   -10.1750 
  185.1250    55.7830     7.2160     6.8470     6.9790    23.6220     2.3850   -10.0460 
  185.2500    53.8240     7.0540     6.6410     6.7870    23.7070     2.3880    -9.9180 
  185.3750    50.5110     7.0090     6.5200     6.8590    23.8360     2.3870    -9.8540 
  185.5000    47.2440     7.0840     6.5020     6.9800    23.9940     2.3800    -9.7840 
  185.6250    44.5470     7.2380     6.5850     7.0270    24.1400     2.3690    -9.6880 
  185.7500    41.8070     7.3900     6.7070     7.2810    24.2810     2.3580    -9.6560 
  185.8750    40.4190     7.4910     6.8140     7.8480    24.3910     2.3510    -9.6280 
  186.0000    41.5630     7.5080     6.8580     8.2050    24.4460     2.3490    -9.5460 
  186.1250    43.8550     7.4260     6.8050     7.9260    24.4170     2.3510    -9.4960 
  186.2500    44.6600     7.2910     6.6890     7.4560    24.3410     2.3550    -9.4850 
  186.3750    43.0370     7.1540     6.5560     7.2080    24.2650     2.3580    -9.4330 
  186.5000    40.5760     7.0700     6.4520     7.2220    24.1580     2.3640    -9.3440 
  186.6250    39.7490     7.0860     6.4210     7.2790    23.9700     2.3750    -9.3110 
  186.7500    39.6940     7.1770     6.4500     7.2710    23.8330     2.3870    -9.2860 
  186.8750    39.1110     7.2950     6.5110     7.1450    23.8640     2.3930    -9.2440 
  187.0000    38.3710     7.3890     6.5680     7.0960    23.9980     2.3860    -9.2040 
  187.1250    38.2130     7.4170     6.5800     7.3540    24.1320     2.3670    -9.1800 
  187.2500    37.9950     7.3990     6.5420     7.5870    24.1000     2.3490    -9.1370 
  187.3750    37.7620     7.3630     6.4650     7.5980    23.9810     2.3410    -9.0800 
  187.5000    37.7120     7.3300     6.3690     7.2390    23.9220     2.3440    -9.0640 
  187.6250    37.9010     7.3050     6.2780     6.7890    24.0450     2.3530    -9.0840 
  187.7500    38.3990     7.2820     6.2070     6.5350    24.1930     2.3570    -9.0850 
  187.8750    39.7810     7.2620     6.1590     6.5260    24.2430     2.3560    -9.1090 
  188.0000    41.7030     7.2560     6.1290     6.6730    24.1870     2.3510    -9.2040 
  188.1250    42.4270     7.2910     6.1160     6.8170    24.0510     2.3460    -9.3030 
  188.2500    42.1400     7.3670     6.1190     6.9690    23.9430     2.3430    -9.3720 
  188.3750    42.4190     7.4790     6.1460     7.0180    23.8500     2.3420    -9.4680 
  188.5000    43.5130     7.6160     6.2030     7.0330    23.7500     2.3440    -9.5890 
  188.6250    44.9110     7.7710     6.2990     7.1930    23.7140     2.3490    -9.6470 
  188.7500    48.2540     7.9410     6.4230     7.4880    23.7860     2.3530    -9.6560 
  188.8750    53.3850     8.1230     6.5690     7.7580    23.9850     2.3540    -9.6560 
  189.0000    57.1690     8.3100     6.7300     7.9480    24.2350     2.3470    -9.6370 
  189.1250    56.1420     8.4780     6.8950     8.2780    24.4160     2.3370    -9.5810 
  189.2500    52.5940     8.6020     7.0400     8.7880    24.5410     2.3300    -9.5090 
  189.3750    48.4790     8.6640     7.1400     8.9510    24.5590     2.3300    -9.4380 
  189.5000    44.3280     8.6530     7.1730     8.7440    24.4660     2.3390    -9.3750 
  189.6250    42.9520     8.5620     7.1190     8.5990    24.3750     2.3540    -9.2930 
  189.7500    44.9470     8.4180     7.0020     8.3220    24.2730     2.3680    -9.2350 
  189.8750    48.4550     8.2490     6.8450     7.8140    24.1090     2.3800    -9.2000 
  190.0000    50.4340     8.0890     6.6760     7.4900    23.8940     2.3890    -9.1250 
  190.1250    47.8050     7.9850     6.5360     7.4940    23.7940     2.3940    -9.0560 
  190.2500    44.6460     7.9550     6.4500     7.5010    23.9210     2.3930    -9.0670 
  190.3750    44.3820     7.9960     6.4250     7.3260    24.1020     2.3860    -9.0730 
  190.5000    46.3680     8.0800     6.4550     7.3790    24.1910     2.3760    -9.0210 
  190.6250    47.8280     8.1570     6.5110     7.6220    24.1310     2.3690    -9.0160 
  190.7500    48.6280     8.1880     6.5580     7.7010    24.0120     2.3700    -9.0450 
  190.8750    49.0110     8.1770     6.5850     7.5610    23.9530     2.3760    -9.0470 
