~V
VERS. 2.00: Ver 2.00
~W
STRT.M 50.0000:
STOP.M 274.0000:
STEP.M 0.1250:
NULL. -999.2500:
UWI. F10029:
~C
DEPT.M :
DEN.GM/CC :
SP.MV :
GR.API :
CALI.CM :
RXO.OHMM :
RI. :
RML.OHMM :
~A
# ...
  196.2500     2.3260   -12.0810    62.7220    22.6120     6.7760     6.9770     7.8860 
  196.3750     2.3430   -12.0780    54.4850    22.6150     6.5120     6.7080     7.5980 
  196.5000     2.3580   -12.0840    46.1640    22.6260     6.5330     6.5770     7.4570 
  196.6250     2.3660   -12.0410    44.2900    22.6240     6.5230     6.5340     7.4120 
  196.7500     2.3660   -12.0600    44.6910    22.6170     6.3630     6.4970     7.3720 
  196.8750     2.3580   -12.0730    44.6440    22.5950     6.1450     6.4290     7.2990 
  197.0000     2.3480   -12.0660    45.4290    22.5520     5.9900     6.3250     7.1870 
  197.1250     2.3420   -12.1080    47.3860    22.5340     5.9700     6.2040     7.0580 
  197.2500     2.3420   -12.1600    49.7900    22.5460     5.9740     6.1040     6.9510 
  197.3750     2.3460   -12.1660    51.6910    22.5620     5.9310     6.0570     6.9000 
  197.5000     2.3510   -12.1760    51.0550    22.5210     5.8510     6.0890     6.9340 
  197.6250     2.3530   -12.2370    50.6920    22.3920     5.8730     6.2370     7.0930 
  197.7500     2.3570   -12.2670    56.9250    22.3310     6.2050     6.4910     7.3650 
  197.8750     2.3610   -12.3070    74.1290    22.3160     6.8880     6.8430     7.7430 
  198.0000     2.3630   -12.3340    95.1270    22.3160     7.5640     7.2690     8.1980 
  198.1250     2.3660   -12.3270   104.7700    22.3650     7.6810     7.7150     8.6760 
  198.2500     2.3770   -12.2460   101.4750    22.4730     7.7080     8.1000     9.0890 
  198.3750     2.3940   -12.1700    96.1810    22.6010     8.1310     8.3530     9.3600 
  198.5000     2.4090   -12.1150    96.1860    22.7480     8.7200     8.4230     9.4340 
  198.6250     2.4090   -12.0110    97.3810    23.0040     8.8300     8.2810     9.2830 
  198.7500     2.3960   -11.9320    95.7030    23.2580     8.4730     8.0230     9.0070 
  198.8750     2.3720   -11.8610    93.2920    23.3600     8.0460     7.7320     8.6950 
  199.0000     2.3420   -11.7970    92.9270    23.3190     7.6680     7.4820     8.4270 
  199.1250     2.3210   -11.8110    99.9950    23.2980     7.4350     7.3300     8.2640 
  199.2500     2.3160   -11.9220   111.1080    23.3620     7.4000     7.2530     8.1810 
  199.3750     2.3220   -12.0290   116.4180    23.4240     7.5520     7.2140     8.1400 
  199.5000     2.3270   -12.1570   110.5450    23.3440     7.7270     7.1780     8.1010 
  199.6250     2.3250   -12.4000   103.6300    23.1240     7.7380     7.1430     8.0640 
  199.7500     2.3230   -12.6270   102.2880    22.9740     7.6550     7.1740     8.0970 
  199.8750     2.3250   -12.8950   100.9230    22.8990     7.6810     7.3520     8.2870 
  200.0000     2.3290   -13.2430    98.5980    22.8160     8.1110     7.7350     8.6970 
  200.1250     2.3340   -13.4950   100.5670    22.7070     9.3520     8.3620     9.3690 
  200.2500     2.3370   -13.7040   103.6210    22.6260    11.5380     9.1170    10.1780 
  200.3750     2.3330   -13.9450   102.5170    22.6070    14.0370     9.8770    10.9930 
  200.5000     2.3170   -14.1150    99.2170    22.6150    14.8530    10.5560    11.7200 
  200.6250     2.3000   -14.1760    97.3320    22.6230    14.2560    11.2020    12.4110 
  200.7500     2.2990   -14.2310    95.3670    22.6230    14.0060    11.9720    13.2360 
  200.8750     2.3250   -14.2130    95.3630    22.6230    15.1790    12.9510    14.2850 
  201.0000     2.3700   -14.0970    97.9650    22.6230    18.3480    14.0750    15.4890 
  201.1250     2.3980   -14.0000   101.3340    22.6230    21.5330    14.9760    16.4550 
  201.2500     2.3910   -13.8710   102.5370    22.6230    22.1830    15.2170    16.7120 
  201.3750     2.3580   -13.6840    99.8720    22.6230    19.3560    14.6220    16.0750 
  201.5000     2.3260   -13.5360    94.0320    22.6230    15.7810    13.4350    14.8040 
  201.6250     2.3170   -13.4230    91.4700    22.6370    13.0660    12.1530    13.4300 
  201.7500     2.3220   -13.2830    95.6310    22.7300    11.5840    11.1560    12.3620 
  201.8750     2.3270   -13.1930   101.7260    22.9730    10.9770    10.5620    11.7260 
  202.0000     2.3240   -13.1700   103.8930    23.3060    10.9800    10.3740    11.5250 
  202.1250     2.3200   -13.1590   105.2090    23.4880    11.3440    10.5980    11.7650 
  202.2500     2.3260   -13.1880   108.3980    23.5400    11.8820    11.0960    12.2980 
  202.3750     2.3430   -13.2310   109.0880    23.5430    12.3870    11.7720    13.0220 
  202.5000     2.3600   -13.2130   104.5560    23.5290    13.2630    12.5060    13.8080 
  202.6250     2.3660   -13.1780    99.3270    23.4660    15.2350    13.1450    14.4930 
  202.7500     2.3660   -13.1550    98.9920    23.3800    15.8430    13.5900    14.9690 
  202.8750     2.3670   -13.1270   102.8240    23.3600    14.7070    13.7870    15.1810 
  203.0000     2.3690   -13.1150   104.3420    23.4060    13.6230    13.7380    15.1280 
  203.1250     2.3600   -13.1060   100.6140    23.4800    13.8400    13.4370    14.8060 
  203.2500     2.3350   -13.0420    97.8670    23.5810    14.3330    12.9490    14.2820 
  203.3750     2.3060   -13.0050    99.7430    23.6740    13.8330    12.3220    13.6120 
  203.5000     2.2930   -13.0970   104.9780    23.7330    12.5480    11.6750    12.9190 
  203.6250     2.3070   -13.2200   105.7560    23.7160    12.0100    11.2560    12.4690 
  203.7500     2.3290   -13.3500   100.5040    23.6380    12.0170    11.2840    12.4990 
  203.8750     2.3370   -13.4700    93.3850    23.5050    12.1740    11.9820    13.2470 
  204.0000     2.3290   -13.5910    87.6750    23.3970    13.4170    13.5630    14.9400 
  204.1250     2.3090   -13.6910    84.9690    23.3420    18.2030    16.3510    17.9270 
  204.2500     2.2840   -13.8560    83.4980    23.3530    24.7470    20.0400    21.8790 
  204.3750     2.2560   -14.0070    82.4090    23.3360    30.1080    24.0420    26.1660 
  204.5000     2.2270   -14.0480    80.8280    23.2800    32.7530    27.4040    29.7670 
  204.6250     2.2070   -14.0790    77.7330    23.2050    33.3750    29.0260    31.5050 
  204.7500     2.1950   -14.1520    74.3240    23.0500    32.4810    29.1970    31.6880 
  204.8750     2.1920   -14.2340    73.9420    22.8130    30.7850    28.5670    31.0130 
  205.0000     2.1990   -14.3040    77.9220    22.6700    29.9430    27.8000    30.1910 
  205.1250     2.2110   -14.4220    81.1580    22.7070    30.8410    27.4820    29.8510 
  205.2500     2.2150   -14.4910    80.2980    22.9140    31.3580    27.9630    30.3660 
  205.3750     2.2140   -14.5550    77.3470    23.2040    31.7090    29.6240    32.1450 
  205.5000     2.2270   -14.7070    76.7310    23.3790    34.0800    32.8470    35.5970 
  205.6250     2.2680   -14.8110    76.9180    23.3730    42.8570    38.2420    41.3760 
  205.7500     2.3080   -14.8840    78.4300    23.2610    59.0000    45.3850    49.0280 
  205.8750     2.3090   -14.9430    84.0990    23.1310    75.4470    53.4220    57.6380 
  206.0000     2.2580   -14.9080    89.1760    23.0080    82.3520    60.6540    65.3850 
  206.1250     2.1820   -14.8410    85.4960    23.1310    81.2290    64.4880    69.4910 
  206.2500     2.1310   -14.7860    77.2990    23.3290    75.8390    64.7260    69.7470 
  206.3750     2.1270   -14.7270    71.2640    23.4960    70.8280    62.2960    67.1430 
  206.5000     2.1750   -14.6400    68.0000    23.6010    65.1030    58.4850    63.0610 
  206.6250     2.2690   -14.5790    64.8130    23.5670    56.7040    54.1580    58.4260 
  206.7500     2.3650   -14.4540    62.4060    23.3040    50.0510    49.6490    53.5960 
  206.8750     2.4240   -14.3240    61.3200    23.0500    45.6560    44.8840    48.4920 
  207.0000     2.4240   -14.2860    62.6810    23.0450    41.4260    39.8780    43.1300 
  207.1250     2.3680   -14.2250    68.8580    23.3260    37.0400    34.9200    37.8180 
  207.2500     2.3010   -14.1370    79.8990    23.6870    33.2220    30.3940    32.9710 
  207.3750     2.2490   -14.0480    91.2570    23.7950    28.8040    26.5870    28.8920 
