~V
VERS. 2.00: Ver 2.00
~W
STRT.M 64.0000:
STOP.M 287.0000:
STEP.M 0.1250:
NULL. -999.2500:
UWI. F10052:
~C
DEPT.M :
SP.MV :
DEN.GM/CC :
GR.API :
RML.OHMM :
RI. :
RXO.OHMM :
CALI.CM :
~A
# ...
  109.0000   -21.7960     2.1290    68.4440     7.5250     6.0440     6.9790    24.2650 
  109.1250   -21.7930     2.1640    70.9140     7.0050     5.7830     6.6780    24.2150 
  109.2500   -21.7930     2.2020    80.5170     6.6290     5.5530     6.0850    24.1410 
  109.3750   -21.7750     2.2290    88.7380     6.5450     5.4640     5.5640    24.0440 
  109.5000   -21.7290     2.2370    87.6450     6.7770     5.5400     5.6830    23.9340 
  109.6250   -21.6700     2.2300    78.7470     7.1530     5.7140     6.4940    23.8270 
  109.7500   -21.6100     2.2250    72.7090     7.3420     5.8240     6.9460    23.7390 
  109.8750   -21.5830     2.2330    75.4880     7.1540     5.7490     6.7740    23.6780 
  110.0000   -21.5770     2.2530    88.0800     6.6140     5.4540     5.9960    23.6420 
  110.1250   -21.5580     2.2830   106.5080     5.9330     5.0000     4.9780    23.6250 
  110.2500   -21.5410     2.3120   120.2100     5.3460     4.5430     4.4670    23.6280 
  110.3750   -21.5330     2.3300   121.6970     4.9130     4.1550     4.2910    23.6600 
  110.5000   -21.5530     2.3320   112.1740     4.5790     3.8500     4.2240    23.7190 
  110.6250   -21.6440     2.3180   102.2940     4.2440     3.5990     4.1640    23.8010 
  110.7500   -21.7920     2.2950   100.9080     3.8880     3.3680     4.1210    23.8840 
  110.8750   -21.9630     2.2700   105.9980     3.6090     3.1860     4.1490    23.9380 
  111.0000   -22.1280     2.2530   111.6840     3.5990     3.1490     4.2430    23.9270 
  111.1250   -22.2670     2.2720   114.6600     4.1580     3.4660     4.4650    23.8120 
  111.2500   -22.4000     2.3380   114.5270     5.3410     4.2640     5.2270    23.6080 
  111.3750   -22.5370     2.4410   107.6390     7.2080     5.6960     7.6990    23.3230 
  111.5000   -22.6960     2.5260    92.7610     9.7120     7.8260    13.7180    22.9700 
  111.6250   -22.8580     2.5180    76.8420    12.2800    10.3320    24.2760    22.5980 
  111.7500   -22.9990     2.4350    67.2320    12.9300    11.7900    21.5680    22.3140 
  111.8750   -23.0890     2.3200    63.6370    11.1290    10.9380    11.7930    22.2030 
  112.0000   -23.1550     2.2150    62.4100     9.1980     9.1710     8.3700    22.2740 
  112.1250   -23.2600     2.1510    62.2230     8.0400     7.8010     7.5190    22.4580 
  112.2500   -23.3780     2.1270    64.1040     7.5620     7.0020     7.4120    22.6390 
  112.3750   -23.4950     2.1330    68.4070     7.6140     6.7070     7.4980    22.7730 
  112.5000   -23.5760     2.1520    72.6870     8.0240     6.7870     8.0240    22.8430 
  112.6250   -23.6120     2.1670    71.3020     8.5720     7.0900     8.8080    22.8480 
  112.7500   -23.6220     2.1670    66.8170     8.9850     7.3850     8.6810    22.8250 
  112.8750   -23.6470     2.1520    64.4080     9.1140     7.5450     7.7100    22.7910 
  113.0000   -23.6690     2.1340    65.6230     8.9360     7.5180     7.0980    22.7500 
  113.1250   -23.6630     2.1250    70.0200     8.5230     7.3030     6.8610    22.6990 
  113.2500   -23.6510     2.1300    75.5220     8.0580     6.9990     6.6020    22.6450 
  113.3750   -23.6340     2.1490    78.3960     7.6420     6.6700     6.3940    22.5950 
  113.5000   -23.6200     2.1770    77.6810     7.3180     6.3610     6.3600    22.5650 
  113.6250   -23.6310     2.2010    75.7490     7.1000     6.1080     6.3910    22.5930 
  113.7500   -23.6880     2.2060    74.0370     6.9690     5.9160     6.3280    22.6970 
  113.8750   -23.7810     2.1910    71.8090     6.9210     5.7910     6.3480    22.8710 
  114.0000   -23.9020     2.1650    70.1960     6.9400     5.7270     6.5100    23.0850 
  114.1250   -24.0350     2.1420    70.8030     6.9950     5.7390     6.6080    23.3190 
  114.2500   -24.1650     2.1270    70.9180     7.0480     5.8300     6.6510    23.5730 
  114.3750   -24.2810     2.1220    70.2190     7.1010     6.0170     6.8030    23.8430 
  114.5000   -24.3850     2.1270    71.6350     7.1820     6.2950     7.0920    24.1010 
  114.6250   -24.4550     2.1410    73.0240     7.3510     6.6450     7.5670    24.3070 
  114.7500   -24.4700     2.1560    70.6190     7.6170     7.0070     8.2910    24.4250 
  114.8750   -24.4450     2.1650    66.3250     7.9550     7.3290     9.0090    24.3950 
  115.0000   -24.4220     2.1620    62.8590     8.3130     7.5640     9.1270    24.1790 
  115.1250   -24.4240     2.1480    60.5420     8.6240     7.6750     9.3860    23.7980 
  115.2500   -24.4070     2.1370    59.1260     8.8600     7.6960    10.3690    23.3910 
  115.3750   -24.3580     2.1320    60.1570     8.9920     7.6550    10.5310    23.0300 
  115.5000   -24.2940     2.1290    61.5090     9.0150     7.5790     9.2500    22.7310 
  115.6250   -24.2410     2.1150    58.8880     8.9710     7.4920     8.1250    22.4980 
  115.7500   -24.2180     2.0900    56.4620     8.9520     7.4080     7.7530    22.3310 
  115.8750   -24.2280     2.0600    56.8650     8.9900     7.3300     7.7210    22.2440 
  116.0000   -24.2340     2.0380    59.0350     9.0550     7.2610     7.7770    22.2000 
  116.1250   -24.1980     2.0390    59.5940     9.0700     7.1980     7.8580    22.1040 
  116.2500   -24.1610     2.0640    59.9120     9.0160     7.1380     7.8310    21.9560 
  116.3750   -24.1520     2.0970    61.6200     8.9630     7.1090     7.6500    21.8830 
  116.5000   -24.1740     2.1200    63.5960     9.0400     7.1610     7.4700    22.0260 
  116.6250   -24.2000     2.1280    64.2670     9.3940     7.3820     7.3930    22.4240 
  116.7500   -24.2200     2.1470    64.5770     9.9930     7.7760     7.4200    22.8930 
  116.8750   -24.2120     2.2020    65.1680    10.7350     8.3070     7.5230    23.2860 
  117.0000   -24.1800     2.3030    65.5810    11.4200     8.8620     7.6720    23.5220 
  117.1250   -24.1380     2.4080    64.8900    11.6790     9.2170     7.7310    23.5940 
  117.2500   -24.1040     2.4480    64.5990    11.3700     9.2320     7.6960    23.6030 
  117.3750   -24.0710     2.4100    64.5960    10.5870     8.8890     7.6950    23.6060 
  117.5000   -24.0040     2.3280    63.9820     9.6240     8.3050     7.7560    23.6170 
  117.6250   -23.9280     2.2500    63.9710     8.8580     7.6900     7.7190    23.6380 
  117.7500   -23.8520     2.1970    64.0800     8.4410     7.2150     7.5870    23.6760 
  117.8750   -23.8260     2.1700    63.1230     8.3540     6.9330     7.4470    23.7310 
  118.0000   -23.8280     2.1630    62.8470     8.4810     6.8330     7.3800    23.7950 
  118.1250   -23.8340     2.1680    62.6460     8.6830     6.8730     7.4680    23.8580 
  118.2500   -23.8490     2.1760    62.3600     8.8470     6.9630     7.6680    23.9090 
  118.3750   -23.8510     2.1800    62.5140     8.9280     7.0540     7.8740    23.9420 
  118.5000   -23.8350     2.1780    62.5410     8.8980     7.1030     8.0070    23.9540 
  118.6250   -23.8220     2.1710    60.0350     8.7190     7.0590     8.0400    23.9510 
  118.7500   -23.8350     2.1660    57.2700     8.4310     6.9270     7.9660    23.9450 
  118.8750   -23.8060     2.1630    57.5990     8.0890     6.7400     7.7350    23.9400 
  119.0000   -23.7500     2.1600    60.1190     7.7680     6.5460     7.0610    23.9390 
  119.1250   -23.7030     2.1560    62.8360     7.5650     6.4130     6.3500    23.9360 
  119.2500   -23.6280     2.1510    64.2870     7.5010     6.3700     6.3810    23.9260 
  119.3750   -23.5530     2.1460    62.4690     7.5700     6.4200     7.2230    23.8970 
  119.5000   -23.5060     2.1460    58.2220     7.7340     6.5460     7.8870    23.8380 
  119.6250   -23.4480     2.1500    56.6480     7.9340     6.7200     8.0350    23.7420 
  119.7500   -23.3540     2.1540    58.0290     8.1120     6.8940     8.0930    23.6250 
  119.8750   -23.2550     2.1570    59.6810     8.2410     7.0350     8.1310    23.5030 
  120.0000   -23.1650     2.1580    61.9810     8.2820     7.1040     8.1350    23.3950 
  120.1250   -23.0780     2.1580    65.9650     8.1160     7.0200     8.0450    23.3490 
