~V
VERS. 2.00: Ver 2.00
~W
STRT.M 51.0000:
STOP.M 262.0000:
STEP.M 0.1250:
NULL. -999.2500:
UWI. F10019:
~C
DEPT.M :
DEN.GM/CC :
SP.MV :
GR.API :
CALI.CM :
RXO.OHMM :
RI. :
RML.OHMM :
~A
# ...
  107.2500     2.2230    -8.5600    99.2260    24.4910     8.4120     6.1880     7.5690 
  107.3750     2.2020    -8.4850    93.3860    24.5660     8.9090     6.5500     8.0120 
  107.5000     2.2040    -8.4290    91.2100    24.6100     8.3920     6.7760     8.1840 
  107.6250     2.2270    -8.3880    91.3700    24.5350     7.3580     6.7540     8.0210 
  107.7500     2.2560    -8.3880    93.9270    24.4410     6.7640     6.5040     7.6140 
  107.8750     2.2740    -8.4180    96.6740    24.4080     6.9490     6.1550     7.1720 
  108.0000     2.2690    -8.4670    95.2980    24.4130     7.2400     5.8990     6.9170 
  108.1250     2.2500    -8.5040    93.9210    24.3910     7.3720     5.8380     6.9050 
  108.2500     2.2280    -8.5540    95.2050    24.3140     7.6800     5.9940     7.1410 
  108.3750     2.2100    -8.6070    95.5540    24.2050     8.1350     6.3180     7.5660 
  108.5000     2.1940    -8.6480    89.6610    24.1630     8.5290     6.6760     8.0270 
  108.6250     2.1820    -8.6960    82.7380    24.2360     8.7850     6.9000     8.3180 
  108.7500     2.1820    -8.7430    80.9630    24.3880     8.5900     6.9090     8.3500 
  108.8750     2.2000    -8.8090    85.2290    24.4920     7.9640     6.7200     8.1560 
  109.0000     2.2250    -8.8510    90.9340    24.5030     7.4680     6.4460     7.8810 
  109.1250     2.2460    -8.9310    94.8850    24.4720     7.4170     6.2560     7.7250 
  109.2500     2.2630    -8.9920    95.8560    24.4530     7.7070     6.2550     7.7990 
  109.3750     2.2680    -9.0890    94.5320    24.4500     8.3800     6.4930     8.1420 
  109.5000     2.2440    -9.1350    91.2450    24.4280     9.0910     6.9610     8.7280 
  109.6250     2.2000    -9.1200    85.9430    24.3940     9.3890     7.4730     9.3450 
  109.7500     2.1600    -9.0360    80.1010    24.3270     9.2550     7.8360     9.7720 
  109.8750     2.1450    -8.9180    78.2820    24.2680     8.7630     7.8960     9.8400 
  110.0000     2.1650    -8.7480    85.0870    24.3220     8.1890     7.6060     9.5090 
  110.1250     2.1980    -8.5620    95.2050    24.3890     7.7780     7.1790     9.0100 
  110.2500     2.2290    -8.3570   103.0930    24.4180     7.6130     6.7740     8.5040 
  110.3750     2.2470    -8.1250   105.9720    24.4210     7.5360     6.4900     8.1010 
  110.5000     2.2540    -7.9350   103.6040    24.4210     7.4960     6.3540     7.8690 
  110.6250     2.2530    -7.7560    99.9570    24.4240     7.6130     6.2820     7.7460 
  110.7500     2.2420    -7.6150    97.8440    24.4380     7.7700     6.2140     7.6710 
  110.8750     2.2230    -7.4670    98.3920    24.4680     7.6010     6.1250     7.5930 
  111.0000     2.2150    -7.4120    99.1550    24.4710     7.2370     6.0300     7.4970 
  111.1250     2.2340    -7.3600   100.2450    24.4500     7.4550     5.9670     7.4110 
  111.2500     2.2750    -7.3450   101.9320    24.4170     8.4040     5.9570     7.3740 
  111.3750     2.3150    -7.3200   103.6640    24.3810     8.9030     5.9970     7.3890 
  111.5000     2.3250    -7.3450   104.2080    24.3520     8.3930     6.0620     7.4190 
  111.6250     2.3060    -7.4300   102.3680    24.3450     7.8140     6.1200     7.4400 
  111.7500     2.2720    -7.5570   100.0070    24.3850     7.7110     6.1570     7.4540 
  111.8750     2.2330    -7.6800    99.8230    24.4500     7.6180     6.1740     7.4470 
  112.0000     2.1970    -7.7960   102.2480    24.4710     7.6760     6.1970     7.4010 
  112.1250     2.1750    -7.8840   103.4410    24.4530     8.0600     6.2400     7.3470 
  112.2500     2.1820    -7.9640   101.6330    24.4200     8.5980     6.2900     7.3300 
  112.3750     2.2130    -8.0400   100.3300    24.3850     9.0790     6.3190     7.3890 
  112.5000     2.2440    -8.0770   102.1010    24.3360     8.8520     6.3140     7.5680 
  112.6250     2.2560    -8.0950   103.5660    24.3200     8.3300     6.3120     7.8320 
  112.7500     2.2480    -8.0810   103.0050    24.3330     7.9290     6.3620     8.1480 
  112.8750     2.2280    -8.0830   102.1260    24.3670     7.9420     6.4890     8.4850 
  113.0000     2.2020    -8.0020    99.7570    24.4380     8.2210     6.6590     8.7600 
  113.1250     2.1800    -7.9300    95.2080    24.4760     8.5100     6.7600     8.8420 
  113.2500     2.1670    -7.8450    91.7390    24.4860     8.4660     6.7020     8.6300 
  113.3750     2.1610    -7.8020    94.0080    24.4760     7.8170     6.4540     8.1590 
  113.5000     2.1730    -7.7500   101.0820    24.4510     6.8580     6.0740     7.6030 
  113.6250     2.2010    -7.7050   107.7150    24.4320     6.2590     5.6990     7.1670 
  113.7500     2.2340    -7.6720   110.9850    24.4230     6.2320     5.4080     6.9250 
  113.8750     2.2600    -7.6740   111.4740    24.4210     6.4920     5.2310     6.8610 
  114.0000     2.2740    -7.7430   110.3670    24.4200     6.6430     5.1770     6.9330 
  114.1250     2.2840    -7.8360   111.0450    24.4130     6.7110     5.1970     7.0690 
  114.2500     2.2930    -7.9380   112.8470    24.4050     6.8540     5.2640     7.2360 
  114.3750     2.2960    -8.0340   114.1640    24.4170     7.1220     5.3700     7.3980 
  114.5000     2.2790    -8.1650   113.4520    24.4600     7.5710     5.5330     7.5460 
  114.6250     2.2420    -8.2900   111.0700    24.4950     8.3190     5.7590     7.7460 
  114.7500     2.1990    -8.4060   108.2980    24.5640     9.3330     6.0840     8.1190 
  114.8750     2.1670    -8.4910   105.1570    24.7170    10.5090     6.5850     8.8100 
  115.0000     2.1570    -8.5950   100.4850    24.8770    12.0680     7.4730    10.0390 
  115.1250     2.1600    -8.6870    94.6700    25.0060    16.3260     8.8470    11.8080 
  115.2500     2.1790    -8.7640    88.8180    25.1060    32.2980    10.7100    14.0230 
  115.3750     2.2260    -8.7900    86.1170    25.0230    58.7360    12.7770    16.2650 
  115.5000     2.3110    -8.8090    88.2410    24.7230    63.9030    14.1460    17.3820 
  115.6250     2.3960    -8.8210    90.9130    24.3250    44.3060    14.1480    16.7610 
  115.7500     2.4290    -8.8470    91.9990    24.1120    23.0480    12.9010    14.8360 
  115.8750     2.3790    -8.8390    91.5020    24.0760    12.6750    11.1520    12.6590 
  116.0000     2.2700    -8.8040    88.1260    24.1910    10.7320     9.6850    11.1260 
  116.1250     2.1750    -8.7540    82.1170    24.2330    10.8040     8.7480    10.3290 
  116.2500     2.1230    -8.7080    78.0850    24.2200    11.2450     8.3280    10.0940 
  116.3750     2.1010    -8.6680    78.6190    24.1970    11.4320     8.2840    10.1410 
  116.5000     2.0760    -8.6350    77.9710    24.2390    11.4260     8.3830    10.1510 
  116.6250     2.0430    -8.5920    74.7570    24.4140    11.3590     8.3680     9.9630 
  116.7500     2.0230    -8.5450    74.0740    24.6630    10.8690     8.1770     9.6220 
  116.8750     2.0350    -8.5220    78.1620    24.8150     9.7390     7.8770     9.2550 
  117.0000     2.0710    -8.4820    82.8920    24.6520     8.6530     7.5880     8.9760 
  117.1250     2.1100    -8.4490    85.3020    24.4540     8.3350     7.3770     8.7690 
  117.2500     2.1480    -8.4290    87.9980    24.5180     8.8470     7.2390     8.5920 
  117.3750     2.1810    -8.4300    90.9940    24.7730     9.3290     7.1240     8.4090 
  117.5000     2.1930    -8.3910    92.6040    24.8390     9.0290     6.9660     8.1790 
  117.6250     2.1890    -8.3720    93.5660    24.6830     8.2150     6.7460     7.9030 
  117.7500     2.1840    -8.3450    94.7050    24.5000     7.7080     6.4920     7.6230 
  117.8750     2.1890    -8.3630    96.2820    24.4290     7.6340     6.2590     7.4020 
  118.0000     2.1960    -8.3920    98.1830    24.4460     7.6260     6.1190     7.3030 
  118.1250     2.1950    -8.4490   100.9620    24.4750     7.5070     6.0740     7.3060 
  118.2500     2.1940    -8.5230   103.8620    24.4880     7.4900     6.0910     7.3710 
  118.3750     2.2050    -8.6380   104.5820    24.4900     7.6060     6.1190     7.4360 
