~V
VERS. 2.00: Ver 2.00
~W
STRT.M 50.0000:
STOP.M 278.0000:
STEP.M 0.1250:
NULL. -999.2500:
UWI. F10031:
~C
DEPT.M :
GR.API :
RML.OHMM :
RI. :
RXO.OHMM :
CALI.CM :
DEN.GM/CC :
SP.MV :
~A
# ...
   95.0000    77.1700     5.7220     5.2900     5.6670    23.6390     2.2840   -14.8090 
   95.1250    80.8470     5.6840     5.2110     5.7930    23.6660     2.2940   -14.2670 
   95.2500    84.0910     5.7810     5.2600     5.9760    23.6110     2.3080   -13.8510 
   95.3750    85.0150     5.9690     5.4050     6.0470    23.5180     2.3210   -13.5670 
   95.5000    83.3740     6.1950     5.6020     6.0400    23.3910     2.3290   -13.3990 
   95.6250    81.3280     6.3880     5.7880     6.0760    23.2320     2.3280   -13.3310 
   95.7500    79.6270     6.4900     5.9050     6.0900    23.0810     2.3170   -13.3230 
   95.8750    77.9890     6.4720     5.9180     6.1610    22.9740     2.3030   -13.3190 
   96.0000    77.1380     6.3380     5.8210     6.0450    22.9040     2.2910   -13.2970 
   96.1250    78.8280     6.1300     5.6310     5.8100    22.9120     2.2880   -13.2630 
   96.2500    81.0820     5.9260     5.4150     5.5960    23.0470     2.2940   -13.2570 
   96.3750    82.4580     5.7590     5.2080     5.4600    23.2820     2.3060   -13.3510 
   96.5000    83.7680     5.6190     5.0230     5.5700    23.5140     2.3160   -13.5840 
   96.6250    85.1620     5.4550     4.8500     5.7940    23.6180     2.3190   -13.9530 
   96.7500    85.7270     5.2590     4.6840     6.0790    23.6030     2.3150   -14.3780 
   96.8750    86.6340     5.1200     4.5680     6.2850    23.5480     2.3070   -14.8850 
   97.0000    87.8490     5.2400     4.6200     6.3760    23.5080     2.3040   -15.5210 
   97.1250    86.9530     5.9930     5.0900     6.9320    23.4850     2.3190   -16.3460 
   97.2500    82.3230     7.4340     6.0600     8.8090    23.4670     2.3570   -17.3130 
   97.3750    75.3110     9.4170     7.4920    12.3030    23.4680     2.4150   -18.3630 
   97.5000    68.5520    11.5040     9.1400    16.7660    23.4850     2.4770   -19.4640 
   97.6250    66.1670    12.8890    10.4510    20.2610    23.4930     2.5050   -20.5840 
   97.7500    68.7850    13.1170    10.9670    20.0260    23.4750     2.4810   -21.7150 
   97.8750    72.8710    12.1920    10.5590    15.1070    23.4470     2.4120   -22.8050 
   98.0000    73.6150    10.6280     9.5290    10.9230    23.4200     2.3260   -23.8020 
   98.1250    69.2790     9.2100     8.4400     9.4220    23.3770     2.2560   -24.6160 
   98.2500    64.0610     8.3530     7.6680     8.8720    23.2970     2.2140   -25.2420 
   98.3750    61.5260     8.0540     7.2680     8.6930    23.1840     2.1980   -25.6660 
   98.5000    61.9170     8.1230     7.1590     8.6910    23.0680     2.2000   -25.8940 
   98.6250    62.4010     8.3370     7.2210     8.7760    22.9980     2.2070   -25.9380 
   98.7500    61.3830     8.5090     7.3090     8.9020    22.9690     2.2110   -25.8720 
   98.8750    60.2230     8.5810     7.3600     9.0200    22.9320     2.2070   -25.7050 
   99.0000    61.6130     8.5440     7.3470     9.1310    22.8420     2.1980   -25.4430 
   99.1250    64.8800     8.4130     7.2630     9.1130    22.6940     2.1890   -25.1090 
   99.2500    66.2050     8.2460     7.1420     9.0020    22.5510     2.1870   -24.7230 
   99.3750    65.4230     8.0930     7.0150     8.6630    22.4750     2.1950   -24.3350 
   99.5000    64.8830     7.9950     6.9150     7.7900    22.4550     2.2100   -23.9880 
   99.6250    65.5810     7.9960     6.8820     7.3010    22.4550     2.2250   -23.7150 
   99.7500    66.1880     8.0820     6.9140     7.2330    22.4550     2.2340   -23.4630 
   99.8750    66.5300     8.2220     6.9990     7.4490    22.4540     2.2360   -23.1930 
  100.0000    66.3930     8.3660     7.1030     7.7400    22.4530     2.2350   -22.8910 
  100.1250    65.9280     8.4500     7.1810     8.0180    22.4490     2.2350   -22.5320 
  100.2500    67.1150     8.4520     7.2020     8.1750    22.4410     2.2380   -22.1150 
  100.3750    69.9860     8.3730     7.1570     8.1380    22.4290     2.2460   -21.6100 
  100.5000    72.8720     8.2390     7.0530     7.9030    22.4210     2.2580   -20.9800 
  100.6250    74.8980     8.0730     6.9050     7.5410    22.4200     2.2720   -20.2040 
  100.7500    77.4890     7.8890     6.7320     7.2860    22.4130     2.2820   -19.3610 
  100.8750    79.1120     7.6680     6.5340     7.1310    22.4150     2.2850   -18.5100 
  101.0000    78.9760     7.3840     6.2990     6.9920    22.4370     2.2790   -17.7030 
  101.1250    80.3040     7.0200     6.0220     6.7880    22.4810     2.2710   -16.9770 
  101.2500    83.6120     6.6270     5.7320     6.4120    22.5130     2.2650   -16.3290 
  101.3750    87.3540     6.2720     5.4680     5.8620    22.5240     2.2670   -15.7920 
  101.5000    90.4000     6.0290     5.2780     5.2600    22.5200     2.2740   -15.3870 
  101.6250    93.2760     5.9760     5.2170     5.0670    22.5090     2.2830   -15.1130 
  101.7500    95.0140     6.0760     5.2680     5.1200    22.5040     2.2880   -14.9300 
  101.8750    95.7130     6.2720     5.4000     5.3220    22.5020     2.2850   -14.8290 
  102.0000    96.7090     6.4730     5.5580     5.5360    22.5000     2.2760   -14.7760 
  102.1250    97.6240     6.5690     5.6670     5.6160    22.5020     2.2650   -14.7220 
  102.2500    97.6600     6.5210     5.6810     5.6170    22.5140     2.2620   -14.6530 
  102.3750    97.3390     6.3410     5.5930     5.5390    22.5450     2.2700   -14.5740 
  102.5000    96.6650     6.0840     5.4290     5.3750    22.5920     2.2870   -14.5240 
  102.6250    94.0560     5.8400     5.2440     5.1380    22.6180     2.3080   -14.5440 
  102.7500    91.3110     5.6800     5.0980     4.9890    22.6300     2.3230   -14.6150 
  102.8750    90.9430     5.6390     5.0270     4.9560    22.6410     2.3290   -14.7180 
  103.0000    93.2370     5.7180     5.0390     5.0390    22.6580     2.3260   -14.8650 
  103.1250    95.9430     5.8900     5.1240     5.2470    22.6760     2.3170   -15.1000 
  103.2500    96.8660     6.0680     5.2250     5.4800    22.6950     2.3060   -15.4330 
  103.3750    96.9260     6.1830     5.2930     5.6360    22.7280     2.2950   -15.8310 
  103.5000    97.4120     6.1820     5.2910     5.6470    22.7820     2.2870   -16.2330 
  103.6250    97.6060     6.0480     5.1990     5.5460    22.8460     2.2850   -16.6040 
  103.7500    97.2430     5.8850     5.0800     5.4540    22.9110     2.2920   -16.9920 
  103.8750    96.7240     5.8230     5.0140     5.3480    22.9720     2.3050   -17.4640 
  104.0000    95.8930     5.9830     5.0850     5.3020    23.0000     2.3190   -18.0160 
  104.1250    93.1660     6.4630     5.3770     5.5220    22.9880     2.3210   -18.6640 
  104.2500    89.0010     7.1460     5.8360     6.0450    22.9460     2.3050   -19.3480 
  104.3750    84.2610     7.8690     6.3740     6.9500    22.8750     2.2710   -20.0140 
  104.5000    79.4530     8.4440     6.8640     7.9660    22.7930     2.2280   -20.6360 
  104.6250    76.0120     8.6750     7.1530     8.4620    22.8010     2.1900   -21.1930 
  104.7500    75.4900     8.6090     7.2240     8.4120    22.8780     2.1690   -21.6770 
  104.8750    75.9070     8.3610     7.1300     8.0440    22.9110     2.1660   -22.0640 
  105.0000    75.1090     8.0790     6.9630     7.7350    22.8510     2.1790   -22.3720 
  105.1250    73.5500     7.8940     6.8200     7.7010    22.7500     2.1990   -22.5960 
  105.2500    72.4340     7.8140     6.7350     7.8510    22.6840     2.2140   -22.7490 
  105.3750    71.7150     7.8010     6.6960     8.0110    22.6690     2.2210   -22.8580 
  105.5000    71.6240     7.8040     6.6770     8.0790    22.6820     2.2180   -22.9430 
  105.6250    72.1170     7.7920     6.6570     8.2960    22.7590     2.2110   -23.0170 
  105.7500    72.3170     7.7720     6.6370     8.4590    22.8760     2.2080   -23.0610 
  105.8750    71.8750     7.7720     6.6320     8.5390    22.9590     2.2120   -23.0450 
  106.0000    71.2740     7.8220     6.6600     8.5920    22.9510     2.2230   -22.9120 
  106.1250    70.5470     7.9290     6.7310     8.5820    22.8710     2.2330   -22.5990 
