~V
VERS. 2.00: Ver 2.00
~W
STRT.M 64.0000:
STOP.M 308.0000:
STEP.M 0.1250:
NULL. -999.2500:
UWI. F10040:
~C
DEPT.M :
GR.API :
RML.OHMM :
RI. :
RXO.OHMM :
CALI.CM :
DEN.GM/CC :
SP.MV :
~A
# ...
   97.7500    87.0440     6.6090     5.5000     6.2530    24.7940     2.3430    -0.5000 
   97.8750    87.0100     6.6820     5.5420     6.4470    24.7950     2.3390    -0.8380 
   98.0000    90.5680     6.7110     5.5350     6.1210    24.8150     2.3330    -1.1600 
   98.1250    95.3730     6.6680     5.4740     5.6430    24.8390     2.3310    -1.5010 
   98.2500    98.6840     6.5910     5.4050     5.4580    24.7930     2.3300    -1.8890 
   98.3750    98.9130     6.5350     5.3730     5.5690    24.7320     2.3240    -2.3410 
   98.5000    94.5240     6.5540     5.4070     6.1140    24.6830     2.3050    -2.8500 
   98.6250    85.7930     6.6810     5.5140     7.3660    24.6700     2.2730    -3.3800 
   98.7500    82.3080     6.8550     5.6410     8.0120    24.7380     2.2440    -3.8790 
   98.8750    87.5140     7.0020     5.7340     7.7790    24.8070     2.2290    -4.3690 
   99.0000    94.3060     7.0620     5.7610     6.9530    24.7980     2.2370    -4.8890 
   99.1250    93.8730     7.0280     5.7240     6.4160    24.6770     2.2640    -5.4630 
   99.2500    89.6380     6.9940     5.6880     6.4770    24.5400     2.2920    -6.0910 
   99.3750    84.9350     7.0450     5.7020     6.8670    24.3640     2.3120    -6.7570 
   99.5000    78.7040     7.2320     5.7950     7.4340    24.1910     2.3190    -7.4100 
   99.6250    71.6190     7.5630     5.9770     7.9870    24.0390     2.3160    -8.0460 
   99.7500    67.2050     7.9330     6.1990     8.5880    23.9490     2.3060    -8.7100 
   99.8750    65.6620     8.2480     6.4120     8.6620    23.9750     2.2890    -9.3920 
  100.0000    65.5310     8.4350     6.5710     8.5450    24.1580     2.2620   -10.0400 
  100.1250    66.1270     8.4410     6.6260     8.4280    24.4940     2.2270   -10.5910 
  100.2500    66.8030     8.3200     6.5910     8.1960    24.6750     2.1940   -11.0050 
  100.3750    66.2430     8.1230     6.4920     8.0010    24.7770     2.1690   -11.2760 
  100.5000    63.7040     7.9090     6.3660     7.7920    24.8720     2.1580   -11.4680 
  100.6250    60.3460     7.7490     6.2510     8.2650    24.9590     2.1610   -11.6360 
  100.7500    59.3450     7.6800     6.1710     8.8360    25.0090     2.1750   -11.8040 
  100.8750    61.2090     7.7120     6.1350     8.9720    25.1010     2.1970   -11.9670 
  101.0000    65.4330     7.8260     6.1490     9.0040    25.3040     2.2240   -12.1340 
  101.1250    69.6440     7.9720     6.2180     9.2860    25.5320     2.2480   -12.2910 
  101.2500    69.4180     8.0870     6.3150     9.2900    25.6040     2.2600   -12.4360 
  101.3750    64.8300     8.1410     6.4180     9.3500    25.4570     2.2560   -12.5630 
  101.5000    61.5590     8.1380     6.5060     9.5450    25.2940     2.2400   -12.6530 
  101.6250    67.1110     8.1020     6.5640     9.4160    25.1590     2.2230   -12.7090 
  101.7500    74.2200     8.0660     6.5950     9.0530    24.9790     2.2200   -12.7320 
  101.8750    75.3290     8.0330     6.5990     8.7870    24.8090     2.2340   -12.7230 
  102.0000    71.2130     7.9920     6.5750     8.7120    24.7130     2.2580   -12.6950 
  102.1250    67.0960     7.9170     6.5140     8.4510    24.6300     2.2770   -12.6460 
  102.2500    64.4050     7.8120     6.4220     8.0810    24.4790     2.2800   -12.5610 
  102.3750    62.4350     7.6970     6.3160     7.8950    24.3130     2.2710   -12.3980 
  102.5000    61.8890     7.5960     6.2190     7.7680    24.2970     2.2580   -12.1400 
  102.6250    61.2950     7.5290     6.1550     7.7080    24.2640     2.2520   -11.7570 
  102.7500    59.1130     7.4890     6.1190     7.6180    24.0640     2.2540   -11.2790 
  102.8750    58.1070     7.4730     6.1080     7.6970    23.8880     2.2600   -10.7100 
  103.0000    60.0360     7.4810     6.1250     7.7410    23.8810     2.2610   -10.0280 
  103.1250    61.6640     7.5250     6.1990     7.7590    23.9940     2.2490    -9.1980 
  103.2500    62.5460     7.6000     6.3380     7.9180    24.0850     2.2220    -8.2520 
  103.3750    64.4030     7.6810     6.5300     8.3450    24.0260     2.1880    -7.2190 
  103.5000    66.3410     7.7120     6.7150     8.8860    23.9600     2.1600    -6.0970 
  103.6250    68.3610     7.5800     6.7650     9.2240    24.0060     2.1600    -4.8870 
  103.7500    74.9670     7.2460     6.6080     9.0120    23.9080     2.1910    -3.6070 
  103.8750    87.6640     6.7200     6.2250     7.5920    23.7030     2.2450    -2.2860 
  104.0000   100.6640     6.0850     5.6750     5.2630    23.6230     2.3030    -0.9890 
  104.1250   108.3330     5.4800     5.0640     4.3820    23.6970     2.3460     0.1660 
  104.2500   113.0140     5.0010     4.5060     4.1010    23.7730     2.3730     1.1470 
  104.3750   114.9640     4.6700     4.0540     4.0100    23.9660     2.3860     1.9180 
  104.5000   112.9390     4.4610     3.7210     4.0120    24.4070     2.3900     2.4600 
  104.6250   109.4840     4.3420     3.5180     3.9420    24.8220     2.3850     2.7630 
  104.7500   107.8000     4.2960     3.4270     3.8570    24.9890     2.3730     2.8720 
  104.8750   104.5930     4.3910     3.4790     4.1250    25.0130     2.3620     2.7830 
  105.0000    97.8290     4.7520     3.7460     5.0330    24.9890     2.3660     2.5270 
  105.1250    91.8410     5.5910     4.3810     6.8560    24.9650     2.4040     2.1090 
  105.2500    87.6580     6.8650     5.3880     8.8920    24.9230     2.4680     1.5750 
  105.3750    81.2080     8.3930     6.6860    12.5120    24.8840     2.5330     0.9580 
  105.5000    72.9730     9.7730     8.0000    18.6120    24.8360     2.5690     0.2810 
  105.6250    69.8870    10.3460     8.7770    16.0360    24.7550     2.5470    -0.4700 
  105.7500    71.7530     9.9870     8.7810    10.8670    24.5950     2.4840    -1.2660 
  105.8750    74.2020     8.9590     8.1230     8.0190    24.4400     2.4070    -2.0630 
  106.0000    74.0890     7.7550     7.1700     7.1660    24.4050     2.3410    -2.8440 
  106.1250    72.0530     6.8650     6.3340     7.1160    24.4520     2.3040    -3.5840 
  106.2500    70.8590     6.4060     5.7910     7.3560    24.4840     2.2900    -4.2720 
  106.3750    70.3600     6.3180     5.5440     7.4850    24.5310     2.2880    -4.8920 
  106.5000    70.0750     6.4570     5.5130     7.3410    24.5940     2.2890    -5.4500 
  106.6250    71.8720     6.6430     5.5940     7.1070    24.6420     2.2860    -5.9250 
  106.7500    74.9950     6.7450     5.6790     7.2360    24.6590     2.2780    -6.3320 
  106.8750    76.3030     6.7330     5.7220     7.4640    24.6220     2.2660    -6.6940 
  107.0000    74.7970     6.6410     5.7190     7.5130    24.5680     2.2530    -6.9820 
  107.1250    73.2660     6.5510     5.6940     7.4970    24.5460     2.2450    -7.1370 
  107.2500    72.8220     6.5420     5.7070     7.5770    24.5580     2.2470    -7.1780 
  107.3750    72.0350     6.6570     5.8040     7.6660    24.6040     2.2630    -7.1550 
  107.5000    71.1320     6.9010     6.0050     8.0780    24.6750     2.2960    -7.1110 
  107.6250    69.8160     7.2380     6.2840     9.0030    24.7320     2.3370    -7.0860 
  107.7500    66.2960     7.5420     6.5320     9.4500    24.7190     2.3660    -7.0950 
  107.8750    62.8220     7.6880     6.6480     8.3280    24.5580     2.3700    -7.1270 
  108.0000    62.9310     7.6010     6.5710     7.5210    24.3870     2.3480    -7.1840 
  108.1250    67.6740     7.2880     6.3050     7.2790    24.3190     2.3100    -7.2430 
  108.2500    71.3680     6.9240     5.9840     7.2740    24.3390     2.2770    -7.2940 
  108.3750    70.2800     6.6360     5.7090     7.2110    24.3430     2.2580    -7.3210 
  108.5000    66.7290     6.4960     5.5380     7.1680    24.3060     2.2530    -7.3120 
  108.6250    67.4290     6.5090     5.4910     7.2630    24.2000     2.2590    -7.2690 
  108.7500    71.2970     6.5900     5.5060     7.0900    24.1020     2.2680    -7.1960 
  108.8750    73.3780     6.6870     5.5410     6.9120    24.0010     2.2730    -7.0950 
