~V
VERS. 2.00: Ver 2.00
~W
STRT.M 64.0000:
STOP.M 308.0000:
STEP.M 0.1250:
NULL. -999.2500:
UWI. F10040:
~C
DEPT.M :
GR.API :
RML.OHMM :
RI. :
RXO.OHMM :
CALI.CM :
DEN.GM/CC :
SP.MV :
~A
# ...
  300.2500    47.6390     3.7580     3.5350     3.4110    24.6220     2.3780    -1.5300 
  300.3750    47.6390     3.7200     3.5380     3.3250    24.5510     2.3640    -1.5380 
  300.5000    47.6390     3.7290     3.5560     3.5020    24.4530     2.3520    -1.5490 
  300.6250    47.6390     3.7770     3.5830     3.7810    24.4150     2.3430    -1.5530 
  300.7500    47.6390     3.8280     3.6080     3.6720    24.4180     2.3460    -1.5950 
  300.8750    47.6390     3.8630     3.6240     3.4620    24.4010     2.3620    -1.6720 
  301.0000    47.6390     3.8770     3.6290     3.5580    24.3560     2.3840    -1.7590 
  301.1250    47.6390     3.8750     3.6240     4.0290    24.3430     2.4040    -1.8370 
  301.2500    47.6390     3.8720     3.6150     4.4880    24.3790     2.4120    -1.9150 
  301.3750    47.6390     3.8820     3.6110     4.7170    24.4450     2.4040    -1.9710 
  301.5000    47.6390     3.9060     3.6170     5.0170    24.4880     2.3820    -2.0490 
  301.6250    47.6390     3.9300     3.6330     4.5700    24.4970     2.3560    -2.1330 
  301.7500    47.6390     3.9410     3.6500     3.9880    24.4960     2.3360    -2.1990 
  301.8750    47.6390     3.9400     3.6600     3.6380    24.4950     2.3320    -2.2090 
  302.0000    47.6390     3.9380     3.6600     3.9580    24.4950     2.3400    -2.2140 
  302.1250    47.6390     3.9520     3.6520     5.0280    24.4920     2.3570    -2.2370 
  302.2500    47.6390     3.9780     3.6440     5.7410    24.4880     2.3750    -2.2830 
  302.3750    47.6390     4.0060     3.6390     5.2780    24.4870     2.3920    -2.3560 
  302.5000    47.6390     4.0210     3.6380     4.9680    24.4870     2.4060    -2.4140 
  302.6250    47.6390     4.0120     3.6390     4.8120    24.4860     2.4140    -2.4570 
  302.7500    47.6390     3.9880     3.6410     4.6990    24.4790     2.4150    -2.4900 
  302.8750    47.6390     3.9650     3.6430     4.4830    24.4640     2.4080    -2.5330 
  303.0000    47.6390     3.9530     3.6480     4.3540    24.4510     2.3970    -2.5800 
  303.1250    47.6390     3.9530     3.6600     4.2780    24.4480     2.3870    -2.6280 
  303.2500    47.6390     3.9500     3.6760     4.1650    24.4460     2.3860    -2.6430 
  303.3750    47.6390     3.9370     3.6870     4.0510    24.4370     2.3930    -2.6490 
  303.5000    47.6390     3.9250     3.6880     3.6970    24.4050     2.4020    -2.6400 
  303.6250    47.6390     3.9260     3.6760     3.5150    24.3320     2.4020    -2.6310 
  303.7500    47.6390     3.9370     3.6640     3.6180    24.2720     2.3770    -2.6350 
  303.8750    47.6390     3.9480     3.6580     3.7920    24.2480     2.3290    -2.6370 
  304.0000    47.6390     3.9540     3.6570     3.7880    24.2430     2.2650    -2.6630 
  304.1250    47.6390     3.9550     3.6580     3.5850    23.6690     2.1990    -2.6980 
  304.2500    47.6390     3.9550     3.6580     3.4120    21.5290     2.1460    -2.7240 
  304.3750    47.6390     3.9550     3.6580     3.3340    17.8250     2.1100    -2.7590 
  304.5000    47.6390     3.9550     3.6580     3.3160    15.3080     2.0890    -2.8120 
  304.6250    47.6390     3.9550     3.6580     3.3160    14.5910     2.0780    -2.8660 
  304.7500    47.6390     3.9550     3.6580     3.3160    14.5810     2.0750    -2.9370 
  304.8750    47.6390     3.9550     3.6580     3.3140    14.5810     2.0750    -3.0150 
  305.0000    47.6390     3.9550     3.6580     3.3130    14.5770     2.0740    -3.0640 
  305.1250    47.6390     3.9550     3.6580     3.3130    14.5730     2.0740    -3.0980 
  305.2500    47.6390     3.9550     3.6580     3.3130    14.5720     2.0720    -3.1590 
  305.3750    47.6390     3.9550     3.6580     3.3130    14.5730     2.0700    -3.2040 
  305.5000    47.6390     3.9550     3.6580     3.3140    14.5710     2.0700    -3.2410 
  305.6250    47.6390     3.9550     3.6580     3.3130    14.5650     2.0690    -3.2990 
  305.7500    47.6390     3.9550     3.6580     3.3120    14.5590     2.0690    -3.3250 
  305.8750    47.6390     3.9550     3.6580     3.3120    14.5550     2.0750    -3.3330 
  306.0000    47.6390     3.9550     3.6580     3.3140    14.5510     2.0800    -3.3400 
  306.1250    47.6390     3.9550     3.6580     3.3140    14.5490  -999.2500    -3.3510 
  306.2500    47.6390     3.9550     3.6580     3.3130    14.5480  -999.2500    -3.3660 
  306.3750    47.6390     3.9550     3.6580     3.3130    14.5480  -999.2500    -3.3810 
  306.5000    47.6390     3.9550     3.6580     3.3120    14.5490  -999.2500    -3.3780 
  306.6250    47.6390     3.9550     3.6580     3.3130    14.5500  -999.2500    -3.3900 
  306.7500    47.6390     3.9550     3.6580     3.3140    14.5490  -999.2500    -3.3980 
  306.8750    47.6390     3.9550     3.6580     3.3140    14.5440  -999.2500    -3.4420 
  307.0000    47.6390     3.9550     3.6580     3.3130    14.5400  -999.2500    -3.5190 
  307.1250    47.6390     3.9550     3.6580     3.3140    14.5380  -999.2500    -3.8210 
  307.2500    47.6390     3.9550     3.6580     3.3140    14.5330  -999.2500    -4.8100 
  307.3750    47.6390     3.9550     3.6580     3.3130    14.5260  -999.2500    -6.0360 
  307.5000    47.6390     3.9550     3.6580     3.3140    14.5220  -999.2500    -7.2630 
  307.6250    47.6390     3.9550     3.6580     3.3130    14.5210  -999.2500    -8.4900 
  307.7500    47.6390     3.9550     3.6580     3.3130    14.5200  -999.2500    -9.7080 
  307.8750    47.6390     3.9550     3.6580     3.3150    14.5160  -999.2500   -10.8830 
  308.0000    47.6390     3.9550     3.6580     3.3130    14.5140  -999.2500   -12.0640 
