~V
VERS. 2.00: Ver 2.00
~W
STRT.M 50.0000:
STOP.M 286.0000:
STEP.M 0.1250:
NULL. -999.2500:
UWI. F10036:
~C
DEPT.M :
GR.API :
RML.OHMM :
RI. :
RXO.OHMM :
CALI.CM :
DEN.GM/CC :
SP.MV :
~A
# ...
  140.0000    62.9130     9.8520     8.8460     9.3670    23.7660     2.2530   -20.7920 
  140.1250    66.2970     9.9980     8.8300     9.1110    23.8830     2.2520   -20.7340 
  140.2500    65.7350    10.4430     9.0590    10.4920    24.0300     2.2370   -20.6790 
  140.3750    62.0060    11.0920     9.4580    12.1900    24.0960     2.2160   -20.6590 
  140.5000    57.3700    11.7570     9.9020    12.8750    24.0670     2.1960   -20.6880 
  140.6250    53.4680    12.1820    10.2360    12.5780    24.0360     2.1840   -20.7670 
  140.7500    52.0800    12.3120    10.4040    12.2200    24.0070     2.1790   -20.9140 
  140.8750    53.1970    12.2270    10.4350    11.8800    23.9420     2.1750   -21.1120 
  141.0000    54.5220    12.0850    10.4040    12.3180    23.8200     2.1700   -21.3550 
  141.1250    55.0650    12.0340    10.3760    12.3110    23.6700     2.1640   -21.4910 
  141.2500    54.2940    12.0600    10.3570    11.8970    23.5480     2.1600   -21.4560 
  141.3750    53.5000    12.0870    10.3170    11.2440    23.5050     2.1620   -21.2950 
  141.5000    55.9820    12.0420    10.2270    10.8280    23.5410     2.1710   -21.0590 
  141.6250    60.9130    11.8920    10.0730    10.8270    23.5930     2.1850   -20.7720 
  141.7500    61.9070    11.6950     9.8820    10.7670    23.6560     2.1990   -20.4530 
  141.8750    59.3450    11.5240     9.6910    10.4450    23.7000     2.2080   -20.0950 
  142.0000    59.4420    11.4200     9.5300    10.0910    23.6770     2.2100   -19.7020 
  142.1250    63.1660    11.3690     9.4200     9.9720    23.6110     2.2090   -19.3020 
  142.2500    63.5790    11.3210     9.3530     9.9400    23.5800     2.2060   -18.9600 
  142.3750    60.1310    11.2500     9.3310     9.9470    23.5740     2.2040   -18.7050 
  142.5000    58.4680    11.1620     9.3660    10.0950    23.5620     2.1990   -18.5020 
  142.6250    58.7840    11.1420     9.4930    10.3290    23.5230     2.1900   -18.3510 
  142.7500    58.3800    11.2930     9.7260    10.5310    23.4610     2.1790   -18.2090 
  142.8750    58.9690    11.6420    10.0460    10.7130    23.4170     2.1730   -18.1060 
  143.0000    61.0730    12.0580    10.3590    10.9940    23.4210     2.1850   -17.9570 
  143.1250    62.0850    12.1990    10.4560    11.8870    23.5190     2.2260   -17.7350 
  143.2500    61.8260    11.8280    10.2140    13.7700    23.7040     2.2800   -17.3910 
  143.3750    63.6310    10.9200     9.6280    15.2480    23.9280     2.3290   -16.9170 
  143.5000    68.4460     9.7460     8.8350    11.6630    24.0960     2.3540   -16.3800 
  143.6250    72.3850     8.7620     8.0810     8.6790    24.1600     2.3480   -15.8290 
  143.7500    74.9620     8.1900     7.5390     7.7130    24.1950     2.3260   -15.2810 
  143.8750    76.3620     8.0230     7.2590     7.6450    24.2230     2.3040   -14.7240 
  144.0000    77.0840     8.1300     7.2170     7.5250    24.2400     2.2870   -14.2920 
  144.1250    77.7320     8.3440     7.3510     7.4910    24.2300     2.2770   -14.0120 
  144.2500    77.9290     8.5110     7.5150     7.6360    24.1670     2.2690   -13.8540 
  144.3750    78.4750     8.5660     7.6160     7.7300    24.0600     2.2630   -13.7570 
  144.5000    80.4360     8.4930     7.6020     7.8250    23.9260     2.2600   -13.7300 
  144.6250    84.4690     8.2820     7.4540     7.6300    23.6980     2.2660   -13.7050 
  144.7500    88.5080     7.9950     7.2280     7.5050    23.4410     2.2780   -13.6780 
  144.8750    91.7420     7.6790     6.9770     6.8670    23.1630     2.2930   -13.6460 
  145.0000    93.1340     7.3690     6.7550     6.3600    22.9430     2.3030   -13.5670 
  145.1250    91.0760     7.1000     6.6030     6.2060    22.7940     2.3050   -13.4170 
  145.2500    88.8160     6.8870     6.5040     6.0670    22.7050     2.3020   -13.2510 
  145.3750    89.3440     6.7400     6.4340     5.9550    22.7040     2.2980   -13.1170 
  145.5000    92.4610     6.6560     6.3670     5.8810    22.8100     2.2970   -12.9590 
  145.6250    95.2070     6.6170     6.2780     5.7940    23.0060     2.3010   -12.8030 
  145.7500    95.4360     6.6000     6.1730     5.8050    23.2030     2.3090   -12.6280 
  145.8750    94.0260     6.6200     6.0780     5.9240    23.4290     2.3200   -12.4310 
  146.0000    92.4350     6.6970     6.0150     6.1170    23.6760     2.3340   -12.1580 
  146.1250    92.4700     6.8330     6.0010     5.9610    23.9070     2.3450   -11.8870 
  146.2500    91.4850     6.9790     6.0400     5.8970    24.0170     2.3500   -11.6160 
  146.3750    86.6790     7.1230     6.1610     6.2380    24.0390     2.3470   -11.3710 
  146.5000    81.5780     7.2880     6.3950     6.8460    24.0320     2.3420   -11.1550 
  146.6250    80.6280     7.5190     6.7520     7.0420    24.0190     2.3370   -10.9650 
  146.7500    81.8540     7.7880     7.1310     7.6430    24.0160     2.3330   -10.8310 
  146.8750    82.5520     8.0460     7.4290     9.2440    24.0410     2.3210   -10.7520 
  147.0000    81.5510     8.3000     7.6220    11.7370    24.0980     2.3000   -10.7440 
  147.1250    78.8630     8.7530     7.8830    10.4650    24.1400     2.2830   -10.7130 
  147.2500    74.8860     9.7160     8.4990     9.4620    24.2200     2.2990   -10.6310 
  147.3750    71.2080    11.4980     9.7520    10.0030    24.3710     2.3600   -10.4830 
  147.5000    68.5800    14.2720    11.8850    14.1890    24.5350     2.4520   -10.3030 
  147.6250    65.2450    17.9430    15.0730    29.1270    24.6050     2.5300   -10.0810 
  147.7500    62.4070    21.4800    18.5630    43.0510    24.5980     2.5520    -9.7870 
  147.8750    61.8080    23.7170    21.2300    37.4820    24.5010     2.5080    -9.4060 
  148.0000    62.7440    24.0100    22.1970    23.8040    24.2810     2.4180    -8.9460 
  148.1250    63.7730    22.7620    21.5240    18.9930    23.9710     2.3220    -8.4820 
  148.2500    63.7540    21.3690    20.4420    18.2200    23.7020     2.2490    -8.0730 
  148.3750    63.0950    20.4210    19.5560    18.3640    23.5690     2.2060    -7.7390 
  148.5000    63.2140    19.9710    19.0120    17.4160    23.6390     2.1880    -7.4390 
  148.6250    64.7560    19.7530    18.6700    17.2090    23.7540     2.1890    -7.1790 
  148.7500    65.5280    19.4980    18.3390    18.1540    23.7810     2.2020    -7.0070 
  148.8750    66.1380    19.2410    18.0490    18.8210    23.7430     2.2230    -6.9380 
  149.0000    69.4210    19.1720    17.9520    16.2610    23.7110     2.2450    -6.9570 
  149.1250    74.0300    19.5630    18.2720    15.4190    23.7240     2.2550    -6.9730 
  149.2500    74.5840    20.3840    18.9990    17.2560    23.8300     2.2480    -6.9370 
  149.3750    70.4590    21.4580    20.0260    22.3080    24.0380     2.2250    -6.8570 
  149.5000    65.7270    22.4300    21.0770    29.8510    24.1800     2.1930    -6.7540 
  149.6250    63.0560    22.7380    21.6130    23.3200    24.0940     2.1650    -6.6470 
  149.7500    61.3290    22.2820    21.3860    19.7110    23.9380     2.1490    -6.5140 
  149.8750    60.4960    21.2940    20.5130    18.1840    23.8810     2.1480    -6.3670 
  150.0000    61.7450    20.2250    19.4170    17.1910    23.9980     2.1600    -6.2380 
  150.1250    65.3600    19.6190    18.6340    15.4690    24.1640     2.1760    -6.1440 
  150.2500    66.5960    19.6760    18.3990    14.0410    24.2310     2.1880    -6.0010 
  150.3750    62.1430    20.4300    18.7840    14.6610    24.2160     2.1920    -5.7480 
  150.5000    55.2140    21.7550    19.7600    18.1540    24.1590     2.1890    -5.4030 
  150.6250    53.0590    23.3980    21.2470    20.7620    24.1270     2.1810    -4.9840 
  150.7500    54.5330    24.9500    22.8960    21.6780    24.1600     2.1730    -4.5420 
  150.8750    55.7410    26.1460    24.4080    21.9390    24.2630     2.1650    -4.0610 
  151.0000    56.5430    26.9010    25.5670    22.8940    24.3310     2.1610    -3.5300 
  151.1250    57.5570    27.3370    26.2950    23.9310    24.3330     2.1600    -3.0260 
