~V
VERS. 2.00: Ver 2.00
~W
STRT.M 64.0000:
STOP.M 220.0000:
STEP.M 0.1250:
NULL. -999.2500:
UWI. F10051:
~C
DEPT.M :
SP.MV :
GR.API :
RML.OHMM :
RI. :
RXO.OHMM :
CALI.CM :
DEN.GM/CC :
~A
# ...
  165.2500   -12.9420    61.8470     5.8700     4.9670     5.2360    22.8590     2.4400 
  165.3750   -12.8080    67.8590     5.8470     4.9900     5.3520    22.8560     2.4550 
  165.5000   -12.6950    69.0960     5.9130     5.0700     5.6600    22.9010     2.4540 
  165.6250   -12.6280    67.7110     6.0830     5.2220     6.1040    23.0960     2.4420 
  165.7500   -12.5490    70.0360     6.3010     5.4140     6.5230    23.3500     2.4320 
  165.8750   -12.5060    73.6990     6.4960     5.6010     6.8070    23.4580     2.4320 
  166.0000   -12.4940    73.8490     6.5880     5.7250     6.8840    23.2890     2.4460 
  166.1250   -12.5120    70.3000     6.4940     5.7130     6.7070    23.1580     2.4670 
  166.2500   -12.5640    66.4310     6.2430     5.5720     6.1810    23.0860     2.4770 
  166.3750   -12.6620    61.1600     5.8900     5.3290     5.2300    23.0160     2.4610 
  166.5000   -12.7560    54.7770     5.5150     5.0400     4.0840    22.9920     2.4100 
  166.6250   -12.8660    51.9430     5.2140     4.7760     3.2600    23.2870     2.3310 
  166.7500   -12.9790    53.1800     5.0280     4.5840     2.9240    23.8850     2.2600 
  166.8750   -13.0690    56.3090     4.9510     4.4940     2.9320    24.4350     2.2220 
  167.0000   -13.1290    60.4030     5.0010     4.5230     3.1940    24.2740     2.2320 
  167.1250   -13.2230    68.0960     5.2450     4.7150     3.7040    23.7200     2.2850 
  167.2500   -13.3760    75.3400     5.7250     5.0620     4.5310    23.4070     2.3460 
  167.3750   -13.5970    77.6870     6.4730     5.5660     5.6710    23.3740     2.3890 
  167.5000   -13.8850    76.8220     7.5500     6.2110     7.0320    23.4910     2.4070 
  167.6250   -14.2000    76.2460     8.8030     6.9740     8.2920    23.6940     2.4110 
  167.7500   -14.5510    74.9900     9.9820     7.7870     9.1460    23.7180     2.4150 
  167.8750   -14.8930    73.4470    10.8570     8.6160     9.6600    23.5920     2.4250 
  168.0000   -15.2280    72.9910    11.7070     9.4400     9.9640    23.4620     2.4420 
  168.1250   -15.4940    70.6580    12.5170    10.2430    10.6380    23.4210     2.4620 
  168.2500   -15.6800    65.5620    13.2630    11.0150    11.8510    23.3960     2.4790 
  168.3750   -15.8020    62.0550    13.9090    11.7360    13.2420    23.3540     2.4890 
  168.5000   -15.8510    63.9170    14.4460    12.3970    13.3010    23.3720     2.4870 
  168.6250   -15.8610    69.2960    14.8950    12.9980    12.6730    23.4430     2.4710 
  168.7500   -15.8690    73.5290    15.3070    13.5530    12.3650    23.5080     2.4500 
  168.8750   -15.9090    74.4380    15.6580    14.0360    13.3790    23.5010     2.4320 
  169.0000   -15.9610    71.6770    15.8630    14.3800    15.0860    23.4020     2.4210 
  169.1250   -16.0420    69.5350    15.7780    14.4590    16.2330    23.3840     2.4170 
  169.2500   -16.1380    70.5170    15.4270    14.2780    15.3910    23.4830     2.4180 
  169.3750   -16.2570    73.6030    14.9060    13.8890    13.8450    23.6860     2.4220 
  169.5000   -16.4120    74.9280    14.3780    13.4200    12.2520    23.8770     2.4280 
  169.6250   -16.5920    74.2910    14.0370    13.0370    10.6260    24.0110     2.4330 
  169.7500   -16.7450    74.5840    13.8960    12.8310    11.0790    24.0990     2.4320 
  169.8750   -16.8840    75.5200    13.9580    12.8440    11.9280    24.1770     2.4230 
  170.0000   -17.0410    75.4950    14.3440    13.1210    12.8440    24.2010     2.4080 
  170.1250   -17.2390    73.3530    15.4470    13.9140    14.8900    24.1770     2.4000 
  170.2500   -17.4740    70.1890    17.9500    15.6540    22.1390    24.1560     2.4120 
  170.3750   -17.7140    67.0700    22.8650    19.2710    36.2380    24.1350     2.4450 
  170.5000   -17.9380    64.4030    31.5800    26.1520    56.8790    24.0760     2.4870 
  170.6250   -18.1350    61.6150    46.3760    38.6370    84.6020    24.0530     2.5060 
  170.7500   -18.3200    58.8070    65.5700    56.1210   106.9730    24.1140     2.4840 
  170.8750   -18.4810    57.3580    87.3060    76.4450   115.3460    24.3010     2.4240 
  171.0000   -18.6220    58.4210   106.6240    95.1950   115.1060    24.5390     2.3510 
  171.1250   -18.7030    60.2000   115.3290   105.1330   106.3990    24.6560     2.2970 
  171.2500   -18.7220    60.6380   111.6010   104.2290    91.7450    24.6330     2.2710 
  171.3750   -18.6690    58.8610    98.5490    94.2960    76.1530    24.5050     2.2660 
  171.5000   -18.5490    56.5550    82.6730    80.2480    61.4600    24.3910     2.2610 
  171.6250   -18.4110    56.6370    69.9370    67.5580    52.8730    24.3130     2.2210 
  171.7500   -18.2560    57.8760    61.6460    58.5980    43.1820    24.4190     2.1400 
  171.8750   -18.0590    57.4820    57.5020    53.6220    33.6870    24.9340     2.0390 
  172.0000   -17.8220    56.0630    56.6980    52.0660    29.3210    25.8150     1.9490 
  172.1250   -17.5780    56.0550    58.4190    53.2600    27.0650    26.2570     1.9080 
  172.2500   -17.3160    57.3970    61.0020    55.5820    26.8210    26.1020     1.9240 
  172.3750   -17.0300    57.6360    63.4320    58.0120    27.5390    25.7500     1.9900 
  172.5000   -16.7540    55.3260    65.1680    59.9060    28.9080    25.3740     2.0810 
  172.6250   -16.4660    52.2200    66.5260    61.3610    31.1690    24.6750     2.1660 
  172.7500   -16.2020    51.7930    68.8900    63.5720    30.7250    24.3000     2.2320 
  172.8750   -15.9470    53.7810    73.9060    68.0760    34.0740    24.1710     2.2880 
  173.0000   -15.6740    55.2750    83.1180    76.3600    41.8080    24.1140     2.3520 
  173.1250   -15.4010    53.2710    98.1850    89.9270    56.1790    23.9760     2.4380 
  173.2500   -15.1490    50.7690   117.4320   107.1390    73.4580    23.8460     2.5320 
  173.3750   -14.9290    49.9740   138.2720   125.6680    84.7630    23.7420     2.6130 
  173.5000   -14.7160    51.4610   156.5660   142.1180    90.1320    23.6930     2.6680 
  173.6250   -14.4870    53.0710   165.6820   151.3160    96.5170    23.6920     2.6970 
  173.7500   -14.2520    53.8770   163.3660   151.3450   102.6500    23.7180     2.7120 
  173.8750   -14.0170    54.9000   149.2040   141.3190   113.2400    23.7420     2.7220 
  174.0000   -13.7880    57.9780   124.9440   121.8480   120.1110    23.7440     2.7280 
  174.1250   -13.5530    62.5230    94.6490    95.0390   109.3590    23.7190     2.7220 
  174.2500   -13.3180    66.1420    66.0990    67.6280    83.8000    23.6870     2.6910 
  174.3750   -13.0780    68.3930    43.6870    44.5810    54.1180    23.6360     2.6300 
  174.5000   -12.8420    69.7200    28.3690    28.2320    27.2430    23.5130     2.5470 
  174.6250   -12.6130    70.2310    19.5320    18.8310    13.5860    23.3180     2.4650 
  174.7500   -12.4050    70.9370    14.1840    13.3360     8.2100    23.1640     2.4050 
  174.8750   -12.2620    72.4890    10.9990    10.2050     7.0210    23.0810     2.3740 
  175.0000   -12.1640    74.0430     9.1240     8.4510     7.1160    23.0540     2.3640 
  175.1250   -12.1020    73.8080     8.1120     7.5860     7.4060    23.0510     2.3570 
  175.2500   -12.0790    72.5960     7.7860     7.1330     7.6190    23.0520     2.3380 
  175.3750   -12.0880    71.7980     7.6120     6.9030     7.4830    23.0670     2.3030 
  175.5000   -12.1280    72.7720     7.4960     6.7760     6.8760    23.1260     2.2570 
  175.6250   -12.1640    74.0280     7.4010     6.6840     6.3950    23.2010     2.2150 
  175.7500   -12.1860    72.1150     7.3150     6.5940     6.1510    23.2250     2.1910 
  175.8750   -12.1840    66.3480     7.2400     6.5010     6.0360    23.1660     2.1910 
  176.0000   -12.1890    61.1620     7.1640     6.4090     5.9790    23.1570     2.2170 
  176.1250   -12.1860    60.6120     7.0850     6.3220     5.9330    23.3150     2.2610 
  176.2500   -12.1340    61.4630     6.9820     6.2440     5.9350    23.5310     2.3070 
  176.3750   -12.0590    60.4120     6.8570     6.1820     5.9240    23.6320     2.3420 
