~V
VERS. 2.00: Ver 2.00
~W
STRT.M 51.0000:
STOP.M 242.0000:
STEP.M 0.1250:
NULL. -999.2500:
UWI. F10056:
~C
DEPT.M :
GR.API :
RML.OHMM :
RI. :
RXO.OHMM :
CALI.CM :
SP.MV :
DEN.GM/CC :
~A
# ...
  129.7500    98.0930     5.6070     4.6810     5.2870    25.1790    -0.9240     2.3300 
  129.8750    97.0640     5.6640     4.7410     5.2970    25.2030    -0.8590     2.3230 
  130.0000    93.9540     5.7980     4.8690     5.4470    25.1450    -0.8460     2.3120 
  130.1250    92.1480     5.9890     5.0520     5.8060    25.0060    -0.8410     2.3020 
  130.2500    90.2860     6.1910     5.2550     6.3150    24.9180    -0.8220     2.2960 
  130.3750    86.2140     6.3690     5.4440     6.6630    24.8760    -0.8390     2.2930 
  130.5000    82.6410     6.4860     5.5850     6.7210    24.8320    -0.8800     2.2940 
  130.6250    83.4090     6.4760     5.6130     6.9120    24.7730    -0.9300     2.3000 
  130.7500    86.9620     6.3230     5.5110     6.7250    24.7610    -1.0150     2.3110 
  130.8750    90.3970     6.0310     5.2800     6.3370    24.8480    -1.0540     2.3240 
  131.0000    93.1670     5.6430     4.9570     5.7110    25.0320    -1.0020     2.3340 
  131.1250    96.6580     5.2310     4.5990     4.9510    25.1280    -0.9630     2.3360 
  131.2500    99.9940     4.8820     4.2780     4.4930    25.1800    -0.9510     2.3330 
  131.3750   100.7490     4.6520     4.0450     4.2090    25.2170    -0.9540     2.3320 
  131.5000    99.0480     4.5810     3.9330     4.1580    25.1790    -0.9340     2.3370 
  131.6250    98.4610     4.7180     3.9900     4.2960    25.0770    -0.9070     2.3500 
  131.7500    99.9680     5.0250     4.1960     4.4850    24.8960    -0.8290     2.3670 
  131.8750   100.1090     5.4410     4.5200     5.2020    24.7780    -0.7710     2.3780 
  132.0000    95.0380     5.8640     4.8970     6.0400    24.7150    -0.8120     2.3770 
  132.1250    87.1800     6.1880     5.2420     6.8190    24.6940    -0.9520     2.3570 
  132.2500    81.2360     6.4420     5.5420     7.0590    24.7170    -1.1230     2.3320 
  132.3750    78.3350     6.7220     5.8450     7.1030    24.7680    -1.2490     2.3200 
  132.5000    78.1090     7.0970     6.1970     7.0060    24.7130    -1.3740     2.3320 
  132.6250    79.1070     7.5050     6.5660     8.0360    24.5950    -1.5110     2.3650 
  132.7500    78.4490     7.7480     6.8200    10.8640    24.6310    -1.6720     2.3920 
  132.8750    75.5980     7.6930     6.8550    13.4650    24.8850    -1.8130     2.3950 
  133.0000    76.3690     7.3870     6.6880    11.6180    25.2020    -1.9160     2.3680 
  133.1250    84.4210     7.1030     6.4900     7.0780    25.4900    -1.9400     2.3180 
  133.2500    91.2880     7.1270     6.4700     5.7640    25.6520    -1.9570     2.2670 
  133.3750    92.0300     7.5470     6.7260     6.9200    25.6960    -1.9480     2.2300 
  133.5000    88.2180     8.2390     7.2260     9.6520    25.6720    -1.9160     2.2200 
  133.6250    83.2310     8.8010     7.7460    12.0810    25.4880    -1.9620     2.2450 
  133.7500    79.8520     8.8510     7.9470    11.1390    25.1690    -2.1060     2.2880 
  133.8750    79.9850     8.3170     7.6880    10.0810    24.9110    -2.3460     2.3270 
  134.0000    81.7540     7.4660     7.1030     7.8250    24.8330    -2.6280     2.3460 
  134.1250    82.3790     6.7370     6.5060     6.8700    24.9120    -2.8320     2.3320 
  134.2500    83.9390     6.3420     6.1090     6.4500    25.0310    -2.9360     2.3000 
  134.3750    87.9070     6.2950     5.9720     6.4510    25.1380    -3.0490     2.2670 
  134.5000    91.8820     6.5180     6.0810     6.3500    25.1770    -3.2170     2.2510 
  134.6250    90.0760     6.8950     6.3910     7.0940    25.1800    -3.3130     2.2690 
  134.7500    83.8910     7.2730     6.7720     7.8140    25.1670    -3.2910     2.3100 
  134.8750    77.5520     7.5830     7.1480     9.3950    25.1410    -3.1980     2.3530 
  135.0000    75.0920     7.7920     7.4740    13.5490    25.1320    -3.0750     2.3730 
  135.1250    75.5630     7.9300     7.7570    12.9870    25.1590    -2.9880     2.3480 
  135.2500    74.1840     8.1820     8.1170     9.7920    25.2240    -2.9830     2.3050 
  135.3750    70.3670     8.7880     8.7290     9.4830    25.3000    -3.0190     2.2770 
  135.5000    67.3900     9.9590     9.7730    10.9900    25.3320    -3.0340     2.2970 
  135.6250    66.9360    11.8300    11.4320    13.0140    25.1860    -3.0070     2.3740 
  135.7500    66.3190    13.9200    13.3930    15.4440    25.0240    -2.9870     2.4680 
  135.8750    62.8640    15.4120    14.9510    22.7640    24.9180    -2.9410     2.5370 
  136.0000    58.0970    15.4090    15.1590    26.9770    24.8870    -2.9120     2.5530 
  136.1250    57.2470    13.5810    13.5890    23.1770    24.8930    -2.9270     2.5060 
  136.2500    60.5540    11.2160    11.4670    14.5930    24.8960    -2.9260     2.4370 
  136.3750    65.3680     9.2960     9.6770     9.1300    24.8960    -2.9290     2.3810 
  136.5000    67.9670     8.3650     8.6550     7.4270    24.8950    -2.9730     2.3600 
  136.6250    66.1360     8.8030     8.7050     8.5780    24.8940    -3.0900     2.3840 
  136.7500    62.0940    10.3510     9.7100    11.7740    24.8890    -3.2640     2.4340 
  136.8750    57.6940    12.7240    11.5880    14.4970    24.8850    -3.4540     2.4910 
  137.0000    54.7360    15.3750    14.0110    14.6210    24.8730    -3.5560     2.5400 
  137.1250    54.0450    17.3550    16.1790    17.3810    24.8520    -3.5760     2.5650 
  137.2500    54.2570    18.1960    17.4090    19.3590    24.8400    -3.6540     2.5660 
  137.3750    54.5250    18.0830    17.6740    18.0640    24.8510    -3.7010     2.5500 
  137.5000    54.5500    17.6400    17.4520    15.5370    24.9000    -3.7050     2.5290 
  137.6250    54.2430    17.5680    17.3510    15.6470    24.9950    -3.6960     2.5160 
  137.7500    53.3580    18.0770    17.6540    18.4890    25.0970    -3.6370     2.5170 
  137.8750    52.1080    19.1260    18.3920    21.6070    25.1360    -3.5880     2.5290 
  138.0000    51.9220    20.4940    19.4390    23.9160    25.1510    -3.6370     2.5450 
  138.1250    52.9560    21.7580    20.4750    25.3950    25.1000    -3.7150     2.5550 
  138.2500    53.7910    22.5810    21.1870    23.9240    25.0110    -3.6950     2.5510 
  138.3750    53.9710    22.8920    21.4870    24.4890    24.9450    -3.7050     2.5290 
  138.5000    54.7710    22.8090    21.4610    25.4040    24.9600    -3.6980     2.4950 
  138.6250    56.7100    22.4960    21.2320    23.3290    25.0570    -3.6560     2.4630 
  138.7500    57.9100    22.1290    20.9390    21.9110    25.1100    -3.6100     2.4460 
  138.8750    57.2670    21.7760    20.6350    21.2810    25.1420    -3.5340     2.4460 
  139.0000    56.1110    21.4450    20.3370    21.8050    25.1910    -3.4270     2.4590 
  139.1250    56.4790    21.0920    20.0310    21.5640    25.2730    -3.3540     2.4770 
  139.2500    56.5360    20.6840    19.7010    19.0470    25.3290    -3.3290     2.4920 
  139.3750    54.8300    20.2170    19.3450    17.7380    25.2860    -3.2880     2.5020 
  139.5000    53.0500    19.7230    18.9800    17.7470    25.1350    -3.2240     2.5090 
  139.6250    53.9730    19.3240    18.6890    17.9110    24.9570    -3.1530     2.5130 
  139.7500    56.4050    19.1470    18.5670    17.8660    24.9050    -3.1560     2.5180 
  139.8750    57.1970    19.2320    18.6590    18.2880    24.9650    -3.2050     2.5270 
  140.0000    55.0020    19.4580    18.8790    19.1370    25.0250    -3.2440     2.5370 
  140.1250    52.3640    19.4950    18.9490    19.0720    25.0020    -3.3420     2.5440 
  140.2500    52.7240    19.0580    18.6020    19.9870    24.9510    -3.4640     2.5420 
  140.3750    56.0500    18.0440    17.7240    19.6970    24.9330    -3.5860     2.5310 
  140.5000    59.3170    16.5990    16.4290    16.6660    24.9320    -3.7590     2.5170 
  140.6250    60.3470    15.1100    15.0510    12.9710    24.9790    -4.0210     2.5040 
  140.7500    58.9760    13.9600    13.9410    12.2320    25.0510    -4.2500     2.4950 
  140.8750    55.9790    13.3100    13.2560    12.9570    25.0900    -4.4990     2.4890 
