~V
VERS. 2.00: Ver 2.00
~W
STRT.M 60.0000:
STOP.M 245.0000:
STEP.M 0.1250:
NULL. -999.2500:
UWI. F10050:
~C
DEPT.M :
SP.MV :
GR.API :
RML.OHMM :
RI. :
RXO.OHMM :
CALI.CM :
DEN.GM/CC :
~A
# ...
  172.5000   -18.4330    37.0340     6.4290     5.2980     6.2780    23.6190     2.4030 
  172.6250   -18.3880    37.3010     6.4780     5.3340     6.3530    23.6530     2.4170 
  172.7500   -18.3710    39.3570     6.5100     5.3470     6.3660    23.6530     2.4240 
  172.8750   -18.3410    40.4520     6.5410     5.3400     6.3200    23.6530     2.4250 
  173.0000   -18.3280    38.3760     6.5760     5.3200     6.2430    23.6540     2.4210 
  173.1250   -18.3620    35.8660     6.6290     5.2950     5.9800    23.6580     2.4180 
  173.2500   -18.4070    36.9210     6.7150     5.2750     5.7150    23.6650     2.4180 
  173.3750   -18.5030    39.7270     6.8280     5.2690     5.5250    23.6700     2.4190 
  173.5000   -18.6510    41.6600     6.9370     5.2770     5.6040    23.6590     2.4190 
  173.6250   -18.7620    42.3820     7.0050     5.3000     5.8800    23.6220     2.4190 
  173.7500   -18.8680    42.3740     7.0460     5.3410     6.1090    23.5590     2.4210 
  173.8750   -19.0090    41.7650     7.1060     5.4080     6.2260    23.4940     2.4260 
  174.0000   -19.1630    41.4660     7.2330     5.5140     6.2080    23.4550     2.4340 
  174.1250   -19.3110    43.3890     7.4580     5.6680     6.3520    23.5120     2.4450 
  174.2500   -19.4710    47.5970     7.7250     5.8440     6.8350    23.6630     2.4590 
  174.3750   -19.6270    55.2570     7.9660     6.0040     7.3660    23.8230     2.4700 
  174.5000   -19.7420    63.5760     8.1190     6.1100     7.6530    23.9030     2.4740 
  174.6250   -19.8770    66.4600     8.1450     6.1390     7.7290    23.9170     2.4730 
  174.7500   -20.0500    64.2600     8.1310     6.1410     7.5750    23.9170     2.4700 
  174.8750   -20.1880    61.0810     8.2080     6.1880     7.4470    23.9170     2.4700 
  175.0000   -20.3100    61.1500     8.5100     6.3510     7.5540    23.9170     2.4720 
  175.1250   -20.4500    64.7950     9.1390     6.6930     7.9940    23.9170     2.4700 
  175.2500   -20.5500    70.3790     9.9510     7.1520     8.7860    23.9170     2.4590 
  175.3750   -20.6100    75.2430    10.7370     7.6340     9.8340    23.9170     2.4380 
  175.5000   -20.6200    77.2730    11.2500     8.0160    10.4490    23.9170     2.4140 
  175.6250   -20.5410    76.3750    11.2740     8.1650    10.2830    23.9180     2.3970 
  175.7500   -20.4030    77.9940    10.9590     8.0970     9.7820    23.9390     2.3890 
  175.8750   -20.2200    83.2560    10.4860     7.8620     9.3090    24.0210     2.3880 
  176.0000   -19.9300    87.1290    10.0030     7.5230     8.9820    24.2200     2.3890 
  176.1250   -19.5700    83.0470     9.5610     7.1270     8.6320    24.4910     2.3850 
  176.2500   -19.1640    74.4870     9.1300     6.7150     7.7460    24.8690     2.3810 
  176.3750   -18.6800    66.7030     8.7000     6.3190     6.8140    25.2990     2.3780 
  176.5000   -18.2200    61.5810     8.3020     5.9730     6.2020    25.7150     2.3800 
  176.6250   -17.8360    59.6120     7.9910     5.7250     5.9320    26.0970     2.3810 
  176.7500   -17.4570    58.3990     7.7640     5.5770     5.7310    26.3670     2.3780 
  176.8750   -17.0880    53.0480     7.6050     5.5220     5.8370    26.3670     2.3740 
  177.0000   -16.7860    45.7900     7.5010     5.5360     5.8580    26.0690     2.3740 
  177.1250   -16.5470    41.9730     7.4730     5.5890     5.9050    25.5690     2.3830 
  177.2500   -16.3400    42.6070     7.5190     5.6380     5.9460    25.2570     2.3910 
  177.3750   -16.1780    43.9520     7.6170     5.6620     5.7290    25.2080     2.3890 
  177.5000   -16.0590    42.2400     7.7200     5.6540     5.2730    25.3790     2.3770 
  177.6250   -15.9270    39.3140     7.7770     5.6190     5.3210    25.6720     2.3640 
  177.7500   -15.8020    37.6470     7.7890     5.5780     5.6370    25.7720     2.3570 
  177.8750   -15.7360    38.6800     7.7710     5.5400     5.8190    25.3680     2.3570 
  178.0000   -15.6740    40.9220     7.7410     5.5090     5.3870    24.7230     2.3630 
  178.1250   -15.5680    40.9630     7.7140     5.4850     5.2660    24.4670     2.3770 
  178.2500   -15.5110    40.8540     7.6900     5.4640     5.6670    24.4670     2.3950 
  178.3750   -15.4590    42.2720     7.6700     5.4490     6.1410    24.5250     2.4030 
  178.5000   -15.3800    45.8950     7.6540     5.4450     6.3730    24.5490     2.3850 
  178.6250   -15.3250    49.7020     7.6590     5.4570     6.1720    24.6220     2.3410 
  178.7500   -15.2420    49.7340     7.6940     5.4800     6.2460    24.7760     2.3000 
  178.8750   -15.1420    46.5730     7.7410     5.5050     6.6720    24.8780     2.2820 
  179.0000   -15.0680    42.0110     7.7570     5.5200     6.9950    24.8880     2.2920 
  179.1250   -14.9900    38.4190     7.6760     5.5080     6.8200    25.2150     2.3210 
  179.2500   -14.9060    37.1790     7.4900     5.4680     6.8650    25.8570     2.3450 
  179.3750   -14.8400    38.1750     7.2420     5.4020     6.9760    26.4800     2.3630 
  179.5000   -14.7680    40.5380     7.0040     5.3180     6.8730    26.7600     2.3780 
  179.6250   -14.7130    41.9510     6.8450     5.2310     6.4540    26.8090     2.3840 
  179.7500   -14.7160    41.8750     6.7430     5.1500     6.1650    26.5360     2.3700 
  179.8750   -14.7010    40.0340     6.6550     5.0790     6.0030    26.0750     2.3420 
  180.0000   -14.6460    37.5900     6.5620     5.0220     5.6020    25.9560     2.3110 
  180.1250   -14.6290    39.1620     6.4800     4.9890     5.3000    26.3060     2.2860 
  180.2500   -14.6300    43.6850     6.4310     4.9840     5.1150    26.5360     2.2680 
  180.3750   -14.6360    47.1720     6.4330     5.0140     4.8050    26.5490     2.2600 
  180.5000   -14.6570    48.8710     6.4900     5.0900     4.6000    26.4350     2.2640 
  180.6250   -14.6940    53.0050     6.6150     5.2240     4.7330    26.1750     2.2850 
  180.7500   -14.7090    60.3710     6.7900     5.4000     5.0370    25.9430     2.3170 
  180.8750   -14.7330    66.9870     6.9710     5.5900     5.4030    26.0330     2.3520 
  181.0000   -14.8280    69.9840     7.0960     5.7440     5.7000    26.0760     2.3820 
  181.1250   -14.9370    70.0430     7.0910     5.7920     5.6970    25.8310     2.4080 
  181.2500   -15.0320    70.2950     6.9640     5.7230     5.5880    25.6710     2.4260 
  181.3750   -15.1580    71.1410     6.7600     5.5660     5.4060    25.6320     2.4310 
  181.5000   -15.2850    72.9520     6.5630     5.3840     5.1910    25.6310     2.4190 
  181.6250   -15.4180    74.8990     6.5030     5.2780     5.1640    25.5730     2.4000 
  181.7500   -15.5990    77.2610     6.6540     5.3050     5.6500    25.3370     2.3860 
  181.8750   -15.7850    79.5710     7.0580     5.4950     6.6970    24.8890     2.3790 
  182.0000   -15.9440    79.9100     7.6980     5.8530     7.9870    24.4920     2.3760 
  182.1250   -16.1300    77.2360     8.4830     6.3730     9.3450    24.3830     2.3700 
  182.2500   -16.3030    73.3170     9.2480     6.9780    11.1180    24.4560     2.3610 
  182.3750   -16.4630    70.4280     9.9230     7.6170    12.1810    24.5860     2.3510 
  182.5000   -16.6630    68.2620    10.5560     8.2790    12.0260    24.6630     2.3470 
  182.6250   -16.8000    68.4780    11.4020     9.0760    12.0400    24.6760     2.3560 
  182.7500   -16.9220    71.5210    12.7920    10.2270    13.1030    24.6450     2.3700 
  182.8750   -17.1080    72.2360    15.1100    12.0790    15.3950    24.5790     2.3770 
  183.0000   -17.3030    67.7320    18.8410    15.1350    19.4830    24.5310     2.3660 
  183.1250   -17.4480    62.0350    26.3360    20.5470    27.0520    24.5150     2.3330 
  183.2500   -17.6050    58.5770    40.9980    28.8480    40.6950    24.5150     2.2890 
  183.3750   -17.7900    56.2380    57.5480    40.3440    54.8510    24.5150     2.2450 
  183.5000   -17.9440    54.2940    77.1790    54.2290    63.1760    24.5150     2.2130 
  183.6250   -18.0900    54.3820    96.5500    67.9440    67.1100    24.5150     2.2060 
