~V
VERS. 2.00: Ver 2.00
~W
STRT.M 50.0000:
STOP.M 216.0000:
STEP.M 0.1250:
NULL. -999.2500:
UWI. F10015:
~C
DEPT.M :
GR.API :
RML.OHMM :
RI. :
RXO.OHMM :
CALI.CM :
DEN.GM/CC :
SP.MV :
~A
# ...
  106.2500    82.6800     9.5310     9.0870     7.8720    24.3570     2.3450    -2.4720 
  106.3750    85.7570     9.2310     8.9130     7.6030    24.3570     2.3490    -2.3740 
  106.5000    87.9290     8.8760     8.6640     7.3090    24.3570     2.3520    -2.3250 
  106.6250    86.7970     8.5820     8.4150     7.3510    24.3570     2.3550    -2.2400 
  106.7500    87.4250     8.3540     8.1960     7.4640    24.3570     2.3560    -2.1860 
  106.8750    88.6100     8.1710     7.9950     7.4330    24.3570     2.3540    -2.1410 
  107.0000    89.1720     8.0070     7.7950     7.2810    24.3540     2.3500    -2.0930 
  107.1250    88.7080     7.8480     7.5900     7.1050    24.3440     2.3470    -2.0470 
  107.2500    88.3390     7.7120     7.3990     6.9310    24.3190     2.3480    -2.0360 
  107.3750    89.4280     7.6730     7.2900     7.0130    24.2930     2.3500    -2.0280 
  107.5000    88.9110     7.7650     7.3100     7.2680    24.2830     2.3460    -1.9880 
  107.6250    87.1900     7.9370     7.4290     7.6800    24.2800     2.3370    -1.9190 
  107.7500    85.1280     8.1380     7.6150     8.3080    24.2980     2.3210    -1.8240 
  107.8750    83.5980     8.3470     7.8430     9.0050    24.3730     2.2990    -1.7020 
  108.0000    83.0170     8.5970     8.1130     9.1300    24.5670     2.2740    -1.5500 
  108.1250    82.1850     9.2000     8.6270     9.2620    24.9390     2.2510    -1.3700 
  108.2500    80.9110    10.1460     9.3970     9.2200    25.2170     2.2330    -1.1220 
  108.3750    79.8500    11.3240    10.3780    10.2000    25.3500     2.2240    -0.8370 
  108.5000    79.2430    12.4340    11.3440    12.6390    25.3800     2.2220    -0.5280 
  108.6250    79.2920    13.0410    11.9230    15.1790    25.3820     2.2260    -0.1990 
  108.7500    80.5400    12.6400    11.6340    13.6230    25.3820     2.2340     0.1540 
  108.8750    84.7190    11.3360    10.5130    10.3490    25.3820     2.2460     0.4980 
  109.0000    89.5910     9.8850     9.2310     8.7830    25.3820     2.2600     0.8220 
  109.1250    93.2480     8.7230     8.1520     8.2710    25.3820     2.2730     1.1170 
  109.2500    94.4610     8.2190     7.5660     8.2800    25.3820     2.2820     1.3830 
  109.3750    92.6870     8.5830     7.6410     8.5450    25.3820     2.2830     1.6140 
  109.5000    88.0730     9.7690     8.3630     9.2270    25.3820     2.2750     1.7970 
  109.6250    79.3780    12.3430    10.3060    11.5060    25.3820     2.2510     2.0030 
  109.7500    69.9730    15.7660    13.1390    16.7220    25.3910     2.2140     2.2010 
  109.8750    63.0490    20.4310    16.8020    21.9770    25.4230     2.1660     2.3580 
  110.0000    59.3280    25.1960    20.8160    25.3030    25.4690     2.1170     2.4840 
  110.1250    57.7690    28.6990    24.4420    26.4880    25.5090     2.0770     2.6080 
  110.2500    56.2780    30.6660    26.8470    27.8990    25.5220     2.0600     2.7600 
  110.3750    55.0010    31.0760    27.7390    29.4000    25.5230     2.0670     2.9120 
  110.5000    55.4390    30.7480    27.7150    28.4520    25.5210     2.0840     3.0530 
  110.6250    57.8660    30.2210    27.3020    26.1370    25.5200     2.1020     3.1210 
  110.7500    61.1590    29.7890    26.8000    24.6630    25.5210     2.1140     3.1410 
  110.8750    63.3710    29.5530    26.3540    25.3640    25.5210     2.1200     3.1640 
  111.0000    62.3050    29.4650    26.0110    26.7080    25.5200     2.1250     3.2060 
  111.1250    59.6230    29.3310    25.7130    27.2480    25.5210     2.1260     3.1990 
  111.2500    58.9750    28.9760    25.3200    24.9280    25.5220     2.1200     3.1770 
  111.3750    59.2490    28.3880    24.8220    22.5560    25.5040     2.1060     3.0840 
  111.5000    59.9720    27.7000    24.3070    21.3900    25.4500     2.0930     2.9550 
  111.6250    61.0230    27.1200    23.9220    21.3230    25.3590     2.0960     2.8500 
  111.7500    62.3540    26.8720    23.8470    21.0750    25.2660     2.1300     2.7800 
  111.8750    64.0020    27.0980    24.1950    21.1800    25.2340     2.1840     2.7650 
  112.0000    64.2910    27.6980    24.9000    23.2860    25.2390     2.2220     2.7440 
  112.1250    62.8100    28.4760    25.7900    25.1530    25.2680     2.2360     2.7260 
  112.2500    60.7290    29.3230    26.7470    26.7190    25.3080     2.2250     2.7370 
  112.3750    59.6420    30.2090    27.7140    28.6320    25.3480     2.1980     2.8020 
  112.5000    60.4070    31.1820    28.7030    30.7600    25.3750     2.1720     2.9260 
  112.6250    59.6840    32.3790    29.8010    29.9150    25.3810     2.1560     3.0280 
  112.7500    57.2060    33.4550    30.7910    27.7890    25.3800     2.1410     3.1200 
  112.8750    55.1950    33.7290    31.1310    28.5750    25.3610     2.1260     3.1570 
  113.0000    55.3070    32.8460    30.5070    30.7950    25.3190     2.1150     3.1630 
  113.1250    58.4420    30.7620    28.8430    30.6490    25.2630     2.1100     3.1560 
  113.2500    64.5330    27.7360    26.3140    25.3710    25.2350     2.1170     3.0740 
  113.3750    68.7690    25.0280    23.9660    20.2540    25.2420     2.1320     2.9500 
  113.5000    67.6820    23.5410    22.5630    18.3220    25.2770     2.1460     2.8730 
  113.6250    65.0450    23.2810    22.1560    20.6860    25.3110     2.1540     2.8220 
  113.7500    64.0170    24.2940    22.8680    25.2100    25.3310     2.1530     2.7580 
  113.8750    65.1750    26.4360    24.6700    28.6380    25.3360     2.1460     2.6630 
  114.0000    64.5550    29.1450    27.1490    28.7150    25.3340     2.1360     2.5720 
  114.1250    61.7420    31.4750    29.5900    29.8170    25.3220     2.1300     2.5600 
  114.2500    60.6390    32.7180    31.1500    32.1020    25.3160     2.1280     2.5670 
  114.3750    59.6360    32.4900    31.3720    33.6280    25.3140     2.1280     2.6080 
  114.5000    58.2210    31.1040    30.4670    32.9290    25.3140     2.1280     2.6470 
  114.6250    57.0260    29.2170    28.9750    29.5740    25.3160     2.1290     2.6490 
  114.7500    57.8650    27.4790    27.4410    24.7370    25.3270     2.1380     2.6450 
  114.8750    59.4420    26.5870    26.5280    24.8330    25.3560     2.1660     2.6630 
  115.0000    59.5670    26.5590    26.3540    32.2000    25.3730     2.2050     2.7550 
  115.1250    58.4090    26.9960    26.6330    39.6880    25.3920     2.2380     2.8620 
  115.2500    57.5300    27.5340    27.0830    41.3160    25.4380     2.2450     2.9930 
  115.3750    58.5190    27.9040    27.4680    35.3340    25.5250     2.2190     3.1660 
  115.5000    61.6150    27.9810    27.6260    27.2920    25.6230     2.1690     3.3580 
  115.6250    62.5610    27.8740    27.5750    25.0740    25.6540     2.1220     3.5330 
  115.7500    60.9530    27.9270    27.6180    25.5990    25.6630     2.0960     3.7430 
  115.8750    57.7130    28.2420    27.8690    26.8340    25.6640     2.0900     3.9550 
  116.0000    54.4050    28.7850    28.3220    27.6110    25.6640     2.0970     4.1520 
  116.1250    52.8490    29.4730    28.9230    27.7380    25.6640     2.1050     4.3280 
  116.2500    54.7280    30.2750    29.6460    28.1030    25.6640     2.1070     4.4920 
  116.3750    58.1930    31.1880    30.4690    28.3950    25.6640     2.1020     4.6040 
  116.5000    59.8170    32.1780    31.3680    29.6330    25.6520     2.0970     4.6850 
  116.6250    60.2620    33.1640    32.2850    31.4790    25.6200     2.0960     4.7690 
  116.7500    60.2930    34.0650    33.1530    33.2600    25.5720     2.1040     4.8530 
  116.8750    60.2670    34.8970    33.9760    33.9910    25.5110     2.1260     4.9080 
  117.0000    59.6380    35.8710    34.8970    32.4000    25.4180     2.1610     4.8800 
  117.1250    57.1530    38.1840    36.9100    30.2220    25.1690     2.2240     4.7350 
  117.2500    55.4990    41.7710    40.0250    29.7770    24.9450     2.3040     4.5370 
  117.3750    54.0580    46.0040    43.7470    32.2500    24.8260     2.3920     4.2620 
