~V
VERS. 2.00: Ver 2.00
~W
STRT.M 55.0000:
STOP.M 279.0000:
STEP.M 0.1250:
NULL. -999.2500:
UWI. F10072:
~C
DEPT.M :
GR.API :
RML.OHMM :
RI. :
RXO.OHMM :
CALI.CM :
DEN.GM/CC :
SP.MV :
~A
# ...
  111.2500    69.5390     8.9000     7.4180     8.8000    23.5520     2.1370   -20.3560 
  111.3750    68.1750     8.8900     7.4920     9.3490    23.5060     2.1340   -20.4150 
  111.5000    68.3260     8.8050     7.5170    11.4000    23.4190     2.1340   -20.4670 
  111.6250    69.1360     8.6290     7.4760    13.8760    23.3170     2.1370   -20.5320 
  111.7500    68.7860     8.4030     7.3690    12.4960    23.2860     2.1370   -20.5680 
  111.8750    66.2670     8.1580     7.1890     9.6790    23.3790     2.1340   -20.5630 
  112.0000    65.1200     7.9220     6.9330     8.1660    23.5860     2.1290   -20.5140 
  112.1250    67.7990     7.7250     6.6380     7.7110    23.7530     2.1260   -20.4220 
  112.2500    70.8140     7.5810     6.3870     7.4970    23.7660     2.1290   -20.2820 
  112.3750    72.7440     7.5170     6.2430     7.5990    23.6970     2.1380   -20.1480 
  112.5000    73.7820     7.5660     6.2340     7.4270    23.6080     2.1490   -20.0770 
  112.6250    73.5030     7.7700     6.3860     7.9370    23.5270     2.1530   -20.1130 
  112.7500    71.1150     8.0870     6.6580     8.8750    23.4940     2.1480   -20.3190 
  112.8750    68.2990     8.4600     7.0250     9.3870    23.5350     2.1350   -20.7020 
  113.0000    66.3850     8.8150     7.4360     9.3490    23.6150     2.1200   -21.1580 
  113.1250    64.9690     9.0570     7.7920     9.3400    23.7160     2.1090   -21.6430 
  113.2500    63.4350     9.1680     7.9940     9.4540    23.7720     2.1050   -22.1220 
  113.3750    62.9910     9.1730     8.0050     9.5030    23.7710     2.1080   -22.5650 
  113.5000    64.8640     9.1300     7.8760     9.2500    23.7660     2.1150   -22.9510 
  113.6250    68.1980     9.1020     7.7260     8.7670    23.7460     2.1260   -23.2510 
  113.7500    68.3910     9.1140     7.6360     8.5700    23.6520     2.1380   -23.4410 
  113.8750    65.1080     9.1570     7.6180     8.5940    23.5400     2.1470   -23.5200 
  114.0000    61.0820     9.2130     7.6460     8.9740    23.5200     2.1500   -23.5960 
  114.1250    59.0810     9.2610     7.6840     9.2260    23.6770     2.1450   -23.6440 
  114.2500    59.4730     9.2970     7.7180     9.1760    23.8960     2.1370   -23.7130 
  114.3750    61.2690     9.3230     7.7670     9.1030    24.0200     2.1290   -23.7520 
  114.5000    63.4140     9.3400     7.8430     9.0760    24.0030     2.1280   -23.7500 
  114.6250    64.3660     9.3510     7.9080     9.2180    23.8670     2.1320   -23.6480 
  114.7500    65.0660     9.3620     7.9010     9.4780    23.6510     2.1390   -23.4780 
  114.8750    66.8780     9.3790     7.8000     9.6680    23.4720     2.1430   -23.2380 
  115.0000    69.3580     9.3950     7.6240     8.9970    23.4300     2.1430   -22.9240 
  115.1250    70.2080     9.3890     7.4300     8.1940    23.5470     2.1400   -22.6150 
  115.2500    68.4820     9.3500     7.2800     8.1160    23.6380     2.1390   -22.3330 
  115.3750    66.3390     9.2860     7.1880     8.6470    23.6580     2.1400   -22.1020 
  115.5000    65.9180     9.2270     7.1440     8.7820    23.6550     2.1440   -21.8700 
  115.6250    66.7020     9.2310     7.1490     8.5820    23.6690     2.1520   -21.6970 
  115.7500    67.2000     9.3190     7.2070     8.3980    23.6710     2.1620   -21.5040 
  115.8750    68.1530     9.4860     7.3230     8.5620    23.6500     2.1730   -21.3460 
  116.0000    70.4630     9.7000     7.4870     8.9990    23.6320     2.1810   -21.2390 
  116.1250    73.3480     9.9000     7.6800     9.5350    23.6260     2.1830   -21.1850 
  116.2500    74.0940    10.0300     7.8590     9.7720    23.6310     2.1800   -21.1150 
  116.3750    70.8930    10.0550     7.9960     9.8170    23.6410     2.1730   -21.0540 
  116.5000    65.6830     9.9780     8.0700     9.6740    23.6500     2.1660   -21.0310 
  116.6250    64.4820     9.8250     8.0730     9.5380    23.6610     2.1630   -21.0140 
  116.7500    68.0250     9.6610     8.0290     9.5640    23.6740     2.1620   -21.0950 
  116.8750    71.2610     9.5270     7.9520     9.6060    23.6830     2.1610   -21.2050 
  117.0000    70.9460     9.4290     7.8600     9.5890    23.6860     2.1550   -21.3260 
  117.1250    69.1430     9.3330     7.7560     9.5280    23.6930     2.1470   -21.4120 
  117.2500    67.7520     9.2020     7.6280     9.4560    23.7330     2.1420   -21.5310 
  117.3750    65.8810     9.0310     7.4710     9.3280    23.7780     2.1440   -21.6300 
  117.5000    64.8000     8.8470     7.2840     9.0240    23.7910     2.1560   -21.7220 
  117.6250    66.8540     8.7000     7.0920     8.3840    23.7860     2.1710   -21.7880 
  117.7500    68.3800     8.6170     6.9520     7.8720    23.8610     2.1790   -21.8940 
  117.8750    67.7190     8.6030     6.9160     8.1830    23.9600     2.1780   -22.0700 
  118.0000    67.2230     8.6440     7.0080     8.4240    24.0270     2.1680   -22.2530 
  118.1250    69.1500     8.7310     7.2120     8.2540    24.0680     2.1520   -22.3940 
  118.2500    69.7190     8.8400     7.4410     8.1500    24.0700     2.1340   -22.4270 
  118.3750    67.7870     8.9470     7.6390     8.3470    24.0410     2.1170   -22.3650 
  118.5000    66.7460     9.0200     7.7740     8.6700    23.9870     2.1040   -22.1920 
  118.6250    68.2310     8.9950     7.8180     8.7380    23.8620     2.1000   -21.8530 
  118.7500    69.3380     8.8420     7.7670     8.5220    23.6860     2.1070   -21.2290 
  118.8750    69.2090     8.5400     7.5970     8.4250    23.5450     2.1260   -20.2670 
  119.0000    71.3530     8.1040     7.2980     8.5040    23.5540     2.1540   -19.0100 
  119.1250    77.6340     7.5910     6.8840     7.9580    23.7990     2.1850   -17.5720 
  119.2500    84.2560     7.1220     6.4430     6.7450    24.2170     2.2090   -16.0960 
  119.3750    87.2750     6.7900     6.0500     5.9620    24.5520     2.2230   -14.6710 
  119.5000    85.6770     6.6340     5.7590     5.8410    24.5630     2.2290   -13.3500 
  119.6250    84.1880     6.6240     5.6040     5.8970    24.5590     2.2340   -12.2000 
  119.7500    87.7830     6.6190     5.5210     5.9000    24.7890     2.2420   -11.2150 
  119.8750    95.7310     6.5250     5.4350     5.8560    25.2360     2.2540   -10.4570 
  120.0000   102.9620     6.3150     5.2990     5.8270    25.0490     2.2650    -9.9600 
  120.1250   104.3200     6.0730     5.1500     5.8050    24.8550     2.2720    -9.6660 
  120.2500   102.3670     5.9470     5.0840     5.5780    24.7300     2.2780    -9.5330 
  120.3750   100.2820     6.0310     5.1700     5.5060    24.7280     2.2860    -9.4760 
  120.5000   100.5580     6.3390     5.4250     6.0250    24.6940     2.2950    -9.4960 
  120.6250    99.6330     6.7960     5.8070     7.9230    24.5130     2.3000    -9.6530 
  120.7500    94.4330     7.2030     6.1560     9.8260    24.2950     2.2940    -9.9130 
  120.8750    88.6380     7.4120     6.3330     8.9330    24.0820     2.2770   -10.2130 
  121.0000    87.1460     7.3560     6.2780     7.2480    23.9210     2.2540   -10.4830 
  121.1250    89.1650     7.0630     6.0290     6.6080    23.8650     2.2380   -10.7400 
  121.2500    88.8710     6.7180     5.7420     6.5770    23.9200     2.2320   -10.8900 
  121.3750    86.8200     6.4760     5.5310     6.5300    24.0580     2.2310   -10.9680 
  121.5000    86.0580     6.4630     5.4790     6.3980    24.1700     2.2290   -10.9800 
  121.6250    86.6920     6.7880     5.6710     6.4220    24.2100     2.2280   -10.8800 
  121.7500    86.9980     7.3460     6.0700     6.6860    24.2330     2.2370   -10.7020 
  121.8750    86.8640     7.9960     6.6250     7.8020    24.2910     2.2630   -10.4880 
  122.0000    85.0110     8.5410     7.2060    10.6030    24.4020     2.2960   -10.3490 
  122.1250    82.2550     8.7420     7.5480    13.1780    24.4140     2.3130   -10.3460 
  122.2500    82.8460     8.6070     7.5430    10.7860    24.2830     2.2990   -10.4730 
  122.3750    86.6880     8.2530     7.2530     7.7900    24.0160     2.2570   -10.7070 
