~V
VERS. 2.00: Ver 2.00
~W
STRT.M 50.0000:
STOP.M 221.0000:
STEP.M 0.1250:
NULL. -999.2500:
UWI. F10024:
~C
DEPT.M :
GR.API :
RML.OHMM :
RI. :
RXO.OHMM :
CALI.CM :
DEN.GM/CC :
SP.MV :
~A
# ...
   72.5000   117.5030     5.0640     4.5310     4.8430    23.9440     2.2980    -4.4130 
   72.6250   118.7880     5.0790     4.3500     4.6420    23.9520     2.2900    -4.2080 
   72.7500   115.7650     5.3580     4.4200     5.0430    23.9180     2.2870    -4.0190 
   72.8750   109.8140     5.7490     4.6880     5.6830    23.8730     2.2850    -3.8800 
   73.0000   103.4250     6.0810     5.0490     6.0940    23.9010     2.2790    -3.7540 
   73.1250    98.7670     6.1940     5.3450     6.1440    23.9330     2.2730    -3.6610 
   73.2500    97.6090     6.1150     5.4890     5.8920    23.9970     2.2700    -3.6190 
   73.3750   100.3120     5.9360     5.4800     5.4170    24.1100     2.2710    -3.5690 
   73.5000   104.3430     5.7580     5.3740     5.2150    24.1870     2.2730    -3.5220 
   73.6250   104.0250     5.6700     5.2600     5.2590    24.1740     2.2710    -3.5050 
   73.7500    99.9960     5.7010     5.2200     5.3590    24.1250     2.2620    -3.5130 
   73.8750    96.2940     5.8690     5.3080     5.4560    24.0910     2.2530    -3.5340 
   74.0000    96.7340     6.1620     5.5370     5.4940    24.0550     2.2540    -3.5890 
   74.1250    99.2710     6.5130     5.8570     6.0740    24.0270     2.2740    -3.6670 
   74.2500    99.0230     6.7740     6.1280     7.4080    24.0040     2.3030    -3.7540 
   74.3750    96.8860     6.8250     6.2310     8.5870    24.0020     2.3250    -3.8680 
   74.5000    96.0150     6.6360     6.1070     7.1560    24.0120     2.3290    -4.0160 
   74.6250    98.8200     6.3000     5.8030     6.2020    24.0320     2.3140    -4.1530 
   74.7500   102.8100     6.0210     5.5010     5.4000    24.0500     2.2930    -4.3120 
   74.8750   106.1730     5.9240     5.3280     5.1710    24.0740     2.2750    -4.5120 
   75.0000   107.1270     6.0640     5.3490     5.2960    24.0740     2.2660    -4.7180 
   75.1250   105.5380     6.4260     5.5820     5.9600    24.0270     2.2680    -4.9560 
   75.2500   103.6870     6.8470     5.8910     6.8020    23.9690     2.2770    -5.2000 
   75.3750   102.8740     7.1850     6.1420     7.3720    23.9280     2.2870    -5.4530 
   75.5000   103.6250     7.3480     6.2370     6.9190    23.9070     2.2910    -5.7370 
   75.6250   104.1940     7.3230     6.1540     6.2850    23.8970     2.2830    -6.0550 
   75.7500   102.2220     7.2420     6.0160     5.9820    23.8640     2.2660    -6.4000 
   75.8750    97.3240     7.2010     5.9250     5.9780    23.7900     2.2460    -6.7630 
   76.0000    93.1100     7.2480     5.9380     6.3350    23.7170     2.2280    -7.1290 
   76.1250    93.2570     7.3840     6.0740     6.6610    23.5890     2.2150    -7.4810 
   76.2500    94.8290     7.5480     6.2800     7.0150    23.4040     2.2030    -7.7940 
   76.3750    95.4100     7.7070     6.5180     7.1590    23.3100     2.1930    -8.0700 
   76.5000    93.1310     7.8620     6.7590     7.2200    23.3400     2.1850    -8.2950 
   76.6250    88.9020     8.0590     6.9800     7.6440    23.3300     2.1790    -8.4110 
   76.7500    84.8190     8.3410     7.1840     7.8880    23.2680     2.1730    -8.4320 
   76.8750    82.5620     8.7210     7.3760     8.1130    23.2290     2.1660    -8.3210 
   77.0000    82.1380     9.1460     7.5410     8.4200    23.2310     2.1590    -8.0870 
   77.1250    82.7450     9.4400     7.5980     8.3990    23.2470     2.1530    -7.7220 
   77.2500    84.4500     9.4260     7.4620     8.2720    23.2150     2.1520    -7.2510 
   77.3750    87.3000     8.9920     7.0720     8.0880    23.1550     2.1580    -6.7250 
   77.5000    92.8400     8.1510     6.4450     7.5850    23.1600     2.1730    -6.1280 
   77.6250   103.9350     7.0160     5.6680     6.3900    23.2490     2.2030    -5.5440 
   77.7500   116.2190     5.8490     4.8880     5.2680    23.3660     2.2380    -5.0050 
   77.8750   123.1430     4.8440     4.2110     4.8500    23.4110     2.2690    -4.5030 
   78.0000   122.9570     4.1710     3.7300     4.6930    23.4100     2.2870    -4.1140 
   78.1250   121.9860     4.0600     3.5750     4.4730    23.4000     2.2900    -3.8210 
   78.2500   121.7680     4.5160     3.7560     4.6860    23.3820     2.2930    -3.6190 
   78.3750   117.0500     5.5170     4.2780     6.6740    23.3390     2.3110    -3.5140 
   78.5000   105.7900     6.8890     5.0670    12.4470    23.3670     2.3460    -3.4550 
   78.6250    96.1810     8.1440     5.8800    23.8480    23.4690     2.3850    -3.4500 
   78.7500    96.5430     8.7240     6.3720    21.9630    23.6780     2.4060    -3.4550 
   78.8750   103.0850     8.4240     6.3810    13.8320    23.8510     2.4000    -3.4680 
   79.0000   107.8330     7.5090     6.0100     7.6330    24.0690     2.3740    -3.5100 
   79.1250   105.4990     6.5350     5.5500     6.0930    24.1760     2.3460    -3.5640 
   79.2500   102.5450     5.9000     5.2650     5.9830    24.2160     2.3300    -3.6320 
   79.3750   102.7170     5.6990     5.2450     5.8540    24.2150     2.3270    -3.7220 
   79.5000   105.8100     5.8950     5.4880     5.8750    24.1700     2.3300    -3.8270 
   79.6250   106.9210     6.4240     5.9540     5.9440    24.0130     2.3240    -3.9370 
   79.7500   101.8550     7.0810     6.4830     6.4260    23.8010     2.3050    -4.0560 
   79.8750    94.0410     7.6790     6.9220     7.1680    23.6330     2.2730    -4.1380 
   80.0000    89.3400     8.0100     7.1200     7.4790    23.5970     2.2340    -4.1690 
   80.1250    89.6120     7.8780     6.9490     7.0880    23.7270     2.1990    -4.1810 
   80.2500    92.3680     7.4220     6.5370     6.7250    23.8500     2.1800    -4.1690 
   80.3750    96.3880     6.8320     6.0310     6.3420    23.9720     2.1800    -4.1200 
   80.5000   100.6270     6.2980     5.5750     5.6270    24.0470     2.1950    -4.0530 
   80.6250   102.7930     5.9720     5.2810     5.3730    24.1250     2.2130    -3.9980 
   80.7500   103.5010     5.8230     5.1170     5.3830    24.2190     2.2260    -3.9340 
   80.8750   104.8810     5.7860     5.0240     5.3650    24.3030     2.2350    -3.8880 
   81.0000   107.6470     5.7930     4.9550     5.2640    24.3380     2.2470    -3.8760 
   81.1250   109.8450     5.8000     4.9050     5.2720    24.3240     2.2670    -3.8680 
   81.2500   108.5460     5.7840     4.8900     5.3500    24.2900     2.2880    -3.9030 
   81.3750   105.0370     5.7510     4.9370     5.3980    24.2680     2.3030    -3.9570 
   81.5000   102.6450     5.7390     5.0600     5.6260    24.2450     2.3060    -4.0410 
   81.6250   101.9060     5.8100     5.2510     6.0930    24.2360     2.3010    -4.1630 
   81.7500   100.3070     5.9790     5.4520     6.0120    24.2310     2.2980    -4.2970 
   81.8750    97.0500     6.2400     5.6230     5.8260    24.2230     2.3030    -4.4720 
   82.0000    92.8850     6.5490     5.7420     6.4810    24.1890     2.3140    -4.6510 
   82.1250    90.1590     6.8120     5.7820     7.6760    24.1090     2.3240    -4.8510 
   82.2500    88.8530     6.9660     5.7610     7.3980    24.0560     2.3240    -5.0810 
   82.3750    88.5690     6.9970     5.7000     6.1790    24.0320     2.3100    -5.2930 
   82.5000    87.5110     6.9140     5.6180     5.8050    23.9860     2.2820    -5.5110 
   82.6250    84.5030     6.7430     5.5440     6.2280    23.8630     2.2510    -5.6850 
   82.7500    81.7100     6.5660     5.5250     6.6240    23.7250     2.2280    -5.8380 
   82.8750    80.1760     6.4490     5.5890     6.5050    23.6520     2.2210    -6.0040 
   83.0000    78.8430     6.4540     5.7320     6.2390    23.6550     2.2260    -6.1460 
   83.1250    76.2260     6.6340     5.9140     6.0380    23.6910     2.2370    -6.2960 
   83.2500    75.0960     6.9080     6.0620     6.4740    23.7090     2.2470    -6.3960 
   83.3750    76.7770     7.1680     6.1210     6.2120    23.7030     2.2510    -6.5150 
   83.5000    78.1710     7.3090     6.0650     6.1370    23.6820     2.2540    -6.6280 
   83.6250    77.4050     7.2600     5.8980     6.1590    23.6630     2.2570    -6.7540 
