~V
VERS. 2.00: Ver 2.00
~W
STRT.M 55.0000:
STOP.M 308.0000:
STEP.M 0.1250:
NULL. -999.2500:
UWI. F10053:
~C
DEPT.M :
GR.API :
RML.OHMM :
RI. :
RXO.OHMM :
CALI.CM :
DEN.GM/CC :
SP.MV :
~A
# ...
  223.7500    73.6020    12.9230    12.4480    15.7750    23.7320     2.3710   -24.3290 
  223.8750    72.5750    13.0170    12.5350    16.3460    23.7550     2.3610   -24.4280 
  224.0000    72.6720    13.0630    12.5780    16.6460    23.7550     2.3320   -24.6940 
  224.1250    72.0770    13.0530    12.5750    16.3350    23.7350     2.2870   -25.1420 
  224.2500    69.8510    12.9930    12.5150    16.0320    23.6630     2.2450   -25.6420 
  224.3750    65.7330    12.8860    12.4030    15.5000    23.5250     2.2210   -26.1900 
  224.5000    61.1750    12.7480    12.2600    14.4980    23.3760     2.2230   -26.6810 
  224.6250    61.3370    12.5970    12.1120    13.9550    23.3250     2.2470   -27.0540 
  224.7500    64.3230    12.4540    11.9640    14.3020    23.3730     2.2720   -27.3470 
  224.8750    65.7440    12.3480    11.8440    14.8600    23.4940     2.2860   -27.5300 
  225.0000    63.9870    12.3050    11.8010    14.8500    23.5140     2.2870   -27.5970 
  225.1250    63.1280    12.3310    11.8470    14.4840    23.4150     2.2810   -27.6630 
  225.2500    65.3100    12.3730    11.9040    14.0960    23.2610     2.2800   -27.7730 
  225.3750    68.6460    12.3920    11.9260    13.6900    23.1110     2.2860   -27.8160 
  225.5000    72.6760    12.3840    11.9000    13.6030    23.0940     2.2920   -27.8600 
  225.6250    74.6250    12.3870    11.8860    14.5070    23.2050     2.2930   -27.8850 
  225.7500    74.4550    12.4320    11.9370    15.0890    23.2550     2.2860   -27.9400 
  225.8750    72.7520    12.4980    12.0300    15.4890    23.3060     2.2780   -28.0380 
  226.0000    69.7310    12.5350    12.0820    15.6510    23.4200     2.2760   -28.1480 
  226.1250    67.6490    12.5120    12.0350    15.7660    23.6090     2.2830   -28.1270 
  226.2500    68.8840    12.4730    11.9750    15.5220    23.7190     2.2950   -28.0420 
  226.3750    71.9770    12.4570    11.9640    15.2760    23.7540     2.3090   -27.9670 
  226.5000    73.0740    12.4720    11.9890    15.2830    23.7570     2.3240   -27.8980 
  226.6250    72.3780    12.5030    12.0210    15.4750    23.7570     2.3410   -27.8760 
  226.7500    72.6170    12.5280    12.0490    15.7020    23.7570     2.3530   -27.8850 
  226.8750    74.0600    12.5380    12.0600    15.8640    23.7570     2.3550   -28.0200 
  227.0000    75.5280    12.5210    12.0480    15.8980    23.7740     2.3370   -28.3150 
  227.1250    75.3560    12.4510    11.9880    15.5350    23.8500     2.2960   -28.7840 
  227.2500    71.9600    12.3270    11.8630    14.9900    23.9860     2.2430   -29.3500 
  227.3750    67.0960    12.1630    11.6850    14.5590    24.1100     2.1930   -29.9680 
  227.5000    64.8430    11.9960    11.5060    14.3310    24.1890     2.1600   -30.5770 
  227.6250    64.8040    11.8740    11.3860    13.6640    24.2040     2.1560   -31.1870 
  227.7500    63.3230    11.8080    11.3230    13.2930    24.1850     2.1740   -31.6830 
  227.8750    59.9730    11.8040    11.3140    13.2570    24.1600     2.2060   -32.0330 
  228.0000    56.9810    11.8560    11.3750    13.2000    24.0500     2.2380   -32.2050 
  228.1250    57.4030    11.9430    11.4750    13.1740    23.7550     2.2530   -32.2430 
  228.2500    60.2740    12.0290    11.5610    13.3250    23.4810     2.2460   -32.2110 
  228.3750    62.9970    12.1000    11.6270    13.6750    23.4650     2.2230   -32.1310 
  228.5000    64.2410    12.1600    11.6830    13.9640    23.7020     2.1940   -32.0640 
  228.6250    66.7610    12.2030    11.7340    13.8260    23.9970     2.1760   -31.9930 
  228.7500    71.1040    12.2090    11.7530    13.4450    24.1930     2.1730   -31.9450 
  228.8750    72.8930    12.1550    11.6990    13.1520    24.2510     2.1850   -31.9120 
  229.0000    69.8200    12.0370    11.5720    12.9600    24.1940     2.2060   -31.9100 
  229.1250    65.9720    11.8620    11.3990    12.9000    24.1980     2.2310   -31.8960 
  229.2500    64.9410    11.6180    11.1890    12.9990    24.3390     2.2520   -31.8400 
  229.3750    65.6660    11.3510    10.8920    13.0290    24.4800     2.2630   -31.6580 
  229.5000    64.8790    11.1220    10.4550    12.8230    24.2510     2.2600   -31.3010 
  229.6250    61.9500    10.9870     9.9520    12.4890    23.8240     2.2430   -30.8330 
  229.7500    59.9460    11.1290     9.6850    12.6730    23.3850     2.2280   -30.3690 
  229.8750    58.8180    12.0500    10.0410    13.3640    23.1320     2.2350   -29.9040 
  230.0000    56.8830    14.4790    11.5380    15.4350    23.0500     2.2770   -29.5000 
  230.1250    54.3750    19.5310    15.3340    25.8860    23.0850     2.3580   -29.1690 
  230.2500    54.0010    26.8150    21.8570    62.1290    23.3810     2.4420   -28.9650 
  230.3750    54.3450    34.6250    30.5140   115.2920    23.7740     2.4960   -28.9440 
  230.5000    53.1610    39.6110    37.7530   113.3570    23.9730     2.4940   -29.2060 
  230.6250    51.7350    37.8610    36.9250    86.4990    23.9890     2.4330   -29.7090 
  230.7500    52.7500    31.2380    29.9980    58.3340    23.9600     2.3490   -30.3330 
  230.8750    54.1470    23.1820    22.0270    28.7040    23.9490     2.2740   -30.9730 
  231.0000    53.9550    16.7010    15.9880    15.8980    23.9470     2.2290   -31.5960 
  231.1250    53.3770    13.1570    12.5890    13.0620    23.9470     2.2170   -32.2180 
  231.2500    53.6100    11.4530    10.8260    12.7230    23.9480     2.2210   -32.8170 
  231.3750    53.8240    10.8300    10.1900    12.7910    23.9460     2.2310   -33.3300 
  231.5000    53.8900    10.8250    10.2860    12.9990    23.9450     2.2390   -33.7040 
  231.6250    55.5840    11.1950    10.7450    13.2370    23.9470     2.2420   -33.8840 
  231.7500    58.6170    11.6120    11.1910    13.4750    23.9670     2.2380   -33.9670 
  231.8750    60.6620    11.9200    11.4960    13.5790    24.0320     2.2290   -34.0260 
  232.0000    60.3520    12.0850    11.6390    13.6870    24.1290     2.2160   -34.0760 
  232.1250    58.0850    12.1250    11.6600    13.6170    24.1950     2.2050   -34.1020 
  232.2500    56.3290    12.1100    11.6380    13.4920    24.2110     2.2020   -34.0570 
  232.3750    55.7590    12.0630    11.5960    13.3320    24.2610     2.2080   -34.0550 
  232.5000    57.1510    11.9810    11.5250    13.2740    24.4180     2.2190   -34.0700 
  232.6250    59.9530    11.8440    11.3890    13.4530    24.5810     2.2260   -34.0460 
  232.7500    61.4480    11.6790    11.2070    13.5340    24.5640     2.2240   -33.9990 
  232.8750    59.5790    11.5300    11.0400    13.2800    24.2850     2.2120   -33.9770 
  233.0000    56.0340    11.4440    10.9530    12.8320    24.1230     2.1970   -33.9290 
  233.1250    54.6760    11.4440    10.9700    12.6160    24.1410     2.1890   -33.8690 
  233.2500    56.8310    11.4930    11.0260    12.7200    24.1450     2.1910   -33.8010 
  233.3750    60.6330    11.5540    11.0950    12.8900    24.1340     2.2010   -33.6980 
  233.5000    61.4610    11.5950    11.1470    12.9280    24.1330     2.2120   -33.5960 
  233.6250    58.6790    11.5820    11.1340    12.8830    24.1680     2.2130   -33.5790 
  233.7500    56.8120    11.5230    11.0660    12.7750    24.2440     2.1990   -33.5540 
  233.8750    57.5220    11.4460    10.9720    12.5590    24.2600     2.1760   -33.5430 
  234.0000    59.1030    11.3990    10.9110    12.3610    24.1690     2.1550   -33.5190 
  234.1250    60.2750    11.4170    10.9390    12.2760    24.0610     2.1480   -33.4500 
  234.2500    61.1180    11.4660    11.0140    12.2660    24.0520     2.1570   -33.3550 
  234.3750    59.8570    11.4880    11.0540    12.1430    24.1260     2.1750   -33.2750 
  234.5000    56.9200    11.4380    10.9980    11.8760    24.1660     2.1920   -33.1730 
  234.6250    56.0720    11.3130    10.8570    11.8960    24.0380     2.1990   -33.0400 
  234.7500    57.7390    11.1640    10.7030    12.1090    23.8270     2.2000   -32.8460 
  234.8750    58.7630    11.0260    10.5610    12.0830    23.6020     2.2000   -32.5610 
