~V
VERS. 2.00: Ver 2.00
~W
STRT.M 60.0000:
STOP.M 217.0000:
STEP.M 0.1250:
NULL. -999.2500:
UWI. F10010:
~C
DEPT.M :
DEN.GM/CC :
GR.API :
RML.OHMM :
RI. :
RXO.OHMM :
CALI.CM :
SP.MV :
~A
# ...
   93.7500     2.1180    69.7580    36.2590    31.4830    32.8860    24.6330   -28.4740 
   93.8750     2.1070    67.9580    41.3270    35.9430    39.8120    24.3540   -28.3970 
   94.0000     2.1110    66.6060    47.3620    41.5450    47.1540    23.8090   -28.2930 
   94.1250     2.1290    65.5760    53.8800    47.8780    49.8370    23.2800   -28.1700 
   94.2500     2.1440    66.3760    60.1850    54.1150    52.1050    22.9540   -28.0550 
   94.3750     2.1520    68.9200    65.6180    59.5470    57.7440    22.8410   -27.9630 
   94.5000     2.1510    71.3880    69.2690    63.3540    65.2880    22.7780   -27.8950 
   94.6250     2.1490    71.6980    69.4930    64.1700    61.3130    22.6750   -27.8410 
   94.7500     2.1520    69.1030    66.3860    62.0180    44.8790    22.5030   -27.7870 
   94.8750     2.1620    64.8420    60.8070    57.4680    27.4760    22.3180   -27.7350 
   95.0000     2.1780    61.5990    54.3540    51.8040    16.9630    22.1600   -27.6870 
   95.1250     2.1950    61.4730    48.7650    46.5560    13.9710    22.0120   -27.6460 
   95.2500     2.2030    62.5070    44.6650    42.5360    15.2470    21.8940   -27.6130 
   95.3750     2.1940    62.9160    42.0180    39.8540    19.5090    21.9280   -27.5850 
   95.5000     2.1710    62.3230    40.4410    38.2340    24.2550    22.2730   -27.5580 
   95.6250     2.1480    61.4430    39.4320    37.3060    25.8430    23.1600   -27.5340 
   95.7500     2.1370    61.9780    38.4000    36.4830    24.2430    24.0290   -27.5160 
   95.8750     2.1330    62.9350    37.1380    35.5080    20.7990    24.4230   -27.5050 
   96.0000     2.1250    62.0090    35.7110    34.3630    17.9420    24.2290   -27.4990 
   96.1250     2.0970    59.9190    34.4310    33.2880    17.4910    24.0820   -27.4980 
   96.2500     2.0590    60.0210    33.5580    32.5390    19.8540    24.3730   -27.5000 
   96.3750     2.0270    62.6570    33.1820    32.1860    24.0150    24.7440   -27.4990 
   96.5000     2.0170    63.9800    33.2190    32.1630    27.7120    24.8240   -27.4990 
   96.6250     2.0320    62.8460    33.4290    32.2650    29.8130    24.7390   -27.5070 
   96.7500     2.0580    61.7370    33.4740    32.2170    30.6800    24.6640   -27.5290 
   96.8750     2.0840    61.0440    33.1810    31.8640    30.5880    24.6070   -27.5740 
   97.0000     2.1050    60.4020    32.5380    31.1750    29.4130    24.5890   -27.6410 
   97.1250     2.1220    60.7730    31.6880    30.2580    27.3530    24.6010   -27.7320 
   97.2500     2.1350    62.1210    30.8790    29.3250    25.5390    24.5650   -27.8390 
   97.3750     2.1460    62.3070    30.2560    28.5290    24.7500    24.5040   -27.9600 
   97.5000     2.1530    59.4940    29.9000    27.9700    24.8690    24.5020   -28.0940 
   97.6250     2.1590    56.3710    29.8850    27.7300    25.0350    24.5250   -28.2450 
   97.7500     2.1670    55.2460    30.1200    27.7280    25.1420    24.5440   -28.4070 
   97.8750     2.1770    56.0130    30.5460    27.9060    25.7030    24.5480   -28.5780 
   98.0000     2.1860    57.4320    31.1300    28.2450    26.8670    24.5450   -28.7570 
   98.1250     2.1860    59.2670    31.8850    28.7630    27.3070    24.4930   -28.9420 
   98.2500     2.1750    60.5760    32.7550    29.4070    27.2310    24.4300   -29.1290 
   98.3750     2.1570    60.0700    33.6310    30.0840    28.3330    24.4160   -29.3260 
   98.5000     2.1360    58.2900    34.2750    30.5990    30.9060    24.4930   -29.5440 
   98.6250     2.1170    58.3010    34.2170    30.5660    32.4050    24.5850   -29.8080 
   98.7500     2.1030    61.0510    33.3810    29.8790    31.4070    24.5530   -30.1250 
   98.8750     2.0970    64.9990    31.9970    28.7170    28.2860    24.4390   -30.4870 
   99.0000     2.1000    67.9380    30.5740    27.4690    24.4360    24.3090   -30.8650 
   99.1250     2.1130    67.6290    29.8570    26.6890    22.7680    24.1850   -31.2140 
   99.2500     2.1270    65.2000    30.1930    26.7070    24.8400    24.0960   -31.5140 
   99.3750     2.1340    63.0620    31.6680    27.6650    30.1050    24.0710   -31.7560 
   99.5000     2.1320    63.6560    34.0500    29.5040    35.3400    24.1090   -31.9380 
   99.6250     2.1240    66.1110    36.8270    31.9360    36.8290    24.1430   -32.0530 
   99.7500     2.1180    66.4830    39.2680    34.2870    36.8550    24.1010   -32.1000 
   99.8750     2.1200    64.0090    40.9340    36.0730    37.2310    24.0340   -32.0530 
  100.0000     2.1270    60.7980    41.7090    37.0210    37.3360    23.9860   -31.8990 
  100.1250     2.1370    59.4620    41.7120    37.1110    36.8880    24.0240   -31.6140 
  100.2500     2.1460    59.6690    41.3410    36.7530    36.5100    24.0510   -31.1330 
  100.3750     2.1550    60.5390    40.7150    36.1130    36.3470    24.0050   -30.8670 
  100.5000     2.1630    61.0770    39.8820    35.2990    35.8030    23.8600   -30.6700 
  100.6250     2.1720    58.7260    38.9840    34.4550    34.2670    23.7480   -30.4050 
  100.7500     2.1800    55.9870    38.4390    33.8470    32.8630    23.9540   -30.1040 
  100.8750     2.1830    56.5440    38.7520    33.8120    32.4170    24.2830   -29.7870 
  101.0000     2.1800    59.1510    40.0660    34.5070    32.7580    24.5120   -29.4950 
  101.1250     2.1830    58.6080    41.3920    35.3110    32.6570    24.5790   -29.2430 
  101.2500     2.2090    56.7880    40.7440    34.6960    35.7360    24.5070   -28.9900 
  101.3750     2.2660    58.4490    36.8070    31.5610    45.1790    24.1520   -28.7180 
  101.5000     2.3440    64.9900    30.1130    26.2920    41.8330    23.4540   -28.4340 
  101.6250     2.4110    73.4250    23.0260    20.7080    22.9500    23.0060   -28.1770 
  101.7500     2.4410    78.8050    17.5450    16.2740    12.5060    22.6820   -27.9670 
  101.8750     2.4280    79.7350    14.0060    13.2500     9.5150    22.4850   -27.7940 
  102.0000     2.3860    78.5470    11.9900    11.3850    10.1170    22.3130   -27.6390 
  102.1250     2.3390    79.5780    10.9960    10.3740    10.3700    22.2190   -27.4860 
  102.2500     2.3080    82.8260    10.3740     9.7490     9.2740    22.3490   -27.3340 
  102.3750     2.2960    86.6810     9.8530     9.2750     7.9010    22.7570   -27.1910 
  102.5000     2.2990    89.9220     9.3270     8.8230     6.9920    23.1880   -27.0630 
  102.6250     2.3100    90.5640     8.8350     8.4080     6.6440    23.4170   -26.9650 
  102.7500     2.3200    90.6730     8.4190     8.0500     6.5830    23.4900   -26.8980 
  102.8750     2.3260    92.3180     8.0560     7.7480     6.6020    23.5160   -26.8630 
  103.0000     2.3290    94.8220     7.6990     7.4780     6.4900    23.5240   -26.8690 
  103.1250     2.3290    94.3460     7.3160     7.1970     6.1040    23.5330   -26.9430 
  103.2500     2.3300    93.8400     6.9310     6.9030     5.6650    23.5500   -27.0820 
  103.3750     2.3330    96.0260     6.6080     6.6200     5.4800    23.5520   -27.2730 
  103.5000     2.3370    98.7310     6.4380     6.4190     5.4940    23.5490   -27.5010 
  103.6250     2.3470    98.5620     6.5570     6.4360     5.4950    23.5420   -27.7580 
  103.7500     2.3660    96.9630     6.9610     6.7040     5.7730    23.5170   -28.0370 
  103.8750     2.3940    96.7690     7.6090     7.2340     6.7990    23.4630   -28.3260 
  104.0000     2.4240    96.8360     8.3850     7.9540     8.7940    23.3740   -28.5970 
  104.1250     2.4360    94.5700     9.0700     8.6700    10.3020    23.3050   -28.7990 
  104.2500     2.4230    90.9860     9.4920     9.1700     9.9090    23.3240   -28.9190 
  104.3750     2.3900    88.2600     9.6070     9.3430     8.5630    23.4260   -28.9620 
  104.5000     2.3530    88.2210     9.5170     9.2350     7.5850    23.5500   -28.9510 
  104.6250     2.3300    89.7490     9.4170     9.0290     7.5430    23.6320   -28.8980 
  104.7500     2.3220    90.6310     9.4730     8.9090     8.0150    23.6630   -28.8180 
  104.8750     2.3180    90.2170     9.7220     8.9390     8.6010    23.6330   -28.7140 
