~V
VERS. 2.00: Ver 2.00
~W
STRT.M 59.0000:
STOP.M 275.0000:
STEP.M 0.1250:
NULL. -999.2500:
UWI. F10021:
~C
DEPT.M :
GR.API :
RML.OHMM :
RI. :
RXO.OHMM :
CALI.CM :
DEN.GM/CC :
SP.MV :
~A
# ...
  250.2500    29.2450     4.2690     3.9750     3.6490    23.1140     2.3500    -9.7370 
  250.3750    29.6360     4.2520     3.9140     3.6560    23.1790     2.3680    -9.8130 
  250.5000    30.4700     4.2350     3.8530     3.7050    23.2330     2.3900    -9.9040 
  250.6250    32.1500     4.2110     3.7910     3.7750    23.2570     2.4020   -10.0080 
  250.7500    33.5330     4.1770     3.7250     3.7910    23.2440     2.4030   -10.1230 
  250.8750    33.6070     4.1390     3.6580     3.7310    23.2100     2.3970   -10.2510 
  251.0000    31.9720     4.1060     3.6020     3.6750    23.2090     2.3900   -10.3850 
  251.1250    30.9080     4.0960     3.5700     3.6570    23.2520     2.3900   -10.5010 
  251.2500    31.3820     4.1030     3.5670     3.6830    23.3040     2.3910   -10.5850 
  251.3750    32.7330     4.1220     3.5890     3.7330    23.3510     2.3910   -10.6520 
  251.5000    35.1970     4.1570     3.6270     3.8520    23.3890     2.3880   -10.7050 
  251.6250    37.3860     4.1790     3.6690     4.0250    23.4030     2.3860   -10.7450 
  251.7500    36.9640     4.1810     3.7030     4.1520    23.4110     2.3920   -10.7660 
  251.8750    34.7110     4.1690     3.7200     4.1720    23.4200     2.4070   -10.7700 
  252.0000    33.2290     4.1340     3.7160     4.1580    23.4380     2.4270   -10.7650 
  252.1250    32.7100     4.0730     3.6870     4.1360    23.4580     2.4470   -10.7710 
  252.2500    30.8160     3.9920     3.6380     4.0770    23.4590     2.4590   -10.7780 
  252.3750    27.5560     3.9110     3.5810     3.9640    23.4120     2.4620   -10.7750 
  252.5000    24.9130     3.8520     3.5250     3.8180    23.3140     2.4590   -10.7650 
  252.6250    24.3280     3.7970     3.4860     3.7380    23.2020     2.4540   -10.7360 
  252.7500    25.3430     3.7690     3.4660     3.7190    23.1560     2.4470   -10.7050 
  252.8750    26.3510     3.7790     3.4640     3.7550    23.2900     2.4360   -10.6550 
  253.0000    26.0010     3.8060     3.4750     3.8020    23.5550     2.4180   -10.5870 
  253.1250    25.5610     3.8340     3.4910     3.7990    23.7480     2.3980   -10.5050 
  253.2500    26.4050     3.8630     3.5100     3.7390    23.7720     2.3800   -10.4330 
  253.3750    27.5450     3.8970     3.5300     3.6940    23.7120     2.3720   -10.3780 
  253.5000    27.2050     3.9370     3.5500     3.7020    23.6390     2.3760   -10.3310 
  253.6250    25.8500     3.9770     3.5670     3.7560    23.6030     2.3930   -10.3100 
  253.7500    25.4120     4.0050     3.5780     3.7970    23.5960     2.4160   -10.3070 
  253.8750    26.5000     4.0150     3.5810     3.8020    23.5950     2.4410   -10.3340 
  254.0000    27.8290     4.0070     3.5770     3.7760    23.5830     2.4630   -10.3890 
  254.1250    27.1210     3.9920     3.5690     3.7470    23.5510     2.4770   -10.4410 
  254.2500    25.9260     3.9860     3.5630     3.7420    23.5100     2.4830   -10.4890 
  254.3750    25.6900     3.9990     3.5670     3.7530    23.4690     2.4850   -10.5390 
  254.5000    25.8350     4.0280     3.5800     3.7580    23.4470     2.4850   -10.6080 
  254.6250    25.6830     4.0600     3.5980     3.7740    23.4750     2.4880   -10.7110 
  254.7500    25.1820     4.0770     3.6120     3.8260    23.5410     2.4950   -10.8370 
  254.8750    24.3970     4.0700     3.6120     3.9130    23.6280     2.5050   -10.9720 
  255.0000    23.2660     4.0470     3.5990     3.9800    23.7050     2.5150   -11.1070 
  255.1250    23.8110     4.0320     3.5840     4.0040    23.7400     2.5200   -11.2700 
  255.2500    26.3430     4.0550     3.5880     3.9920    23.7520     2.5200   -11.4730 
  255.3750    28.4310     4.1400     3.6290     4.0070    23.7520     2.5180   -11.7180 
  255.5000    29.1740     4.2960     3.7190     4.1100    23.7260     2.5170   -11.9950 
  255.6250    31.3470     4.5110     3.8520     4.3000    23.6140     2.5200   -12.2750 
  255.7500    35.6830     4.7210     3.9930     4.5110    23.3840     2.5230   -12.5390 
  255.8750    39.2810     4.8640     4.1010     4.6730    23.0170     2.5120   -12.7760 
  256.0000    40.2600     4.8900     4.1440     4.7840    22.5550     2.4790   -13.0060 
  256.1250    39.6510     4.7840     4.1040     4.8360    22.1670     2.4280   -13.2380 
  256.2500    39.5610     4.6550     4.0400     4.8510    21.9130     2.3770   -13.4540 
  256.3750    39.0510     4.6480     4.0400     4.8430    21.7100     2.3390   -13.6630 
  256.5000    38.1990     4.9290     4.2200     4.9130    21.5820     2.3150   -13.8620 
  256.6250    40.3460     5.7000     4.7530     5.2850    21.4990     2.2980   -14.0760 
  256.7500    45.6600     6.8730     5.6260     6.0450    21.3860     2.2810   -14.3030 
  256.8750    51.7400     8.2360     6.7360     7.2140    21.2250     2.2620   -14.5450 
  257.0000    58.6270     9.4290     7.8360     8.6040    21.0790     2.2490   -14.7550 
  257.1250    65.4330     9.9020     8.4780     9.4260    21.0430     2.2490   -14.8770 
  257.2500    67.4540     9.5240     8.4410     9.3120    21.1550     2.2570   -14.9000 
  257.3750    62.4080     8.4360     7.7370     8.2410    21.4650     2.2670   -14.8060 
  257.5000    54.1110     7.0360     6.6360     6.5940    21.9340     2.2790   -14.6080 
  257.6250    46.9910     5.8060     5.5340     5.2620    22.3780     2.2970   -14.3190 
  257.7500    40.1830     4.9470     4.6840     4.5380    22.6430     2.3290   -13.9910 
  257.8750    34.6160     4.4560     4.1360     4.2670    22.7150     2.3720   -13.6270 
  258.0000    32.2250     4.2470     3.8530     4.1800    22.7080     2.4170   -13.2510 
  258.1250    32.1050     4.2350     3.7860     4.1480    22.6910     2.4510   -12.9290 
  258.2500    31.2910     4.2940     3.8180     4.1560    22.6710     2.4710   -12.6840 
  258.3750    29.4960     4.3650     3.8950     4.2020    22.6410     2.4780   -12.5170 
  258.5000    28.4240     4.4150     3.9760     4.2720    22.6080     2.4760   -12.4080 
  258.6250    29.7690     4.4220     4.0350     4.3620    22.5840     2.4670   -12.3070 
  258.7500    32.0830     4.3930     4.0620     4.3920    22.5780     2.4560   -12.1560 
  258.8750    33.4260     4.3370     4.0570     4.3260    22.5800     2.4460   -11.9560 
  259.0000    33.6550     4.2690     4.0240     4.2740    22.5860     2.4410   -11.7140 
  259.1250    33.6070     4.2010     3.9770     4.2590    22.6050     2.4460   -11.3960 
  259.2500    33.2370     4.1440     3.9320     4.2050    22.6370     2.4590   -11.0300 
  259.3750    32.0180     4.1010     3.8960     4.1850    22.6740     2.4760   -10.6340 
  259.5000    30.5030     4.0680     3.8700     4.1920    22.7160     2.4920   -10.2380 
  259.6250    29.3770     4.0360     3.8460     4.1730    22.7590     2.5020    -9.8780 
  259.7500    28.2580     3.9970     3.8150     4.1090    22.7950     2.5030    -9.5750 
  259.8750    27.0590     3.9520     3.7720     4.0310    22.8190     2.4960    -9.3320 
  260.0000    26.1790     3.9040     3.7180     3.9540    22.8330     2.4840    -9.1490 
  260.1250    26.0980     3.8630     3.6600     3.8810    22.8450     2.4730    -9.0270 
  260.2500    26.4690     3.8310     3.6060     3.8330    22.8640     2.4660    -8.9380 
  260.3750    26.5420     3.8060     3.5600     3.7970    22.8970     2.4640    -8.8610 
  260.5000    26.1300     3.7840     3.5240     3.7510    22.9380     2.4650    -8.7740 
  260.6250    25.6720     3.7640     3.4990     3.7000    22.9760     2.4630    -8.6650 
  260.7500    25.3240     3.7450     3.4830     3.6630    22.9900     2.4540    -8.5510 
  260.8750    25.0220     3.7300     3.4750     3.6450    22.9850     2.4410    -8.4510 
  261.0000    24.4810     3.7230     3.4730     3.6340    22.9650     2.4270    -8.3520 
  261.1250    23.7290     3.7250     3.4710     3.6240    22.9370     2.4210    -8.2340 
  261.2500    23.2580     3.7260     3.4630     3.6070    22.9440     2.4210    -8.1110 
  261.3750    23.4830     3.7140     3.4430     3.5870    23.0120     2.4200    -8.0040 
