~V
VERS. 2.00: Ver 2.00
~W
STRT.M 64.0000:
STOP.M 260.0000:
STEP.M 0.1250:
NULL. -999.2500:
UWI. F10016:
~C
DEPT.M :
GR.API :
RML.OHMM :
RI. :
RXO.OHMM :
CALI.CM :
DEN.GM/CC :
SP.MV :
~A
# ...
  187.7500    66.0030    26.8340    26.4420    30.7300    24.0910     2.2910   -13.9250 
  187.8750    65.7820    26.7570    26.8270    30.6090    24.1060     2.2900   -13.9270 
  188.0000    68.2160    25.7050    26.1340    28.9260    24.1230     2.2900   -13.9710 
  188.1250    69.5210    23.7950    24.3710    25.3230    24.1360     2.2910   -14.0520 
  188.2500    69.4780    21.6330    22.2300    21.4730    24.1300     2.3030   -14.1050 
  188.3750    70.2330    19.6700    20.1490    17.6370    24.0860     2.3320   -14.1360 
  188.5000    71.8270    18.1710    18.3320    15.8890    24.0630     2.3750   -14.1970 
  188.6250    69.8320    17.3050    16.8430    18.5130    24.0470     2.4170   -14.3250 
  188.7500    65.7630    16.3770    15.6160    18.5530    24.0160     2.4420   -14.5260 
  188.8750    65.6990    15.5990    14.6990    13.9990    23.9890     2.4510   -14.7410 
  189.0000    70.3940    15.1950    14.1930    12.1490    24.0230     2.4530   -14.9410 
  189.1250    73.4450    15.3340    14.2530    14.3980    24.0100     2.4560   -15.1840 
  189.2500    72.5190    15.8270    14.7420    18.9520    23.9180     2.4540   -15.5090 
  189.3750    70.3780    16.5190    15.5060    19.9970    23.8540     2.4370   -15.8750 
  189.5000    68.0280    17.3170    16.3960    18.2740    23.8480     2.4020   -16.2050 
  189.6250    66.6910    18.3820    17.4290    17.4360    23.8410     2.3620   -16.4600 
  189.7500    67.3350    20.0730    18.8690    17.9590    23.7970     2.3330   -16.6990 
  189.8750    67.2780    22.8880    21.1970    21.7100    23.7810     2.3250   -16.9570 
  190.0000    63.9190    27.2490    24.9460    30.0730    23.7830     2.3350   -17.2120 
  190.1250    59.0020    33.3990    30.6660    47.0950    23.7570     2.3540   -17.3840 
  190.2500    55.2290    40.2480    37.5180    60.5070    23.7490     2.3660   -17.5020 
  190.3750    52.0480    46.3670    44.1420    65.7440    23.8000     2.3630   -17.6010 
  190.5000    50.9140    50.2430    48.8710    66.2890    23.8140     2.3470   -17.7250 
  190.6250    55.4090    50.6060    50.1230    58.4290    23.8450     2.3280   -17.8600 
  190.7500    60.9610    48.5750    48.7540    49.8440    23.8800     2.3150   -17.9380 
  190.8750    63.1330    45.3630    45.8830    45.2040    23.8510     2.3080   -17.9660 
  191.0000    62.2690    42.0600    42.5910    43.5040    23.8230     2.3060   -17.9990 
  191.1250    61.3340    39.5170    39.7440    41.4350    23.8170     2.3050   -18.0830 
  191.2500    62.8000    37.9710    37.7410    38.9220    23.8340     2.3110   -18.1550 
  191.3750    64.5680    37.4840    36.7620    37.9540    23.8180     2.3310   -18.1810 
  191.5000    62.5300    37.8840    36.7370    37.8460    23.8160     2.3710   -18.1580 
  191.6250    55.8210    38.7420    37.3330    40.6780    23.8030     2.4240   -18.1400 
  191.7500    50.3100    39.3420    37.8550    44.3220    23.8000     2.4630   -18.1980 
  191.8750    49.8510    39.2270    37.8740    44.4240    23.8450     2.4660   -18.3100 
  192.0000    53.1310    38.2750    37.2540    37.5680    23.8500     2.4250   -18.4200 
  192.1250    57.1390    36.7700    36.1860    32.9350    23.8350     2.3530   -18.5100 
  192.2500    60.3220    35.4420    35.1900    34.3450    23.9470     2.2890   -18.5970 
  192.3750    62.2730    34.8010    34.6240    36.9300    24.1100     2.2550   -18.7160 
  192.5000    61.9780    35.1290    34.7240    37.7040    24.1500     2.2530   -18.8840 
  192.6250    59.6780    36.5950    35.7640    38.8250    24.0690     2.2670   -19.0370 
  192.7500    58.0620    38.8180    37.6240    43.8380    24.0220     2.2740   -19.0980 
  192.8750    58.9070    41.5160    40.1810    48.6990    24.0480     2.2690   -19.1090 
  193.0000    60.2980    44.4060    43.1700    50.3910    24.1100     2.2620   -19.1280 
  193.1250    59.6850    47.1590    46.1400    51.7530    24.1260     2.2640   -19.1360 
  193.2500    58.3130    49.4660    48.6060    54.5980    24.1190     2.2750   -19.0920 
  193.3750    57.9610    51.0580    50.2610    58.9350    24.1030     2.2830   -18.9740 
  193.5000    57.8070    51.7800    51.0200    60.8570    24.0610     2.2760   -18.8170 
  193.6250    56.5220    51.5790    50.9320    58.6210    24.0460     2.2530   -18.6800 
  193.7500    56.4100    50.8830    50.3840    53.6010    24.0480     2.2260   -18.5420 
  193.8750    59.1880    50.0030    49.5600    49.9220    24.0870     2.2110   -18.3960 
  194.0000    63.3790    49.1510    48.5590    50.5660    24.1690     2.2120   -18.2430 
  194.1250    63.7270    48.3520    47.3980    51.9010    24.2230     2.2270   -18.1300 
  194.2500    60.2380    47.4400    46.1170    51.5540    24.2460     2.2470   -18.0720 
  194.3750    57.8230    46.2800    44.7360    49.8090    24.2740     2.2690   -18.0510 
  194.5000    58.3380    44.8610    43.2860    46.8470    24.2290     2.2880   -18.0240 
  194.6250    59.1590    43.3890    41.8580    42.7150    24.1320     2.2950   -18.0220 
  194.7500    58.3770    42.2230    40.6440    41.1640    23.9980     2.2860   -18.0910 
  194.8750    59.4210    41.6590    39.9120    44.0090    23.8960     2.2650   -18.1730 
  195.0000    63.0570    41.8890    39.9450    47.0040    23.8960     2.2420   -18.2130 
  195.1250    64.1630    43.1300    41.1240    49.1880    23.9140     2.2360   -18.2040 
  195.2500    60.4650    45.1780    43.2820    52.6100    23.9410     2.2480   -18.1980 
  195.3750    55.3070    47.8740    46.1790    55.8970    24.0290     2.2730   -18.2330 
  195.5000    51.9660    50.8960    49.3570    57.3370    24.0450     2.2960   -18.2860 
  195.6250    52.8740    53.4120    51.9070    55.6690    23.9660     2.3050   -18.2540 
  195.7500    57.0980    54.3070    52.8320    57.2870    23.9520     2.2980   -18.1370 
  195.8750    61.6760    52.5700    51.2660    58.6230    23.9670     2.2840   -18.0010 
  196.0000    62.5180    47.9100    46.9690    54.7200    23.9600     2.2720   -17.8830 
  196.1250    59.3490    41.0360    40.5490    42.4460    23.8360     2.2750   -17.7460 
  196.2500    58.5200    34.0500    33.8870    28.7140    23.7300     2.2870   -17.5540 
  196.3750    60.9790    28.2490    28.1520    21.3670    23.7000     2.3000   -17.3110 
  196.5000    63.0350    24.2330    23.9370    20.6590    23.6820     2.3060   -17.0780 
  196.6250    63.0190    22.2040    21.5700    22.3880    23.6560     2.3020   -16.8730 
  196.7500    63.8960    21.4030    20.5060    22.9250    23.6490     2.2960   -16.6720 
  196.8750    65.7770    21.3260    20.3370    22.1060    23.6480     2.2910   -16.4520 
  197.0000    66.7460    21.5320    20.6040    21.3530    23.6370     2.2900   -16.2290 
  197.1250    68.3410    21.7010    20.8810    21.8500    23.6340     2.2890   -16.0550 
  197.2500    71.3230    21.7460    21.0010    21.6190    23.6630     2.2860   -15.9330 
  197.3750    71.5020    21.7210    21.0290    20.7820    23.7250     2.2820   -15.8200 
  197.5000    67.4900    21.6980    21.0740    20.6380    23.7300     2.2800   -15.6550 
  197.6250    63.4140    21.7130    21.1530    21.4450    23.6620     2.2850   -15.4740 
  197.7500    63.0800    21.7400    21.1550    21.5700    23.5550     2.2990   -15.3500 
  197.8750    64.5730    21.7410    20.9890    21.0540    23.5400     2.3180   -15.2680 
  198.0000    66.2270    21.6800    20.6550    20.5780    23.6540     2.3350   -15.1670 
  198.1250    67.2310    21.4980    20.2380    21.0500    23.8610     2.3410   -15.0190 
  198.2500    67.9020    21.1880    19.8500    22.2020    23.9700     2.3350   -14.8590 
  198.3750    69.8180    20.7470    19.4990    22.0210    24.0160     2.3230   -14.7260 
  198.5000    71.7930    20.2090    19.1370    20.8340    24.0300     2.3100   -14.6670 
  198.6250    69.5090    19.6690    18.7510    19.7150    24.0500     2.2990   -14.6650 
  198.7500    65.1330    19.2800    18.4570    19.9220    24.0840     2.2890   -14.6450 
  198.8750    64.3550    19.1910    18.4300    19.7610    24.0720     2.2780   -14.6030 
