~V
VERS. 2.00: Ver 2.00
~W
STRT.M 50.0000:
STOP.M 278.0000:
STEP.M 0.1250:
NULL. -999.2500:
UWI. F10031:
~C
DEPT.M :
GR.API :
RML.OHMM :
RI. :
RXO.OHMM :
CALI.CM :
DEN.GM/CC :
SP.MV :
~A
# ...
  218.7500    60.9640    23.9100    23.1860    28.1810    23.4430     2.2780   -10.6730 
  218.8750    62.2870    22.6430    21.7120    25.8190    23.4140     2.2640   -10.8960 
  219.0000    64.2360    22.0140    20.9020    24.0760    23.3480     2.2750   -11.0770 
  219.1250    64.8070    21.6170    20.4280    24.4200    23.2460     2.3020   -11.2030 
  219.2500    63.5310    21.0410    19.8920    25.0890    23.1640     2.3280   -11.2660 
  219.3750    61.5000    20.1160    19.1030    24.3520    23.1790     2.3440   -11.2610 
  219.5000    60.5310    18.8670    18.0380    21.9980    23.2110     2.3480   -11.1890 
  219.6250    61.9100    17.5410    16.8610    18.2800    23.2070     2.3420   -11.0580 
  219.7500    64.2010    16.4730    15.8590    15.9730    23.1730     2.3310   -10.8900 
  219.8750    64.8410    15.8530    15.2080    15.1130    23.1090     2.3200   -10.7160 
  220.0000    63.2370    15.7160    14.9690    14.9990    23.0280     2.3090   -10.5370 
  220.1250    62.0940    15.9930    15.1280    15.4680    22.9360     2.3030   -10.3630 
  220.2500    62.5310    16.4190    15.4750    16.2960    22.8730     2.3020   -10.2030 
  220.3750    62.6320    16.8390    15.8690    17.1200    22.8870     2.3060   -10.0520 
  220.5000    61.6040    17.1750    16.2190    17.6030    22.9640     2.3140    -9.9160 
  220.6250    60.7280    17.4250    16.4960    18.0310    23.0680     2.3200    -9.7940 
  220.7500    60.5820    17.6640    16.7480    18.7460    23.1490     2.3210    -9.6830 
  220.8750    61.2800    17.9490    17.0210    19.6620    23.2050     2.3150    -9.5690 
  221.0000    63.8790    18.3160    17.3460    20.3520    23.2430     2.3070    -9.4600 
  221.1250    67.1790    18.7870    17.7350    20.8910    23.2970     2.2990    -9.3700 
  221.2500    68.1680    19.3100    18.1430    21.3130    23.3560     2.2940    -9.2990 
  221.3750    67.3000    19.8060    18.5030    21.7070    23.3810     2.2930    -9.2590 
  221.5000    67.3500    20.1630    18.7260    22.0830    23.3850     2.2920    -9.2420 
  221.6250    68.2370    20.2090    18.6710    22.3920    23.3860     2.2900    -9.2500 
  221.7500    68.3270    19.9340    18.3330    22.2280    23.3870     2.2860    -9.2700 
  221.8750    67.9540    19.4070    17.7700    21.3800    23.3870     2.2830    -9.3060 
  222.0000    67.8890    18.8020    17.1240    20.1660    23.3870     2.2820    -9.3490 
  222.1250    69.7680    18.4420    16.6570    19.5290    23.3900     2.2810    -9.3890 
  222.2500    72.5990    18.6100    16.6020    19.7560    23.3930     2.2790    -9.4390 
  222.3750    73.9360    19.5560    17.1850    21.1740    23.3950     2.2730    -9.5050 
  222.5000    71.4620    21.4580    18.5940    23.6690    23.3970     2.2620    -9.5980 
  222.6250    67.2850    24.4420    21.0470    27.5590    23.4000     2.2580    -9.7420 
  222.7500    64.8060    27.9620    24.1690    33.2840    23.4030     2.2700    -9.9180 
  222.8750    62.5780    31.3610    27.4420    40.7910    23.4030     2.3060   -10.1340 
  223.0000    59.6580    33.8940    30.1760    49.0940    23.4000     2.3610   -10.3780 
  223.1250    57.3040    34.8090    31.5370    56.4460    23.3900     2.4220   -10.6430 
  223.2500    56.9110    34.4480    31.6140    60.2850    23.3680     2.4730   -10.9330 
  223.3750    57.5590    33.3410    30.7770    58.9480    23.3440     2.5070   -11.2300 
  223.5000    57.3250    31.9430    29.4560    53.8910    23.3360     2.5270   -11.4890 
  223.6250    57.2320    30.1220    27.6450    47.2430    23.3530     2.5400   -11.6500 
  223.7500    58.8190    27.4190    25.0820    36.8070    23.3240     2.5480   -11.6880 
  223.8750    60.4900    23.5550    21.5770    25.4100    23.2950     2.5510   -11.5760 
  224.0000    60.2910    18.8290    17.3950    17.7470    23.2860     2.5470   -11.3370 
  224.1250    59.8750    14.2040    13.3380    13.9860    23.2540     2.5300   -10.9860 
  224.2500    61.1040    10.5690    10.0940    10.0930    23.1530     2.5050   -10.5390 
  224.3750    61.5040     8.2270     7.8740     6.8850    23.0960     2.4760   -10.0300 
  224.5000    58.7890     7.0550     6.5930     5.8710    23.1180     2.4510    -9.5170 
  224.6250    54.7370     6.7960     6.1190     6.0300    23.1810     2.4380    -9.0350 
  224.7500    52.7510     6.9200     6.0660     6.3400    23.2210     2.4350    -8.6190 
  224.8750    52.1020     7.1460     6.2100     6.4280    23.2320     2.4390    -8.2930 
  225.0000    50.7960     7.2780     6.3600     6.3920    23.2270     2.4460    -8.0510 
  225.1250    49.3190     7.2110     6.3770     6.3860    23.2090     2.4530    -7.8760 
  225.2500    49.6480     7.0200     6.2770     6.3190    23.1700     2.4550    -7.7560 
  225.3750    51.5020     6.7870     6.1240     6.1480    23.1030     2.4520    -7.6670 
  225.5000    52.8110     6.5620     5.9790     6.0350    23.0280     2.4410    -7.5910 
  225.6250    52.5410     6.3550     5.8680     6.0750    22.9920     2.4270    -7.5340 
  225.7500    51.3860     6.1890     5.7710     6.2330    22.9980     2.4190    -7.5070 
  225.8750    50.0450     6.0660     5.6640     6.3730    23.0120     2.4220    -7.5170 
  226.0000    49.6490     5.9680     5.5370     6.5310    23.0210     2.4370    -7.5710 
  226.1250    50.5250     5.8900     5.4080     6.6620    23.0340     2.4530    -7.6590 
  226.2500    52.8130     5.8440     5.3250     6.7400    23.0680     2.4590    -7.7740 
  226.3750    56.2470     5.8630     5.3350     6.7610    23.1420     2.4480    -7.9050 
  226.5000    59.7190     6.0390     5.4650     6.4100    23.2860     2.4270    -8.0370 
  226.6250    64.6490     6.4350     5.7280     6.5720    23.4880     2.4090    -8.1510 
  226.7500    71.5510     6.9230     6.0530     7.0090    23.6700     2.3990    -8.2270 
  226.8750    77.2950     7.3170     6.3700     7.5870    23.7650     2.3950    -8.2490 
  227.0000    79.8930     7.5760     6.6100     7.9900    23.7940     2.3930    -8.2100 
  227.1250    81.7830     7.6480     6.7150     8.1010    23.7980     2.3890    -8.1340 
  227.2500    85.1710     7.6160     6.7260     8.0340    23.7940     2.3840    -8.0330 
  227.3750    88.4440     7.5810     6.7090     7.9280    23.7860     2.3860    -7.9160 
  227.5000    91.1780     7.6390     6.7390     7.8790    23.7720     2.3970    -7.7930 
  227.6250    93.7680     7.8560     6.8760     7.9920    23.7490     2.4170    -7.6820 
  227.7500    94.5630     8.1690     7.0940     8.3630    23.7330     2.4370    -7.5880 
  227.8750    93.0520     8.4800     7.3300     8.8310    23.7210     2.4460    -7.5050 
  228.0000    92.0890     8.6760     7.5020     9.0620    23.7040     2.4420    -7.4220 
  228.1250    93.2390     8.6350     7.5060     8.6930    23.6750     2.4250    -7.3160 
  228.2500    94.9100     8.3820     7.3410     8.1970    23.6370     2.4080    -7.1840 
  228.3750    96.3360     7.9760     7.0390     7.6650    23.6040     2.3960    -7.0270 
  228.5000    97.1520     7.5060     6.6630     7.1110    23.5860     2.3900    -6.8450 
  228.6250    96.7780     7.0670     6.2860     6.5130    23.5820     2.3850    -6.6280 
  228.7500    95.3880     6.7040     5.9590     6.0880    23.5820     2.3800    -6.4000 
  228.8750    95.3130     6.4260     5.6960     5.7810    23.5840     2.3750    -6.1690 
  229.0000    98.0970     6.2200     5.4980     5.5380    23.5910     2.3710    -5.9420 
  229.1250   101.1440     6.0760     5.3600     5.4140    23.6080     2.3710    -5.7410 
  229.2500   102.8720     5.9650     5.2580     5.3090    23.6420     2.3740    -5.5580 
  229.3750   102.8350     5.8700     5.1770     5.2130    23.6960     2.3780    -5.3960 
  229.5000   100.1670     5.7840     5.1080     5.1520    23.7490     2.3800    -5.2690 
  229.6250    96.7670     5.7040     5.0470     5.1320    23.7850     2.3820    -5.1800 
  229.7500    95.7090     5.6300     4.9930     5.1060    23.7970     2.3850    -5.1170 
  229.8750    98.2830     5.5640     4.9450     5.0530    23.7990     2.3910    -5.0830 
