~V
VERS. 2.00: Ver 2.00
~W
STRT.M 51.0000:
STOP.M 242.0000:
STEP.M 0.1250:
NULL. -999.2500:
UWI. F10056:
~C
DEPT.M :
GR.API :
RML.OHMM :
RI. :
RXO.OHMM :
CALI.CM :
SP.MV :
DEN.GM/CC :
~A
# ...
  152.2500    59.6810   122.3490   125.7680    57.1950    25.5140   -10.1850     2.2260 
  152.3750    62.9240   107.8870   113.1040    67.7160    25.4960   -10.2360     2.2330 
  152.5000    62.0620    92.6060    98.8760    71.8930    25.4850   -10.2900     2.2390 
  152.6250    60.6670    77.1260    83.4520    56.0730    25.4980   -10.3140     2.2470 
  152.7500    62.2460    63.2770    69.0090    42.8960    25.5190   -10.3340     2.2570 
  152.8750    65.6500    52.6710    57.5320    32.8090    25.5270   -10.3750     2.2660 
  153.0000    68.1290    46.3120    50.2900    24.3920    25.5320   -10.4390     2.2710 
  153.1250    68.4370    45.5540    48.7390    21.2860    25.5350   -10.5800     2.2640 
  153.2500    66.7410    50.1200    52.7080    21.5750    25.5190   -10.7950     2.2490 
  153.3750    63.8910    60.5580    62.9830    27.9470    25.4240   -10.9640     2.2310 
  153.5000    62.0150    77.1370    79.9740    35.8280    25.1730   -11.0890     2.2160 
  153.6250    60.6970    99.2340   102.7890    39.2120    24.7700   -11.2350     2.2080 
  153.7500    58.4010   121.0750   125.0900    37.1870    24.3930   -11.3470     2.2050 
  153.8750    57.0850   135.8110   140.0460    36.7430    24.1210   -11.3670     2.2050 
  154.0000    58.1860   139.2180   143.6090    39.3200    23.9770   -11.3540     2.2050 
  154.1250    60.0720   132.7640   136.7390    36.4480    23.9020   -11.2760     2.2050 
  154.2500    60.6480   124.2150   126.9410    32.8800    23.8720   -11.1100     2.2060 
  154.3750    61.0390   117.6940   118.5220    29.9730    23.8740   -10.9640     2.2070 
  154.5000    62.4380   115.6590   114.1720    27.7420    23.8960   -10.8050     2.2090 
  154.6250    63.9410   120.7600   116.6050    32.6420    23.9960   -10.5900     2.2130 
  154.7500    62.9710   132.8350   125.6680    48.8350    24.2760   -10.4120     2.2180 
  154.8750    59.3480   151.8200   141.1840    77.0590    24.7440   -10.3410     2.2250 
  155.0000    55.9650   176.3010   161.7060   109.0600    25.2550   -10.3030     2.2300 
  155.1250    55.6550   202.1750   183.5860   100.4740    25.4780   -10.2650     2.2300 
  155.2500    56.1820   223.0970   201.4970    78.2450    25.5470   -10.2460     2.2260 
  155.3750    55.7370   235.1600   212.1340    65.6550    25.5460   -10.2320     2.2190 
  155.5000    54.8470   238.0710   214.9290    68.8380    25.5340   -10.1820     2.2130 
  155.6250    53.5050   233.7040   211.0180    68.6160    25.5150   -10.2000     2.2090 
  155.7500    53.9700   226.2850   204.0370    67.4820    25.5080   -10.2320     2.2050 
  155.8750    57.0850   217.6110   195.7100    69.7720    25.5500   -10.2040     2.2000 
  156.0000    60.0420   208.8960   187.2530    66.6020    25.6530   -10.1410     2.1940 
  156.1250    60.8880   201.5160   179.9970    70.4440    25.7510   -10.0580     2.1910 
  156.2500    60.7940   196.2780   174.7520    88.5050    25.7890   -10.0220     2.1920 
  156.3750    59.0690   193.6850   172.0650   107.4060    25.7620    -9.9310     2.1960 
  156.5000    55.5360   193.7720   172.0850   115.6450    25.6910    -9.9040     2.2010 
  156.6250    52.7280   196.1800   174.6910   119.6390    25.5590    -9.8240     2.2010 
  156.7500    51.0220   199.0240   178.2390   124.1170    25.3730    -9.7480     2.1970 
  156.8750    48.9000   200.4200   181.0810   127.6620    25.1890    -9.6560     2.1930 
  157.0000    47.3480   198.6830   181.6300   122.3130    25.0200    -9.5580     2.1910 
  157.1250    48.2500   192.3080   178.2980   113.1330    24.7870    -9.3990     2.1940 
  157.2500    50.2770   182.2580   171.5180   119.0200    24.5930    -9.2530     2.2000 
  157.3750    52.9500   169.2890   161.6670   127.1110    24.5840    -9.2190     2.2060 
  157.5000    56.6360   154.1990   149.2630   121.1410    24.7780    -9.1860     2.2100 
  157.6250    59.7010   137.7230   134.7520   112.6110    24.9500    -9.1310     2.2150 
  157.7500    60.7130   121.2590   119.5700    97.8820    24.9470    -9.0470     2.2210 
  157.8750    62.3740   106.0590   105.0540    79.1420    24.9000    -8.9870     2.2310 
  158.0000    66.6690    93.2370    92.5040    68.3660    24.8820    -8.9820     2.2440 
  158.1250    68.8200    84.0780    83.3550    63.1000    24.9100    -9.0760     2.2580 
  158.2500    66.5580    78.2830    77.4400    61.3500    24.9670    -9.1110     2.2670 
  158.3750    64.4370    75.6690    74.6070    60.2670    25.0220    -9.0860     2.2700 
  158.5000    65.3830    75.7950    74.4500    61.5790    25.0530    -9.0770     2.2670 
  158.6250    65.6420    78.2240    76.5860    66.2910    25.0640    -9.1180     2.2600 
  158.7500    62.5170    81.6630    79.7890    73.7110    25.0850    -9.2190     2.2530 
  158.8750    59.4000    85.2560    83.2290    80.8730    25.0890    -9.3770     2.2490 
  159.0000    58.9450    88.3360    86.2220    83.0790    25.0480    -9.5240     2.2470 
  159.1250    61.3330    90.3400    88.1540    82.1220    24.9080    -9.7600     2.2490 
  159.2500    63.3980    91.3100    89.0090    79.4380    24.7600    -9.9820     2.2520 
  159.3750    64.1160    91.3130    88.8270    77.5430    24.5800   -10.2190     2.2570 
  159.5000    64.6350    90.4920    87.7550    75.9930    24.3950   -10.4320     2.2590 
  159.6250    65.7640    88.9020    85.8890    76.3560    24.2910   -10.7200     2.2560 
  159.7500    66.2530    86.8190    83.5560    73.0770    24.3060   -11.0080     2.2480 
  159.8750    66.0660    84.4430    80.9730    70.6000    24.4530   -11.2810     2.2380 
  160.0000    66.0510    82.0530    78.4010    66.5620    24.7140   -11.4210     2.2310 
  160.1250    63.9640    80.1500    76.2850    64.9730    25.0040   -11.4210     2.2290 
  160.2500    61.0160    79.1410    74.9750    63.2210    25.1580   -11.4420     2.2310 
  160.3750    59.7820    79.3720    74.7790    62.2390    25.2750   -11.4420     2.2320 
  160.5000    59.9080    81.0170    75.8570    65.1650    25.3380   -11.3870     2.2290 
  160.6250    58.9880    84.1970    78.3610    69.0170    25.3180   -11.2300     2.2220 
  160.7500    57.4240    88.2700    81.7610    76.5050    25.2780   -11.0660     2.2130 
  160.8750    57.7900    92.6130    85.5400    85.7540    25.2240   -10.8960     2.2060 
  161.0000    59.3520    96.5590    89.0980    89.4490    25.1390   -10.8390     2.2020 
  161.1250    58.9460    99.5390    91.8710    90.6350    25.0640   -10.8440     2.2020 
  161.2500    58.2160   101.7280    93.9070    91.7010    25.0850   -10.8520     2.2040 
  161.3750    59.8330   103.3200    95.3190    91.6770    24.9660   -10.9170     2.2090 
  161.5000    63.7580   104.3650    96.1260    93.3920    24.7000   -11.0550     2.2150 
  161.6250    66.3400   104.7090    96.1650    95.3100    24.8010   -11.2620     2.2260 
  161.7500    65.2950   104.5060    95.6310    96.1550    25.1560   -11.3710     2.2380 
  161.8750    61.3050   103.9290    94.7290    92.2880    25.4270   -11.4330     2.2500 
  162.0000    58.3900   103.2370    93.7160    83.9710    25.5160   -11.4760     2.2590 
  162.1250    61.1700   102.8490    92.9820    76.5020    25.5230   -11.4620     2.2600 
  162.2500    65.1700   102.9890    92.7650    82.5880    25.5230   -11.4590     2.2550 
  162.3750    65.1550   103.6560    93.1140    94.6600    25.5240   -11.4700     2.2450 
  162.5000    61.5760   104.7800    93.9790    95.9340    25.5340   -11.5030     2.2320 
  162.6250    59.5660   106.5050    95.4790    90.1730    25.5620   -11.5080     2.2200 
  162.7500    60.4720   108.8290    97.5600    91.1480    25.5840   -11.5130     2.2100 
  162.8750    62.2470   111.7270   100.1680    97.0700    25.5440   -11.5230     2.2030 
  163.0000    62.0160   115.0280   103.1530    98.7350    25.4470   -11.5300     2.1990 
  163.1250    58.0910   118.1720   106.0760   102.4250    25.4050   -11.6530     2.1970 
  163.2500    54.5140   120.4590   108.3260   109.1150    25.4010   -11.7230     2.1950 
  163.3750    55.1240   121.5160   109.5520   109.7880    25.4080   -11.7720     2.1940 
