~V
VERS. 2.00: Ver 2.00
~W
STRT.M 60.0000:
STOP.M 242.0000:
STEP.M 0.1250:
NULL. -999.2500:
UWI. F10022:
~C
DEPT.M :
GR.API :
RML.OHMM :
RI. :
RXO.OHMM :
CALI.CM :
DEN.GM/CC :
SP.MV :
~A
# ...
  138.7500    62.0040    24.3910    23.7360    24.4000    24.4390     2.1830     0.2990 
  138.8750    62.6980    24.4330    23.7000    22.7220    24.3660     2.1840     0.2870 
  139.0000    62.1130    24.4970    23.7010    20.5370    24.1840     2.1880     0.2670 
  139.1250    60.8830    24.6000    23.7530    19.4350    23.9550     2.1920     0.2020 
  139.2500    58.9050    24.7440    23.8560    19.8580    23.6660     2.1940     0.1340 
  139.3750    57.1330    24.9280    24.0110    21.3280    23.5490     2.1930     0.1080 
  139.5000    57.4360    25.1330    24.2030    23.3220    23.6400     2.1880     0.1480 
  139.6250    60.0260    25.3210    24.3970    25.0900    23.8340     2.1840     0.1730 
  139.7500    60.8580    25.4540    24.5460    26.0590    23.9580     2.1840     0.1350 
  139.8750    58.7810    25.5070    24.6140    26.3270    24.0430     2.1860     0.0640 
  140.0000    56.0300    25.4610    24.5750    26.2310    24.0800     2.1900     0.0360 
  140.1250    55.5660    25.2860    24.3920    26.1300    24.1280     2.1920     0.0440 
  140.2500    59.1980    24.9930    24.0850    26.2720    24.1450     2.1930     0.0190 
  140.3750    63.7000    24.5820    23.6610    26.5540    24.1260     2.1950    -0.0700 
  140.5000    64.8560    24.0610    23.1390    26.7360    24.0380     2.1990    -0.2290 
  140.6250    62.7330    23.4950    22.5660    26.9100    23.8590     2.2090    -0.3660 
  140.7500    61.5120    23.0410    22.0710    26.2980    23.6570     2.2260    -0.4500 
  140.8750    62.4840    22.8550    21.7820    25.6080    23.5200     2.2460    -0.5440 
  141.0000    64.7790    23.0270    21.7840    25.2330    23.4840     2.2650    -0.7080 
  141.1250    67.7670    23.5390    22.0930    25.9140    23.5600     2.2780    -0.9360 
  141.2500    67.6030    24.1270    22.5180    27.4210    23.7170     2.2850    -1.1730 
  141.3750    61.9980    24.5740    22.8980    29.7140    23.8530     2.2880    -1.3510 
  141.5000    56.0830    24.7640    23.1310    31.4660    23.8540     2.2850    -1.4430 
  141.6250    56.0170    24.7710    23.2520    30.1470    23.7080     2.2720    -1.5230 
  141.7500    59.3110    24.9170    23.4950    27.0650    23.6620     2.2500    -1.6520 
  141.8750    61.8140    25.4910    24.0970    26.0970    23.7830     2.2300    -1.8040 
  142.0000    61.3300    26.6400    25.2080    27.1730    23.9670     2.2250    -1.9580 
  142.1250    58.3180    28.2870    26.8160    27.9220    23.9810     2.2500    -2.0630 
  142.2500    55.9960    29.8670    28.4500    28.2040    23.6380     2.2940    -2.1670 
  142.3750    56.2750    30.7730    29.5490    27.8070    23.0010     2.3370    -2.3540 
  142.5000    57.4970    30.4970    29.5800    26.1050    22.4540     2.3610    -2.6450 
  142.6250    57.0670    28.7390    28.1390    22.8530    22.1490     2.3510    -2.9690 
  142.7500    57.7080    26.2290    25.8520    18.9720    22.0280     2.3200    -3.2780 
  142.8750    62.2180    23.6700    23.3780    15.7010    22.0370     2.2840    -3.6370 
  143.0000    67.9780    21.5530    21.2050    14.0160    22.1380     2.2550    -4.0200 
  143.1250    69.6450    19.9400    19.4580    14.8480    22.2790     2.2430    -4.4130 
  143.2500    67.5220    18.3650    17.7960    16.3480    22.4620     2.2480    -4.7540 
  143.3750    66.0070    16.5230    15.9830    17.6990    22.7500     2.2700    -5.0360 
  143.5000    67.7550    14.4180    14.0100    16.7060    23.0860     2.3040    -5.3170 
  143.6250    71.3990    12.4620    12.1910    12.5600    23.3870     2.3480    -5.6440 
  143.7500    75.0850    11.0870    10.8450     8.9580    23.6880     2.3940    -5.9290 
  143.8750    78.2300    10.4650    10.1030     8.1180    23.8370     2.4340    -6.1170 
  144.0000    80.0110    10.4940     9.9120     8.8760    23.6560     2.4570    -6.2470 
  144.1250    77.4160    10.8900    10.1100    10.3670    23.2900     2.4480    -6.4010 
  144.2500    72.3600    11.2380    10.3710    11.2500    23.0440     2.4140    -6.5810 
  144.3750    70.1640    11.3490    10.5150    10.5730    23.0160     2.3680    -6.7390 
  144.5000    74.1730    11.2280    10.4890     9.6160    23.1580     2.3230    -6.8120 
  144.6250    78.6390    11.0510    10.3820     9.5430    23.3980     2.2930    -6.8270 
  144.7500    77.6450    11.0330    10.3600     9.9500    23.6080     2.2750    -6.8800 
  144.8750    73.4320    11.2550    10.5070    10.4030    23.7360     2.2660    -6.9550 
  145.0000    70.6790    11.6940    10.8250    10.8230    23.7840     2.2620    -7.0220 
  145.1250    71.3160    12.2760    11.2710    11.3490    23.7980     2.2610    -6.9890 
  145.2500    71.8730    12.8850    11.7560    12.0470    23.7920     2.2600    -6.9070 
  145.3750    72.5200    13.4740    12.2450    12.7060    23.7650     2.2590    -6.8390 
  145.5000    73.0280    14.0360    12.7280    13.1730    23.7440     2.2570    -6.7980 
  145.6250    73.4040    14.6090    13.2270    13.4960    23.7270     2.2530    -6.7210 
  145.7500    73.9110    15.2470    13.7640    13.7110    23.7030     2.2480    -6.5920 
  145.8750    73.2530    15.9620    14.3400    13.9880    23.6780     2.2420    -6.4630 
  146.0000    72.2820    16.6890    14.9110    14.4420    23.6680     2.2380    -6.3680 
  146.1250    71.8430    17.2320    15.3500    15.1030    23.6670     2.2370    -6.3130 
  146.2500    71.8040    17.4370    15.5490    15.5850    23.6650     2.2400    -6.2870 
  146.3750    70.5390    17.2370    15.4430    15.5920    23.6710     2.2470    -6.3010 
  146.5000    69.4030    16.6940    15.0460    15.1490    23.7030     2.2560    -6.3640 
  146.6250    70.9150    15.9770    14.4480    14.4110    23.7630     2.2630    -6.4520 
  146.7500    71.6690    15.3260    13.8430    13.9130    23.7910     2.2650    -6.5430 
  146.8750    71.0710    14.8670    13.3540    13.6120    23.7930     2.2630    -6.6150 
  147.0000    70.9800    14.6460    13.0530    13.3510    23.7780     2.2580    -6.6780 
  147.1250    72.9360    14.6780    12.9750    13.2390    23.7480     2.2530    -6.7430 
  147.2500    73.8260    14.8530    13.0360    13.2360    23.7320     2.2480    -6.7560 
  147.3750    73.0400    15.0790    13.1610    13.2910    23.7230     2.2450    -6.6910 
  147.5000    71.3310    15.2560    13.2760    13.2940    23.7090     2.2430    -6.5950 
  147.6250    69.1310    15.2750    13.3030    13.1440    23.6790     2.2420    -6.5560 
  147.7500    68.7190    15.1310    13.2320    12.9830    23.6630     2.2410    -6.5290 
  147.8750    70.1830    14.8560    13.0750    12.8140    23.6580     2.2380    -6.4890 
  148.0000    71.7070    14.5150    12.8700    12.6040    23.6650     2.2330    -6.4450 
  148.1250    72.1070    14.1930    12.6700    12.4240    23.6860     2.2310    -6.4490 
  148.2500    72.8840    13.9420    12.5100    12.3020    23.7140     2.2310    -6.4950 
  148.3750    74.8420    13.7660    12.3950    12.1890    23.7260     2.2350    -6.5510 
  148.5000    75.6260    13.6300    12.3120    12.1170    23.7240     2.2420    -6.6070 
  148.6250    73.6850    13.4800    12.2370    12.0890    23.7110     2.2490    -6.6380 
  148.7500    71.6230    13.2900    12.1560    11.9990    23.6870     2.2550    -6.6690 
  148.8750    73.5140    13.0810    12.0820    11.8500    23.6630     2.2590    -6.7140 
  149.0000    78.4350    12.9120    12.0410    11.6320    23.6410     2.2620    -6.7620 
  149.1250    80.4330    12.8800    12.0890    11.4690    23.6120     2.2630    -6.7730 
  149.2500    78.8980    13.0190    12.2510    11.5030    23.5960     2.2650    -6.7690 
  149.3750    75.5780    13.3350    12.5390    11.7360    23.5900     2.2660    -6.8070 
  149.5000    72.5480    13.7840    12.9340    12.1280    23.5880     2.2670    -6.8440 
  149.6250    70.1670    14.2590    13.3600    12.5270    23.5680     2.2670    -6.8290 
  149.7500    68.8880    14.6060    13.6900    12.8370    23.5110     2.2650    -6.8700 
  149.8750    68.6350    14.7050    13.8050    12.9440    23.4260     2.2610    -6.9600 
