~V
VERS. 2.00: Ver 2.00
~W
STRT.M 56.0000:
STOP.M 312.0000:
STEP.M 0.1250:
NULL. -999.2500:
UWI. F10077:
~C
DEPT.M :
GR.API :
RML.OHMM :
RI. :
RXO.OHMM :
CALI.CM :
DEN.GM/CC :
SP.MV :
~A
   56.0000    42.7730     5.2300     0.9430     0.2300    25.8820     1.9290   140.4080 
   56.1250    41.0450     3.4530     0.6150     0.2300    25.8820     2.0140   137.5770 
   56.2500    40.0160     1.8150     0.3450     0.2370    25.8810     2.1460   134.9650 
   56.3750    41.1060     0.7540     0.1780     0.3890    25.8840     2.3150   132.4930 
   56.5000    44.0840     0.2310     0.0990     0.9960    25.8390     2.4810   129.7410 
   56.6250    48.0680     0.1500     0.1100     1.5070    25.5990     2.5680   125.3760 
   56.7500    52.5370     0.4090     0.2430     2.5620    25.0650     2.5460   118.6280 
   56.8750    57.6420     1.1300     0.6340     5.7210    24.4130     2.4300   109.5560 
   57.0000    62.3660     2.6180     1.5570    10.5130    23.9060     2.2720    98.8030 
   57.1250    63.9890     5.5480     3.6690    13.4040    23.5910     2.1420    86.7880 
   57.2500    63.1920     9.4950     6.9760    12.3030    23.3960     2.0640    74.1420 
   57.3750    62.2980    12.8800    10.6490    11.8410    23.2780     2.0280    61.2480 
   57.5000    62.5400    14.4590    13.4860    12.5890    23.2280     2.0110    48.7060 
   57.6250    63.8820    14.7940    14.9970    14.3080    23.2040     1.9980    37.8320 
   57.7500    64.4800    15.0440    15.7890    15.5760    23.1820     1.9830    29.2380 
   57.8750    66.1280    15.3650    16.1390    15.6700    23.1400     1.9660    22.7120 
   58.0000    69.4520    15.6930    16.2660    14.7300    23.1200     1.9530    17.5930 
   58.1250    69.9810    16.1730    16.5700    14.2230    23.1520     1.9540    13.5960 
   58.2500    66.9410    17.1640    17.5040    14.7260    23.2360     1.9800    10.3470 
   58.3750    64.5320    19.1230    19.5020    15.6110    23.3370     2.0400     7.7370 
   58.5000    64.8490    22.4660    22.8920    17.6830    23.4030     2.1300     5.6610 
   58.6250    63.2790    27.2240    27.4530    21.7180    23.3830     2.2400     4.0680 
   58.7500    59.4960    31.2000    31.0420    26.1540    23.2820     2.3500     2.7890 
   58.8750    58.5690    31.2200    31.0320    33.2290    23.1750     2.4450     1.7560 
   59.0000    62.7970    26.3070    26.5890    47.1530    23.2220     2.5110     0.8600 
   59.1250    72.0710    19.4540    20.0100    40.3080    23.5740     2.5250     0.0200 
   59.2500    83.0070    13.9270    14.4250    19.3850    24.1190     2.4900    -0.7460 
   59.3750    90.8250    10.3030    10.6200     8.8270    24.6210     2.4200    -1.4590 
   59.5000    92.0180     8.3140     8.4060     6.5650    24.7870     2.3360    -2.1880 
   59.6250    88.4700     7.6930     7.5040     6.8740    24.7160     2.2700    -2.9500 
   59.7500    85.6780     7.8320     7.3620     6.9440    24.6250     2.2330    -3.7570 
   59.8750    84.9530     8.3680     7.7080     7.0420    24.5100     2.2230    -4.5960 
   60.0000    85.4740     8.9130     8.2410     7.3820    24.2510     2.2250    -5.3910 
   60.1250    86.7010     9.0810     8.6260     7.7060    23.9820     2.2270    -6.0290 
   60.2500    87.9440     8.8680     8.7390     7.4740    23.9790     2.2250    -6.5690 
   60.3750    86.6950     8.4130     8.6110     7.0770    24.0630     2.2210    -7.0510 
   60.5000    83.0240     7.8830     8.3310     6.9240    24.0990     2.2170    -7.4120 
   60.6250    82.3350     7.4040     7.9750     6.2880    24.3390     2.2150    -7.5940 
   60.7500    86.2040     7.0490     7.6410     6.0840    24.6680     2.2110    -7.6810 
   60.8750    89.5250     6.9160     7.4250     6.2050    24.7100     2.2070    -7.7070 
   61.0000    89.2280     7.1010     7.4300     6.5030    24.4970     2.2110    -7.6540 
   61.1250    88.1330     7.6830     7.7390     6.6390    24.3890     2.2390    -7.4890 
   61.2500    86.3300     8.4720     8.2290     7.2090    24.5670     2.2870    -7.2500 
   61.3750    80.2960     9.1820     8.6910     9.2730    24.8370     2.3420    -6.9950 
   61.5000    73.2580     9.4400     8.8140    14.2340    24.9850     2.3780    -6.8130 
   61.6250    72.7340     8.8840     8.2790    13.0670    25.0270     2.3720    -6.7720 
   61.7500    76.4420     7.8450     7.3490     8.4360    25.0420     2.3300    -6.7890 
   61.8750    79.9390     6.8100     6.4190     6.4550    24.9700     2.2710    -6.7850 
   62.0000    83.0180     6.2880     5.8540     6.3790    24.8800     2.2230    -6.7480 
   62.1250    85.1590     7.0050     6.1010     6.6240    24.9590     2.2250    -6.8010 
   62.2500    82.5200     9.3910     7.4580     8.5780    25.0570     2.2880    -7.0190 
   62.3750    74.8510    14.0120    10.4860    15.6750    25.0300     2.4060    -7.4270 
   62.5000    65.1340    21.2090    15.7890    33.6860    24.8940     2.5480    -8.0380 
   62.6250    59.0910    30.1300    23.3440    65.5570    24.8120     2.6500    -8.8670 
   62.7500    57.8970    36.5370    29.7140    70.9320    24.7340     2.6680    -9.8900 
   62.8750    60.1560    36.5030    31.0220    47.8320    24.5000     2.5900   -11.1190 
   63.0000    62.5490    30.5930    27.0650    27.3990    24.0320     2.4440   -12.5210 
   63.1250    64.5940    23.3980    21.4040    18.2760    23.6010     2.2870   -13.9830 
   63.2500    68.0210    18.0850    16.9110    14.0710    23.3490     2.1720   -15.3910 
   63.3750    70.3070    14.9530    13.9890    11.7270    23.2490     2.1130   -16.7000 
   63.5000    69.9060    13.5900    12.4080    10.3970    23.2040     2.0970   -17.8820 
   63.6250    70.2510    13.6650    12.0030    10.3760    23.1570     2.1030   -18.9040 
   63.7500    72.1100    14.5070    12.3370    10.8490    23.1400     2.1100   -19.7550 
   63.8750    71.9170    15.7450    13.1700    11.3150    23.1330     2.1110   -20.4710 
   64.0000    69.1610    17.0390    14.2380    11.2110    23.1520     2.1060   -21.1180 
   64.1250    67.5100    18.0680    15.2520    11.3680    23.2260     2.0940   -21.7950 
   64.2500    67.1860    18.7410    16.0300    11.3160    23.3140     2.0770   -22.5130 
   64.3750    65.5250    19.0560    16.4960    11.4700    23.4120     2.0600   -23.1860 
   64.5000    62.4230    19.0060    16.6070    12.0070    23.5210     2.0490   -23.7490 
   64.6250    61.7930    18.4490    16.2190    12.4640    23.6950     2.0480   -24.1620 
   64.7500    65.8200    17.4140    15.3690    12.3320    23.8350     2.0570   -24.4550 
   64.8750    71.7450    15.9860    14.1420    11.8390    23.8910     2.0730   -24.6070 
   65.0000    74.5800    14.3690    12.7250    11.0190    23.8500     2.0960   -24.5840 
   65.1250    72.1880    12.8840    11.3890     9.9160    23.8000     2.1230   -24.3490 
   65.2500    69.8160    11.7560    10.3240     9.0970    23.7630     2.1500   -24.0450 
   65.3750    69.8960    11.0650     9.6000     8.7930    23.7500     2.1720   -23.7210 
   65.5000    71.1960    10.7850     9.2110     8.7830    23.7390     2.1820   -23.4030 
   65.6250    73.0870    10.8390     9.1290     8.9420    23.7180     2.1800   -23.1540 
   65.7500    75.0870    11.0070     9.1970     9.4540    23.7060     2.1720   -23.0400 
   65.8750    75.6000    11.1540     9.3060     9.6940    23.7390     2.1630   -23.0910 
   66.0000    74.6540    11.2250     9.3930     9.5080    23.8250     2.1580   -23.3150 
   66.1250    74.5190    11.2600     9.4580    10.0520    23.8870     2.1570   -23.7200 
   66.2500    75.9190    11.3460     9.5460    10.7330    23.9160     2.1560   -24.1470 
   66.3750    76.3970    11.5260     9.6890    11.0430    23.9220     2.1530   -24.5740 
   66.5000    75.6040    11.7870     9.8860    10.9760    23.9000     2.1460   -25.0340 
   66.6250    75.7680    12.0420    10.0790    11.2830    23.8160     2.1360   -25.4590 
   66.7500    76.9660    12.1900    10.1930    11.3140    23.6630     2.1210   -25.7810 
   66.8750    77.2080    12.1940    10.1910    11.4650    23.5120     2.1010   -25.9890 
   67.0000    76.0700    12.0800    10.0870    11.4400    23.4040     2.0760   -26.1160 
   67.1250    74.1740    11.9330     9.9380    11.6240    23.3960     2.0540   -26.1990 
