~V
VERS. 2.00: Ver 2.00
~W
STRT.M 56.0000:
STOP.M 312.0000:
STEP.M 0.1250:
NULL. -999.2500:
UWI. F10077:
~C
DEPT.M :
GR.API :
RML.OHMM :
RI. :
RXO.OHMM :
CALI.CM :
DEN.GM/CC :
SP.MV :
~A
# ...
  258.5000    51.8820    66.3360    63.8240    77.3100    24.0090     2.2610    -9.9060 
  258.6250    51.3840    60.3080    58.4890    68.9850    23.9910     2.2490    -9.9610 
  258.7500    52.1790    55.1310    53.5880    58.3720    23.9560     2.2440    -9.9530 
  258.8750    54.4560    51.7580    50.0910    49.1240    23.9480     2.2450    -9.9530 
  259.0000    56.2880    50.4720    48.4000    46.1630    23.9620     2.2480    -9.9890 
  259.1250    55.7430    51.2130    48.6310    51.8680    24.0010     2.2510   -10.0500 
  259.2500    54.1130    52.8790    49.9530    58.7020    24.0650     2.2540   -10.0490 
  259.3750    52.6060    54.5550    51.6770    60.3070    24.1310     2.2570   -10.0520 
  259.5000    51.3420    55.5030    53.1280    57.5570    24.1840     2.2580   -10.0320 
  259.6250    51.0600    55.4410    53.8500    56.9180    24.2370     2.2550   -10.0050 
  259.7500    51.5040    55.0650    54.1710    57.1060    24.2850     2.2480    -9.9580 
  259.8750    52.0430    55.0320    54.5650    56.3750    24.3540     2.2440    -9.8620 
  260.0000    51.3710    55.7490    55.4210    54.8660    24.5140     2.2520    -9.7140 
  260.1250    49.7610    57.3080    56.9260    54.7330    24.6390     2.2750    -9.4970 
  260.2500    49.2370    59.0410    58.6100    58.3040    24.6280     2.3000    -9.3050 
  260.3750    50.3960    59.9160    59.5750    61.6570    24.6490     2.3120    -9.1210 
  260.5000    52.1820    58.4970    58.4160    62.6660    24.7790     2.2980    -8.9340 
  260.6250    51.8580    53.2390    53.4780    62.8980    24.9610     2.2640    -8.7250 
  260.7500    49.8840    45.6610    46.1340    60.3110    25.0300     2.2330    -8.5270 
  260.8750    48.7820    37.9360    38.5060    52.1910    25.0010     2.2230    -8.3420 
  261.0000    51.1320    31.9640    32.4540    39.0610    24.9690     2.2350    -8.1370 
  261.1250    56.1680    29.1830    29.3110    27.4730    24.9350     2.2550    -7.9990 
  261.2500    59.2200    29.1440    28.7260    26.4530    24.9080     2.2660    -7.9340 
  261.3750    58.7230    31.3610    30.4230    35.0080    24.8520     2.2610    -7.9190 
  261.5000    56.7230    35.0930    33.9040    45.9410    24.7750     2.2480    -7.9510 
  261.6250    56.6610    39.2240    38.2320    49.1770    24.7020     2.2370    -8.0600 
  261.7500    57.9580    42.3720    41.7810    47.9780    24.6850     2.2350    -8.2110 
  261.8750    58.8940    43.8160    43.5870    44.7630    24.7140     2.2500    -8.3580 
  262.0000    57.7150    43.7120    43.7110    42.0710    24.7470     2.2850    -8.5600 
  262.1250    54.5270    42.8720    43.0170    41.7260    24.7660     2.3380    -8.7290 
  262.2500    52.8600    42.1980    42.4680    45.4190    24.7380     2.3890    -8.8570 
  262.3750    53.6760    41.9740    42.3070    46.9780    24.6560     2.4130    -9.0050 
  262.5000    55.7550    42.2090    42.4970    45.2300    24.5240     2.3990    -9.1590 
  262.6250    57.5450    42.7040    42.8560    46.5940    24.3780     2.3470    -9.2740 
  262.7500    58.3590    43.0040    43.0360    48.4250    24.2430     2.2900    -9.3400 
  262.8750    57.3480    42.6960    42.6860    48.5850    24.1240     2.2480    -9.4310 
  263.0000    54.8070    41.4760    41.4940    46.1670    24.0430     2.2350    -9.5270 
  263.1250    52.3170    39.1570    39.2210    43.6650    24.0270     2.2540    -9.6090 
  263.2500    51.3240    36.2710    36.3560    42.5970    24.1010     2.2860    -9.6090 
  263.3750    52.3380    33.4030    33.4840    40.1620    24.3090     2.3170    -9.5310 
  263.5000    54.3910    31.1790    31.2310    36.2140    24.6190     2.3360    -9.4060 
  263.6250    57.7720    30.3400    30.2900    31.3940    24.8790     2.3420    -9.2830 
  263.7500    61.5050    30.9770    30.7130    30.6330    24.9730     2.3430    -9.2360 
  263.8750    62.6280    33.0860    32.4960    32.6610    24.9300     2.3430    -9.2260 
  264.0000    59.2150    36.3420    35.3950    36.0440    24.8220     2.3360    -9.2080 
  264.1250    54.0290    39.9860    38.7910    43.3930    24.7950     2.3150    -9.2290 
  264.2500    52.3730    42.9340    41.6400    48.0020    24.8570     2.2860    -9.3540 
  264.3750    54.2310    44.5480    43.2560    47.7370    24.8400     2.2600    -9.5200 
  264.5000    56.7100    44.7810    43.4840    42.9080    24.6100     2.2460    -9.7470 
  264.6250    56.8680    44.0520    42.6430    38.6190    24.2420     2.2470   -10.0100 
  264.7500    55.0520    43.2120    41.6050    36.7700    23.9790     2.2550   -10.2300 
  264.8750    54.4800    42.7450    40.8830    37.0030    23.8530     2.2630   -10.4050 
  265.0000    56.6020    42.9580    40.7830    37.3760    23.7710     2.2670   -10.5820 
  265.1250    58.6570    44.1200    41.5580    38.4670    23.8030     2.2710   -10.7730 
  265.2500    59.1020    45.9900    43.0130    42.0490    23.9700     2.2810   -10.9090 
  265.3750    58.4710    48.2670    44.9100    45.9040    24.2260     2.2960   -11.0070 
  265.5000    57.0400    50.4750    46.8830    50.0510    24.4800     2.3130   -11.0820 
  265.6250    55.7120    51.9540    48.3930    53.9100    24.6570     2.3190   -11.1270 
  265.7500    56.3900    52.5310    49.1950    54.7210    24.7960     2.3110   -11.1750 
  265.8750    58.5710    52.2840    49.2630    53.0670    24.8240     2.2920   -11.2150 
  266.0000    59.3170    51.4580    48.7430    50.4150    24.7880     2.2730   -11.2350 
  266.1250    57.8480    50.2580    47.7750    50.6880    24.7870     2.2620   -11.2420 
  266.2500    55.5650    48.9320    46.5770    51.6330    24.8320     2.2620   -11.2550 
  266.3750    53.4100    47.6110    45.2560    51.5230    24.7990     2.2710   -11.2710 
  266.5000    52.4480    46.4360    43.9440    47.9060    24.6760     2.2850   -11.2680 
  266.6250    53.9490    45.6370    42.8600    45.6980    24.6680     2.2990   -11.2330 
  266.7500    56.8840    45.2510    42.1370    45.4470    24.7290     2.3080   -11.1780 
  266.8750    59.4320    45.2920    41.8690    45.1810    24.7630     2.3070   -11.1520 
  267.0000    59.1360    45.7340    42.0750    45.8290    24.7760     2.2940   -11.1860 
  267.1250    55.9080    46.5200    42.6950    47.5100    24.7720     2.2710   -11.2670 
  267.2500    53.6380    47.4070    43.4370    48.7680    24.7640     2.2470   -11.4410 
  267.3750    54.1910    48.1770    44.0780    50.9110    24.7670     2.2300   -11.6780 
  267.5000    56.0560    48.6470    44.4560    52.2380    24.7390     2.2300   -11.9940 
  267.6250    57.5230    48.6900    44.4790    49.9020    24.6920     2.2540   -12.3620 
  267.7500    58.3000    48.4970    44.3300    47.3590    24.6990     2.2890   -12.7820 
  267.8750    58.2440    48.2920    44.1990    47.1710    24.7110     2.3220   -13.1940 
  268.0000    57.9050    48.2780    44.2410    44.5110    24.5220     2.3420   -13.5480 
  268.1250    58.5760    48.6610    44.6040    43.7100    24.1810     2.3430   -13.7970 
  268.2500    58.3000    49.4740    45.3070    46.3980    23.9760     2.3380   -13.9330 
  268.3750    56.5070    50.6810    46.3520    49.8990    23.9140     2.3330   -13.9740 
  268.5000    54.4240    51.9940    47.5440    50.3490    23.9020     2.3320   -13.9220 
  268.6250    55.7880    52.5290    48.1540    51.5610    23.8640     2.3340   -13.7770 
  268.7500    59.3370    51.4700    47.3960    51.0720    23.8450     2.3370   -13.5260 
  268.8750    61.4390    48.4920    44.9040    50.2690    23.8730     2.3440   -13.2010 
  269.0000    60.1600    44.1130    41.0870    47.2680    23.9090     2.3550   -12.8450 
  269.1250    56.4930    39.5820    37.0250    38.8710    23.9350     2.3700   -12.5540 
  269.2500    54.6000    36.0430    33.7500    28.4900    23.9470     2.3810   -12.2790 
  269.3750    54.8920    33.9330    31.6580    25.0810    23.9570     2.3820   -12.0420 
  269.5000    56.1510    33.2150    30.7420    29.3850    23.9840     2.3720   -11.8070 
  269.6250    57.9980    33.6720    30.8820    34.4670    23.9760     2.3560   -11.6280 
