~V
VERS. 2.00: Ver 2.00
~W
STRT.M 50.0000:
STOP.M 307.0000:
STEP.M 0.1250:
NULL. -999.2500:
UWI. F10044:
~C
DEPT.M :
GR.API :
RML.OHMM :
RI. :
RXO.OHMM :
CALI.CM :
DEN.GM/CC :
SP.MV :
~A
# ...
   83.7500    88.5590     5.9230     4.7870     5.5720    24.2390     2.3320    -1.2940 
   83.8750    87.1940     5.9560     4.7810     5.5940    24.1890     2.3550    -1.3030 
   84.0000    86.6150     6.3450     4.9990     6.1260    24.1250     2.3830    -1.3670 
   84.1250    86.5690     7.0630     5.4600     7.6980    24.0340     2.4080    -1.3760 
   84.2500    84.9150     7.8130     6.0040     9.7580    23.9140     2.4230    -1.3730 
   84.3750    79.0620     8.3170     6.4530    11.8200    23.7870     2.4220    -1.3750 
   84.5000    70.4090     8.3750     6.6470    12.9930    23.6940     2.4040    -1.3120 
   84.6250    67.5010     7.9230     6.4790    10.0950    23.6970     2.3760    -1.1630 
   84.7500    72.2840     7.2750     6.1110     7.3040    23.8060     2.3500    -0.9920 
   84.8750    79.0600     6.7010     5.7120     6.2860    23.9560     2.3330    -0.7980 
   85.0000    82.2660     6.3640     5.4120     6.3550    24.0600     2.3260    -0.5680 
   85.1250    83.2180     6.3010     5.2780     6.6890    24.0850     2.3250    -0.3020 
   85.2500    85.2240     6.3390     5.2390     6.9200    24.0780     2.3280    -0.0580 
   85.3750    86.7750     6.3400     5.2220     6.7880    24.0610     2.3350     0.1360 
   85.5000    85.5490     6.2280     5.1670     6.2090    24.0390     2.3460     0.2930 
   85.6250    84.2670     5.9980     5.0470     5.9140    24.0190     2.3600     0.3720 
   85.7500    85.4980     5.7520     4.9050     5.7400    23.9920     2.3700     0.3480 
   85.8750    85.9560     5.5850     4.7950     5.7490    23.9570     2.3700     0.2870 
   86.0000    84.6740     5.5830     4.7770     5.8270    23.9140     2.3600     0.2260 
   86.1250    84.0780     5.8420     4.9350     5.9490    23.8610     2.3430     0.0320 
   86.2500    86.2100     6.3210     5.2640     6.0150    23.8020     2.3250    -0.2750 
   86.3750    88.9970     6.9330     5.7270     6.5830    23.7320     2.3160    -0.5720 
   86.5000    88.5500     7.5320     6.2330     7.4900    23.6600     2.3210    -0.8790 
   86.6250    83.7350     7.8920     6.6220     8.3890    23.6210     2.3430    -1.2530 
   86.7500    78.9020     7.9300     6.7920     8.7680    23.5930     2.3720    -1.5560 
   86.8750    77.4810     7.6630     6.7190     8.1180    23.5610     2.3930    -1.8010 
   87.0000    79.8060     7.2210     6.4620     6.6970    23.5240     2.3960    -2.0930 
   87.1250    84.4170     6.8140     6.1470     5.8650    23.5070     2.3790    -2.3620 
   87.2500    86.8930     6.5820     5.8960     5.6040    23.5160     2.3550    -2.5630 
   87.3750    84.2860     6.5380     5.7410     5.6480    23.5440     2.3320    -2.7790 
   87.5000    79.3510     6.6050     5.6620     5.8310    23.5810     2.3160    -3.0580 
   87.6250    79.0500     6.6460     5.6050     6.0860    23.6090     2.3040    -3.3580 
   87.7500    81.7350     6.5710     5.5180     6.3530    23.6130     2.2940    -3.6900 
   87.8750    82.9130     6.4250     5.4160     6.5820    23.6030     2.2840    -4.0660 
   88.0000    81.5600     6.4280     5.3970     6.7650    23.5970     2.2750    -4.4560 
   88.1250    79.8640     7.1460     5.7730     7.3060    23.6140     2.2730    -4.8310 
   88.2500    78.5500     8.9670     6.8190     8.8470    23.6660     2.2880    -5.1880 
   88.3750    77.2970    12.0240     8.7200    12.9390    23.7420     2.3290    -5.5720 
   88.5000    74.6200    15.9350    11.3750    21.4350    23.8120     2.3920    -5.9880 
   88.6250    68.9480    19.4960    14.1710    31.4430    23.8120     2.4580    -6.4270 
   88.7500    63.3430    21.3130    16.0690    40.6010    23.7080     2.4920    -6.9090 
   88.8750    61.3830    20.5970    16.2840    42.8070    23.4960     2.4750    -7.4650 
   89.0000    61.5600    17.6700    14.7330    29.1070    23.1870     2.4090    -8.0440 
   89.1250    60.7360    13.9990    12.2620    15.8020    22.8590     2.3210    -8.5750 
   89.2500    60.0110    11.1420    10.1010    10.6570    22.6160     2.2470    -9.1400 
   89.3750    61.1930     9.4940     8.6410     9.2110    22.4780     2.1980    -9.6950 
   89.5000    61.9660     8.8650     7.8650     8.9460    22.4200     2.1760   -10.1440 
   89.6250    59.6080     8.9020     7.6510     8.9360    22.4180     2.1750   -10.5030 
   89.7500    58.2630     9.1040     7.6850     8.9600    22.4520     2.1840   -10.8520 
   89.8750    60.6430     9.2420     7.7960     9.0370    22.5180     2.1950   -11.1240 
   90.0000    65.4420     9.2200     7.8720     9.1530    22.6130     2.2040   -11.2850 
   90.1250    66.9690     9.0580     7.8670     9.2290    22.7190     2.2060   -11.4670 
   90.2500    65.2890     8.8900     7.8270     9.1720    22.7930     2.2010   -11.6550 
   90.3750    64.4900     8.8060     7.8060     9.0440    22.8320     2.1900   -11.7870 
   90.5000    64.8080     8.8430     7.8370     8.9790    22.8590     2.1780   -11.9140 
   90.6250    63.6230     8.9700     7.9130     9.1000    22.8810     2.1710   -12.0740 
   90.7500    62.8250     9.0820     7.9770     9.2360    22.8860     2.1710   -12.2250 
   90.8750    66.0260     9.1030     7.9810     9.2520    22.8680     2.1750   -12.3440 
   91.0000    70.6840     8.9960     7.9010     9.0900    22.8400     2.1820   -12.4450 
   91.1250    69.7730     8.7700     7.7380     8.8370    22.8050     2.1960   -12.5520 
   91.2500    65.6200     8.5110     7.5520     8.7320    22.7690     2.2000   -12.6460 
   91.3750    62.5900     8.2800     7.3900     8.7460    22.7450     2.2020   -12.7000 
   91.5000    59.7340     8.1120     7.2810     8.7830    22.7370     2.1990   -12.7320 
   91.6250    55.9770     8.0250     7.2410     8.7380    22.7370     2.1930   -12.7400 
   91.7500    55.5810     7.9830     7.2420     8.5950    22.7340     2.1860   -12.6920 
   91.8750    58.4700     7.9580     7.2590     8.4390    22.7200     2.1810   -12.5900 
   92.0000    59.2890     7.9320     7.2690     8.3530    22.6840     2.1780   -12.5000 
   92.1250    56.8140     7.9050     7.2570     8.2520    22.6150     2.1780   -12.4210 
   92.2500    55.4280     7.8950     7.2290     8.1290    22.5240     2.1760   -12.2960 
   92.3750    54.5520     7.9170     7.1940     8.0410    22.4390     2.1720   -12.2120 
   92.5000    52.8210     7.9800     7.1650     8.0000    22.4070     2.1660   -12.2070 
   92.6250    53.8000     8.0840     7.1590     8.0140    22.4430     2.1610   -12.2130 
   92.7500    56.6950     8.1990     7.1820     8.0930    22.5130     2.1600   -12.2530 
   92.8750    57.9000     8.2910     7.2300     8.2720    22.5950     2.1620   -12.4210 
   93.0000    57.1740     8.3280     7.2880     8.5430    22.6730     2.1670   -12.6460 
   93.1250    56.5220     8.2780     7.3300     8.8120    22.7370     2.1720   -12.8300 
   93.2500    55.3330     8.1610     7.3390     8.9620    22.7720     2.1770   -13.0340 
   93.3750    54.9420     8.0120     7.3100     8.8510    22.7880     2.1790   -13.2660 
   93.5000    56.3390     7.8790     7.2520     8.4600    22.8000     2.1790   -13.4220 
   93.6250    58.4350     7.8280     7.1920     8.1050    22.8250     2.1770   -13.4990 
   93.7500    58.9370     7.8760     7.1550     7.9800    22.8520     2.1750   -13.5740 
   93.8750    58.5300     8.0110     7.1520     8.0520    22.8750     2.1750   -13.6210 
   94.0000    57.5330     8.1940     7.1800     8.2840    22.8990     2.1760   -13.6410 
   94.1250    56.2030     8.3620     7.2240     8.6310    22.9400     2.1790   -13.6520 
   94.2500    57.1590     8.4670     7.2610     8.9650    23.0000     2.1820   -13.6720 
   94.3750    59.8340     8.4980     7.2790     9.1850    23.0630     2.1850   -13.6870 
   94.5000    61.4800     8.4700     7.2760     9.2760    23.1080     2.1890   -13.7020 
   94.6250    60.2210     8.4170     7.2540     9.2630    23.1040     2.1920   -13.7250 
   94.7500    58.0760     8.3780     7.2290     9.1990    23.0760     2.1940   -13.7420 
   94.8750    57.9560     8.3750     7.2200     9.1300    23.0470     2.1960   -13.7270 
