~V
VERS. 2.00: Ver 2.00
~W
STRT.M 55.0000:
STOP.M 308.0000:
STEP.M 0.1250:
NULL. -999.2500:
UWI. F10053:
~C
DEPT.M :
GR.API :
RML.OHMM :
RI. :
RXO.OHMM :
CALI.CM :
DEN.GM/CC :
SP.MV :
~A
# ...
  156.2500    69.8680    11.3710    10.0410    11.9490    23.9250     2.1450   -11.7680 
  156.3750    70.3590    11.6300    10.4450    11.8620    23.7840     2.1590   -12.6790 
  156.5000    72.2160    11.4930    10.4070    11.4200    23.5850     2.1680   -13.4790 
  156.6250    73.1780    11.0010    10.0470     9.8910    23.5320     2.1630   -14.1370 
  156.7500    70.6920    10.4390     9.6190     9.5990    23.6110     2.1490   -14.7670 
  156.8750    66.1980    10.0200     9.2480    10.1300    23.7490     2.1350   -15.4200 
  157.0000    63.0350     9.8740     9.0160    10.4360    23.8820     2.1290   -15.9970 
  157.1250    63.3410    10.0600     9.0140    10.1290    23.9390     2.1320   -16.4270 
  157.2500    65.0760    10.4060     9.1990     9.9270    23.9280     2.1390   -16.7210 
  157.3750    67.4270    10.7020     9.4420     9.8960    23.8770     2.1490   -16.8290 
  157.5000    70.5240    10.7040     9.5170     9.9260    23.8280     2.1660   -16.6830 
  157.6250    73.6830    10.1620     9.1740     9.7340    23.8520     2.1920   -16.1770 
  157.7500    75.8760     9.2130     8.4930     9.0950    23.9500     2.2180   -15.2440 
  157.8750    80.8080     8.1090     7.6690     7.7690    24.0880     2.2350   -14.0430 
  158.0000    90.0590     7.1790     6.9530     6.0170    24.2120     2.2330   -12.9080 
  158.1250    95.2330     6.8040     6.6250     6.0420    24.1980     2.2150   -12.1120 
  158.2500    90.6760     7.0400     6.7350     7.2280    24.0510     2.1920   -11.6140 
  158.3750    81.8500     7.8380     7.2700     8.5500    23.8710     2.1740   -11.3510 
  158.5000    77.0030     9.0270     8.1350     9.6980    23.7610     2.1680   -11.2550 
  158.6250    77.2700    10.2980     9.1110    11.2040    23.7310     2.1710   -11.4120 
  158.7500    76.1090    11.2830     9.8560    13.0230    23.7240     2.1760   -11.8800 
  158.8750    73.0600    11.7580    10.1730    13.7560    23.7200     2.1710   -12.5250 
  159.0000    70.6070    11.6510    10.0400    14.0240    23.7160     2.1510   -13.0880 
  159.1250    72.8760    11.0170     9.5260    16.2780    23.7040     2.1150   -13.4180 
  159.2500    77.5030    10.2070     8.9120    19.0530    23.6570     2.0870   -13.5330 
  159.3750    79.5620     9.5130     8.4230    16.7330    23.5960     2.0940   -13.4610 
  159.5000    77.3650     9.2290     8.2490    12.6270    23.6070     2.1550   -13.1390 
  159.6250    74.2770     9.8010     8.6570    10.9450    23.6860     2.2700   -12.5380 
  159.7500    73.7580    11.3640     9.7420    11.3700    23.7360     2.3990   -11.7870 
  159.8750    73.5000    13.9540    11.6500    15.2780    23.8250     2.5050   -11.0160 
  160.0000    70.8120    17.2200    14.3670    24.7640    24.0020     2.5620   -10.2740 
  160.1250    67.7340    20.0710    17.3110    39.4880    24.1520     2.5540    -9.6060 
  160.2500    66.0820    21.3060    19.1110    47.1630    24.1120     2.4980    -9.1180 
  160.3750    65.8880    20.3820    18.7740    41.1680    23.8870     2.4170    -8.8450 
  160.5000    68.1530    17.6840    16.5350    25.4320    23.4870     2.3370    -8.8840 
  160.6250    75.1480    14.3090    13.5940    14.9900    23.0150     2.2870    -9.1670 
  160.7500    83.8700    11.4140    11.0500    12.1520    22.8100     2.2720    -9.4640 
  160.8750    89.8780     9.3820     9.1740    11.5230    22.7680     2.2820    -9.6780 
  161.0000    92.8320     8.1930     7.9350    10.0300    22.8030     2.2980    -9.8320 
  161.1250    93.1200     7.6950     7.2620     8.0790    22.9460     2.3050    -9.8240 
  161.2500    92.2500     7.5060     6.9070     7.6230    23.1880     2.3010    -9.5340 
  161.3750    91.1880     7.4290     6.7390     7.5240    23.4540     2.2900    -8.9080 
  161.5000    89.6700     7.3690     6.6690     6.7510    23.7430     2.2770    -8.0760 
  161.6250    87.5970     7.3480     6.6600     6.2850    24.0310     2.2650    -7.2940 
  161.7500    85.3120     7.4410     6.6880     6.3240    24.2040     2.2540    -6.8040 
  161.8750    85.1670     7.6890     6.7660     6.7080    24.2090     2.2470    -6.5930 
  162.0000    84.7390     8.0550     6.9280     7.0170    24.1440     2.2440    -6.5120 
  162.1250    81.1830     8.3970     7.1830     7.4660    24.1140     2.2430    -6.4790 
  162.2500    77.0830     8.5730     7.4320     7.7390    24.1090     2.2430    -6.4960 
  162.3750    74.8320     8.5480     7.5670     7.5500    24.1200     2.2430    -6.7010 
  162.5000    75.0230     8.4000     7.5250     7.2420    24.1350     2.2450    -7.0320 
  162.6250    77.4370     8.2770     7.3380     7.5170    24.1230     2.2510    -7.2490 
  162.7500    79.3010     8.2570     7.1710     7.8180    24.1110     2.2560    -7.2460 
  162.8750    79.3860     8.3200     7.1110     7.3860    24.1320     2.2590    -7.1900 
  163.0000    78.8870     8.4280     7.1660     7.0970    24.1320     2.2550    -7.3520 
  163.1250    79.9140     8.5960     7.3290     7.4060    24.0680     2.2450    -7.8200 
  163.2500    80.9260     8.8600     7.5780     8.2090    23.9850     2.2330    -8.4570 
  163.3750    80.3320     9.1990     7.9020     8.8320    23.9240     2.2200    -9.1380 
  163.5000    79.1490     9.4990     8.2540     9.0630    23.8900     2.2110    -9.7810 
  163.6250    77.9990     9.5480     8.5180     9.0100    23.8830     2.2040   -10.3930 
  163.7500    76.8700     9.3160     8.5750     8.7360    23.8820     2.1980   -10.9380 
  163.8750    76.5400     8.8980     8.3800     8.2670    23.8680     2.1920   -11.3480 
  164.0000    76.6450     8.4600     7.9900     7.7450    23.8050     2.1870   -11.4860 
  164.1250    78.4150     8.1670     7.5320     7.8630    23.7260     2.1900   -11.3400 
  164.2500    79.9450     8.0550     7.1750     8.0110    23.6200     2.2040   -11.0660 
  164.3750    80.4030     8.1470     7.0510     7.9930    23.5220     2.2230   -10.6960 
  164.5000    81.0380     8.4890     7.2470     7.6540    23.4650     2.2390   -10.3380 
  164.6250    82.1660     9.2110     7.8510     7.5750    23.4480     2.2410   -10.2090 
  164.7500    81.8000    10.2720     8.8230     9.5610    23.4690     2.2300   -10.3220 
  164.8750    77.8410    11.5460    10.1380    14.0580    23.5280     2.2130   -10.5760 
  165.0000    73.2710    12.7640    11.6160    17.4870    23.6330     2.1940   -10.8960 
  165.1250    70.5620    13.4910    12.7900    17.2640    23.7030     2.1780   -11.2630 
  165.2500    68.5200    13.6020    13.2960    15.9840    23.7640     2.1630   -11.6910 
  165.3750    66.7520    13.2190    13.0980    15.1160    23.8660     2.1490   -12.2530 
  165.5000    65.1460    12.6620    12.4800    14.3130    23.9790     2.1350   -12.8760 
  165.6250    64.4090    12.3220    11.8670    13.4840    24.0270     2.1230   -13.3870 
  165.7500    64.7900    12.3340    11.5280    12.6840    24.0270     2.1170   -13.8180 
  165.8750    66.2780    12.6810    11.5460    12.2720    24.0030     2.1170   -14.1770 
  166.0000    67.6040    13.2680    11.9380    12.9010    23.9850     2.1230   -14.4660 
  166.1250    68.4700    13.9980    12.7220    14.3740    23.9790     2.1310   -14.6870 
  166.2500    68.0100    14.7550    13.6990    16.1550    23.9790     2.1380   -14.8760 
  166.3750    65.7370    15.4870    14.6690    17.5510    23.9790     2.1410   -14.9930 
  166.5000    63.6650    16.1710    15.4590    18.3030    23.9790     2.1410   -15.0420 
  166.6250    65.0300    16.8110    15.9670    18.0140    23.9760     2.1400   -15.0730 
  166.7500    66.7340    17.4590    16.3120    18.2260    23.9730     2.1400   -15.0900 
  166.8750    64.1270    18.1460    16.6440    18.8760    23.9750     2.1390   -15.0600 
  167.0000    58.1810    18.8620    17.1040    20.3270    23.9880     2.1360   -15.0230 
  167.1250    56.6270    19.5120    17.7450    21.6600    24.0120     2.1310   -15.0170 
  167.2500    60.3750    19.9850    18.4010    22.1820    24.0310     2.1280   -15.0100 
  167.3750    64.8050    20.2260    18.8930    22.1390    24.0380     2.1310   -15.0090 
