~V
VERS. 2.00: Ver 2.00
~W
STRT.M 55.0000:
STOP.M 292.0000:
STEP.M 0.1250:
NULL. -999.2500:
UWI. F10078:
~C
DEPT.M :
GR.API :
RML.OHMM :
RI. :
RXO.OHMM :
CALI.CM :
DEN.GM/CC :
SP.MV :
~A
   55.0000  -999.2500  -999.2500  -999.2500  -999.2500  -999.2500  -999.2500    67.8710 
   55.1250  -999.2500  -999.2500  -999.2500  -999.2500  -999.2500  -999.2500    72.7260 
   55.2500  -999.2500  -999.2500  -999.2500  -999.2500  -999.2500  -999.2500    77.6550 
   55.3750  -999.2500  -999.2500  -999.2500  -999.2500  -999.2500  -999.2500    82.0200 
   55.5000    45.7170     1.4730     0.3160    -0.4940    25.2820  -999.2500    85.2290 
   55.6250    45.7170     1.4730     0.3160    -0.4940    25.2820  -999.2500    86.9540 
   55.7500    45.4190     1.4500     0.3190    -0.4940    25.2820  -999.2500    87.9150 
   55.8750    43.4330     1.4030     0.3260    -0.4930    25.2820  -999.2500    88.6930 
   56.0000    40.3100     1.3850     0.3340    -0.4940    25.2820  -999.2500    89.5260 
   56.1250    39.2120     1.4070     0.3390    -0.4960    25.2820  -999.2500    90.5610 
   56.2500    40.1040     1.4430     0.3420    -0.4960    25.2820  -999.2500    91.6560 
   56.3750    41.6840     1.4620     0.3430    -0.4970    25.2810  -999.2500    92.6100 
   56.5000    42.0260     1.4430     0.3430    -0.4980    25.2800  -999.2500    93.2980 
   56.6250    41.7610     1.3790     0.3450    -0.4980    25.2790  -999.2500    93.6000 
   56.7500    43.0160     1.3030     0.3470    -0.4970    25.2790  -999.2500    93.5790 
   56.8750    44.4620     1.2390     0.3490    -0.4970    25.2800  -999.2500    93.2830 
   57.0000    43.8730     1.1960     0.3490    -0.4960    25.2790  -999.2500    92.8040 
   57.1250    43.3190     1.1690     0.3460    -0.4940    25.2780  -999.2500    92.1340 
   57.2500    44.9510     1.1450     0.3410    -0.4940    25.2790     0.0000    91.3850 
   57.3750    46.2480     1.1250     0.3360    -0.4940    25.2790     0.0000    90.7130 
   57.5000    43.4910     1.1140     0.3330    -0.4940    25.2800     0.0000    90.1850 
   57.6250    38.9660     1.1150     0.3330    -0.4970    25.2800     0.0000    89.8920 
   57.7500    37.5420     1.1140     0.3340    -0.4980    25.2800     0.0000    89.7790 
   57.8750    38.3110     1.0960     0.3340    -0.4970    25.2790     1.5910    89.8040 
   58.0000    39.7700     1.0570     0.3330    -0.4960    25.2800     2.1300    89.9350 
   58.1250    42.0420     1.0080     0.3310    -0.4930    25.2810     2.1210    90.1590 
   58.2500    43.5550     0.9730     0.3300    -0.4920    25.2820     2.1090    90.4840 
   58.3750    42.9940     0.9640     0.3300    -0.4930    25.2810     2.1090    90.9240 
   58.5000    41.4280     0.9790     0.3340    -0.4930    25.2800     2.1160    91.5340 
   58.6250    40.8770     1.0010     0.3400    -0.4910    25.2790     2.1110    92.3440 
   58.7500    40.5030     1.0080     0.3480    -0.4890    25.2780     2.0820    93.3500 
   58.8750    39.1520     0.9930     0.3570    -0.4850    25.2770     2.0350    94.4880 
   59.0000    38.7580     0.9620     0.3640    -0.4790    25.2730     1.9860    95.6360 
   59.1250    40.2030     0.9310     0.3690    -0.4740    25.2670     1.9570    96.6640 
   59.2500    41.2580     0.9110     0.3700    -0.4720    25.2530     1.9510    97.5490 
   59.3750    42.0490     0.9000     0.3700    -0.4740    25.2320     1.9660    98.2600 
   59.5000    42.6450     0.8890     0.3670    -0.4820    25.2130     1.9910    98.7360 
   59.6250    41.6660     0.8660     0.3650    -0.4870    25.2040     2.0170    98.8640 
   59.7500    40.4570     0.8340     0.3640    -0.4890    25.2020     2.0370    98.6230 
   59.8750    41.8870     0.8010     0.3660    -0.4900    25.2020     2.0500    98.0530 
   60.0000    43.6240     0.7820     0.3690    -0.4880    25.2030     2.0580    97.1980 
   60.1250    41.6670     0.7870     0.3710    -0.4830    25.2040     2.0580    96.0650 
   60.2500    39.0200     0.8070     0.3670    -0.4770    25.2040     2.0490    94.6710 
   60.3750    39.0170     0.8190     0.3550    -0.4650    25.2030     2.0340    92.9810 
   60.5000    40.2310     0.7900     0.3370    -0.4480    25.2000     2.0230    90.9180 
   60.6250    40.6930     0.6800     0.3180    -0.4240    25.1950     2.0490    88.1940 
   60.7500    40.4620     0.5090     0.3020    -0.3700    25.1820     2.1280    84.6130 
   60.8750    38.9820     0.3210     0.2890    -0.2530    25.1540     2.2600    79.8920 
   61.0000    36.1460     0.1700     0.2750    -0.0230    25.0990     2.4160    73.7240 
   61.1250    35.3300     0.0880     0.2590     0.4950    24.9950     2.5320    65.5740 
   61.2500    37.3920     0.0820     0.2650     1.4210    24.7980     2.5660    55.9230 
   61.3750    41.6690     0.1940     0.3490     2.7960    24.4970     2.5190    45.4160 
   61.5000    47.1980     0.5000     0.5980     4.5490    24.2430     2.4260    34.6190 
   61.6250    51.8410     1.1190     1.1610     6.4580    24.2130     2.3230    24.0190 
   61.7500    54.2020     1.9990     2.0320     7.6100    24.2800     2.2390    14.0560 
   61.8750    56.1050     3.0220     3.1430     7.8940    24.3250     2.1820     5.1060 
   62.0000    58.4040     3.9840     4.3330     7.9720    24.3070     2.1500    -2.4170 
   62.1250    60.1820     4.6720     5.3700     7.9260    24.2350     2.1340    -7.8550 
   62.2500    61.8280     5.1550     6.1860     7.8490    24.1760     2.1240   -11.6300 
   62.3750    63.8020     5.5740     6.8210     7.8350    24.1540     2.1190   -14.3160 
   62.5000    65.5910     6.0100     7.3330     8.0750    24.1660     2.1230   -16.4060 
   62.6250    65.4430     6.4490     7.7280     8.6400    24.1950     2.1370   -18.0500 
   62.7500    65.8660     6.8260     8.0150     9.2070    24.2100     2.1540   -19.4430 
   62.8750    66.4160     7.0970     8.1890     9.4820    24.2090     2.1690   -20.6480 
   63.0000    65.8910     7.2540     8.2590     9.3730    24.2120     2.1800   -21.7650 
   63.1250    64.2630     7.3210     8.2420     9.0130    24.2400     2.1840   -22.8290 
   63.2500    61.6680     7.3670     8.1920     8.6160    24.2900     2.1840   -23.8890 
   63.3750    57.9010     7.4280     8.1400     8.2550    24.3600     2.1800   -24.8900 
   63.5000    53.7760     7.5160     8.1070     8.0640    24.4450     2.1740   -25.8480 
   63.6250    52.3060     7.6260     8.1000     8.1090    24.4740     2.1690   -26.6970 
   63.7500    54.6980     7.7330     8.1050     8.1640    24.4180     2.1670   -27.4500 
   63.8750    57.7540     7.8270     8.1120     8.1890    24.3080     2.1690   -28.1490 
   64.0000    58.7880     7.9050     8.1110     8.2660    24.2170     2.1710   -28.7410 
   64.1250    57.4910     7.9630     8.0990     8.3430    24.1410     2.1720   -29.2630 
   64.2500    56.1880     8.0070     8.0810     8.4180    24.0820     2.1720   -29.6840 
   64.3750    55.4800     8.0440     8.0600     8.4250    24.0490     2.1700   -30.0460 
   64.5000    55.7350     8.0810     8.0380     8.3640    24.0320     2.1700   -30.3530 
   64.6250    55.1520     8.1330     8.0160     8.2980    24.0060     2.1730   -30.6840 
   64.7500    52.4330     8.2040     7.9950     8.3250    23.9620     2.1760   -30.9750 
   64.8750    49.9070     8.2960     7.9800     8.4150    23.9120     2.1780   -31.2300 
   65.0000    49.9580     8.4040     7.9760     8.4270    23.8860     2.1800   -31.5060 
   65.1250    52.4820     8.5120     7.9880     8.3290    23.9430     2.1830   -31.7520 
   65.2500    54.1790     8.6000     8.0100     8.2680    24.0220     2.1870   -31.9850 
   65.3750    54.4660     8.6550     8.0330     8.2530    24.1100     2.1920   -32.2460 
   65.5000    54.8220     8.6730     8.0470     8.2330    24.1670     2.1960   -32.4770 
   65.6250    54.7940     8.6530     8.0410     8.1610    24.1990     2.1950   -32.6280 
   65.7500    54.0460     8.6090     8.0150     8.0310    24.2570     2.1860   -32.7670 
   65.8750    52.2760     8.5450     7.9730     7.9140    24.3280     2.1700   -32.8460 
   66.0000    51.9390     8.4620     7.9170     7.8550    24.3710     2.1500   -32.8190 
   66.1250    53.5200     8.3550     7.8490     7.8310    24.3600     2.1340   -32.6600 
