~V
VERS. 2.00: Ver 2.00
~W
STRT.M 64.0000:
STOP.M 220.0000:
STEP.M 0.1250:
NULL. -999.2500:
UWI. F10051:
~C
DEPT.M :
SP.MV :
GR.API :
RML.OHMM :
RI. :
RXO.OHMM :
CALI.CM :
DEN.GM/CC :
~A
# ...
   75.2500   -25.5920    64.9780     8.2310     6.5950     7.6050    22.1030     2.2460 
   75.3750   -25.5600    67.8670     7.9080     6.2790     7.5760    22.5850     2.2390 
   75.5000   -25.5250    73.0010     7.6610     6.0240     7.6640    23.2800     2.2290 
   75.6250   -25.3540    73.7630     7.4870     5.8400     7.8780    23.9130     2.2140 
   75.7500   -25.0400    69.8870     7.4260     5.7410     8.1240    24.1880     2.1970 
   75.8750   -24.5790    65.9650     7.5930     5.7890     8.2460    24.2690     2.1910 
   76.0000   -23.9140    65.5080     8.1090     6.0560     8.4400    24.2880     2.2090 
   76.1250   -23.1150    68.0090     9.0490     6.6110     9.3900    24.2730     2.2680 
   76.2500   -22.2870    71.8560    10.1600     7.3240    11.2230    24.1980     2.3520 
   76.3750   -21.4540    75.3980    11.1070     8.0050    13.4650    24.0750     2.4360 
   76.5000   -20.7210    76.4630    11.5260     8.4190    15.0980    23.9740     2.4850 
   76.6250   -20.2220    76.4960    11.0890     8.3060    14.9770    23.8560     2.4660 
   76.7500   -19.9070    75.3960    10.1020     7.7820    11.5430    23.7450     2.3990 
   76.8750   -19.6820    73.3550     9.0160     7.0900     9.1780    23.7180     2.3170 
   77.0000   -19.4760    72.3330     8.2980     6.5400     8.5160    23.8360     2.2510 
   77.1250   -19.2050    73.0280     8.3460     6.4410     8.8720    24.0200     2.2300 
   77.2500   -18.7960    72.2880     9.0080     6.7760     9.7690    24.1110     2.2570 
   77.3750   -18.2310    69.5530    10.0090     7.4120    11.2000    24.1030     2.3220 
   77.5000   -17.5540    67.9400    10.9580     8.1090    13.1860    23.9990     2.3960 
   77.6250   -16.7910    69.9920    11.3590     8.5150    14.5960    23.7800     2.4380 
   77.7500   -16.0160    72.5800    11.1080     8.4690    14.3980    23.4410     2.4350 
   77.8750   -15.3270    74.2640    10.3300     7.9880    12.0200    23.0470     2.4000 
   78.0000   -14.8320    76.0130     9.3150     7.2480     8.5100    22.6760     2.3580 
   78.1250   -14.6330    80.9250     8.4080     6.5010     6.8590    22.5530     2.3300 
   78.2500   -14.7280    88.1710     7.6870     5.9120     6.1430    22.7500     2.3160 
   78.3750   -15.1020    93.6870     7.1270     5.5180     5.8100    23.1390     2.3070 
   78.5000   -15.6310    93.8140     6.6780     5.2930     5.6250    23.5360     2.2980 
   78.6250   -16.2570    89.3380     6.3120     5.2030     5.7400    23.6850     2.2850 
   78.7500   -16.9560    84.0240     6.2170     5.1920     6.1330    23.7250     2.2710 
   78.8750   -17.6590    78.6820     6.2530     5.2610     6.6370    23.7320     2.2570 
   79.0000   -18.3590    73.9490     6.4770     5.4420     7.1480    23.7440     2.2440 
   79.1250   -19.0860    72.6690     6.9480     5.8080     7.5020    23.6900     2.2350 
   79.2500   -19.8090    74.2460     7.6400     6.3440     7.9070    23.4890     2.2340 
   79.3750   -20.4860    75.5000     8.4660     6.9950     8.6460    23.1990     2.2480 
   79.5000   -21.1000    74.5530     9.2410     7.6330     9.4520    22.9380     2.2730 
   79.6250   -21.6340    73.5070     9.6640     8.0400     9.7020    22.6910     2.2980 
   79.7500   -22.1190    72.9990     9.6340     8.1130     9.5350    22.4320     2.3080 
   79.8750   -22.5860    71.3560     9.1980     7.8560     9.1230    22.2150     2.2980 
   80.0000   -23.0650    68.4130     8.5580     7.3900     8.7020    22.1060     2.2720 
   80.1250   -23.4760    66.5900     7.9960     6.9100     8.5040    22.0750     2.2470 
   80.2500   -23.7820    66.3900     7.6590     6.5580     8.4770    22.0890     2.2310 
   80.3750   -23.9970    65.8160     7.5530     6.3700     8.4670    22.1030     2.2260 
   80.5000   -24.1580    63.2520     7.6070     6.3240     8.4440    22.1200     2.2290 
   80.6250   -24.2520    60.7530     7.7320     6.3740     8.4450    22.1360     2.2360 
   80.7500   -24.2490    61.2430     7.8510     6.4530     8.4860    22.1050     2.2420 
   80.8750   -24.2190    63.7940     7.9460     6.5340     8.5960    22.0790     2.2460 
   81.0000   -24.1640    65.7790     8.0200     6.6030     8.7170    22.2100     2.2460 
   81.1250   -24.0860    66.7610     8.0590     6.6380     8.8540    22.4400     2.2400 
   81.2500   -23.9590    67.9140     8.0240     6.6140     9.0330    22.7420     2.2300 
   81.3750   -23.8050    68.6170     7.8610     6.4970     9.2010    23.0330     2.2190 
   81.5000   -23.5960    68.5820     7.5280     6.2590     9.1520    23.1180     2.2110 
   81.6250   -23.3570    69.3630     7.0340     5.8990     8.7140    22.9220     2.2140 
   81.7500   -23.1380    72.5230     6.5270     5.5120     7.8970    22.6970     2.2250 
   81.8750   -22.9610    77.0590     6.1610     5.1980     6.8930    22.5990     2.2410 
   82.0000   -22.9490    80.5690     6.0610     5.0490     6.1120    22.5690     2.2560 
   82.1250   -23.2040    78.9820     6.3180     5.1500     6.4420    22.5410     2.2660 
   82.2500   -23.6390    73.7590     6.7990     5.4400     7.8950    22.5730     2.2660 
   82.3750   -24.2160    67.6150     7.3530     5.8330     9.7460    22.7130     2.2520 
   82.5000   -24.9450    62.0160     7.8080     6.2170    11.1810    22.9720     2.2220 
   82.6250   -25.7780    58.6050     7.9930     6.4590    11.1430    23.2700     2.1820 
   82.7500   -26.6170    58.1920     7.9400     6.5330    10.3150    23.6480     2.1440 
   82.8750   -27.4290    59.9600     7.7450     6.4770     9.6980    23.9310     2.1190 
   83.0000   -28.0760    61.4680     7.5380     6.3670     9.4350    24.0200     2.1140 
   83.1250   -28.4090    61.4090     7.4310     6.2870     9.2730    23.9380     2.1310 
   83.2500   -28.6280    61.2650     7.4250     6.2610     9.1980    23.8210     2.1580 
   83.3750   -28.7980    60.4220     7.4830     6.2790     9.1160    23.7010     2.1820 
   83.5000   -28.8940    59.5330     7.5580     6.3150     9.1380    23.7380     2.1990 
   83.6250   -28.9090    59.4280     7.6030     6.3380     9.4150    23.8180     2.2040 
   83.7500   -28.8820    58.9630     7.6050     6.3350     9.2520    23.8630     2.2020 
   83.8750   -28.8090    57.2560     7.5690     6.3080     8.9200    23.8580     2.1990 
   84.0000   -28.6740    55.3420     7.5100     6.2690     8.7650    23.8270     2.1940 
   84.1250   -28.5250    56.9730     7.4500     6.2330     8.7270    23.7680     2.1890 
   84.2500   -28.3600    60.9990     7.4100     6.2130     8.6520    23.6920     2.1850 
   84.3750   -28.0900    64.8490     7.4000     6.2140     8.5480    23.6240     2.1860 
   84.5000   -27.7530    67.1660     7.4220     6.2350     8.4830    23.5900     2.1920 
   84.6250   -27.4290    67.4450     7.4690     6.2660     8.4790    23.5930     2.2030 
   84.7500   -27.1060    66.0970     7.5170     6.2940     8.5620    23.6340     2.2150 
   84.8750   -26.8000    62.9270     7.5450     6.3060     8.6860    23.7060     2.2240 
   85.0000   -26.5200    60.0140     7.5420     6.2940     8.7850    23.7930     2.2310 
   85.1250   -26.2850    60.8950     7.5110     6.2570     8.7350    23.8470     2.2340 
   85.2500   -26.0380    65.1550     7.4810     6.2150     8.5810    23.8140     2.2370 
   85.3750   -25.8680    69.1000     7.4730     6.1840     8.4230    23.6860     2.2400 
   85.5000   -25.7930    69.8590     7.4990     6.1770     8.4550    23.5470     2.2420 
   85.6250   -25.7230    69.1650     7.5440     6.1910     8.6160    23.4130     2.2430 
   85.7500   -25.6410    69.2460     7.5740     6.2050     8.7110    23.3270     2.2390 
   85.8750   -25.5310    69.4670     7.5650     6.2030     8.6260    23.2990     2.2330 
   86.0000   -25.3720    68.9060     7.5150     6.1810     8.3010    23.2790     2.2250 
   86.1250   -25.1750    68.1710     7.4450     6.1500     8.1310    23.1190     2.2170 
   86.2500   -24.9820    67.8690     7.3970     6.1350     8.0310    22.7220     2.2110 
   86.3750   -24.7510    66.8890     7.3980     6.1570     8.0710    22.2690     2.2090 
