~V
VERS. 2.00: Ver 2.00
~W
STRT.M 51.0000:
STOP.M 242.0000:
STEP.M 0.1250:
NULL. -999.2500:
UWI. F10056:
~C
DEPT.M :
GR.API :
RML.OHMM :
RI. :
RXO.OHMM :
CALI.CM :
SP.MV :
DEN.GM/CC :
~A
# ...
  107.2500    91.9630     6.4680     5.4750     5.8010    24.8330    -4.9650     2.2510 
  107.3750    95.6770     6.0530     5.1620     5.1440    24.8990    -4.4090     2.2740 
  107.5000    95.9220     5.8840     5.0000     5.1010    24.9660    -3.7450     2.2860 
  107.6250    93.4670     6.0140     5.0500     5.3940    24.9380    -3.0290     2.2800 
  107.7500    91.1770     6.3260     5.2500     5.6000    24.9050    -2.4510     2.2660 
  107.8750    89.6210     6.6940     5.5200     5.9270    24.8540    -2.1380     2.2500 
  108.0000    87.3900     6.9660     5.7480     6.2780    24.7660    -1.9970     2.2400 
  108.1250    85.1420     6.9740     5.7930     6.2880    24.7080    -1.9360     2.2410 
  108.2500    84.9840     6.7420     5.6440     5.7100    24.6860    -1.8590     2.2510 
  108.3750    86.1460     6.3590     5.3540     5.2200    24.6880    -1.7810     2.2690 
  108.5000    88.6060     5.9360     5.0040     4.9380    24.7670    -1.7130     2.2950 
  108.6250    93.8850     5.5620     4.6680     4.7290    24.8540    -1.5600     2.3240 
  108.7500   100.1680     5.2590     4.3810     4.6230    24.8980    -1.2960     2.3490 
  108.8750   102.0800     5.0540     4.1760     4.7290    24.8850    -0.9510     2.3680 
  109.0000    95.4520     5.0120     4.0990     4.8350    24.8040    -0.6490     2.3840 
  109.1250    85.2060     5.2650     4.2380     4.6150    24.6050    -0.5490     2.4040 
  109.2500    80.2560     5.8310     4.6000     4.6760    24.4260    -0.6870     2.4240 
  109.3750    80.0770     6.6870     5.1800     5.6250    24.3060    -1.0680     2.4340 
  109.5000    79.3890     7.7000     5.9110     7.7970    24.2350    -1.6050     2.4170 
  109.6250    75.4490     8.5750     6.6200     8.5980    24.0870    -2.2920     2.3660 
  109.7500    71.5370     9.0730     7.1170     7.9930    23.9370    -3.0100     2.3020 
  109.8750    67.8850     9.1370     7.3140     7.6760    23.8360    -3.6980     2.2470 
  110.0000    63.8300     8.8910     7.2570     7.5730    23.7310    -4.3620     2.2140 
  110.1250    62.6950     8.5660     7.0770     7.4220    23.6630    -5.0020     2.2040 
  110.2500    65.1730     8.3420     6.9220     7.3680    23.6650    -5.6250     2.2020 
  110.3750    67.9450     8.2430     6.8340     7.4200    23.7320    -6.0810     2.2000 
  110.5000    67.8340     8.2350     6.8120     7.5780    23.8720    -6.3670     2.1980 
  110.6250    66.0890     8.3070     6.8640     7.7910    24.0990    -6.6250     2.2000 
  110.7500    64.7270     8.4600     6.9920     7.8520    24.2880    -6.9130     2.2080 
  110.8750    63.1140     8.7080     7.2060     7.9160    24.3770    -7.2510     2.2190 
  111.0000    61.5370     9.0540     7.5030     8.2500    24.3800    -7.6540     2.2280 
  111.1250    61.6670     9.5010     7.8760     8.6790    24.3800    -8.1290     2.2280 
  111.2500    63.3290     9.9840     8.2720     8.8020    24.5050    -8.6060     2.2190 
  111.3750    66.2100    10.3990     8.6060     8.8790    24.6910    -8.9720     2.2030 
  111.5000    68.6160    10.5700     8.7480     8.9490    24.8430    -9.1720     2.1880 
  111.6250    67.0130    10.2030     8.4700     8.9080    24.8940    -9.0960     2.1800 
  111.7500    64.3430     9.2970     7.7740     8.5320    24.9100    -8.7010     2.1870 
  111.8750    65.2510     8.0110     6.7810     7.5570    24.9370    -7.9970     2.2110 
  112.0000    70.5280     6.6590     5.7260     6.1760    24.9800    -7.0580     2.2480 
  112.1250    75.0820     5.6500     4.8910     4.7330    24.9880    -5.9810     2.2900 
  112.2500    76.7650     5.1630     4.3990     4.0940    24.9020    -4.8700     2.3230 
  112.3750    78.1020     5.2820     4.3100     4.0700    24.7680    -3.9880     2.3420 
  112.5000    78.5220     6.0100     4.6490     4.7990    24.5100    -3.5080     2.3460 
  112.6250    75.5200     7.3230     5.4680     6.0850    24.3580    -3.4610     2.3300 
  112.7500    71.1690     8.8480     6.5720     7.1310    24.4270    -3.8030     2.2980 
  112.8750    66.8540    10.1760     7.7060     7.6000    24.5930    -4.4700     2.2560 
  113.0000    62.5370    10.9270     8.5480     8.0190    24.6490    -5.3510     2.2140 
  113.1250    58.3580    10.8960     8.8200     8.4830    24.6360    -6.3060     2.1850 
  113.2500    57.1820    10.4840     8.7140     9.0350    24.7220    -7.2240     2.1650 
  113.3750    57.5040    10.0390     8.4610     9.0930    24.8770    -8.0250     2.1510 
  113.5000    56.1170     9.7810     8.2440     8.8610    25.1170    -8.6170     2.1440 
  113.6250    55.0080     9.7930     8.1650     8.6810    25.3610    -8.9690     2.1580 
  113.7500    56.7220     9.9640     8.1890     8.5670    25.2850    -9.1920     2.1930 
  113.8750    59.1690    10.1890     8.2660     8.2560    24.9180    -9.3800     2.2350 
  114.0000    60.5780    10.3640     8.3380     8.1060    24.6510    -9.6120     2.2630 
  114.1250    60.4450    10.4040     8.3480     8.2930    24.7110    -9.8220     2.2560 
  114.2500    59.7400    10.3430     8.3050     8.5570    24.9190   -10.0190     2.2260 
  114.3750    58.7460    10.2420     8.2340     8.7600    25.0110   -10.2100     2.1910 
  114.5000    58.0740    10.1590     8.1660     8.8910    25.0370   -10.4320     2.1680 
  114.6250    57.3490    10.1220     8.1250     8.8010    25.0030   -10.6900     2.1590 
  114.7500    54.6530    10.0940     8.1000     8.6170    24.9220   -10.9130     2.1570 
  114.8750    52.2690    10.0300     8.0670     8.4600    24.9000   -11.1110     2.1540 
  115.0000    52.6520     9.9060     8.0100     8.2830    24.9730   -11.2650     2.1490 
  115.1250    55.3280     9.7280     7.9260     8.0980    25.1260   -11.4420     2.1420 
  115.2500    57.2110     9.5360     7.8320     7.8230    25.2290   -11.5940     2.1390 
  115.3750    57.6750     9.3590     7.7450     7.6200    25.2300   -11.7060     2.1390 
  115.5000    59.0720     9.2230     7.6830     7.8270    25.1370   -11.7470     2.1430 
  115.6250    60.2530     9.1600     7.6700     8.0130    24.8910   -11.7310     2.1480 
  115.7500    58.5820     9.1740     7.7130     8.0840    24.7710   -11.6920     2.1510 
  115.8750    56.3440     9.2710     7.8160     8.1720    24.7240   -11.6130     2.1520 
  116.0000    57.4550     9.4490     7.9790     8.2290    24.7190   -11.4210     2.1530 
  116.1250    61.4970     9.6480     8.1630     8.1640    24.7250   -11.0420     2.1540 
  116.2500    63.4140     9.7210     8.2630     8.1310    24.7140   -10.5470     2.1550 
  116.3750    63.0360     9.5110     8.1560     8.1650    24.6830    -9.8800     2.1570 
  116.5000    63.7940     8.9330     7.7610     8.2440    24.6610    -8.9760     2.1680 
  116.6250    67.5560     8.0280     7.0890     8.1040    24.6990    -7.8190     2.1950 
  116.7500    71.7440     7.0620     6.3340     7.2430    24.8290    -6.4790     2.2340 
  116.8750    75.8650     6.2350     5.6430     5.8210    25.0150    -5.0680     2.2760 
  117.0000    80.2090     5.6590     5.1110     4.9800    25.1320    -3.6910     2.3100 
  117.1250    83.9650     5.3780     4.7930     4.9490    25.1650    -2.4820     2.3260 
  117.2500    85.9710     5.2780     4.6330     5.1440    25.1610    -1.4450     2.3280 
  117.3750    85.6850     5.2820     4.5960     5.1730    25.1440    -0.6170     2.3220 
  117.5000    85.4600     5.3320     4.6410     4.9420    25.1150    -0.0460     2.3140 
  117.6250    84.8660     5.3970     4.7390     4.8890    25.1220     0.1650     2.3040 
  117.7500    83.2080     5.4750     4.8610     4.8200    25.1290     0.1100     2.2950 
  117.8750    82.0940     5.5720     4.9990     5.2190    25.1220    -0.0940     2.2890 
  118.0000    82.3280     5.6770     5.1400     5.5840    25.0940    -0.3310     2.2880 
  118.1250    81.3360     5.7760     5.2670     5.6950    25.0800    -0.5100     2.2950 
  118.2500    77.7930     5.8780     5.3830     5.4610    25.0870    -0.6120     2.3020 
  118.3750    75.2610     5.9950     5.4910     5.4660    25.0980    -0.7540     2.3040 
