~V
VERS. 2.00: Ver 2.00
~W
STRT.M 57.0000:
STOP.M 208.0000:
STEP.M 0.1250:
NULL. -999.2500:
UWI. F10012:
~C
DEPT.M :
DEN.GM/CC :
SP.MV :
GR.API :
CALI.CM :
RXO.OHMM :
RI. :
RML.OHMM :
~A
# ...
   68.2500     2.1110   -22.1220   102.1670    23.2940    10.3540    11.0420    14.4800 
   68.3750     2.1180   -22.0640    98.3760    23.2240    13.7540    12.6190    16.3210 
   68.5000     2.1590   -22.0760    97.3970    23.0690    16.4500    13.8960    17.3560 
   68.6250     2.2300   -22.1860   100.1550    22.7670    15.6700    13.9610    16.7900 
   68.7500     2.3020   -22.3380   102.7500    22.4250    13.2450    12.9480    15.1620 
   68.8750     2.3370   -22.4590   105.7450    22.1480    11.7390    11.3740    13.1940 
   69.0000     2.3350   -22.5030   110.2560    22.0640    12.3530     9.7340    11.4140 
   69.1250     2.3150   -22.4910   113.8510    22.1570    12.0220     8.3560    10.0750 
   69.2500     2.2980   -22.4170   113.0630    22.4040    10.4110     7.3310     9.1510 
   69.3750     2.2830   -22.2160   109.5370    22.4920     8.8150     6.7240     8.6920 
   69.5000     2.2540   -21.8990   105.8170    22.4560     8.4560     6.5900     8.7590 
   69.6250     2.2120   -21.5560   100.7050    22.3530     8.7540     7.0510     9.4900 
   69.7500     2.1740   -21.2340    94.8160    22.2110     9.3380     7.9880    10.7400 
   69.8750     2.1610   -20.9810    90.9240    21.8780    10.5390     9.2250    12.2600 
   70.0000     2.1670   -20.8010    90.2200    21.1790    11.8680    10.3840    13.5400 
   70.1250     2.1780   -20.7540    92.8280    19.8290    11.6080    10.8820    13.8820 
   70.2500     2.1860   -20.7520    95.4840    17.8370    10.1970    10.6640    13.3730 
   70.3750     2.1900   -20.8190    94.4140    16.4480     8.8410     9.9500    12.3750 
   70.5000     2.1970   -20.9110    91.8120    15.7620     8.2270     9.0530    11.3060 
   70.6250     2.2070   -20.9610    91.2570    15.3800     8.1390     8.2480    10.4900 
   70.7500     2.2190   -21.0790    93.2810    15.0750     8.0490     7.6290     9.9500 
   70.8750     2.2250   -21.2190    95.0230    14.9250     7.7810     7.1790     9.5860 
   71.0000     2.2270   -21.3130    96.7510    14.9110     7.4820     6.8390     9.2800 
   71.1250     2.2250   -21.3470    99.8300    15.0590     7.3170     6.5820     9.0120 
   71.2500     2.2220   -21.3810   101.7070    15.3660     7.2670     6.4100     8.8130 
   71.3750     2.2200   -21.3960    99.3450    15.7270     7.3060     6.3430     8.6950 
   71.5000     2.2220   -21.4290    96.0330    16.0940     7.3990     6.3810     8.6870 
   71.6250     2.2220   -21.4540    95.1900    16.6030     7.6240     6.5270     8.8720 
   71.7500     2.2180   -21.3930    97.4130    17.4470     7.7320     6.7460     9.2420 
   71.8750     2.2140   -21.2810    98.8000    18.6710     7.5050     7.0160     9.7430 
   72.0000     2.2150   -21.2040    98.1840    19.9030     7.2570     7.3020    10.2850 
   72.1250     2.2150   -21.1490    96.1220    20.9480     7.4560     7.5250    10.7010 
   72.2500     2.2120   -21.0820    94.0750    21.5680     7.9130     7.5900    10.8010 
   72.3750     2.2150   -20.9730    94.3340    21.9860     7.9750     7.4230    10.5000 
   72.5000     2.2280   -20.8440    96.2320    22.6750     7.5780     7.0470     9.9010 
   72.6250     2.2420   -20.7130    98.0520    23.5530     7.2650     6.6340     9.2970 
   72.7500     2.2410   -20.5840    97.6170    24.1110     7.1710     6.4390     9.0570 
   72.8750     2.2170   -20.4840    93.8260    24.3270     7.3280     6.6720     9.4820 
   73.0000     2.1830   -20.3920    90.1590    24.4580     8.2340     7.5080    10.7930 
   73.1250     2.1550   -20.2790    87.9140    24.6310    10.4880     9.1990    13.2340 
   73.2500     2.1390   -20.1510    86.7840    24.8440    14.2540    11.5410    16.3900 
   73.3750     2.1380   -20.0870    87.0720    25.0880    17.8150    14.0300    19.4480 
   73.5000     2.1430   -20.0810    88.4250    25.1500    19.4980    15.7730    21.1470 
   73.6250     2.1530   -20.1250    88.2300    25.0470    19.1470    15.9620    20.6040 
   73.7500     2.1780   -20.1940    86.3970    24.9180    17.5020    15.3630    19.2510 
   73.8750     2.2280   -20.2540    84.4300    24.7230    15.3400    14.8930    18.4600 
   74.0000     2.3070   -20.2950    83.6400    24.4110    14.7760    15.2790    19.1190 
   74.1250     2.4170   -20.3710    83.4660    24.0880    18.2720    17.3190    22.0720 
   74.2500     2.5370   -20.4720    83.1080    23.9110    26.3530    21.1460    27.1630 
   74.3750     2.5960   -20.5450    80.5970    23.7660    39.4520    26.5800    33.7860 
   74.5000     2.5580   -20.5940    76.7780    23.4310    56.3320    32.3160    39.8870 
   74.6250     2.4410   -20.6300    75.3380    23.0710    60.6760    35.2970    41.6460 
   74.7500     2.3000   -20.6550    77.3520    23.2450    50.1640    34.7280    39.2730 
   74.8750     2.1960   -20.6700    79.2760    24.0510    34.5260    31.9290    35.1630 
   75.0000     2.1470   -20.6970    80.2600    24.6960    24.3830    28.5080    31.2010 
   75.1250     2.1490   -20.7750    82.5810    24.9560    21.0550    25.0850    27.6750 
   75.2500     2.1810   -20.9410    88.3350    24.9210    20.6160    21.4940    23.9390 
   75.3750     2.2170   -21.1300    95.6440    24.7070    19.5500    17.6740    19.7950 
   75.5000     2.2400   -21.3320   102.7700    24.5260    16.3060    13.9310    15.6390 
   75.6250     2.2520   -21.5710   108.2360    24.4110    11.7340    10.8750    12.3130 
   75.7500     2.2540   -21.8260   110.1010    24.3500     8.2350     8.7020    10.0990 
   75.8750     2.2410   -22.0940   108.8210    24.3090     6.7860     7.4340     9.0100 
   76.0000     2.2190   -22.3930   105.5370    24.2960     6.7650     7.0020     8.9160 
   76.1250     2.1960   -22.6580   100.9460    24.2920     7.0900     7.3970     9.6970 
   76.2500     2.1800   -22.8110    95.4650    24.2920     7.5650     8.2920    10.9010 
   76.3750     2.1800   -22.9630    92.7650    24.2800     8.5210     9.3760    12.1570 
   76.5000     2.1870   -23.1130    94.4500    24.2500     9.4750    10.2730    13.0730 
   76.6250     2.1930   -23.1910    96.6750    24.2080     9.3550    10.5900    13.2610 
   76.7500     2.2020   -23.2380    97.1310    24.1430     8.2850    10.3450    12.8280 
   76.8750     2.2230   -23.2530    98.3100    24.0600     7.6800     9.6850    12.0030 
   77.0000     2.2480   -23.2290   101.6480    23.9750     8.1170     8.8320    11.0860 
   77.1250     2.2640   -23.1510   104.7510    23.9680     8.3470     8.0550    10.3980 
   77.2500     2.2620   -23.0460   103.1760    24.0350     7.7170     7.5530    10.1340 
   77.3750     2.2450   -22.8400    96.2680    24.0600     6.9490     7.4580    10.4250 
   77.5000     2.2190   -22.5210    88.8110    23.9890     7.1200     7.8350    11.2910 
   77.6250     2.1880   -22.1610    85.4130    23.8020     8.3510     8.7020    12.6450 
   77.7500     2.1730   -21.7920    87.3500    23.6260    10.1360     9.7810    14.0120 
   77.8750     2.2010   -21.4190    90.6020    23.5930    12.0190    10.7470    14.8850 
   78.0000     2.2550   -21.0270    89.2060    23.7350    13.0360    11.2920    14.9550 
   78.1250     2.2960   -20.6090    86.0190    23.9860    11.6130    11.3540    14.4950 
   78.2500     2.2900   -20.2120    86.4120    24.1800     9.2940    11.3830    14.3460 
   78.3750     2.2350   -19.8710    90.2110    24.2660    17.4070    11.7250    14.9520 
   78.5000     2.1720   -19.5930    92.2830    24.2640    28.5390    12.5740    16.4270 
   78.6250     2.1260   -19.3780    91.6390    24.2160    34.3150    14.0530    18.7350 
   78.7500     2.1020   -19.2000    88.9100    24.1400    24.9120    15.8570    21.2980 
   78.8750     2.0950   -19.0630    84.4690    24.2310    18.6010    17.5360    23.4620 
   79.0000     2.0910   -18.9710    80.3580    24.3060    16.3130    18.6380    24.6850 
   79.1250     2.0960   -18.9560    79.5960    24.3640    17.1190    19.0040    24.8740 
   79.2500     2.1320   -19.0200    82.2180    24.3650    17.7920    19.0740    24.6780 
   79.3750     2.2190   -19.1480    84.3170    24.3010    17.8440    19.1460    24.5140 
