~V
VERS. 2.00: Ver 2.00
~W
STRT.M 55.0000:
STOP.M 310.0000:
STEP.M 0.1250:
NULL. -999.2500:
UWI. F10049:
~C
DEPT.M :
GR.API :
RML.OHMM :
RI. :
RXO.OHMM :
CALI.CM :
DEN.GM/CC :
SP.MV :
~A
# ...
  291.2500    79.7630    13.9560    12.2770    16.4420    25.6350     2.3620    -7.6480 
  291.3750    77.1200    15.8870    14.0040    18.5960    25.9290     2.3980    -7.0320 
  291.5000    76.0490    17.9290    16.2800    22.3130    25.6450     2.4390    -6.8720 
  291.6250    76.2390    19.5890    18.7930    27.2620    25.4050     2.4720    -6.8600 
  291.7500    76.5210    20.3720    20.4400    31.5400    25.2590     2.4860    -6.7710 
  291.8750    76.6640    19.6810    20.1020    34.4260    25.2400     2.4740    -6.6820 
  292.0000    75.9350    17.3010    17.5760    29.5540    25.2560     2.4380    -6.5570 
  292.1250    72.8720    13.8510    13.9160    18.5960    25.2240     2.3890    -6.4170 
  292.2500    68.2890    10.6290    10.6250    10.3440    25.1380     2.3450    -6.2240 
  292.3750    61.8000     8.1540     8.1770     7.0060    25.0680     2.3200    -5.9150 
  292.5000    55.0680     6.5100     6.5630     5.6190    25.0750     2.3150    -5.4420 
  292.6250    49.4990     5.6370     5.6930     4.7410    25.1710     2.3240    -4.9180 
  292.7500    44.9060     5.2140     5.2700     4.6020    25.2650     2.3360    -4.4320 
  292.8750    41.1880     5.0910     5.1510     4.7150    25.3090     2.3460    -3.9300 
  293.0000    38.9100     5.1510     5.2130     4.6730    25.3260     2.3530    -3.5350 
  293.1250    40.7330     5.3070     5.3660     4.5230    25.3400     2.3540    -3.2750 
  293.2500    45.1900     5.4770     5.5350     4.5590    25.3110     2.3490    -3.1790 
  293.3750    50.0800     5.6160     5.6910     4.8780    25.2630     2.3450    -3.2650 
  293.5000    53.3930     5.6890     5.7990     5.5800    25.1950     2.3460    -3.5350 
  293.6250    53.7830     5.6680     5.8020     5.8890    25.1780     2.3490    -3.8580 
  293.7500    53.3980     5.6050     5.7140     5.6220    25.1680     2.3400    -4.1630 
  293.8750    54.0290     5.5880     5.6200     5.3300    25.1270     2.3130    -4.5790 
  294.0000    57.4040     5.7260     5.6500     5.1480    24.9010     2.2750    -5.0190 
  294.1250    63.7430     6.1780     5.9690     5.3590    24.4040     2.2530    -5.4790 
  294.2500    70.5510     6.9580     6.6080     6.1650    23.9110     2.2630    -6.0060 
  294.3750    76.7760     8.0230     7.5520     7.6300    23.9160     2.2980    -6.6290 
  294.5000    81.8290     9.2150     8.6800     9.7390    24.3080     2.3380    -7.2140 
  294.6250    85.0520    10.2560     9.7310    12.1570    24.7540     2.3610    -7.8050 
  294.7500    86.1930    10.9910    10.5120    15.3920    25.1150     2.3700    -8.4030 
  294.8750    85.2470    11.4620    11.0280    19.9200    25.2980     2.3720    -8.8490 
  295.0000    84.5190    11.8670    11.4350    19.3790    25.3330     2.3730    -9.1750 
  295.1250    86.0770    12.4840    11.9740    22.5840    25.4110     2.3740    -9.3610 
  295.2500    86.8460    13.3610    12.7480    22.3480    25.5770     2.3740    -9.3560 
  295.3750    85.1310    14.3550    13.7050    19.9390    25.5530     2.3750    -9.1900 
  295.5000    83.3640    15.1790    14.6350    17.2370    25.4400     2.3800    -8.9270 
  295.6250    83.3170    15.3640    15.0740    13.9850    25.2670     2.3860    -8.6130 
  295.7500    83.1030    14.7430    14.7030    14.4550    25.2470     2.3890    -8.2150 
  295.8750    82.1010    13.3230    13.4340    14.8960    25.2550     2.3830    -7.7360 
  296.0000    80.2850    11.3440    11.5220    13.3430    25.2060     2.3690    -7.1340 
  296.1250    74.8620     9.2070     9.4620    10.1770    25.0750     2.3540    -6.3530 
  296.2500    65.4370     7.3220     7.6950     7.2280    24.9950     2.3440    -5.5530 
  296.3750    54.8200     5.8940     6.3970     5.3110    24.9570     2.3410    -4.6670 
  296.5000    47.2160     4.9890     5.5970     4.6450    24.9440     2.3430    -3.7640 
  296.6250    44.2960     4.6450     5.2910     4.6880    24.9070     2.3450    -2.9440 
  296.7500    42.9660     4.6840     5.2870     4.8150    24.8620     2.3460    -2.2560 
  296.8750    41.6030     4.9920     5.4610     5.3810    24.8150     2.3480    -1.6740 
  297.0000    41.7630     5.4330     5.6940     5.9650    24.7530     2.3510    -1.1920 
  297.1250    44.2950     5.8350     5.8730     5.6380    24.7510     2.3540    -0.8950 
  297.2500    46.2810     6.0790     5.9500     5.2990    24.8220     2.3530    -0.6450 
  297.3750    46.7620     6.1360     5.9230     5.0310    24.8840     2.3460    -0.3800 
  297.5000    46.0620     6.0420     5.8130     4.7280    24.8620     2.3330    -0.2050 
  297.6250    44.9430     5.8590     5.6610     4.5750    24.7960     2.3160    -0.1310 
  297.7500    43.7490     5.6600     5.5160     4.6320    24.8150     2.3010    -0.0540 
  297.8750    44.3750     5.4690     5.3920     4.8350    24.8710     2.2950    -0.0730 
  298.0000    47.2340     5.3090     5.2810     5.0040    24.9050     2.3000    -0.0980 
  298.1250    49.4340     5.2430     5.1950     4.6460    24.9110     2.3170    -0.0260 
  298.2500    49.7390     5.3110     5.1650     4.4150    24.9020     2.3360    -0.0240 
  298.3750    48.9220     5.5260     5.2250     4.4700    24.8210     2.3500    -0.2040 
  298.5000    48.6790     5.8420     5.3750     4.7710    24.7490     2.3580    -0.4800 
  298.6250    48.6790     6.1370     5.5790     5.2990    24.7460     2.3590    -0.6580 
  298.7500    48.6790     6.2880     5.7360     5.9110    24.8180     2.3610    -0.7660 
  298.8750    48.6790     6.2420     5.7650     5.7500    24.9480     2.3650    -0.8030 
  299.0000    48.6790     6.0510     5.6550     5.1890    25.1210     2.3670    -0.8230 
  299.1250    48.6790     5.8730     5.4940     5.0830    25.1690     2.3590    -0.9740 
  299.2500    48.6790     5.8550     5.4140     5.1710    25.1330     2.3390    -1.1320 
  299.3750    48.6790     6.0460     5.4840     4.9110    25.1360     2.3110    -1.3400 
  299.5000    48.6790     6.3930     5.7060     5.0000    25.3210     2.2860    -1.5480 
  299.6250    48.6790     6.7330     5.9870     6.3740    25.5280     2.2790    -1.8100 
  299.7500    48.6790     6.8710     6.1340     7.9110    25.5050     2.2910    -2.0480 
  299.8750    48.6790     6.7050     6.0280     8.2460    25.2670     2.3180    -2.1200 
  300.0000    48.6790     6.2610     5.6870     6.0970    25.0300     2.3490    -2.1190 
  300.1250    48.6790     5.7140     5.2700     4.9520    24.8950     2.3720    -2.1190 
  300.2500    48.6790     5.3330     4.9820     4.5380    24.8680     2.3810    -2.1350 
  300.3750    48.6790     5.3020     4.9500     4.8900    24.8870     2.3770    -2.0970 
  300.5000    48.6790     5.7070     5.2480     5.7080    24.9240     2.3640    -2.0780 
  300.6250    48.6790     6.5260     5.9120     7.1350    24.9650     2.3460    -2.0630 
  300.7500    48.6790     7.4450     6.7290     7.8810    25.0210     2.3310    -2.1290 
  300.8750    48.6790     8.1670     7.4330     8.9440    25.0650     2.3190    -2.4110 
  301.0000    48.6790     8.4530     7.7380     9.1830    24.7710     2.3150    -2.7090 
  301.1250    48.6790     8.1500     7.4410     8.1110    24.5860     2.3200    -2.7580 
  301.2500    48.6790     7.4900     6.7950     5.5830    24.5010     2.3330    -2.6520 
  301.3750    48.6790     6.7020     6.0620     4.3800    24.4880     2.3510    -2.3910 
  301.5000    48.6790     5.9850     5.4430     4.0750    24.5180     2.3660    -1.9910 
  301.6250    48.6790     5.4970     5.0730     4.1180    24.6450     2.3750    -1.4510 
  301.7500    48.6790     5.2280     4.9150     4.2850    24.9370     2.3810    -0.8160 
  301.8750    48.6790     5.1350     4.9080     4.4090    25.3250     2.3860    -0.1410 
  302.0000    48.6790     5.1470     4.9650     4.4790    25.7940     2.3930     0.4930 
  302.1250    48.6790     5.1920     5.0080     4.3280    25.6670     2.4000     0.9240 
  302.2500    48.6790     5.2150     5.0110     4.2240    25.5780     2.4030     1.2650 
  302.3750    48.6790     5.1920     4.9730     4.1460    25.3760     2.4040     1.4950 
