~V
VERS. 2.00: Ver 2.00
~W
STRT.M 50.0000:
STOP.M 207.0000:
STEP.M 0.1250:
NULL. -999.2500:
UWI. F10009:
~C
DEPT.M :
GR.API :
RML.OHMM :
RI. :
RXO.OHMM :
CALI.CM :
DEN.GM/CC :
SP.MV :
~A
# ...
   83.7500    76.6510    14.1250    11.9860    15.6820    23.8880     2.2600   -16.3240 
   83.8750    83.1050    11.3520     9.8770    11.7850    23.9250     2.3000   -16.4040 
   84.0000    87.4290     9.1010     8.0100     8.5680    23.9460     2.3330   -16.5210 
   84.1250    87.5470     7.7520     6.7330     7.1480    23.9510     2.3540   -16.6830 
   84.2500    86.4980     7.0540     5.9460     6.4180    23.9520     2.3670   -16.8940 
   84.3750    86.7950     6.8190     5.5550     6.1390    23.9520     2.3740   -17.1590 
   84.5000    88.7680     6.8860     5.4650     6.0820    23.9520     2.3770   -17.4740 
   84.6250    91.8030     7.1580     5.6180     6.2410    23.9520     2.3740   -17.8260 
   84.7500    93.7440     7.5230     5.9020     6.5590    23.9530     2.3630   -18.1830 
   84.8750    93.1910     7.9250     6.2600     6.9630    23.9530     2.3450   -18.5330 
   85.0000    91.0800     8.3020     6.6270     7.3860    23.9530     2.3210   -18.8670 
   85.1250    91.0930     8.5630     6.9270     7.7930    23.9510     2.3010   -19.1990 
   85.2500    92.6290     8.6920     7.1270     8.1400    23.9460     2.2940   -19.5360 
   85.3750    92.9500     8.7210     7.2320     8.3080    23.9400     2.3060   -19.8710 
   85.5000    91.2610     8.7270     7.2840     8.4320    23.9280     2.3350   -20.1950 
   85.6250    88.6720     8.8110     7.3430     8.4910    23.8950     2.3690   -20.5020 
   85.7500    87.0810     8.9980     7.4480     8.6900    23.8320     2.3910   -20.7900 
   85.8750    86.9030     9.2480     7.6000     9.0690    23.7370     2.3900   -21.0600 
   86.0000    88.2320     9.4870     7.7690     9.3350    23.6260     2.3690   -21.3080 
   86.1250    88.2410     9.6400     7.9120     9.1680    23.5350     2.3400   -21.4700 
   86.2500    85.9440     9.7280     8.0220     9.0380    23.4940     2.3160   -21.5070 
   86.3750    84.3370     9.8060     8.1190     9.1390    23.4940     2.3000   -21.3860 
   86.5000    85.5580     9.9310     8.2330     9.1660    23.5110     2.2910   -21.0720 
   86.6250    87.6190    10.1180     8.3770     9.2290    23.5180     2.2890   -20.4970 
   86.7500    87.9920    10.2720     8.5020     9.5300    23.5230     2.2950   -19.6530 
   86.8750    88.2030    10.2650     8.5290     9.7350    23.5340     2.3110   -18.5110 
   87.0000    89.5470     9.9920     8.3790     9.5020    23.5630     2.3330   -17.0900 
   87.1250    90.6330     9.4000     8.0030     9.0790    23.6130     2.3530   -15.4820 
   87.2500    91.4950     8.6670     7.5080     8.4440    23.6720     2.3620   -13.8850 
   87.3750    93.3340     7.9920     7.0210     7.6700    23.7160     2.3600   -12.4170 
   87.5000    96.0170     7.5810     6.6780     7.1040    23.7080     2.3470   -11.1270 
   87.6250    97.3560     7.6510     6.6340     7.3140    23.6540     2.3240   -10.0880 
   87.7500    96.2640     8.1410     6.8830     7.8820    23.6130     2.2930    -9.3120 
   87.8750    93.2650     8.9340     7.3810     8.5820    23.5990     2.2590    -8.8270 
   88.0000    90.2470     9.8160     8.0090     9.1990    23.5960     2.2280    -8.6100 
   88.1250    88.1430    10.4630     8.5510     9.7660    23.5940     2.2130    -8.6130 
   88.2500    86.7690    10.6880     8.8300    10.2320    23.5950     2.2150    -8.6940 
   88.3750    86.6060    10.4680     8.7800    10.3570    23.6030     2.2310    -8.7720 
   88.5000    87.5940     9.9730     8.4830     9.9830    23.6140     2.2500    -8.8430 
   88.6250    88.8140     9.6090     8.1900     9.5250    23.6140     2.2590    -8.9170 
   88.7500    89.4710     9.8010     8.2140    10.1160    23.5780     2.2560    -8.9940 
   88.8750    89.2960    10.8730     8.8130    12.0450    23.4810     2.2460    -9.0680 
   89.0000    87.1070    12.9980    10.1910    15.7730    23.3300     2.2330    -9.1310 
   89.1250    82.2190    16.2490    12.5800    20.9270    23.2000     2.2240    -9.1890 
   89.2500    77.4010    20.0550    15.6900    26.3160    23.1640     2.2170    -9.2480 
   89.3750    73.4060    23.8540    19.1560    30.5170    23.2400     2.2120    -9.3160 
   89.5000    70.9160    27.0710    22.4740    32.8600    23.4430     2.2060    -9.3870 
   89.6250    70.2010    29.1560    25.0110    33.6310    23.6930     2.1950    -9.4440 
   89.7500    69.7040    30.2690    26.6460    32.8910    23.8840     2.1820    -9.4940 
   89.8750    67.6370    30.6070    27.4260    32.5350    23.9790     2.1690    -9.5530 
   90.0000    63.7110    30.3110    27.4480    32.6560    24.0080     2.1600    -9.6490 
   90.1250    61.0310    29.2530    26.6210    31.4650    24.0100     2.1570    -9.7840 
   90.2500    61.0220    27.4900    25.0910    29.0920    24.0100     2.1620    -9.9350 
   90.3750    63.1310    25.1110    22.9970    26.3060    24.0090     2.1720   -10.1040 
   90.5000    66.6770    22.4190    20.6290    23.6190    24.0060     2.1850   -10.2980 
   90.6250    70.7410    19.9640    18.4420    20.8250    23.9970     2.1990   -10.5180 
   90.7500    73.7340    18.2540    16.8030    18.5010    23.9800     2.2090   -10.7460 
   90.8750    74.2030    17.6990    15.9970    17.5000    23.9520     2.2120   -10.9720 
   91.0000    72.1920    18.7170    16.3120    18.4350    23.9070     2.2070   -11.1790 
   91.1250    68.7130    21.8790    18.3430    22.0150    23.8400     2.1970   -11.3590 
   91.2500    65.6570    26.8040    22.0530    28.0330    23.7450     2.1850   -11.4920 
   91.3750    63.5590    32.8460    27.2210    36.5120    23.6330     2.1770   -11.5430 
   91.5000    62.2020    39.0690    33.0600    46.7920    23.5360     2.1730   -11.4960 
   91.6250    61.0070    43.5330    37.9270    54.3640    23.4760     2.1740   -11.2970 
   91.7500    59.8620    45.1930    40.4940    56.4250    23.4560     2.1770   -10.9240 
   91.8750    58.9290    44.0030    40.3420    51.7320    23.4520     2.1800   -10.3500 
   92.0000    59.4240    41.0230    38.1620    42.5840    23.4520     2.1800    -9.5900 
   92.1250    61.5750    37.8750    35.3520    36.7960    23.4550     2.1780    -8.6760 
   92.2500    62.6460    35.6740    33.1830    35.6340    23.4610     2.1750    -7.7340 
   92.3750    62.2880    34.8460    32.1030    35.7200    23.4700     2.1730    -6.8350 
   92.5000    61.4780    35.3260    32.2220    34.3710    23.4810     2.1730    -6.0100 
   92.6250    61.7300    37.5280    33.6760    35.0140    23.4920     2.1750    -5.3110 
   92.7500    62.9380    40.7730    36.1510    38.6680    23.4960     2.1770    -4.7660 
   92.8750    64.9960    44.9690    39.5000    43.7420    23.4980     2.1770    -4.4040 
   93.0000    66.3900    49.7980    43.5560    48.9220    23.4990     2.1770    -4.2100 
   93.1250    64.2680    53.5050    48.2210    53.1440    23.4960     2.1760    -4.1490 
   93.2500    60.4920    57.5200    53.2520    58.1340    23.4930     2.1770    -4.1430 
   93.3750    57.4980    61.9100    58.4060    64.1780    23.4870     2.1770    -4.1650 
   93.5000    55.1520    66.3340    63.1040    70.3360    23.4690     2.1760    -4.2040 
   93.6250    53.8400    69.1940    65.6590    71.0270    23.4110     2.1730    -4.2720 
   93.7500    55.5700    68.4780    64.4430    66.5980    23.2970     2.1700    -4.3740 
   93.8750    59.9730    62.4640    58.1220    60.1330    23.1470     2.1720    -4.5120 
   94.0000    63.7250    51.0810    46.9300    52.5930    23.0080     2.1850    -4.6870 
   94.1250    64.8830    36.8470    33.5940    43.8410    22.9060     2.2170    -4.8910 
   94.2500    67.0710    24.2770    22.2580    31.0970    22.8030     2.2640    -5.0970 
   94.3750    71.5090    15.4710    14.4370    16.9870    22.7020     2.3120    -5.2760 
   94.5000    76.0360    10.6010     9.8810     8.5750    22.6360     2.3480    -5.4250 
   94.6250    79.7280     9.4830     8.2160     7.2010    22.6220     2.3510    -5.5500 
   94.7500    82.1440    11.0060     8.6910     9.6300    22.6320     2.3250    -5.6580 
   94.8750    81.3610    14.8110    11.3090    15.1210    22.6490     2.2820    -5.7470 
