~V
VERS. 2.00: Ver 2.00
~W
STRT.M 55.0000:
STOP.M 292.0000:
STEP.M 0.1250:
NULL. -999.2500:
UWI. F10078:
~C
DEPT.M :
GR.API :
RML.OHMM :
RI. :
RXO.OHMM :
CALI.CM :
DEN.GM/CC :
SP.MV :
~A
# ...
   88.7500    61.4680     9.3400     7.9880    12.0730    23.8100     2.1330   -17.1970 
   88.8750    59.8130     8.6950     7.6560    11.4850    23.7690     2.0920   -17.4470 
   89.0000    61.8760     8.2340     7.3640    10.3130    23.7690     2.0590   -17.5110 
   89.1250    63.3240     8.3130     7.3700     9.7810    23.9250     2.0480   -17.2650 
   89.2500    62.4680     8.8870     7.7090     9.6560    24.1640     2.0700   -16.7910 
   89.3750    62.7890     9.7280     8.2800     9.7190    24.3550     2.1350   -16.1010 
   89.5000    65.9860    10.4250     8.8350    10.0160    24.3870     2.2370   -15.2400 
   89.6250    70.9710    10.4400     8.9730    10.4710    24.2250     2.3430   -14.2670 
   89.7500    78.8610     9.6640     8.5410    10.6770    24.0930     2.4110   -13.2810 
   89.8750    89.8240     8.3120     7.6090     9.8050    24.0920     2.4230   -12.3140 
   90.0000    99.5710     6.8160     6.4480     7.2750    24.1700     2.3960   -11.4260 
   90.1250   103.5590     5.5640     5.4140     4.9870    24.2330     2.3640   -10.6870 
   90.2500   104.8840     4.7990     4.6640     4.1140    24.2560     2.3490   -10.0740 
   90.3750   105.8750     4.4550     4.2060     3.8140    24.2600     2.3520    -9.6440 
   90.5000   107.6130     4.3790     3.9760     3.6910    24.2600     2.3640    -9.3630 
   90.6250   108.8800     4.4110     3.8980     3.6700    24.2600     2.3740    -9.1860 
   90.7500   108.3370     4.4250     3.8660     3.6620    24.2600     2.3770    -9.0480 
   90.8750   107.3500     4.3800     3.8300     3.6560    24.2590     2.3740    -8.9800 
   91.0000   108.5740     4.2640     3.7670     3.6390    24.2580     2.3680    -9.0210 
   91.1250   112.2540     4.0770     3.6680     3.6200    24.2550     2.3610    -9.2030 
   91.2500   114.0220     3.8840     3.5690     3.6710    24.2510     2.3500    -9.4360 
   91.3750   113.3310     3.8140     3.5370     3.8740    24.2430     2.3370    -9.6650 
   91.5000   110.7930     4.0950     3.6990     4.4220    24.2240     2.3250    -9.9910 
   91.6250   101.5830     5.2770     4.4100     6.2930    24.1780     2.3280   -10.4660 
   91.7500    87.2950     7.7350     6.0180    10.6070    24.1140     2.3580   -10.9920 
   91.8750    74.1300    11.7340     8.8680    17.7970    24.0490     2.4170   -11.5600 
   92.0000    65.8590    17.0560    13.0080    27.8540    23.9930     2.4970   -12.1640 
   92.1250    60.2480    22.5980    17.8500    38.2660    23.9720     2.5770   -12.8800 
   92.2500    54.9080    26.5220    21.8450    44.3190    23.9660     2.6340   -13.7080 
   92.3750    52.0460    27.3820    23.5260    45.3590    23.9650     2.6500   -14.6060 
   92.5000    54.0050    24.8210    22.1780    41.3100    23.9590     2.6200   -15.5330 
   92.6250    58.8460    19.9910    18.4480    32.8540    23.9390     2.5430   -16.5080 
   92.7500    62.0700    15.3200    14.5030    22.9390    23.8950     2.4450   -17.4900 
   92.8750    62.4230    11.8270    11.3100    15.0740    23.8120     2.3480   -18.4110 
   93.0000    61.6710     9.6720     9.1110    10.7150    23.6940     2.2710   -19.2630 
   93.1250    61.0580     8.7440     7.9200     9.4930    23.5940     2.2250   -20.0010 
   93.2500    60.8980     8.4940     7.3590     9.1970    23.5450     2.2020   -20.6510 
   93.3750    61.5660     8.6260     7.2240     9.1810    23.5320     2.1930   -21.2370 
   93.5000    62.5720     8.8940     7.3290     9.2460    23.5310     2.1880   -21.6860 
   93.6250    62.2450     9.0990     7.5190     9.4220    23.5310     2.1850   -21.9630 
   93.7500    60.7920     9.1680     7.6730     9.4980    23.5310     2.1830   -22.2320 
   93.8750    59.9050     9.1130     7.7510     9.4310    23.5310     2.1850   -22.5100 
   94.0000    60.8790     8.9830     7.7530     9.2540    23.5300     2.1880   -22.7170 
   94.1250    62.4590     8.8450     7.6970     8.9690    23.5240     2.1910   -22.7630 
   94.2500    63.5430     8.7530     7.6280     8.6430    23.5100     2.1920   -22.7360 
   94.3750    64.9790     8.7370     7.5740     8.4870    23.4790     2.1920   -22.6850 
   94.5000    67.1570     8.8060     7.5480     8.7350    23.4300     2.1910   -22.6560 
   94.6250    67.7670     8.9490     7.5490     9.4340    23.3720     2.1900   -22.6350 
   94.7500    65.6390     9.1000     7.5580     9.8560    23.3680     2.1880   -22.5160 
   94.8750    62.8050     9.1940     7.5500    10.0710    23.4030     2.1860   -22.3050 
   95.0000    62.1290     9.1680     7.4980    10.1630    23.4440     2.1830   -22.1190 
   95.1250    65.0430     8.9700     7.3690    10.1450    23.4590     2.1810   -22.0230 
   95.2500    69.2350     8.6640     7.1780    10.0060    23.4580     2.1780   -21.9120 
   95.3750    71.3470     8.3450     6.9600     9.7900    23.4520     2.1730   -21.7130 
   95.5000    70.4920     8.1560     6.7950     9.5140    23.4400     2.1660   -21.4900 
   95.6250    69.5590     8.3090     6.8270     9.3580    23.4250     2.1620   -21.2740 
   95.7500    69.5010     8.8110     7.1040     9.8790    23.4190     2.1760   -21.0600 
   95.8750    66.7320     9.5480     7.5900    11.7490    23.4390     2.2130   -20.9110 
   96.0000    59.9050    10.2610     8.1380    14.4270    23.4840     2.2690   -20.8500 
   96.1250    54.5650    10.5420     8.4760    17.1390    23.5250     2.3180   -20.8690 
   96.2500    55.7470    10.2440     8.4390    18.3510    23.4990     2.3330   -20.9320 
   96.3750    60.4890     9.4570     8.0200    15.0470    23.3860     2.3090   -21.0720 
   96.5000    64.5290     8.5110     7.3940     9.4400    23.2270     2.2630   -21.2580 
   96.6250    67.1230     7.9060     6.8800     7.7880    23.1120     2.2210   -21.5160 
   96.7500    69.3340     7.8620     6.6850     7.6670    23.0770     2.1940   -21.8380 
   96.8750    70.2110     8.3600     6.8560     8.1800    23.1600     2.1800   -22.1600 
   97.0000    69.0240     9.1860     7.3110     8.9050    23.3110     2.1770   -22.4120 
   97.1250    65.6850     9.9690     7.8490     9.5370    23.4630     2.1800   -22.5890 
   97.2500    61.7660    10.3900     8.2230     9.9490    23.5210     2.1850   -22.7720 
   97.3750    59.0650    10.3280     8.3070    10.1220    23.5200     2.1890   -22.9320 
   97.5000    57.9270     9.8610     8.1040    10.0860    23.5010     2.1880   -23.0100 
   97.6250    58.7360     9.2130     7.7250    10.0340    23.4680     2.1830   -22.9550 
   97.7500    60.9110     8.6600     7.3590     9.9830    23.3950     2.1800   -22.8580 
   97.8750    62.1530     8.3160     7.0990     9.8950    23.2670     2.1830   -22.7230 
   98.0000    60.6110     8.1840     6.9700     9.7610    23.0800     2.1930   -22.4980 
   98.1250    59.7910     8.2030     6.9550     9.5350    22.7990     2.2020   -22.0980 
   98.2500    63.2700     8.2470     6.9780     9.2240    22.5100     2.2030   -21.5670 
   98.3750    68.5070     8.2500     6.9960     8.8440    22.3730     2.1930   -20.9990 
   98.5000    70.6180     8.1800     6.9820     8.4220    22.4660     2.1740   -20.4590 
   98.6250    70.7490     8.0350     6.9230     8.0510    22.7060     2.1500   -19.9220 
   98.7500    71.6180     7.8620     6.8340     7.8880    22.9830     2.1300   -19.3360 
   98.8750    70.8760     7.7060     6.7310     7.9320    23.2230     2.1190   -18.7820 
   99.0000    66.7330     7.5940     6.6310     8.0890    23.3520     2.1190   -18.3290 
   99.1250    63.1890     7.5380     6.5490     8.1730    23.3280     2.1280   -17.9920 
   99.2500    65.0930     7.5090     6.4910     8.1460    23.2870     2.1420   -17.7400 
   99.3750    70.1700     7.4940     6.4600     8.0900    23.2740     2.1560   -17.5610 
   99.5000    72.0060     7.4900     6.4570     8.0710    23.2850     2.1660   -17.4380 
   99.6250    70.4590     7.5120     6.4920     8.0880    23.3160     2.1700   -17.4010 
   99.7500    71.1690     7.5700     6.5600     8.1790    23.3580     2.1700   -17.4100 
   99.8750    73.1560     7.6740     6.6600     8.4330    23.3880     2.1680   -17.4470 
