~V
VERS. 2.00: Ver 2.00
~W
STRT.M 55.0000:
STOP.M 279.0000:
STEP.M 0.1250:
NULL. -999.2500:
UWI. F10072:
~C
DEPT.M :
GR.API :
RML.OHMM :
RI. :
RXO.OHMM :
CALI.CM :
DEN.GM/CC :
SP.MV :
~A
# ...
  122.5000    88.1390     7.8550     6.8430     6.7350    23.7730     2.2060   -10.9740 
  122.6250    85.7520     7.5620     6.4780     6.8510    23.6020     2.1740   -11.2250 
  122.7500    85.1060     7.3810     6.2270     6.8140    23.5470     2.1680   -11.4130 
  122.8750    86.6090     7.2600     6.0860     6.4280    23.5860     2.1830   -11.5460 
  123.0000    87.2980     7.1440     6.0100     6.1910    23.6610     2.2090   -11.5840 
  123.1250    87.4490     7.0140     5.9610     5.8570    23.6970     2.2350   -11.5140 
  123.2500    89.2840     6.9000     5.9210     5.8950    23.6250     2.2540   -11.3830 
  123.3750    91.4950     6.8260     5.8820     6.0970    23.5780     2.2670   -11.1920 
  123.5000    92.3490     6.7870     5.8390     6.5820    23.6150     2.2700   -10.9270 
  123.6250    92.2860     6.7570     5.7840     6.5690    23.7570     2.2630   -10.6600 
  123.7500    91.6920     6.7030     5.7150     6.2860    23.9500     2.2500   -10.5370 
  123.8750    89.9910     6.6170     5.6160     5.9420    24.0400     2.2360   -10.5660 
  124.0000    87.6390     6.5310     5.4940     5.9400    24.0040     2.2270   -10.6980 
  124.1250    87.4500     6.5260     5.4150     6.0730    23.6470     2.2340   -10.8140 
  124.2500    89.9590     6.6550     5.4460     5.7780    23.4800     2.2610   -10.9200 
  124.3750    93.0460     6.9340     5.6210     5.4750    23.4550     2.3000   -11.0560 
  124.5000    95.1000     7.3140     5.9350     6.1300    23.5130     2.3380   -11.2960 
  124.6250    93.6910     7.6810     6.3140     8.1790    23.5690     2.3500   -11.6720 
  124.7500    89.0760     7.9150     6.6160     9.4010    23.5800     2.3320   -12.1150 
  124.8750    83.6440     7.9710     6.7580     7.9070    23.4970     2.2910   -12.6030 
  125.0000    79.1510     7.9010     6.7540     6.8910    23.2980     2.2430   -13.1620 
  125.1250    77.1110     7.8490     6.7080     6.8440    23.1270     2.2070   -13.8350 
  125.2500    76.1130     7.9400     6.7550     6.9630    23.0040     2.1860   -14.5020 
  125.3750    75.9510     8.1970     6.9600     7.1640    22.9500     2.1760   -15.1130 
  125.5000    77.0200     8.5360     7.3020     7.5750    22.9090     2.1700   -15.6400 
  125.6250    77.4850     8.7700     7.6380     7.6820    22.8810     2.1670   -15.9920 
  125.7500    75.8620     8.7730     7.8000     7.7850    22.8900     2.1680   -16.1430 
  125.8750    73.2700     8.5300     7.7130     7.8840    22.9220     2.1780   -16.0980 
  126.0000    73.4310     8.1240     7.4050     7.8380    22.9550     2.1960   -15.8540 
  126.1250    77.8270     7.7080     6.9780     7.1060    23.0140     2.2190   -15.4160 
  126.2500    82.0580     7.4060     6.5980     6.2640    23.1240     2.2390   -14.9550 
  126.3750    83.9930     7.2590     6.3540     5.9760    23.1620     2.2500   -14.5230 
  126.5000    83.6870     7.2410     6.2680     6.1860    23.1140     2.2500   -14.1090 
  126.6250    82.5870     7.2770     6.3220     6.2410    23.0910     2.2380   -13.6790 
  126.7500    82.0570     7.2740     6.4150     6.3270    23.0550     2.2250   -13.2260 
  126.8750    84.0030     7.1840     6.4560     6.3530    23.0430     2.2170   -12.7220 
  127.0000    87.8820     6.9950     6.3710     6.0820    23.1560     2.2200   -12.1690 
  127.1250    88.8050     6.7190     6.1400     5.9290    23.3220     2.2360   -11.6480 
  127.2500    85.9110     6.4140     5.8470     5.7940    23.4860     2.2580   -11.1350 
  127.3750    84.6530     6.1110     5.5450     5.6560    23.6790     2.2800   -10.5610 
  127.5000    88.5320     5.8340     5.2700     5.5380    23.9440     2.2960    -9.9190 
  127.6250    94.1530     5.6260     5.0550     5.3870    24.2800     2.3040    -9.3450 
  127.7500    97.0260     5.5110     4.9100     5.2990    24.5780     2.3060    -8.9290 
  127.8750    97.1470     5.5100     4.8410     5.3070    24.7200     2.3030    -8.7190 
  128.0000    95.1660     5.6230     4.8530     5.3760    24.7550     2.2930    -8.7310 
  128.1250    92.4500     5.8450     4.9650     5.6070    24.9440     2.2770    -8.9680 
  128.2500    89.8730     6.1390     5.1750     6.1280    25.1580     2.2540    -9.3960 
  128.3750    85.1680     6.5130     5.5100     6.4310    24.8830     2.2300   -10.0650 
  128.5000    76.9230     7.0020     5.9890     6.7360    24.3860     2.2090   -10.9940 
  128.6250    70.0960     7.6690     6.6280     7.1660    24.0340     2.1970   -12.0560 
  128.7500    67.6520     8.4600     7.3630     7.8630    23.9510     2.1970   -13.1250 
  128.8750    67.4280     9.2680     8.1170     8.7710    23.9420     2.2050   -14.1540 
  129.0000    66.2500     9.9390     8.7840     9.6660    23.9060     2.2180   -15.1430 
  129.1250    63.5180    10.2760     9.2010    10.0510    23.8910     2.2280   -16.0210 
  129.2500    61.7580    10.2790     9.3290    10.2130    23.8980     2.2320   -16.7570 
  129.3750    62.5180    10.0120     9.1840    10.2140    23.8890     2.2290   -17.3030 
  129.5000    65.9420     9.5990     8.8640     9.9160    23.8550     2.2170   -17.6200 
  129.6250    68.4030     9.2030     8.5220     9.1750    23.8490     2.1980   -17.7980 
  129.7500    67.7580     8.9530     8.2850     8.5320    23.8760     2.1790   -17.9060 
  129.8750    65.0700     8.9190     8.2160     8.3900    23.9210     2.1650   -17.9630 
  130.0000    62.3050     9.1180     8.3540     8.5320    24.0210     2.1560   -17.9220 
  130.1250    61.2980     9.4820     8.7160     8.8180    24.1300     2.1500   -17.7750 
  130.2500    61.4580     9.7860     9.1210     8.9770    24.1580     2.1430   -17.5230 
  130.3750    61.9930     9.8040     9.3140     9.1170    24.0670     2.1350   -17.1800 
  130.5000    63.7530     9.3710     9.0360     9.3300    23.9500     2.1350   -16.7610 
  130.6250    69.8070     8.4400     8.1580     9.2220    23.8840     2.1540   -16.2100 
  130.7500    78.4150     7.3370     7.0490     7.9610    23.8870     2.1920   -15.5390 
  130.8750    86.7350     6.3650     6.0460     5.9110    23.9700     2.2380   -14.8320 
  131.0000    91.9050     5.7510     5.3570     4.8670    24.0710     2.2760   -14.2830 
  131.1250    90.4100     5.6250     5.0980     4.9120    24.1300     2.2880   -13.9810 
  131.2500    85.8350     5.8300     5.1530     6.0030    24.1020     2.2740   -13.9010 
  131.3750    81.8260     6.2680     5.4490     7.3360    24.0380     2.2420   -13.9810 
  131.5000    78.8950     6.9240     5.9430     8.0190    23.9710     2.2040   -14.2100 
  131.6250    77.1420     8.0090     6.7080     8.0560    23.9350     2.1780   -14.5620 
  131.7500    78.2940     9.7090     7.8520     8.8920    24.0200     2.1810   -14.9920 
  131.8750    79.6290    12.1280     9.5660    11.6590    24.3080     2.2260   -15.3860 
  132.0000    75.9850    15.0780    12.0000    18.7460    24.7470     2.3130   -15.5590 
  132.1250    69.5320    17.8390    15.0530    28.6260    25.1540     2.4160   -15.5190 
  132.2500    67.2230    19.5100    17.6720    34.4670    24.9600     2.4930   -15.4150 
  132.3750    68.2230    19.4630    18.6060    30.7780    24.6090     2.5140   -15.3510 
  132.5000    69.7950    17.7660    17.4090    22.1210    24.3940     2.4740   -15.3580 
  132.6250    70.0620    15.1360    14.8990    16.4900    24.2320     2.3870   -15.5340 
  132.7500    68.5670    12.8290    12.4940    12.3340    24.0350     2.2940   -15.8480 
  132.8750    67.1830    11.2840    10.6860    10.3090    23.8920     2.2180   -16.2670 
  133.0000    67.9140    10.3440     9.5390     9.6490    23.8470     2.1670   -16.8210 
  133.1250    69.8330    10.0170     8.9970     9.4060    23.8210     2.1430   -17.3630 
  133.2500    69.9900     9.9850     8.8010     9.1550    23.7760     2.1330   -17.8180 
  133.3750    68.0280    10.0750     8.8070     8.8740    23.6820     2.1300   -18.1420 
  133.5000    64.8200    10.1880     8.9030     8.7080    23.5800     2.1290   -18.3120 
  133.6250    63.3470    10.2740     9.0120     8.6720    23.5430     2.1330   -18.2830 
