~V
VERS. 2.00: Ver 2.00
~W
STRT.M 50.0000:
STOP.M 325.0000:
STEP.M 0.1250:
NULL. -999.2500:
UWI. F10039:
~C
DEPT.M :
GR.API :
RML.OHMM :
RI. :
RXO.OHMM :
CALI.CM :
DEN.GM/CC :
SP.MV :
~A
# ...
  106.2500    73.0550    11.1340     9.0620    11.6360    22.8050     2.3380   -21.5710 
  106.3750    80.9680    11.2320     9.2510    11.6080    23.0520     2.3260   -21.5030 
  106.5000    90.5390    10.8400     9.1230     9.5330    23.2150     2.3110   -21.4100 
  106.6250    96.2080    10.0210     8.6710     7.8900    23.2470     2.3000   -21.3120 
  106.7500    97.1200     9.1120     8.0790     7.2480    23.2950     2.2910   -21.2210 
  106.8750    97.5060     8.3620     7.4920     7.0870    23.4150     2.2830   -21.1840 
  107.0000    98.8040     7.9320     7.0280     6.7970    23.5210     2.2720   -21.2030 
  107.1250    95.6420     7.9050     6.7850     7.0320    23.4360     2.2600   -21.2820 
  107.2500    88.6530     8.1150     6.7360     7.5190    23.1290     2.2510   -21.3920 
  107.3750    82.8390     8.4210     6.8390     8.1410    22.8150     2.2460   -21.4840 
  107.5000    79.1140     8.6970     7.0390     8.4560    22.6650     2.2450   -21.5080 
  107.6250    75.9270     8.8640     7.2880     8.4970    22.6460     2.2470   -21.4280 
  107.7500    75.6910     8.9390     7.5310     8.4900    22.6470     2.2550   -21.2520 
  107.8750    78.8220     8.9390     7.7210     8.4610    22.6400     2.2710   -20.9940 
  108.0000    83.5500     8.8540     7.8040     8.7070    22.6120     2.2930   -20.6600 
  108.1250    88.7720     8.6280     7.6970     8.6310    22.6000     2.3150   -20.2240 
  108.2500    92.4070     8.2750     7.4140     8.3050    22.6470     2.3340   -19.7240 
  108.3750    93.2790     7.8670     7.0140     8.5050    22.8520     2.3530   -19.1960 
  108.5000    93.5060     7.5380     6.6160     9.0470    23.2710     2.3800   -18.6890 
  108.6250    95.1380     7.4680     6.4010     8.7960    23.7300     2.4130   -18.2330 
  108.7500    93.6720     7.6530     6.4410     7.6440    23.9860     2.4380   -17.8560 
  108.8750    89.1020     8.0060     6.7250     8.0770    24.0480     2.4410   -17.5390 
  109.0000    84.9440     8.3590     7.1380     9.6040    24.0200     2.4200   -17.3040 
  109.1250    84.8980     8.4840     7.4440     8.7420    24.0120     2.3910   -17.1430 
  109.2500    87.6340     8.3200     7.4640     7.3730    24.0350     2.3740   -17.0540 
  109.3750    90.9910     7.9130     7.1590     6.4980    24.0690     2.3740   -17.0480 
  109.5000    94.3120     7.3860     6.6320     6.1340    24.0930     2.3860   -17.1280 
  109.6250    98.5410     6.9620     6.0860     5.9610    24.0820     2.4010   -17.3080 
  109.7500   102.9420     6.7550     5.6960     5.8190    24.0700     2.4100   -17.5490 
  109.8750   105.3080     6.7120     5.5240     5.7910    24.0590     2.4120   -17.8680 
  110.0000   104.8270     6.7500     5.5480     5.7980    24.0420     2.4060   -18.2510 
  110.1250   104.1890     6.9040     5.7000     5.8680    23.9580     2.3900   -18.7370 
  110.2500   103.0830     7.1740     5.8800     6.0630    23.7600     2.3690   -19.3100 
  110.3750    99.6090     7.5000     6.0490     6.3720    23.4400     2.3440   -19.9390 
  110.5000    94.8620     7.8190     6.2000     6.6450    23.1410     2.3180   -20.5830 
  110.6250    90.0170     8.0910     6.3550     6.8280    22.9830     2.2940   -21.2170 
  110.7500    85.4240     8.3560     6.5540     7.0660    22.9420     2.2730   -21.8220 
  110.8750    81.5290     8.6900     6.8430     7.2830    22.9220     2.2580   -22.3690 
  111.0000    79.3490     9.1670     7.2610     7.1360    22.8850     2.2520   -22.8360 
  111.1250    78.3350     9.8220     7.8260     7.1700    22.8210     2.2520   -23.2200 
  111.2500    75.8050    10.5300     8.4410     7.4700    22.6540     2.2520   -23.5110 
  111.3750    72.3320    11.1340     8.9810     7.8270    22.3690     2.2480   -23.7140 
  111.5000    69.8700    11.4840     9.3260     8.0200    22.1180     2.2410   -23.8680 
  111.6250    68.1620    11.4600     9.3770     8.1200    21.9900     2.2350   -23.9850 
  111.7500    68.1800    11.1950     9.2330     8.0390    21.9130     2.2340   -24.0630 
  111.8750    70.6150    10.8320     9.0030     7.9560    21.9090     2.2380   -24.1320 
  112.0000    73.5290    10.5020     8.7840     7.9230    22.0150     2.2420   -24.2040 
  112.1250    76.6900    10.2880     8.6340     7.9570    22.1880     2.2440   -24.2700 
  112.2500    80.3200    10.1650     8.5270     8.0780    22.3240     2.2440   -24.3570 
  112.3750    82.7330    10.1080     8.4280     8.2600    22.4480     2.2430   -24.4900 
  112.5000    81.5550    10.1050     8.3240     8.4600    22.4960     2.2450   -24.6500 
  112.6250    76.6020    10.1680     8.2390     8.6020    22.3230     2.2470   -24.8350 
  112.7500    72.8170    10.2730     8.2110     8.7860    22.0000     2.2480   -25.0500 
  112.8750    71.5960    10.3700     8.2600     8.9750    21.6480     2.2450   -25.2700 
  113.0000    71.3230    10.4000     8.3720     9.0640    21.5110     2.2380   -25.4930 
  113.1250    69.4890    10.3110     8.4890     9.1120    21.6580     2.2270   -25.7120 
  113.2500    67.1760    10.1510     8.5510     9.1980    21.9000     2.2150   -25.9020 
  113.3750    68.2580     9.9860     8.5360     9.2880    22.0340     2.2040   -26.0450 
  113.5000    72.0300     9.8730     8.4490     9.3680    22.0790     2.1970   -26.1160 
  113.6250    73.0910     9.8440     8.3150     9.5360    22.0840     2.1970   -26.0790 
  113.7500    70.7410     9.8570     8.1860     9.8720    22.0000     2.2040   -25.9880 
  113.8750    68.1220     9.8760     8.1030    10.1080    22.0360     2.2120   -25.8320 
  114.0000    67.4870     9.8870     8.1000    10.0130    21.9760     2.2180   -25.6280 
  114.1250    68.0350     9.8910     8.1820     9.8540    21.8270     2.2230   -25.3840 
  114.2500    68.9640     9.8790     8.2740     9.6070    21.8890     2.2280   -25.1280 
  114.3750    70.2320     9.8160     8.2860     9.1960    22.1930     2.2380   -24.8760 
  114.5000    73.3580     9.6570     8.1450     8.7420    22.4450     2.2500   -24.6520 
  114.6250    78.7250     9.3690     7.8130     8.1130    22.3380     2.2600   -24.4700 
  114.7500    82.9110     9.0160     7.3850     7.4260    22.3670     2.2630   -24.3410 
  114.8750    83.2690     8.6890     6.9610     7.1760    22.4170     2.2580   -24.3030 
  115.0000    81.6210     8.4790     6.6480     7.5000    22.3720     2.2500   -24.3470 
  115.1250    81.6850     8.4850     6.5650     7.6790    22.3220     2.2530   -24.4780 
  115.2500    83.3000     8.7030     6.7170     7.6800    22.3060     2.2790   -24.6890 
  115.3750    84.3370     9.1310     7.0880     7.9700    22.3590     2.3320   -24.9780 
  115.5000    84.9080     9.7590     7.6330     8.6600    22.5760     2.3970   -25.3360 
  115.6250    86.4570    10.5530     8.2780     9.3770    22.8870     2.4400   -25.7620 
  115.7500    86.2770    11.3600     8.8930     9.7330    23.1440     2.4420   -26.1910 
  115.8750    82.3850    12.0050     9.3700     9.9420    23.2590     2.4030   -26.5880 
  116.0000    75.7020    12.3140     9.6270    10.1940    23.3110     2.3460   -26.9360 
  116.1250    69.0950    12.1500     9.6190    10.3920    23.3720     2.2980   -27.2180 
  116.2500    64.8040    11.6890     9.4590    10.5100    23.3790     2.2710   -27.4360 
  116.3750    63.1340    11.1090     9.2350    10.5920    23.3330     2.2590   -27.5860 
  116.5000    63.6030    10.5650     8.9990    10.5850    23.2800     2.2530   -27.6750 
  116.6250    64.7830    10.1610     8.7460    10.3810    23.2680     2.2470   -27.7310 
  116.7500    66.5090     9.8780     8.4570    10.0960    23.2770     2.2410   -27.7420 
  116.8750    69.3320     9.6830     8.1390     9.8740    23.2980     2.2340   -27.7250 
  117.0000    71.2990     9.5390     7.8270     9.7020    23.3110     2.2270   -27.6930 
  117.1250    72.0260     9.4250     7.5910     9.5410    23.3120     2.2200   -27.6770 
  117.2500    72.8270     9.3200     7.4560     9.4370    23.3060     2.2180   -27.6720 
  117.3750    74.0660     9.2260     7.4240     9.3860    23.3000     2.2210   -27.6630 
