~V
VERS. 2.00: Ver 2.00
~W
STRT.M 63.0000:
STOP.M 195.0000:
STEP.M 0.1250:
NULL. -999.2500:
UWI. F10020:
~C
DEPT.M :
GR.API :
CALI.CM :
RXO.OHMM :
RI. :
RML.OHMM :
DEN.GM/CC :
SP.MV :
~A
# ...
   85.5000    66.7650    24.1470    74.2970    69.9750    74.0870     2.0990   -22.1250 
   85.6250    66.4720    24.1350    76.2720    73.8590    76.8730     2.1060   -22.4940 
   85.7500    67.6280    24.1350    80.5980    71.9510    72.1000     2.1000   -22.9210 
   85.8750    70.0840    24.1310    78.7170    61.5640    57.9010     2.0900   -23.3660 
   86.0000    74.7560    24.1260    66.7340    45.1830    39.9320     2.0890   -23.8810 
   86.1250    81.4110    24.1280    48.4860    29.7690    25.9550     2.1080   -24.4660 
   86.2500    89.7870    24.1520    30.5950    18.9610    16.9200     2.1490   -25.0070 
   86.3750    99.9890    24.1900    16.9740    12.4510    11.5580     2.2070   -25.4480 
   86.5000   109.0980    24.2020     9.9320     8.8840     8.5660     2.2700   -25.7540 
   86.6250   112.2910    24.1580     7.3870     7.2980     7.3060     2.3090   -25.8750 
   86.7500   110.5000    24.0090     6.6000     6.8340     7.1470     2.3210   -25.9070 
   86.8750   106.7610    23.7620     6.8510     7.3840     8.0140     2.3250   -25.8700 
   87.0000   101.9600    23.5290     8.4370     9.0120     9.9480     2.3410   -25.7360 
   87.1250    95.5150    23.3730    12.2480    12.1110    13.2360     2.3590   -25.5060 
   87.2500    88.2980    23.2630    18.3010    16.5970    17.6790     2.3500   -25.2850 
   87.3750    81.4100    23.2150    25.1740    22.2270    22.9380     2.3070   -25.0820 
   87.5000    77.5040    23.2990    29.8770    28.1490    28.1910     2.2440   -24.9310 
   87.6250    77.8220    23.4710    30.8060    32.7780    32.1130     2.1890   -24.8910 
   87.7500    78.8280    23.7900    31.6940    35.4340    34.3660     2.1530   -24.8760 
   87.8750    78.5020    24.1860    34.3470    36.0740    35.0490     2.1320   -24.9110 
   88.0000    76.5770    24.5240    37.3030    34.7310    34.1220     2.1170   -25.0100 
   88.1250    75.9800    24.6430    37.1370    30.9590    30.8510     2.1060   -25.1430 
   88.2500    78.2770    24.6400    32.8320    25.6090    25.8050     2.1030   -25.3000 
   88.3750    82.1570    24.5870    26.1440    19.9430    20.2240     2.1140   -25.4890 
   88.5000    84.9470    24.5150    19.2190    15.2160    15.5260     2.1420   -25.6870 
   88.6250    87.8680    24.4750    13.1170    12.3020    12.8260     2.1790   -25.8530 
   88.7500    92.8630    24.4600     9.3660    10.9920    12.0190     2.2080   -26.0200 
   88.8750    97.1510    24.4620     9.2520    11.3360    13.1740     2.2220   -26.1670 
   89.0000    96.6310    24.4870    17.1600    13.6970    16.5640     2.2230   -26.2970 
   89.1250    88.8560    24.5470    35.7700    19.2310    23.2040     2.2050   -26.4300 
   89.2500    77.7970    24.6330    54.1820    27.4300    32.3450     2.1740   -26.6020 
   89.3750    69.1300    24.6720    64.9730    35.5840    40.4910     2.1440   -26.7930 
   89.5000    66.0620    24.6380    67.4140    38.7480    41.7920     2.1380   -27.0350 
   89.6250    67.1590    24.5320    57.2270    34.9150    35.7590     2.1750   -27.3230 
   89.7500    69.7180    24.4380    39.7730    29.7690    29.9380     2.2400   -27.6090 
   89.8750    73.4320    24.3650    26.3330    26.4220    27.1260     2.3170   -27.9070 
   90.0000    77.0340    24.3030    26.0720    25.6750    27.5120     2.3910   -28.2120 
   90.1250    77.5700    24.2790    41.4070    27.1580    30.3970     2.4610   -28.5100 
   90.2500    75.3830    24.2720    63.4200    28.6650    32.9850     2.5290   -28.7190 
   90.3750    73.0730    24.2730    70.8240    27.8230    32.1740     2.5820   -28.8590 
   90.5000    72.9240    24.2730    53.8140    23.6210    26.9070     2.5970   -28.9570 
   90.6250    76.7840    24.2700    28.5350    17.8890    20.0020     2.5480   -28.9700 
   90.7500    81.9080    24.2710    14.0530    13.1690    14.6450     2.4620   -28.9170 
   90.8750    87.0590    24.2720     8.6330     9.9910    11.2970     2.3730   -28.7900 
   91.0000    91.9630    24.2730     6.9740     8.1200     9.5360     2.3080   -28.6400 
   91.1250    97.7080    24.2450     6.7860     7.2940     8.9720     2.2900   -28.4290 
   91.2500   103.6830    24.1930     6.9730     7.0660     9.0140     2.3020   -28.2060 
   91.3750   107.9300    24.1460     7.3380     7.2360     9.3780     2.3150   -27.9560 
   91.5000   108.8240    24.1200     7.8420     7.6210     9.8130     2.3070   -27.6940 
   91.6250   106.2500    24.0710     8.3170     8.0390    10.0680     2.2790   -27.4650 
   91.7500   103.2880    23.9640     8.5900     8.3320    10.0600     2.2560   -27.2670 
   91.8750   101.5230    23.8400     8.5200     8.4150     9.8090     2.2470   -27.1600 
   92.0000   100.6930    23.7570     8.2090     8.2730     9.4180     2.2510   -27.0720 
   92.1250   100.6780    23.7160     7.4970     7.9430     9.0110     2.2680   -27.0370 
   92.2500   101.8760    23.6840     6.7750     7.5430     8.6700     2.2970   -27.0990 
   92.3750   106.1580    23.6250     6.4370     7.1420     8.4170     2.3290   -27.2170 
   92.5000   111.4290    23.5240     6.6060     6.7850     8.2250     2.3510   -27.3040 
   92.6250   112.7390    23.6330     6.6570     6.4930     7.9970     2.3630   -27.4070 
   92.7500   110.2890    23.8470     6.3740     6.2320     7.6430     2.3730   -27.5050 
   92.8750   109.8380    24.0450     5.9700     5.9660     7.1740     2.3760   -27.5480 
   93.0000   114.2780    24.1250     5.7690     5.6760     6.7000     2.3640   -27.5780 
   93.1250   115.5340    24.1110     5.7180     5.4060     6.4310     2.3440   -27.6100 
   93.2500   112.6000    24.0790     5.5850     5.2380     6.4580     2.3350   -27.6270 
   93.3750   111.3020    24.0470     5.4480     5.2380     6.7520     2.3420   -27.6250 
   93.5000   113.5550    24.0820     5.5180     5.4310     7.2000     2.3590   -27.6570 
   93.6250   114.2080    24.1130     6.1720     5.7960     7.6860     2.3830   -27.6880 
   93.7500   111.2870    24.1290     6.9810     6.1870     8.1230     2.4010   -27.8040 
   93.8750   108.8470    24.1460     7.2950     6.4770     8.4450     2.4060   -27.9650 
   94.0000   107.4760    24.1890     7.0860     6.5970     8.5910     2.3950   -28.1760 
   94.1250   108.3070    24.2440     6.9550     6.5620     8.5430     2.3770   -28.3670 
   94.2500   112.1990    24.2650     7.3150     6.5100     8.4200     2.3580   -28.5420 
   94.3750   116.4670    24.2680     7.6820     6.5290     8.3130     2.3420   -28.7220 
   94.5000   118.1190    24.2650     7.7500     6.6390     8.2720     2.3320   -28.8530 
   94.6250   115.8670    24.2630     7.6000     6.7760     8.2890     2.3290   -28.9570 
   94.7500   112.1640    24.2670     7.5190     6.8390     8.2920     2.3250   -28.9660 
   94.8750   108.1690    24.2720     7.4320     6.8000     8.2670     2.3150   -28.8880 
   95.0000   106.6640    24.2770     7.2530     6.7170     8.2780     2.3000   -28.6520 
   95.1250   108.7000    24.2750     7.0800     6.7700     8.5130     2.2880   -28.3510 
   95.2500   111.1420    24.2750     7.2770     7.1130     9.0900     2.2780   -27.9870 
   95.3750   112.5450    24.2750     8.1930     7.8270    10.0340     2.2680   -27.5950 
   95.5000   111.7300    24.2820    10.2420     8.8690    11.2190     2.2480   -27.2060 
   95.6250   107.3060    24.3030    13.1070     9.9750    12.2680     2.2130   -26.7740 
   95.7500   101.8600    24.3100    14.8020    10.6970    12.7500     2.1750   -26.3890 
   95.8750    99.8170    24.2700    13.4440    10.7560    12.4870     2.1580   -26.1170 
   96.0000   101.5820    24.1990    10.4240    10.2090    11.6810     2.1740   -25.9680 
   96.1250   103.6980    24.1490     8.9190     9.3720    10.7800     2.2150   -25.8690 
   96.2500   105.7720    24.1300     9.1140     8.6080    10.0960     2.2510   -25.7790 
   96.3750   107.6850    24.1250     9.1980     8.0610     9.6840     2.2740   -25.7390 
   96.5000   108.6310    24.1180     8.6350     7.8090     9.5530     2.2870   -25.7300 
   96.6250   107.6320    24.1080     8.3430     8.0020     9.8900     2.2880   -25.7620 
