~V
VERS. 2.00: Ver 2.00
~W
STRT.M 50.0000:
STOP.M 244.0000:
STEP.M 0.1250:
NULL. -999.2500:
UWI. F10003:
~C
DEPT.M :
GR.API :
RML.OHMM :
RI. :
RXO.OHMM :
CALI.CM :
DEN.GM/CC :
SP.MV :
~A
# ...
  218.7500    33.7890     4.8210     4.4500     4.9850    23.8580     2.3390    -7.7640 
  218.8750    33.3990     4.7950     4.4490     4.8060    23.9890     2.3520    -7.7230 
  219.0000    31.4220     4.7140     4.3880     4.6160    24.3630     2.3630    -7.7110 
  219.1250    29.6730     4.5920     4.2750     4.4240    24.5440     2.3670    -7.6390 
  219.2500    28.5340     4.4570     4.1400     4.2650    24.5770     2.3630    -7.5150 
  219.3750    27.3870     4.3230     3.9990     4.1070    24.5620     2.3610    -7.4180 
  219.5000    25.9730     4.1980     3.8620     3.9560    24.5590     2.3690    -7.3300 
  219.6250    25.0860     4.0880     3.7410     3.8370    24.5370     2.3940    -7.2310 
  219.7500    24.6910     3.9970     3.6440     3.7290    24.5010     2.4240    -7.1770 
  219.8750    23.9460     3.9350     3.5780     3.6770    24.4730     2.4470    -7.1590 
  220.0000    22.7110     3.9120     3.5530     3.6630    24.5050     2.4480    -7.1080 
  220.1250    22.0550     3.9460     3.5770     3.6840    24.5010     2.4210    -7.0940 
  220.2500    22.6000     4.0250     3.6370     3.7150    24.4800     2.3810    -7.1130 
  220.3750    23.2110     4.1310     3.7210     3.7680    24.4540     2.3420    -7.1370 
  220.5000    22.7640     4.2380     3.8100     3.8110    24.4130     2.3190    -7.1240 
  220.6250    21.6740     4.3100     3.8790     3.7950    24.4420     2.3210    -7.1390 
  220.7500    21.0600     4.3310     3.9120     3.7530    24.4800     2.3370    -7.1470 
  220.8750    21.3780     4.2960     3.8990     3.7100    24.5300     2.3560    -7.1010 
  221.0000    21.5980     4.2120     3.8430     3.6420    24.5870     2.3680    -7.0420 
  221.1250    21.2180     4.0950     3.7520     3.5450    24.7790     2.3640    -6.9940 
  221.2500    20.7200     3.9750     3.6530     3.4520    25.1860     2.3490    -6.9340 
  221.3750    20.1740     3.8730     3.5650     3.3880    25.6330     2.3270    -6.8100 
  221.5000    19.7900     3.8040     3.5020     3.3650    25.6130     2.2980    -6.6800 
  221.6250    21.2260     3.7800     3.4700     3.4500    25.3780     2.2660    -6.5430 
  221.7500    24.0890     3.7880     3.4560     3.5970    25.8120     2.2330    -6.3980 
  221.8750    24.9540     3.8100     3.4480     3.7450    26.6890     2.2020    -6.2470 
  222.0000    22.9350     3.8250     3.4320     3.8340    27.8040     2.1740    -6.1340 
  222.1250    21.9310     3.8170     3.4010     3.8880    29.3430     2.1550    -6.0050 
  222.2500    23.0960     3.7930     3.3650     3.8560    30.0900     2.1430    -5.8610 
  222.3750    24.1450     3.7720     3.3390     3.8230    29.1650     2.1370    -5.8040 
  222.5000    24.2500     3.7740     3.3380     3.8650    27.6050     2.1400    -5.8020 
  222.6250    24.5960     3.8150     3.3760     3.9590    26.1480     2.1560    -5.7460 
  222.7500    25.2640     3.8780     3.4350     3.9970    25.3170     2.1820    -5.6880 
  222.8750    25.9970     3.9360     3.4930     3.9660    25.1440     2.2120    -5.6380 
  223.0000    27.0650     3.9600     3.5250     3.8720    25.2960     2.2370    -5.5370 
  223.1250    27.1340     3.9160     3.5010     3.6690    25.2200     2.2390    -5.4540 
  223.2500    26.2780     3.8150     3.4270     3.4210    25.1560     2.2170    -5.3890 
  223.3750    25.9220     3.6790     3.3220     3.2590    25.1550     2.1770    -5.2790 
  223.5000    26.3360     3.5470     3.2130     3.2230    25.2000     2.1290    -5.1070 
  223.6250    25.7550     3.4590     3.1320     3.2880    25.3730     2.0820    -4.9690 
  223.7500    24.2410     3.4270     3.0920     3.3470    26.1210     2.0410    -4.8500 
  223.8750    22.8120     3.4440     3.0890     3.3970    27.6240     2.0130    -4.7530 
  224.0000    22.5250     3.4920     3.1120     3.4520    28.9600     2.0010    -4.6710 
  224.1250    23.3290     3.5440     3.1400     3.4960    28.5440     2.0070    -4.5790 
  224.2500    23.7520     3.5730     3.1530     3.4790    27.7040     2.0170    -4.5080 
  224.3750    23.8250     3.5690     3.1440     3.4220    27.3330     2.0180    -4.4470 
  224.5000    24.1320     3.5310     3.1150     3.3500    27.1710     2.0020    -4.4060 
  224.6250    24.3560     3.4740     3.0780     3.2600    27.0400     1.9680    -4.3940 
  224.7500    23.5410     3.4200     3.0450     3.1960    27.8490     1.9260    -4.3660 
  224.8750    22.4680     3.3820     3.0250     3.1730    29.1190     1.8860    -4.3280 
  225.0000    21.8940     3.3630     3.0180     3.1520    29.6900     1.8630    -4.3610 
  225.1250    21.6530     3.3620     3.0190     3.0890    27.7970     1.8850    -4.3730 
  225.2500    21.5900     3.3700     3.0230     3.0040    25.8870     1.9560    -4.3230 
  225.3750    21.9150     3.3820     3.0270     2.9200    25.0240     2.0680    -4.2880 
  225.5000    22.0010     3.3940     3.0310     2.9010    25.0150     2.1880    -4.2790 
  225.6250    21.4440     3.4040     3.0370     3.0030    25.5380     2.2560    -4.2190 
  225.7500    20.6930     3.4140     3.0460     3.1560    26.4170     2.2600    -4.1770 
  225.8750    20.3830     3.4290     3.0560     3.3190    27.3220     2.2160    -4.1680 
  226.0000    20.7760     3.4510     3.0660     3.4550    27.6320     2.1560    -4.1000 
  226.1250    21.8010     3.4730     3.0720     3.5300    27.3440     2.1050    -4.0790 
  226.2500    22.2730     3.4870     3.0710     3.5640    27.2380     2.0720    -4.1080 
  226.3750    21.8720     3.4840     3.0580     3.5440    27.1760     2.0550    -4.0770 
  226.5000    21.3130     3.4610     3.0350     3.4640    26.9480     2.0450    -4.0240 
  226.6250    21.0330     3.4250     3.0070     3.3940    26.7580     2.0280    -4.0490 
  226.7500    21.1570     3.4040     2.9940     3.4100    26.2780     2.0060    -4.0870 
  226.8750    21.6440     3.4360     3.0250     3.5560    26.0830     1.9860    -4.0880 
  227.0000    22.4680     3.5630     3.1270     3.8940    26.4500     1.9850    -4.1440 
  227.1250    22.7640     3.8180     3.3310     4.4680    26.3160     2.0230    -4.2150 
  227.2500    23.1680     4.1410     3.5980     5.1310    25.6700     2.0920    -4.2580 
  227.3750    24.9250     4.4490     3.8730     5.6310    25.1580     2.1750    -4.3200 
  227.5000    28.0320     4.6490     4.0830     5.5790    24.9690     2.2510    -4.4040 
  227.6250    30.4580     4.6460     4.1430     4.6530    25.1500     2.3000    -4.4460 
  227.7500    30.3840     4.4890     4.0670     3.9450    25.7010     2.3270    -4.4270 
  227.8750    28.7580     4.2530     3.8990     3.6900    26.1390     2.3450    -4.4030 
  228.0000    27.5840     4.0290     3.7090     3.6850    26.0630     2.3600    -4.3770 
  228.1250    26.9440     3.8900     3.5670     3.7410    25.7350     2.3540    -4.3230 
  228.2500    25.6270     3.8340     3.4940     3.8110    25.8140     2.3070    -4.2720 
  228.3750    23.6650     3.8380     3.4800     3.8860    26.9450     2.2090    -4.2530 
  228.5000    22.5390     3.8730     3.5050     3.9390    29.7160     2.0770    -4.2220 
  228.6250    23.0080     3.9170     3.5480     3.9780    32.8220     1.9450    -4.1920 
  228.7500    24.4800     3.9590     3.5920     3.9960    33.9230     1.8400    -4.1990 
  228.8750    25.9320     4.0000     3.6350     4.0170    32.8640     1.7710    -4.2240 
  229.0000    26.1680     4.0420     3.6780     4.0500    31.3820     1.7360    -4.2250 
  229.1250    25.2340     4.0870     3.7210     4.0890    30.7950     1.7370    -4.2130 
  229.2500    24.7320     4.1240     3.7550     4.1340    31.2170     1.7670    -4.1810 
  229.3750    25.1920     4.1380     3.7700     4.2010    31.0200     1.8230    -4.1140 
  229.5000    25.7950     4.1140     3.7540     4.2670    29.1410     1.8970    -4.0460 
  229.6250    26.0280     4.0420     3.7010     4.2890    27.6460     1.9780    -3.9340 
  229.7500    25.8560     3.9570     3.6340     4.2430    26.4230     2.0520    -3.7910 
  229.8750    25.0260     3.9040     3.5860     4.2150    25.5490     2.1170    -3.6670 
