~V
VERS. 2.00: Ver 2.00
~W
STRT.M 51.0000:
STOP.M 313.0000:
STEP.M 0.1250:
NULL. -999.2500:
UWI. F10047:
~C
DEPT.M :
SP.MV :
GR.API :
RML.OHMM :
RI. :
RXO.OHMM :
CALI.CM :
DEN.GM/CC :
~A
   51.0000   132.1320     0.0000     0.0000     0.0000     0.0000     0.0000  -999.2500 
   51.1250   132.6150     0.0000     0.0000     0.0000     0.0000     0.0000  -999.2500 
   51.2500   132.0390     0.0000     0.0000     0.0000     0.0000     0.0000  -999.2500 
   51.3750   130.1680    34.2270     7.2360     0.7060     0.9200    19.3380  -999.2500 
   51.5000   126.9850    46.4590     8.3860     0.9250     1.2100    25.8420  -999.2500 
   51.6250   122.5850    45.1690     7.7640     0.9090     1.1720    25.8750  -999.2500 
   51.7500   117.5500    45.2660     7.4660     0.9070     1.3110    25.8860     1.7860 
   51.8750   112.2320    47.6550     7.2890     0.9130     1.7200    25.8860     1.7860 
   52.0000   106.8360    47.9890     6.9660     0.9240     2.2150    25.8860     1.7860 
   52.1250   101.4100    43.9140     6.3690     0.9330     2.2140    25.8860     1.7990 
   52.2500    96.2560    40.1640     5.7640     0.9400     2.1720    25.8860     1.8110 
   52.3750    91.6830    40.5230     5.4900     0.9450     2.0830    25.8860     1.8210 
   52.5000    87.6810    42.9060     5.7240     0.9530     1.9730    25.8860     1.8360 
   52.6250    84.1370    42.5430     6.3270     0.9650     1.9040    25.8860     1.8660 
   52.7500    80.9250    40.4190     6.9320     0.9810     1.8570    25.8860     1.9090 
   52.8750    78.0670    39.9090     7.3730     1.0000     1.8090    25.8840     1.9530 
   53.0000    75.5640    41.4060     7.6250     1.0200     1.7550    25.8740     1.9830 
   53.1250    73.4050    41.4730     7.7460     1.0330     1.7000    25.8500     1.9820 
   53.2500    71.3060    41.3100     7.7440     1.0370     1.6640    25.8260     1.9600 
   53.3750    69.2620    43.6720     7.4990     1.0330     1.6590    25.8140     1.9340 
   53.5000    67.5380    47.1850     6.9020     1.0220     1.6640    25.8100     1.9140 
   53.6250    66.2650    48.4510     6.0080     1.0100     1.6600    25.8090     1.9020 
   53.7500    65.1570    48.0370     5.1520     1.0010     1.6670    25.8090     1.8880 
   53.8750    64.0160    48.5150     4.5360     1.0010     1.6970    25.8090     1.8640 
   54.0000    62.8080    51.2050     4.2210     1.0080     1.7210    25.8090     1.8300 
   54.1250    61.7080    53.7920     4.1830     1.0210     1.7310    25.8090     1.7950 
   54.2500    60.8140    53.3500     4.2330     1.0350     1.7070    25.8090     1.7760 
   54.3750    60.1100    49.7880     4.2470     1.0490     1.6540    25.8090     1.7780 
   54.5000    59.4740    45.4320     4.1440     1.0600     1.6090    25.8090     1.8000 
   54.6250    58.8900    43.9080     3.9090     1.0670     1.6240    25.8090     1.8270 
   54.7500    58.4550    44.2380     3.6470     1.0700     1.7040    25.8090     1.8460 
   54.8750    58.2790    44.9550     3.4510     1.0720     1.7950    25.8090     1.8540 
   55.0000    58.4910    44.4550     3.3630     1.0780     1.8600    25.8090     1.8570 
   55.1250    59.0960    42.5610     3.3830     1.0920     1.8340    25.8090     1.8670 
   55.2500    59.8830    40.4950     3.5140     1.1060     1.6980    25.8090     1.8880 
   55.3750    60.7900    39.9980     3.8190     1.1100     1.5180    25.8090     1.9160 
   55.5000    61.8310    42.3230     4.3060     1.0900     1.4480    25.8090     1.9440 
   55.6250    62.8550    43.8050     4.6450     1.0110     1.4970    25.8090     1.9760 
   55.7500    63.7200    42.2350     4.1420     0.8440     1.6600    25.8090     2.0260 
   55.8750    64.4170    40.0780     2.6640     0.5950     1.9100    25.8090     2.1130 
   56.0000    64.8410    40.1040     1.0750     0.3420     2.1120    25.8090     2.2420 
   56.1250    64.7690    40.8830     0.1280     0.1750     2.0240    25.8060     2.3880 
   56.2500    63.9980    40.9200    -0.3430     0.0870     1.8630    25.7750     2.4960 
   56.3750    61.9650    41.5230    -0.5130     0.0610     1.7270    25.6110     2.5260 
   56.5000    58.3810    44.2850    -0.4610     0.0990     2.1950    25.2030     2.4680 
   56.6250    53.4740    51.0330    -0.1170     0.2850     3.7060    24.5290     2.3450 
   56.7500    47.8340    60.6340     0.6340     0.7480     6.7490    24.0300     2.2220 
   56.8750    41.5840    68.8300     2.0240     1.7050     9.2080    23.7390     2.1330 
   57.0000    34.9140    71.9420     4.1460     3.3270     9.5780    23.6130     2.0910 
   57.1250    28.0490    72.8850     6.1910     5.3580     9.1850    23.5630     2.0880 
   57.2500    21.4610    74.2960     7.1570     7.0200     8.8620    23.5490     2.0950 
   57.3750    15.8050    73.7780     7.3650     8.0930     8.9630    23.5460     2.0980 
   57.5000    11.3870    71.2670     7.5210     8.8080     9.3800    23.5460     2.0890 
   57.6250     8.0390    70.4630     7.9770     9.4270     9.4390    23.5460     2.0690 
   57.7500     5.2430    72.4260     8.6420    10.0550     9.0740    23.5460     2.0470 
   57.8750     2.8880    75.4740     9.3830    10.6830     9.1040    23.5460     2.0320 
   58.0000     0.8290    77.3180    10.0580    11.2600     9.2450    23.5460     2.0270 
   58.1250    -1.0510    76.5030    10.5270    11.6760     9.0980    23.5460     2.0330 
   58.2500    -2.7030    75.1060    10.7860    11.8830     9.0030    23.5460     2.0450 
   58.3750    -4.1570    74.9350    10.8680    11.8730     9.3170    23.5450     2.0590 
   58.5000    -5.5100    75.5930    10.8600    11.7120     9.7370    23.5430     2.0740 
   58.6250    -6.8160    74.1230    10.9170    11.5410     9.8650    23.5380     2.0940 
   58.7500    -8.0810    70.9220    11.1490    11.5020     9.7890    23.4910     2.1260 
   58.8750    -9.3170    68.0850    11.6010    11.6650     9.5140    23.3790     2.1690 
   59.0000   -10.5090    67.4260    12.2430    12.0330     9.1530    23.2840     2.2130 
   59.1250   -11.5720    69.4730    12.9420    12.5200     8.8940    23.2500     2.2340 
   59.2500   -12.5580    70.0870    13.4620    12.9210     8.5840    23.2550     2.2230 
   59.3750   -13.5110    67.7340    13.6440    13.0710     8.0850    23.3080     2.1870 
   59.5000   -14.4470    63.4730    13.4570    12.8950     7.6240    23.4420     2.1420 
   59.6250   -15.2630    62.3530    12.9770    12.4200     7.4120    23.6070     2.1090 
   59.7500   -15.8810    65.7200    12.4320    11.8420     7.3840    23.6820     2.0900 
   59.8750   -16.3710    69.8950    11.9430    11.2800     7.3850    23.7210     2.0810 
   60.0000   -16.8090    71.0020    11.5570    10.7850     7.4350    23.8010     2.0760 
   60.1250   -17.2240    67.7530    11.2480    10.3490     7.7400    23.9470     2.0750 
   60.2500   -17.6360    64.4840    10.9170     9.9150     8.2630    24.1550     2.0790 
   60.3750   -17.9610    62.7890    10.5140     9.4630     8.6980    24.3720     2.0870 
   60.5000   -18.2050    61.9920    10.0860     9.0320     8.7670    24.5150     2.0970 
   60.6250   -18.4270    62.0760     9.8440     8.7680     8.8620    24.5610     2.1070 
   60.7500   -18.6710    64.5840     9.9460     8.7720     9.1980    24.5680     2.1160 
   60.8750   -18.9530    68.8840    10.4300     9.0810     9.6040    24.5660     2.1270 
   61.0000   -19.3090    70.1470    11.1660     9.6250     9.9320    24.5610     2.1390 
   61.1250   -19.7710    67.2420    11.7710    10.1650    10.2850    24.5670     2.1440 
   61.2500   -20.2730    65.5580    11.8640    10.3770    10.4420    24.5730     2.1400 
   61.3750   -20.9100    65.3120    11.3530    10.1090    10.4590    24.5890     2.1280 
   61.5000   -21.6760    65.3390    10.4780     9.4640    10.4220    24.6330     2.1120 
   61.6250   -22.5480    64.5380     9.6620     8.7110    10.3300    24.7420     2.1030 
   61.7500   -23.5140    63.2570     9.1470     8.0890    10.1540    24.9390     2.1010 
   61.8750   -24.4750    62.7170     8.9430     7.6640    10.3070    25.1270     2.1040 
   62.0000   -25.3730    64.0380     8.9300     7.4110    10.4990    25.2060     2.1080 
   62.1250   -26.1230    65.6760     8.9170     7.2490    10.3190    25.1800     2.1130 
