~V
VERS. 2.00: Ver 2.00
~W
STRT.M 50.0000:
STOP.M 216.0000:
STEP.M 0.1250:
NULL. -999.2500:
UWI. F10015:
~C
DEPT.M :
GR.API :
RML.OHMM :
RI. :
RXO.OHMM :
CALI.CM :
DEN.GM/CC :
SP.MV :
~A
# ...
   72.5000    56.1700    35.5740    34.8290    41.2800    24.4320     2.6230   -10.0550 
   72.6250    59.5670    29.2940    28.8370    34.1030    24.4400     2.5320   -10.1460 
   72.7500    62.9210    23.6410    23.3270    19.6260    24.4690     2.4130   -10.3100 
   72.8750    63.5660    19.5850    19.3320    14.5850    24.5880     2.2990   -10.4450 
   73.0000    62.8740    17.1220    16.8200    13.3680    24.7710     2.2140   -10.6390 
   73.1250    62.0470    15.7940    15.3690    13.3170    24.9170     2.1610   -10.8300 
   73.2500    61.7420    15.3390    14.7730    13.2840    25.0090     2.1410   -10.9880 
   73.3750    62.2540    15.5200    14.8490    13.1190    25.0660     2.1480   -11.1030 
   73.5000    63.7150    15.9500    15.2460    13.1610    25.0920     2.1680   -11.1800 
   73.6250    63.8780    16.2560    15.6180    13.2710    25.0910     2.1770   -11.2430 
   73.7500    62.5530    16.1810    15.6350    13.4490    25.0900     2.1720   -11.2430 
   73.8750    61.5630    15.5000    15.0610    13.4820    25.0850     2.1600   -11.1420 
   74.0000    61.9540    14.2900    13.9620    12.7830    25.0530     2.1550   -10.9440 
   74.1250    63.7270    12.8230    12.5920    11.1100    24.9560     2.1660   -10.6960 
   74.2500    65.5580    11.4600    11.2830     9.2900    24.7460     2.1950   -10.4950 
   74.3750    68.4050    10.7090    10.4610     8.5570    24.5780     2.2190   -10.3500 
   74.5000    70.9310    10.7510    10.2730     8.8260    24.5160     2.2190   -10.2830 
   74.6250    70.3960    11.3990    10.6070     9.8490    24.5020     2.2030   -10.2530 
   74.7500    67.1330    12.4650    11.3700    11.5300    24.5020     2.1790   -10.2820 
   74.8750    63.7560    13.7060    12.4120    13.3950    24.5020     2.1580   -10.4040 
   75.0000    64.3600    14.7890    13.4440    14.0560    24.5020     2.1480   -10.6070 
   75.1250    65.0010    15.3200    14.0820    13.5610    24.5020     2.1520   -10.8530 
   75.2500    62.8880    15.5890    14.4620    13.3570    24.5020     2.1620   -11.0760 
   75.3750    60.2080    15.7620    14.6910    13.6680    24.5020     2.1750   -11.2350 
   75.5000    57.9300    15.9670    14.8830    14.2880    24.5020     2.1900   -11.3350 
   75.6250    56.5200    16.2740    15.1230    14.8330    24.5020     2.2000   -11.3820 
   75.7500    56.6650    16.6780    15.4250    14.9980    24.5020     2.2000   -11.3230 
   75.8750    58.6390    17.0580    15.7090    15.0480    24.5020     2.1840   -11.2270 
   76.0000    58.8870    17.2970    15.8730    15.3520    24.4910     2.1610   -11.1330 
   76.1250    58.7710    17.3780    15.9030    15.6110    24.4350     2.1410   -11.0510 
   76.2500    59.8520    17.2970    15.7940    15.5160    24.3020     2.1310   -10.9900 
   76.3750    62.1730    17.0900    15.5750    14.9510    24.1070     2.1350   -10.9480 
   76.5000    62.5290    16.8500    15.3230    14.2020    23.9560     2.1480   -10.8990 
   76.6250    59.8990    16.6750    15.1170    13.7580    23.9270     2.1630   -10.8340 
   76.7500    58.4550    16.5280    14.9360    13.5940    23.9210     2.1740   -10.8060 
   76.8750    58.3960    16.3060    14.7020    13.6490    23.9210     2.1770   -10.7870 
   77.0000    58.8310    15.9300    14.3530    13.5090    23.9210     2.1720   -10.7380 
   77.1250    59.0250    15.3540    13.8450    12.8330    23.9210     2.1600   -10.6360 
   77.2500    59.6520    14.5650    13.1590    11.7970    23.9210     2.1440   -10.5000 
   77.3750    61.6330    13.7600    12.4410    10.8870    23.9210     2.1370   -10.3370 
   77.5000    62.5680    13.1600    11.8680    10.4810    24.0110     2.1440   -10.1580 
   77.6250    62.3590    12.7920    11.4710    10.3760    24.2580     2.1580    -9.9640 
   77.7500    62.2590    12.6490    11.2610    10.4700    24.5990     2.1730    -9.7780 
   77.8750    63.3520    12.6740    11.2080    10.6790    24.8990     2.1830    -9.6240 
   78.0000    65.0520    12.7380    11.2180    10.8630    25.0150     2.1840    -9.5070 
   78.1250    65.0220    12.7270    11.1970    10.7570    25.0300     2.1760    -9.4620 
   78.2500    63.3590    12.6650    11.1360    10.5390    25.0750     2.1630    -9.4140 
   78.3750    60.8760    12.6020    11.0620    10.4240    25.1410     2.1470    -9.4040 
   78.5000    59.0280    12.5740    11.0040    10.4320    25.2130     2.1300    -9.4670 
   78.6250    59.0860    12.6070    10.9850    10.5200    25.2710     2.1160    -9.6030 
   78.7500    61.3150    12.7120    11.0180    10.7200    25.3030     2.1100    -9.7510 
   78.8750    62.9290    12.8300    11.0700    10.8350    25.3120     2.1140    -9.9080 
   79.0000    62.5860    12.8910    11.0880    10.8190    25.3140     2.1240   -10.0030 
   79.1250    61.2880    12.8930    11.0670    10.7740    25.3140     2.1380   -10.0710 
   79.2500    60.4500    12.8660    11.0200    10.6990    25.3140     2.1500   -10.1110 
   79.3750    60.9850    12.8620    10.9810    10.5900    25.3140     2.1600   -10.1210 
   79.5000    62.3740    12.9430    10.9950    10.5490    25.3140     2.1670   -10.1350 
   79.6250    62.4180    13.2330    11.1540    10.6210    25.3140     2.1700   -10.0650 
   79.7500    62.0370    13.6070    11.3890    11.0680    25.3140     2.1720   -10.0210 
   79.8750    61.2220    13.9360    11.6250    11.5500    25.3140     2.1720    -9.9780 
   80.0000    60.0800    14.1100    11.7840    11.8240    25.3140     2.1700    -9.9460 
   80.1250    59.0830    14.0480    11.8020    11.7820    25.3140     2.1660    -9.9460 
   80.2500    59.3160    13.7040    11.6400    11.4960    25.3140     2.1620    -9.9840 
   80.3750    60.7940    13.2640    11.4150    11.0070    25.3140     2.1620   -10.0350 
   80.5000    62.1130    13.0060    11.3070    10.7690    25.3140     2.1670   -10.0720 
   80.6250    63.0040    13.0310    11.3860    10.9750    25.3140     2.1740   -10.1380 
   80.7500    62.7540    13.4290    11.7220    11.4750    25.3140     2.1800   -10.2130 
   80.8750    61.3670    14.1830    12.3140    11.9500    25.3140     2.1810   -10.2630 
   81.0000    60.7190    15.0790    13.0240    12.0910    25.3140     2.1740   -10.2980 
   81.1250    61.6920    15.4720    13.3660    12.4760    25.3140     2.1600   -10.2890 
   81.2500    63.1300    15.0920    13.0720    12.9500    25.3140     2.1520   -10.2650 
   81.3750    65.6230    13.8110    12.0130    12.1670    25.3140     2.1600   -10.1890 
   81.5000    69.2190    11.9130    10.4220     9.9360    25.3140     2.1880   -10.0490 
   81.6250    73.7650     9.8610     8.6920     7.1880    25.3140     2.2320    -9.8580 
   81.7500    79.2320     8.0710     7.1700     5.9290    25.3140     2.2880    -9.6530 
   81.8750    84.2610     6.8900     6.1310     5.5550    25.3190     2.3360    -9.4090 
   82.0000    85.7840     6.4730     5.6710     5.5260    25.3390     2.3590    -9.2130 
   82.1250    84.3390     6.7900     5.7520     5.7010    25.3610     2.3580    -9.0280 
   82.2500    80.2680     7.9570     6.4760     6.3290    25.3830     2.3290    -8.8840 
   82.3750    74.3120     9.9870     7.9070     7.9780    25.4180     2.2750    -8.8170 
   82.5000    68.1970    12.5410     9.8900    11.4800    25.5060     2.2070    -8.8100 
   82.6250    65.0620    14.4670    11.7650    14.9160    25.6990     2.1480    -8.8240 
   82.7500    63.9540    14.9000    12.5370    15.3010    25.7830     2.1170    -8.7560 
   82.8750    66.8720    13.7010    11.9190    12.9480    25.6570     2.1280    -8.6600 
   83.0000    73.3410    11.5740    10.4240     9.6140    25.4050     2.1670    -8.5370 
   83.1250    80.8970     9.5210     8.8470     7.2620    25.1830     2.2090    -8.3820 
   83.2500    85.5640     8.2960     7.7640     6.8300    25.1040     2.2240    -8.2350 
   83.3750    83.9940     8.1350     7.3910     7.2450    25.0860     2.1980    -8.0410 
   83.5000    78.0110     8.8000     7.6440     7.5810    25.0420     2.1660    -7.8540 
   83.6250    71.7310     9.8980     8.2920     8.0920    24.9710     2.1480    -7.6830 
