~V
VERS. 2.00: Ver 2.00
~W
STRT.M 50.0000:
STOP.M 286.0000:
STEP.M 0.1250:
NULL. -999.2500:
UWI. F10036:
~C
DEPT.M :
GR.API :
RML.OHMM :
RI. :
RXO.OHMM :
CALI.CM :
DEN.GM/CC :
SP.MV :
~A
# ...
  185.0000    65.6940    32.4990    30.2320    33.6730    23.0750     2.2480   -17.5330 
  185.1250    63.3180    36.4070    33.4700    43.9700    23.1430     2.2350   -18.2250 
  185.2500    63.2930    40.4290    37.0320    51.8260    23.2320     2.2290   -18.7890 
  185.3750    66.1740    43.5240    40.0360    55.9160    23.3360     2.2280   -19.2400 
  185.5000    69.5010    44.9170    41.6670    56.6150    23.4420     2.2320   -19.6090 
  185.6250    68.9530    44.5110    41.6060    57.2370    23.5460     2.2370   -19.8820 
  185.7500    65.1890    43.4450    40.7810    54.1190    23.6120     2.2410   -20.0790 
  185.8750    61.7980    42.4840    39.8770    48.2410    23.6090     2.2430   -20.2280 
  186.0000    61.8480    42.0840    39.3280    44.0180    23.5330     2.2420   -20.3340 
  186.1250    64.2100    42.3850    39.3220    46.6070    23.4390     2.2380   -20.4040 
  186.2500    65.8700    42.9300    39.5760    48.2610    23.3860     2.2340   -20.4410 
  186.3750    65.6690    43.1990    39.7510    49.2190    23.3690     2.2310   -20.4310 
  186.5000    63.2370    42.7200    39.4800    49.1180    23.3670     2.2300   -20.3860 
  186.6250    60.0460    41.1210    38.3430    47.2180    23.3590     2.2310   -20.3200 
  186.7500    59.5250    38.7450    36.4520    44.4320    23.3500     2.2340   -20.2670 
  186.8750    60.8410    35.9650    34.0470    41.0030    23.3520     2.2370   -20.2110 
  187.0000    61.6700    33.1570    31.4720    36.3690    23.3600     2.2390   -20.2350 
  187.1250    62.7520    30.6980    29.1470    32.6220    23.3650     2.2420   -20.2820 
  187.2500    64.1010    28.7380    27.3010    29.7650    23.3670     2.2450   -20.3540 
  187.3750    64.9390    27.3130    25.9990    27.7620    23.3720     2.2500   -20.4660 
  187.5000    65.1050    26.3250    25.1420    26.9820    23.3740     2.2550   -20.6120 
  187.6250    64.6070    25.4960    24.4500    27.4250    23.3570     2.2580   -20.7780 
  187.7500    63.2190    24.4090    23.5000    26.5850    23.3130     2.2570   -20.9520 
  187.8750    61.9740    22.8390    22.0510    23.4670    23.3240     2.2540   -21.1600 
  188.0000    63.3500    20.8110    20.1310    20.3000    23.4310     2.2490   -21.3550 
  188.1250    65.0900    18.6170    18.0470    17.8470    23.5570     2.2430   -21.5340 
  188.2500    63.9570    16.6450    16.1920    15.8970    23.6560     2.2370   -21.6300 
  188.3750    61.7180    15.0980    14.7580    14.3010    23.7260     2.2300   -21.6430 
  188.5000    62.6260    14.0310    13.7910    13.4920    23.7830     2.2270   -21.5570 
  188.6250    67.3260    13.4380    13.2840    13.3580    23.7460     2.2290   -21.3790 
  188.7500    70.4620    13.1440    13.0500    13.3500    23.7040     2.2360   -21.1570 
  188.8750    69.6760    13.0650    12.9950    13.1320    23.6570     2.2440   -20.8830 
  189.0000    66.4820    13.1320    13.0470    12.7910    23.5880     2.2490   -20.5780 
  189.1250    64.8770    13.3020    13.1790    12.7650    23.5000     2.2480   -20.2640 
  189.2500    65.8670    13.5340    13.3720    12.7620    23.3190     2.2430   -20.0090 
  189.3750    66.8180    13.8220    13.6260    12.6070    23.0350     2.2400   -19.8370 
  189.5000    66.1040    14.1390    13.9210    12.4380    22.7270     2.2440   -19.7600 
  189.6250    65.6210    14.4100    14.1820    12.2580    22.5580     2.2590   -19.7950 
  189.7500    66.3710    14.5640    14.3220    12.6770    22.6070     2.2780   -19.9220 
  189.8750    66.2000    14.5400    14.2820    13.5040    22.9810     2.2940   -20.1670 
  190.0000    63.9730    14.3110    14.0540    14.1490    23.5950     2.2990   -20.4850 
  190.1250    61.9080    13.8850    13.6830    13.6910    24.0680     2.2830   -20.9080 
  190.2500    60.7820    13.3810    13.2900    12.9600    24.2620     2.2550   -21.3490 
  190.3750    59.4810    12.9030    12.9440    12.4320    24.2840     2.2210   -21.8110 
  190.5000    56.8580    12.5340    12.6800    12.1550    24.2910     2.1910   -22.2470 
  190.6250    53.1050    12.3450    12.5170    12.0920    24.3440     2.1730   -22.6190 
  190.7500    50.5700    12.2940    12.4280    12.2150    24.4050     2.1660   -22.8510 
  190.8750    51.0230    12.3150    12.3880    12.4340    24.4550     2.1680   -22.9040 
  191.0000    53.1470    12.3540    12.3590    12.5220    24.4760     2.1790   -22.7690 
  191.1250    53.0570    12.3440    12.2650    12.8020    24.4210     2.1960   -22.4290 
  191.2500    52.5960    12.2240    12.0360    13.1190    24.3360     2.2110   -21.9490 
  191.3750    54.0220    11.9470    11.6380    13.2070    24.2770     2.2200   -21.3470 
  191.5000    55.7150    11.5350    11.1370    13.0480    24.2580     2.2200   -20.6990 
  191.6250    54.1830    11.2550    10.7940    12.4580    24.3020     2.2150   -19.9760 
  191.7500    50.8770    11.5930    10.9490    11.7640    24.2910     2.2180   -19.2380 
  191.8750    49.7730    13.1700    12.0320    11.5730    24.0860     2.2410   -18.4660 
  192.0000    50.5630    16.7500    14.7440    12.7310    23.6920     2.2920   -17.6780 
  192.1250    51.4490    23.8990    20.9360    17.7030    23.3040     2.3690   -16.8350 
  192.2500    52.0540    34.9930    31.5230    29.9620    23.0530     2.4520   -15.9880 
  192.3750    52.2260    48.9960    45.8700    44.1980    22.9490     2.5260   -15.1110 
  192.5000    51.8390    60.1160    58.6850    50.5640    22.9320     2.5770   -14.2170 
  192.6250    52.2880    57.5280    59.2000    52.0450    22.9710     2.5910   -13.3400 
  192.7500    54.7920    45.8720    49.5110    50.3730    23.0240     2.5750   -12.5010 
  192.8750    58.1440    33.8370    37.4280    38.7470    22.9900     2.5420   -11.7220 
  193.0000    59.9440    25.3310    27.9800    25.1110    22.8810     2.5120   -11.0390 
  193.1250    59.7870    20.5950    22.3760    18.9490    22.8030     2.5030   -10.3770 
  193.2500    58.7830    17.7740    18.8520    19.9330    22.9700     2.5120    -9.7090 
  193.3750    58.2620    15.9350    16.3850    24.1760    23.3980     2.5200    -9.0230 
  193.5000    58.7420    14.4740    14.4120    18.9240    23.8470     2.5080    -8.3490 
  193.6250    58.8960    13.1410    12.8030     9.0890    24.0990     2.4740    -7.7210 
  193.7500    56.4290    11.9190    11.4950     6.3850    24.2550     2.4440    -7.1780 
  193.8750    52.4330    10.8610    10.4560     6.4040    24.3150     2.4410    -6.7380 
  194.0000    50.7550     9.9540     9.5870     8.9440    24.2630     2.4700    -6.3950 
  194.1250    53.2200     9.0620     8.7440    14.2360    24.2060     2.5100    -6.1860 
  194.2500    56.2070     8.1020     7.8560    14.6700    24.1980     2.5320    -6.0640 
  194.3750    56.5400     7.1900     7.0080     8.8680    24.2220     2.5260    -6.0120 
  194.5000    54.9770     6.5470     6.3540     6.1570    24.2330     2.5020    -5.9720 
  194.6250    53.8160     5.8810     6.0610     5.9510    24.2100     2.4810    -5.9080 
  194.7500    53.6160     6.1110     6.0800     6.0780    24.1960     2.4750    -5.7480 
  194.8750    54.6740     6.5300     6.3080     5.8750    24.2640     2.4780    -5.5110 
  195.0000    56.3420     6.8980     6.5660     5.7240    24.3810     2.4780    -5.2120 
  195.1250    57.4960     6.9830     6.6640     6.0260    24.5040     2.4610    -4.8960 
  195.2500    57.7700     6.8490     6.6060     6.3060    24.5630     2.4280    -4.5740 
  195.3750    57.3230     6.6050     6.4660     6.1990    24.5620     2.3870    -4.2870 
  195.5000    56.6150     6.3610     6.3190     5.8920    24.5050     2.3480    -4.0230 
  195.6250    54.6510     6.2430     6.2330     5.9010    24.3900     2.3270    -3.8310 
  195.7500    51.5080     6.2860     6.2320     6.2080    24.3360     2.3230    -3.6840 
  195.8750    47.4050     6.4700     6.3050     6.4150    24.3130     2.3330    -3.5770 
  196.0000    43.1910     6.7280     6.4050     6.4700    24.2890     2.3490    -3.4490 
  196.1250    40.1510     6.9650     6.4650     6.5060    24.2800     2.3620    -3.3930 
