~V
VERS. 2.00: Ver 2.00
~W
STRT.M 50.0000:
STOP.M 286.0000:
STEP.M 0.1250:
NULL. -999.2500:
UWI. F10036:
~C
DEPT.M :
GR.API :
RML.OHMM :
RI. :
RXO.OHMM :
CALI.CM :
DEN.GM/CC :
SP.MV :
~A
# ...
  196.2500    38.7150     7.1230     6.4550     6.5950    24.2740     2.3720    -3.3680 
  196.3750    39.5120     7.1860     6.3860     6.6570    24.2750     2.3790    -3.3570 
  196.5000    41.6280     7.1850     6.2970     6.5720    24.2690     2.3830    -3.3570 
  196.6250    43.4090     7.1740     6.2290     6.4690    24.2600     2.3810    -3.3420 
  196.7500    43.1480     7.1850     6.1900     6.4140    24.2510     2.3760    -3.3390 
  196.8750    41.7750     7.2160     6.1710     6.4620    24.2560     2.3700    -3.3450 
  197.0000    40.8020     7.2500     6.1590     6.4840    24.3190     2.3670    -3.4030 
  197.1250    39.0710     7.2630     6.1460     6.4100    24.4070     2.3690    -3.4000 
  197.2500    37.2010     7.2670     6.1330     6.3420    24.4630     2.3740    -3.3880 
  197.3750    36.6510     7.2700     6.1320     6.3310    24.4890     2.3800    -3.3770 
  197.5000    38.4000     7.2630     6.1430     6.4240    24.5160     2.3840    -3.3620 
  197.6250    40.3600     7.2240     6.1590     6.5290    24.5110     2.3880    -3.3800 
  197.7500    40.8130     7.1700     6.1700     6.6500    24.4360     2.3970    -3.4150 
  197.8750    40.2420     7.1310     6.1780     6.6430    24.3110     2.4100    -3.4230 
  198.0000    39.2590     7.1270     6.1890     6.5800    24.2170     2.4260    -3.3740 
  198.1250    38.5810     7.1680     6.2160     6.4920    24.2270     2.4360    -3.3490 
  198.2500    38.1040     7.2270     6.2520     6.5880    24.2740     2.4320    -3.3190 
  198.3750    38.3810     7.2750     6.2800     6.6900    24.3360     2.4070    -3.2970 
  198.5000    40.0920     7.2980     6.2890     6.6750    24.3750     2.3660    -3.3220 
  198.6250    40.8100     7.3010     6.2740     6.5780    24.3880     2.3250    -3.3680 
  198.7500    40.0530     7.3070     6.2500     6.5850    24.3760     2.3030    -3.4170 
  198.8750    39.9860     7.3390     6.2310     6.6880    24.3360     2.3050    -3.4840 
  199.0000    42.2750     7.4230     6.2290     6.7860    24.2590     2.3270    -3.5710 
  199.1250    44.2340     7.5550     6.2560     6.7440    24.1490     2.3520    -3.6600 
  199.2500    43.8360     7.6930     6.3070     6.7160    24.0880     2.3670    -3.7360 
  199.3750    42.7600     7.8140     6.3700     6.6960    24.1300     2.3690    -3.8350 
  199.5000    42.9400     7.9080     6.4280     6.6490    24.1920     2.3640    -3.9070 
  199.6250    44.6270     7.9560     6.4610     6.7820    24.2350     2.3580    -3.9770 
  199.7500    46.2420     7.9460     6.4610     7.0310    24.2700     2.3550    -4.0230 
  199.8750    47.5550     7.8650     6.4270     7.1830    24.2980     2.3560    -4.0870 
  200.0000    47.8810     7.7310     6.3720     7.1890    24.2980     2.3620    -4.1630 
  200.1250    46.1930     7.6170     6.3290     7.1810    24.2400     2.3690    -4.2800 
  200.2500    44.1100     7.6040     6.3350     7.1410    24.2040     2.3740    -4.4670 
  200.3750    43.3580     7.7240     6.4100     7.1780    24.1980     2.3710    -4.6670 
  200.5000    43.7220     7.9510     6.5520     7.2940    24.2450     2.3570    -4.8350 
  200.6250    45.4620     8.2100     6.7370     7.4030    24.2990     2.3330    -4.9830 
  200.7500    50.0720     8.4040     6.9040     7.6030    24.3530     2.3080    -5.1340 
  200.8750    57.6510     8.4660     7.0070     7.7160    24.3910     2.2920    -5.2580 
  201.0000    64.1540     8.3660     7.0180     7.5680    24.4110     2.2910    -5.3630 
  201.1250    63.5490     8.1230     6.9220     7.4000    24.3570     2.3080    -5.4400 
  201.2500    55.5280     7.8740     6.7640     7.3670    24.2450     2.3310    -5.4560 
  201.3750    44.4270     7.7090     6.5800     7.3460    24.1750     2.3530    -5.4240 
  201.5000    37.1310     7.6610     6.4100     7.1800    24.2660     2.3700    -5.4030 
  201.6250    36.2060     7.7270     6.2940     6.9280    24.3450     2.3770    -5.3420 
  201.7500    36.5340     7.8480     6.2400     6.8860    24.3650     2.3750    -5.2790 
  201.8750    35.8030     7.9820     6.2390     7.0120    24.3440     2.3630    -5.2150 
  202.0000    34.9020     8.0760     6.2570     7.0590    24.3290     2.3430    -5.1830 
  202.1250    36.1430     8.0410     6.2500     7.0410    24.3190     2.3200    -5.1240 
  202.2500    37.4530     7.8600     6.2070     6.9930    24.2970     2.2970    -5.0960 
  202.3750    37.5410     7.6160     6.1610     6.8460    24.2440     2.2740    -5.0770 
  202.5000    36.8800     7.4870     6.1740     6.5820    24.1320     2.2480    -5.1190 
  202.6250    38.3350     7.6610     6.3220     6.4640    24.0370     2.2220    -5.2080 
  202.7500    43.2380     8.0690     6.5940     6.7120    23.9910     2.2020    -5.3160 
  202.8750    49.3190     8.5510     6.9390     7.3580    23.9650     2.1930    -5.4420 
  203.0000    55.1990     8.9000     7.2660     8.3610    23.9760     2.1970    -5.5370 
  203.1250    58.7800     8.9150     7.4240     8.3720    24.0420     2.2150    -5.6450 
  203.2500    58.1080     8.6300     7.3740     7.7220    24.0990     2.2450    -5.7340 
  203.3750    53.9990     8.1540     7.1560     7.1840    24.0670     2.2810    -5.8400 
  203.5000    50.2880     7.6290     6.8660     7.0070    23.9290     2.3170    -5.8850 
  203.6250    49.0950     7.2120     6.6060     6.9590    23.7830     2.3420    -5.8980 
  203.7500    48.1450     6.9690     6.4210     6.8290    23.7070     2.3520    -5.8610 
  203.8750    46.8910     6.8920     6.3110     6.5760    23.7060     2.3510    -5.8030 
  204.0000    45.6510     6.9250     6.2480     6.4780    23.7390     2.3460    -5.7400 
  204.1250    44.5490     6.9890     6.2090     6.3500    23.7510     2.3490    -5.6640 
  204.2500    43.2620     7.0100     6.1730     6.1970    23.7190     2.3580    -5.5630 
  204.3750    42.5060     6.9620     6.1270     5.9970    23.6910     2.3670    -5.4220 
  204.5000    42.0560     6.8440     6.0710     5.8650    23.6840     2.3670    -5.2760 
  204.6250    42.2240     6.6830     6.0170     5.7990    23.6260     2.3540    -5.1210 
  204.7500    43.4560     6.5630     5.9770     5.7370    23.4460     2.3400    -5.0150 
  204.8750    45.8710     6.5490     5.9550     5.5910    23.2430     2.3330    -4.9220 
  205.0000    48.7980     6.6620     5.9550     5.5500    23.2000     2.3380    -4.8410 
  205.1250    51.4930     6.8630     5.9910     5.6700    23.4440     2.3500    -4.7260 
  205.2500    54.2840     7.0430     6.0640     5.8460    23.7680     2.3600    -4.6410 
  205.3750    56.9530     7.1460     6.1740     6.0530    24.0580     2.3650    -4.5730 
  205.5000    59.2420     7.1720     6.3170     6.2630    24.1980     2.3700    -4.5100 
  205.6250    61.6310     7.1590     6.4710     6.4660    24.1570     2.3800    -4.4150 
  205.7500    65.1070     7.1550     6.6040     6.4730    24.0010     2.3940    -4.3390 
  205.8750    68.7130     7.1540     6.6930     6.3010    23.7880     2.4070    -4.2730 
  206.0000    71.8290     7.1260     6.7130     6.2870    23.5640     2.4140    -4.2610 
  206.1250    74.5700     7.0500     6.6420     6.5430    23.3460     2.4160    -4.2830 
  206.2500    74.9900     6.9470     6.5160     6.4680    23.2400     2.4120    -4.3100 
  206.3750    73.3640     6.8480     6.3760     6.2800    23.1920     2.4000    -4.3340 
  206.5000    72.0690     6.7800     6.2570     6.1320    23.1050     2.3790    -4.4230 
  206.6250    72.8540     6.7390     6.1740     6.0390    22.9350     2.3540    -4.6310 
  206.7500    74.9380     6.7040     6.1040     6.1700    22.7900     2.3360    -4.8790 
  206.8750    77.9730     6.6890     6.0560     6.4160    22.7450     2.3330    -5.1400 
  207.0000    81.4480     6.7560     6.0760     6.4990    22.8340     2.3450    -5.3510 
  207.1250    81.4660     7.0620     6.2840     6.3410    23.1290     2.3580    -5.5190 
  207.2500    76.8530     7.7180     6.7610     6.7960    23.5110     2.3600    -5.6700 
  207.3750    71.6310     8.8050     7.5780     8.5180    23.8520     2.3470    -5.8340 
