~V
VERS. 2.00: Ver 2.00
~W
STRT.M 57.0000:
STOP.M 208.0000:
STEP.M 0.1250:
NULL. -999.2500:
UWI. F10012:
~C
DEPT.M :
DEN.GM/CC :
SP.MV :
GR.API :
CALI.CM :
RXO.OHMM :
RI. :
RML.OHMM :
~A
# ...
  113.2500     2.0380   -18.8030    71.7370    22.0480    51.8690    70.8050    77.9990 
  113.3750     2.0490   -18.7330    72.2820    22.0380    50.7930    75.5390    83.1150 
  113.5000     2.0530   -18.6780    73.3190    22.0140    48.7040    77.3800    84.6560 
  113.6250     2.0460   -18.6970    73.5740    21.9900    48.1220    76.6340    83.0820 
  113.7500     2.0330   -18.7610    73.0160    21.9870    50.1740    74.5180    79.8970 
  113.8750     2.0300   -18.8430    73.9530    22.0190    51.4390    71.6790    75.9160 
  114.0000     2.0390   -18.9220    75.8510    22.0820    48.5150    68.9540    72.2110 
  114.1250     2.0510   -18.9800    76.9600    22.1900    43.7480    67.7000    70.3580 
  114.2500     2.0590   -19.0200    76.7960    22.4480    44.0300    68.6430    71.0420 
  114.3750     2.0640   -19.0460    75.2970    22.8850    49.4710    72.1200    74.5870 
  114.5000     2.0730   -19.0690    71.8050    23.3170    55.4240    77.9560    80.8030 
  114.6250     2.0960   -19.0170    68.0380    23.5690    57.4550    84.8350    87.9070 
  114.7500     2.1420   -18.9560    67.4050    23.6280    57.0350    88.7800    90.3870 
  114.8750     2.2150   -18.9270    70.3430    23.4770    55.9060    85.0840    82.5190 
  115.0000     2.2930   -18.9590    73.8760    23.1320    53.6280    71.5440    64.7400 
  115.1250     2.3480   -19.0400    78.3660    22.7080    45.3130    51.9620    45.2130 
  115.2500     2.3670   -19.1020    85.8350    22.3650    32.4080    34.5850    30.2090 
  115.3750     2.3530   -19.1510    95.3130    22.3400    19.7330    22.4280    20.2680 
  115.5000     2.3300   -19.1850   102.8670    22.4510    12.2250    15.1320    14.2670 
  115.6250     2.3050   -19.1830   106.1860    22.6290     9.7590    11.4430    11.2520 
  115.7500     2.2850   -19.1390   106.0920    22.6880     8.6090     9.4600     9.8220 
  115.8750     2.2750   -19.0990   106.8710    22.6080     8.5510     8.5370     9.3680 
  116.0000     2.2690   -19.0260   109.1730    22.5130     9.2130     8.2640     9.3920 
  116.1250     2.2670   -18.8800   110.7950    22.4430     9.5610     8.3310     9.5190 
  116.2500     2.2680   -18.7210   111.5920    22.3530     8.9840     8.4560     9.5730 
  116.3750     2.2790   -18.5490   111.8590    22.1410     8.2270     8.5990     9.5880 
  116.5000     2.3010   -18.3730   110.3880    21.8100     8.2250     8.8250     9.6330 
  116.6250     2.3320   -18.2710   108.2640    21.6090     9.2560     9.2200     9.7300 
  116.7500     2.3590   -18.2020   108.1090    21.7550     9.9750     9.7200     9.8320 
  116.8750     2.3630   -18.0830   109.7460    22.1920    10.2230    10.1930     9.9010 
  117.0000     2.3420   -17.9640   110.9560    22.4290    10.1600    10.4980     9.9530 
  117.1250     2.3060   -17.9030   112.7840    22.5310     9.9780    10.5650    10.0810 
  117.2500     2.2720   -17.8910   113.8630    22.5980     9.5310    10.5360    10.3370 
  117.3750     2.2580   -17.9070   109.4530    22.6370     9.3030    10.5150    10.7000 
  117.5000     2.2570   -17.9160   103.1200    22.6320     9.3030    10.4950    11.0480 
  117.6250     2.2590   -17.9260   102.2180    22.6090     9.3130    10.3120    11.1390 
  117.7500     2.2600   -17.9740   107.6700    22.5750     9.1900     9.8520    10.8520 
  117.8750     2.2620   -18.0760   113.6120    22.5710     8.7030     9.0920    10.1790 
  118.0000     2.2650   -18.1720   117.5400    22.5910     7.8730     8.1090     9.2350 
  118.1250     2.2730   -18.2660   120.6410    22.6060     7.1900     7.0910     8.2490 
  118.2500     2.2930   -18.3760   122.4900    22.5850     6.9480     6.2940     7.5300 
  118.3750     2.3360   -18.5040   117.7140    22.5180     6.9540     5.9310     7.3610 
  118.5000     2.4000   -18.6660   106.3420    22.4560     7.1560     6.2120     8.0470 
  118.6250     2.4700   -18.8540    92.5070    22.4480     8.3150     7.6410    10.2410 
  118.7500     2.5220   -19.0170    80.5530    22.4860    12.3030    10.6140    14.2440 
  118.8750     2.5230   -19.1710    73.9080    22.4640    21.4910    15.6980    20.4170 
  119.0000     2.4870   -19.3370    70.4080    22.3170    33.9740    22.9780    28.4700 
  119.1250     2.4480   -19.5140    69.1440    21.9510    39.2590    30.8040    36.0660 
  119.2500     2.4320   -19.6880    69.9760    21.4460    35.8240    36.1000    40.1450 
  119.3750     2.4360   -19.8340    70.7000    21.2020    29.7860    37.9350    40.4540 
  119.5000     2.4300   -19.9410    69.5400    21.3620    26.8090    37.6590    39.1740 
  119.6250     2.4080   -19.9760    67.5840    21.8860    28.0610    37.0760    38.4360 
  119.7500     2.3800   -19.9930    67.4140    22.4750    30.8090    36.9410    38.5480 
  119.8750     2.3600   -19.9680    67.0120    22.7600    31.3390    37.0940    39.0540 
  120.0000     2.3570   -19.9350    63.8310    22.7510    28.4730    37.2240    39.4960 
  120.1250     2.3730   -19.8650    60.8780    22.6410    26.0100    37.2120    39.7570 
  120.2500     2.4060   -19.7610    61.0440    22.5970    25.9570    37.2830    40.1220 
  120.3750     2.4390   -19.6570    63.6590    22.5510    26.8410    37.6430    40.7740 
  120.5000     2.4590   -19.5750    64.6780    22.4200    27.4560    38.2850    41.5910 
  120.6250     2.4650   -19.5610    66.1940    22.2840    27.2460    38.8800    42.0230 
  120.7500     2.4620   -19.5540    70.2600    22.0940    27.1180    39.0260    41.7240 
  120.8750     2.4640   -19.5640    73.9230    21.8440    26.3290    38.6100    40.7950 
  121.0000     2.4740   -19.5690    74.2850    21.7540    24.3340    37.8730    39.7080 
  121.1250     2.4860   -19.5960    71.2090    21.8670    22.3710    37.3270    39.1070 
  121.2500     2.4910   -19.6420    66.1340    22.1520    22.2750    37.2650    39.1800 
  121.3750     2.4800   -19.7060    61.3000    22.5750    23.4280    37.7090    39.8760 
  121.5000     2.4590   -19.7700    60.4110    22.9440    25.9860    38.5140    40.9750 
  121.6250     2.4360   -19.8010    63.5600    23.0950    29.7680    39.3400    41.9760 
  121.7500     2.4150   -19.8340    66.7540    23.1220    31.9640    39.7580    42.3150 
  121.8750     2.3920   -19.8630    68.6030    23.1140    31.5390    39.5200    41.7330 
  122.0000     2.3650   -19.8800    70.1800    23.0270    30.5700    38.6280    40.3520 
  122.1250     2.3400   -19.8630    70.5440    22.9370    28.7310    37.1650    38.4760 
  122.2500     2.3290   -19.8340    70.0120    22.9090    26.2940    35.4150    36.4960 
  122.3750     2.3380   -19.7590    71.3150    22.9560    23.6210    33.6540    34.6830 
  122.5000     2.3550   -19.6360    73.8390    23.0370    22.1320    32.2430    33.3480 
  122.6250     2.3690   -19.4790    74.3700    23.0950    22.2040    31.6560    32.9410 
  122.7500     2.3790   -19.3070    71.2000    23.1000    22.3540    31.9700    33.5070 
  122.8750     2.3920   -19.1430    66.2730    23.0640    23.1400    33.1710    34.9610 
  123.0000     2.4110   -18.9950    63.1240    23.0340    26.1920    35.0270    36.9380 
  123.1250     2.4320   -18.8900    62.8660    23.0010    29.7470    37.0210    38.7730 
  123.2500     2.4450   -18.8060    64.5260    22.8920    30.1790    38.5650    39.9650 
  123.3750     2.4450   -18.8050    67.2480    22.6670    27.6950    39.4270    40.4630 
  123.5000     2.4370   -18.9100    68.0740    22.6390    25.3620    39.6650    40.4910 
  123.6250     2.4190   -19.0780    66.2170    22.7300    25.4370    39.4740    40.3220 
  123.7500     2.3930   -19.2910    65.1620    22.7440    27.3530    39.1290    40.1160 
  123.8750     2.3620   -19.5410    67.1830    22.5100    28.3390    38.6600    39.7970 
  124.0000     2.3420   -19.8070    69.5500    22.1930    27.1260    38.0120    39.2370 
  124.1250     2.3450   -20.0400    70.8750    21.8980    25.3290    37.2100    38.4820 
  124.2500     2.3630   -20.2400    70.8800    21.8070    24.1900    36.5500    37.9190 
  124.3750     2.3810   -20.3480    68.8300    21.7760    24.0880    36.4070    37.9990 
