~V
VERS. 2.00: Ver 2.00
~W
STRT.M 50.0000:
STOP.M 266.0000:
STEP.M 0.1250:
NULL. -999.2500:
UWI. F10057:
~C
DEPT.M :
GR.API :
RML.OHMM :
RI. :
RXO.OHMM :
CALI.CM :
DEN.GM/CC :
SP.MV :
~A
# ...
   61.2500    46.1530     0.8790     0.6710     2.0990    25.2290     2.1620    45.2990 
   61.3750    43.4920     0.9190     0.6790     2.1250    25.2250     2.2200    44.1650 
   61.5000    40.3300     0.9400     0.6850     2.1500    25.1610     2.2860    43.4030 
   61.6250    37.9470     0.9430     0.6940     2.1570    24.9510     2.3680    43.1660 
   61.7500    36.8970     0.9420     0.7070     2.1600    24.6710     2.4600    43.4140 
   61.8750    38.8950     0.9370     0.7170     2.1620    24.4480     2.5460    44.0470 
   62.0000    42.9930     0.9270     0.7200     2.1700    24.3420     2.6080    44.8110 
   62.1250    44.3510     0.9250     0.7050     2.1850    24.2940     2.6160    45.4040 
   62.2500    42.8150     0.9440     0.6820     2.1910    24.3790     2.5650    45.6210 
   62.3750    40.4300     0.9580     0.6630     2.1930    24.7290     2.4580    45.3810 
   62.5000    39.5990     0.9650     0.6480     2.1960    25.2160     2.3140    44.6740 
   62.6250    40.7650     0.9590     0.6390     2.1960    25.4910     2.1800    43.5990 
   62.7500    42.7860     0.9520     0.6280     2.1880    25.5210     2.0940    42.4330 
   62.8750    43.8910     0.9500     0.6100     2.1770    25.4910     2.0680    41.3760 
   63.0000    43.3860     0.9960     0.5940     2.1830    25.4950     2.0880    40.5640 
   63.1250    42.7310     1.4050     0.5740     2.1480    25.4940     2.1200    40.1500 
   63.2500    42.4460     1.5720     0.5390     2.0320    25.4940     2.1340    40.1110 
   63.3750    42.3460     1.4530     0.4780     1.8650    25.4940     2.1330    40.4390 
   63.5000    42.0530     1.0170     0.3800     1.6690    25.4940     2.1400    41.0750 
   63.6250    41.5240     0.5600     0.2750     1.5380    25.4940     2.2100    41.8570 
   63.7500    41.5530     0.2750     0.1930     1.3990    25.4930     2.3560    42.5630 
   63.8750    44.0660     0.1400     0.1360     1.3290    25.4850     2.5470    43.0310 
   64.0000    49.5680     0.1060     0.1020     1.4470    25.2830     2.7110    43.0440 
   64.1250    58.3620     0.3380     0.2200     1.9480    24.6380     2.7520    42.1810 
   64.2500    68.8320     0.6750     0.3790     2.6000    23.8570     2.6670    40.2930 
   64.3750    79.8630     1.3050     0.7690     4.1540    23.3340     2.5050    37.5120 
   64.5000    89.1340     2.2650     1.4500     5.8690    23.1740     2.3400    34.1300 
   64.6250    95.3040     3.3020     2.3910     6.0600    23.1440     2.2430    30.3270 
   64.7500    99.5550     3.9550     3.3250     6.0500    23.1030     2.2090    26.2740 
   64.8750   100.4850     4.2190     4.1080     6.5410    23.1000     2.2150    22.0970 
   65.0000    97.9530     4.4200     4.7910     6.7970    23.1230     2.2350    18.0510 
   65.1250    93.6890     4.8370     5.5030     6.6670    23.1290     2.2550    14.5750 
   65.2500    89.1110     5.4290     6.2600     6.7750    23.1150     2.2740    11.9380 
   65.3750    84.0190     6.0210     6.9470     7.2610    23.0830     2.2930    10.0790 
   65.5000    79.6650     6.3820     7.3690     8.0010    23.0340     2.3070     8.7960 
   65.6250    81.4380     6.2740     7.3120     8.5220    23.0670     2.3070     7.9240 
   65.7500    86.5880     5.8280     6.8830     8.1620    23.3040     2.2940     7.3420 
   65.8750    91.8400     5.2610     6.2820     7.0220    23.7220     2.2790     6.9850 
   66.0000    96.7000     4.7920     5.7290     5.9430    24.1400     2.2760     6.7610 
   66.1250   101.7510     4.5980     5.4200     5.6740    24.3410     2.2980     6.5950 
   66.2500   104.3160     4.6630     5.3800     5.7500    24.3130     2.3340     6.4280 
   66.3750   103.2670     4.9320     5.5850     5.8630    24.0650     2.3720     6.2470 
   66.5000   101.5870     5.3160     5.9780     6.4160    23.6630     2.3990     6.0020 
   66.6250   101.0460     5.7050     6.4510     7.3840    23.2800     2.4030     5.6870 
   66.7500    99.6120     6.0250     6.8760     8.1330    23.0480     2.3910     5.2470 
   66.8750    96.6240     6.2600     7.1960     8.3860    22.9590     2.3680     4.7250 
   67.0000    93.5170     6.4200     7.4040     8.3400    22.9520     2.3420     4.2120 
   67.1250    90.3150     6.5120     7.5340     8.5740    22.9710     2.3190     3.7750 
   67.2500    86.6400     6.5700     7.6300     8.8530    23.0300     2.3010     3.4350 
   67.3750    83.7840     6.6100     7.6780     8.7140    23.2380     2.2850     3.1650 
   67.5000    82.9410     6.6300     7.6280     8.1310    23.6730     2.2720     2.9520 
   67.6250    83.2970     6.5760     7.4070     7.6320    24.1680     2.2650     2.8230 
   67.7500    85.4170     6.4100     7.0430     7.4460    24.4640     2.2700     2.7680 
   67.8750    91.1630     6.1570     6.5990     7.2520    24.5350     2.2870     2.7220 
   68.0000    98.7510     5.9550     6.2030     6.9830    24.5070     2.3120     2.6080 
   68.1250   102.6810     6.0810     6.0730     6.7670    24.4750     2.3380     2.4180 
   68.2500   101.1440     6.6830     6.3160     6.4930    24.4650     2.3620     2.1430 
   68.3750    94.7730     7.8490     7.0070     6.6700    24.4750     2.3850     1.8130 
   68.5000    84.3580     9.5480     8.1380     8.8450    24.4920     2.4080     1.3610 
   68.6250    72.7000    11.5020     9.5460    13.6850    24.4570     2.4250     0.7380 
   68.7500    63.7340    13.0420    10.7650    16.5330    24.3700     2.4280     0.0290 
   68.8750    58.8730    13.6960    11.4410    14.2800    24.2750     2.4150    -0.7210 
   69.0000    57.0090    13.4940    11.5000    11.1340    24.2190     2.3880    -1.4250 
   69.1250    58.1730    12.8930    11.1580    10.7880    24.2080     2.3610    -2.0570 
   69.2500    60.6710    12.4170    10.8010    11.3910    24.1980     2.3420    -2.6590 
   69.3750    63.1290    12.1920    10.5650    11.6690    24.1820     2.3310    -3.2190 
   69.5000    65.4400    12.1480    10.4360    11.4720    24.1480     2.3200    -3.6550 
   69.6250    66.6660    12.1640    10.3330    11.1010    24.1240     2.3010    -3.9640 
   69.7500    65.3220    12.1750    10.2010    10.8620    24.1860     2.2710    -4.2050 
   69.8750    61.9590    12.1380    10.0290    10.7800    24.3500     2.2330    -4.3510 
   70.0000    59.9270    11.9540     9.7810    10.8840    24.5140     2.1940    -4.4320 
   70.1250    61.9110    11.4960     9.3980    11.2280    24.5350     2.1680    -4.5000 
   70.2500    64.9930    10.8630     8.9220    11.6440    24.4240     2.1640    -4.5130 
   70.3750    68.6360    10.2340     8.4430    11.3630    24.2340     2.1820    -4.4610 
   70.5000    73.1210     9.8160     8.0870    10.0020    24.0240     2.2150    -4.4280 
   70.6250    75.3340     9.8330     8.0020     8.8980    23.8840     2.2450    -4.4370 
   70.7500    75.6880    10.2460     8.1970     9.4760    23.8350     2.2560    -4.4200 
   70.8750    76.1280    10.9310     8.6290    11.5880    23.8280     2.2460    -4.4320 
   71.0000    77.0870    11.6350     9.1600    13.6160    23.8160     2.2230    -4.5040 
   71.1250    75.4560    11.9450     9.5130    13.8180    23.8080     2.2060    -4.5460 
   71.2500    72.8750    11.7430     9.5320    13.5530    23.8170     2.2080    -4.5450 
   71.3750    71.7000    11.2070     9.2650    13.7290    23.8460     2.2290    -4.5120 
   71.5000    70.7260    10.6940     8.9280    13.3800    23.9170     2.2590    -4.4150 
   71.6250    69.9290    10.5670     8.7900    11.4840    24.0790     2.2760    -4.2570 
   71.7500    70.8110    10.8000     8.8970    10.0390    24.2730     2.2710    -4.0680 
   71.8750    71.7910    11.1780     9.1400    11.6630    24.3520     2.2470    -3.7970 
   72.0000    70.7280    11.3650     9.3020    18.5670    24.2090     2.2190    -3.4400 
   72.1250    72.2080    10.9940     9.1060    25.5870    23.9560     2.2100    -3.0730 
   72.2500    79.3820    10.1880     8.5760    20.5060    23.8510     2.2210    -2.7240 
   72.3750    87.3940     9.2560     7.8900    11.8600    23.8880     2.2450    -2.4260 
