~V
VERS. 2.00: Ver 2.00
~W
STRT.M 60.0000:
STOP.M 217.0000:
STEP.M 0.1250:
NULL. -999.2500:
UWI. F10010:
~C
DEPT.M :
DEN.GM/CC :
GR.API :
RML.OHMM :
RI. :
RXO.OHMM :
CALI.CM :
SP.MV :
~A
# ...
  116.2500     2.2720    64.4650    51.1400    51.2850    49.0570    21.6360   -28.8970 
  116.3750     2.2600    67.2870    50.9630    50.8210    47.9640    21.6950   -29.2840 
  116.5000     2.2630    66.4000    51.1060    50.7590    47.3370    21.7190   -29.7080 
  116.6250     2.2680    62.6630    50.9780    50.4670    49.4310    21.7910   -30.2110 
  116.7500     2.2660    60.2030    50.5500    49.8310    50.9780    21.8400   -30.7060 
  116.8750     2.2570    59.9220    50.0790    49.0750    47.5900    21.8560   -31.1720 
  117.0000     2.2510    60.3900    49.8650    48.5050    41.4550    21.8710   -31.6170 
  117.1250     2.2640    60.6690    50.2490    48.5180    38.1230    22.0170   -32.0320 
  117.2500     2.3020    60.6460    51.5310    49.4300    40.7900    22.4010   -32.4440 
  117.3750     2.3650    59.4220    54.2080    51.7190    49.9380    22.9280   -32.9010 
  117.5000     2.4450    57.9210    58.5360    55.6510    59.9550    23.2990   -33.3560 
  117.6250     2.5270    58.7800    63.9630    60.7540    69.8510    23.4410   -33.7290 
  117.7500     2.5980    60.6860    68.2440    64.9280    97.0580    23.4720   -34.0690 
  117.8750     2.6450    61.2200    68.5390    65.4980   145.7300    23.4770   -34.4180 
  118.0000     2.6640    60.5940    62.5930    60.1230   124.5420    23.4770   -34.7640 
  118.1250     2.6510    60.6700    50.5350    48.6090    59.0040    23.4730   -35.0750 
  118.2500     2.6150    61.9620    37.2770    35.9130    31.7130    23.4140   -35.3560 
  118.3750     2.5630    65.1750    25.8940    25.1830    20.5520    23.2380   -35.5540 
  118.5000     2.4980    70.2860    17.6060    17.4740    13.7860    22.9820   -35.7090 
  118.6250     2.4290    76.9780    12.8020    12.8080     9.3220    22.9560   -35.9040 
  118.7500     2.3670    83.1550    10.2920     9.9260     7.0600    23.0880   -36.0650 
  118.8750     2.3230    88.9280     8.5910     8.2400     6.4130    23.2540   -36.1720 
  119.0000     2.2970    93.9110     7.7200     7.3450     6.4230    23.3700   -36.2450 
  119.1250     2.2850    96.5070     7.4550     7.0700     6.5140    23.2520   -36.3060 
  119.2500     2.2810    97.6610     7.5430     7.1760     6.3450    22.8420   -36.3750 
  119.3750     2.2900    99.1630     7.8860     7.5490     5.8720    22.3320   -36.4730 
  119.5000     2.3160    99.3120     8.3890     8.0940     5.8350    22.0690   -36.5490 
  119.6250     2.3530    95.0550     8.9020     8.6710     7.3040    22.2200   -36.5730 
  119.7500     2.3830    91.3550     9.2250     9.0750     9.1960    22.6270   -36.6580 
  119.8750     2.3910    92.1140     9.2170     9.1490     9.4540    23.2160   -36.7660 
  120.0000     2.3730    94.8590     8.8610     8.8410     8.1460    23.8210   -36.8710 
  120.1250     2.3430    95.2760     8.3100     8.2850     7.1300    24.0930   -36.9700 
  120.2500     2.3160    95.9060     7.8650     7.7700     6.6710    24.1590   -37.0320 
  120.3750     2.2980    97.0540     7.7360     7.4820     6.5860    24.1480   -37.0710 
  120.5000     2.2850    96.7720     8.0390     7.5480     7.0550    24.1380   -37.1200 
  120.6250     2.2680    94.9970     8.8280     8.0490     8.2450    24.1350   -37.2260 
  120.7500     2.2450    92.5920     9.5890     8.8490     9.6990    24.1350   -37.3180 
  120.8750     2.2190    88.5270    10.3780     9.7890    11.1180    24.1390   -37.3810 
  121.0000     2.1960    83.4380    11.2470    10.6300    12.1620    24.1520   -37.4240 
  121.1250     2.1820    79.9940    11.6560    11.0670    11.8850    24.1740   -37.4680 
  121.2500     2.1790    79.2310    11.6880    11.0860    10.7920    24.1680   -37.5360 
  121.3750     2.1820    79.9810    11.5130    10.8450     9.9840    24.1320   -37.6090 
  121.5000     2.1880    80.0380    11.3320    10.5510     9.9300    24.1060   -37.6730 
  121.6250     2.1910    78.6320    11.3430    10.3970    10.4670    24.0970   -37.6500 
  121.7500     2.1910    78.5520    11.5850    10.4420    10.9090    24.1000   -37.5530 
  121.8750     2.1900    81.2120    12.0250    10.6670    11.1410    24.0980   -37.4660 
  122.0000     2.1890    84.4300    12.6080    11.0290    11.6120    24.0780   -37.4340 
  122.1250     2.1920    84.9340    13.3260    11.5050    12.8080    24.0650   -37.4090 
  122.2500     2.2010    81.7350    14.2170    12.1220    13.7200    24.0560   -37.3630 
  122.3750     2.2140    76.6330    15.4340    12.9990    13.9720    24.0500   -37.2750 
  122.5000     2.2300    73.5520    17.1950    14.2980    14.7810    24.0410   -37.1880 
  122.6250     2.2470    71.0950    19.8150    16.3020    17.8560    24.0570   -37.1450 
  122.7500     2.2650    67.0620    23.1530    18.9610    24.3770    24.0480   -37.1600 
  122.8750     2.2770    63.8830    26.9070    22.1260    34.1160    23.9670   -37.1610 
  123.0000     2.2810    64.3750    30.4710    25.3700    39.9980    23.7900   -37.0830 
  123.1250     2.2740    65.6200    32.8300    27.7960    35.2860    23.6900   -36.9560 
  123.2500     2.2590    64.3370    33.7030    28.9680    31.4910    23.7860   -36.8260 
  123.3750     2.2390    64.3410    33.3490    28.9710    30.2520    24.0600   -36.7460 
  123.5000     2.2110    66.5930    32.4080    28.3070    28.7170    24.4970   -36.6790 
  123.6250     2.1750    67.8210    31.6220    27.6210    28.4860    24.9690   -36.5830 
  123.7500     2.1410    68.0830    31.3820    27.3160    31.6520    25.2880   -36.4620 
  123.8750     2.1170    68.7020    31.7650    27.5300    35.5880    25.2530   -36.3320 
  124.0000     2.1080    69.4820    32.7450    28.2780    37.9400    24.8920   -36.2080 
  124.1250     2.1110    66.4840    34.3890    29.6430    39.4230    24.5010   -36.1140 
  124.2500     2.1120    62.1180    36.4800    31.4760    39.8060    24.5510   -36.0420 
  124.3750     2.1060    59.4140    38.6960    33.5080    38.9830    25.0360   -35.9380 
  124.5000     2.0950    59.6660    40.5200    35.2960    40.5210    25.4180   -35.7790 
  124.6250     2.0900    62.5290    41.1270    36.1440    39.6810    25.4750   -35.5790 
  124.7500     2.0970    65.3110    40.3800    35.8430    34.3170    25.4780   -35.3760 
  124.8750     2.1210    66.9350    38.5700    34.5840    29.3180    25.3530   -35.2000 
  125.0000     2.1600    66.2320    36.3270    32.8590    27.3620    24.9790   -35.0580 
  125.1250     2.2060    63.6330    34.3120    31.1880    26.9450    24.3800   -34.8620 
  125.2500     2.2430    60.7550    32.8160    29.8670    26.1670    23.8430   -34.6210 
  125.3750     2.2610    59.7520    31.8830    28.9690    25.3520    23.6280   -34.4070 
  125.5000     2.2600    61.1110    31.4060    28.4520    24.5580    23.7630   -34.2200 
  125.6250     2.2440    62.7290    31.2430    28.2500    24.2450    23.9800   -34.0290 
  125.7500     2.2260    64.1850    31.2300    28.2030    24.9720    24.1170   -33.7890 
  125.8750     2.2100    65.2770    31.3030    28.2480    26.6100    24.3220   -33.5080 
  126.0000     2.1960    65.0030    31.3860    28.3070    28.3090    24.5400   -33.2120 
  126.1250     2.1820    63.5440    31.2990    28.2560    28.3540    24.5570   -32.9680 
  126.2500     2.1690    63.3220    30.9170    27.9970    26.6570    24.2610   -32.7380 
  126.3750     2.1630    64.4720    30.2260    27.4600    24.9330    24.0800   -32.4680 
  126.5000     2.1690    66.5190    29.3720    26.7190    24.2080    24.0230   -32.2160 
  126.6250     2.1830    70.1690    28.6480    25.9870    23.6490    23.9550   -32.0320 
  126.7500     2.1930    73.3470    28.2460    25.4820    23.4980    23.9470   -31.8950 
  126.8750     2.1860    74.2880    28.2440    25.3330    24.8400    24.1570   -31.7850 
  127.0000     2.1620    73.6310    28.6760    25.6000    27.1250    24.5330   -31.6840 
  127.1250     2.1320    73.1260    29.6660    26.3890    28.0700    24.8720   -31.5640 
  127.2500     2.1090    71.2080    31.2150    27.6480    28.0540    24.9490   -31.4330 
  127.3750     2.1020    67.9700    33.3940    29.4380    29.4120    24.7130   -31.3290 
