~V
VERS. 2.00: Ver 2.00
~W
STRT.M 50.0000:
STOP.M 265.0000:
STEP.M 0.1250:
NULL. -999.2500:
UWI. F10025:
~C
DEPT.M :
SP.MV :
DEN.GM/CC :
GR.API :
CALI.CM :
RXO.OHMM :
RI. :
RML.OHMM :
~A
# ...
  128.7500   -13.7650     2.2440   107.1140    23.2540     6.1800     5.5170     6.5670 
  128.8750   -13.7210     2.2370   101.5310    23.2740     7.0790     5.8830     7.0350 
  129.0000   -13.6860     2.2460    95.9000    23.3560     8.5700     6.2970     7.6580 
  129.1250   -13.7230     2.2870    94.1660    23.2380     9.3660     6.6400     8.1960 
  129.2500   -13.8810     2.3340    96.9010    23.0940     8.8160     6.8140     8.4190 
  129.3750   -14.0490     2.3580   102.5820    23.1620     7.8740     6.7710     8.2210 
  129.5000   -14.2410     2.3480   107.3530    23.3510     7.3560     6.6060     7.8440 
  129.6250   -14.3630     2.3180   107.8390    23.5110     7.0730     6.4040     7.4960 
  129.7500   -14.5190     2.2840   103.7220    23.5250     7.2300     6.2230     7.2690 
  129.8750   -14.6930     2.2520   100.4980    23.5200     7.1990     6.0770     7.1150 
  130.0000   -14.7900     2.2280    99.9210    23.5730     6.8250     5.9350     6.9310 
  130.1250   -14.8530     2.2250    99.4930    23.6980     6.2980     5.7840     6.7070 
  130.2500   -14.8450     2.2360    98.7730    23.8100     5.9340     5.6260     6.4870 
  130.3750   -14.8050     2.2470   100.2310    23.8620     5.7820     5.4710     6.3310 
  130.5000   -14.7230     2.2470   104.1750    23.8790     5.8670     5.3270     6.2240 
  130.6250   -14.6900     2.2350   106.5320    23.8810     5.9940     5.1890     6.1120 
  130.7500   -14.6500     2.2230   106.2420    23.8750     5.9590     5.0360     5.9490 
  130.8750   -14.5870     2.2170   106.7350    23.8620     5.9170     4.8820     5.7950 
  131.0000   -14.5520     2.2160   109.4870    23.8570     6.0210     4.8270     5.8140 
  131.1250   -14.4390     2.2220   112.3710    23.8630     6.2720     5.0110     6.1790 
  131.2500   -14.3360     2.2430   112.4460    23.8360     6.8290     5.5720     7.0390 
  131.3750   -14.3280     2.2830   107.8910    23.7530     9.1560     6.7160     8.5860 
  131.5000   -14.4430     2.3360    99.7700    23.6810    14.4190     8.3290    10.5970 
  131.6250   -14.6730     2.3660    89.4260    23.6300    19.0830    10.0400    12.5100 
  131.7500   -14.9790     2.3510    79.9820    23.5830    18.4320    11.1490    13.4140 
  131.8750   -15.3540     2.2960    76.5440    23.5250    13.7140    10.9810    12.7080 
  132.0000   -15.7780     2.2290    79.3750    23.4470    10.5830    10.0830    11.3810 
  132.1250   -16.3700     2.1750    82.2610    23.3460     9.3720     9.0730    10.1920 
  132.2500   -16.9430     2.1420    79.7520    23.2840     9.0450     8.3510     9.4710 
  132.3750   -17.4440     2.1270    75.6510    23.2910     9.3200     8.1040     9.3280 
  132.5000   -17.9010     2.1190    76.7320    23.3240     9.7640     8.1650     9.5400 
  132.6250   -18.2850     2.1040    80.3300    23.3640    10.1120     8.3680     9.8750 
  132.7500   -18.6760     2.0870    81.5070    23.4010    10.1940     8.5590    10.1080 
  132.8750   -19.0570     2.0770    81.2950    23.4530    10.0250     8.6380    10.0880 
  133.0000   -19.4510     2.0780    82.2810    23.4780     9.8330     8.6390     9.9160 
  133.1250   -19.7720     2.0820    82.6740    23.3780     9.7650     8.6240     9.7360 
  133.2500   -20.1280     2.0860    80.3060    23.2690     9.6910     8.6510     9.6610 
  133.3750   -20.5240     2.0920    77.2790    23.2270     9.5270     8.7420     9.7200 
  133.5000   -20.8720     2.0990    75.9720    23.2420     9.5070     8.8520     9.8150 
  133.6250   -21.1650     2.0990    76.0360    23.2700     9.7120     8.9360     9.8840 
  133.7500   -21.3630     2.0900    74.8710    23.2640     9.9110     8.9650     9.9260 
  133.8750   -21.4650     2.0790    73.7760    23.2100     9.9360     8.9320     9.9490 
  134.0000   -21.5250     2.0740    74.4420    23.1810     9.8850     8.8720     9.9530 
  134.1250   -21.5490     2.0700    75.8620    23.2620     9.8810     8.8090     9.9350 
  134.2500   -21.4640     2.0640    76.5860    23.3430     9.8990     8.7590     9.9030 
  134.3750   -21.2730     2.0620    75.6800    23.3130     9.9120     8.7270     9.8650 
  134.5000   -21.0730     2.0690    73.3130    23.2140     9.9050     8.6970     9.8050 
  134.6250   -20.7650     2.0800    70.4630    23.1480     9.8850     8.6550     9.6890 
  134.7500   -20.4210     2.0860    69.9650    23.1110     9.8730     8.5810     9.5070 
  134.8750   -20.0300     2.0870    72.1410    23.0990     9.9060     8.4780     9.3210 
  135.0000   -19.5180     2.0860    74.1750    23.0960     9.9380     8.4260     9.3010 
  135.1250   -18.8940     2.0830    75.5500    23.0830     9.9220     8.5630     9.6350 
  135.2500   -18.2000     2.0740    76.9400    23.0660     9.8570     9.0110    10.4160 
  135.3750   -17.4280     2.0660    76.5500    23.0740     9.9770     9.7970    11.5310 
  135.5000   -16.5530     2.0830    73.3130    23.1010    10.9100    10.5850    12.4210 
  135.6250   -15.6430     2.1530    70.5460    23.1440    12.9430    10.9140    12.4700 
  135.7500   -14.6740     2.2480    73.4330    23.1880    14.3610    10.4070    11.3810 
  135.8750   -13.7700     2.3250    84.5680    23.1480    11.8220     9.0460     9.5330 
  136.0000   -13.0090     2.3500    98.1710    22.9970     8.0670     7.4820     7.7980 
  136.1250   -12.3750     2.3250   108.5910    22.7860     5.9580     6.1040     6.4980 
  136.2500   -11.9630     2.2920   114.7520    22.6650     5.4200     5.0700     5.6550 
  136.3750   -11.7660     2.2720   116.6100    22.4980     5.2830     4.4530     5.2540 
  136.5000   -11.7520     2.2720   115.5050    22.2390     5.1150     4.1650     5.1580 
  136.6250   -11.9540     2.2900   115.2340    21.8560     5.0610     4.1780     5.3190 
  136.7500   -12.4050     2.3090   117.7540    21.5020     5.2140     4.4700     5.7160 
  136.8750   -13.0170     2.3170   119.0990    21.2680     6.0590     5.0930     6.3950 
  137.0000   -13.7170     2.3130   115.7500    21.1350     8.6400     5.9940     7.2960 
  137.1250   -14.5580     2.2940   107.2690    21.0680    12.6510     7.0680     8.2920 
  137.2500   -15.3940     2.2580    96.2840    21.2110    14.8720     8.0570     9.1280 
  137.3750   -16.1930     2.2050    86.0170    21.7450    13.0930     8.5510     9.4480 
  137.5000   -16.9980     2.1520    79.8240    22.4270    10.7530     8.5420     9.3260 
  137.6250   -17.8050     2.1250    77.8540    22.7530     9.6270     8.2400     9.0100 
  137.7500   -18.4870     2.1190    77.5120    22.7920     9.3050     7.9210     8.7650 
  137.8750   -19.0820     2.1210    78.2570    22.6210     9.3500     7.7980     8.7820 
  138.0000   -19.6400     2.1210    78.7920    22.3830     9.5080     7.8640     9.0390 
  138.1250   -20.0590     2.1190    78.4680    22.2910     9.6840     8.0380     9.4630 
  138.2500   -20.4570     2.1130    77.5910    22.4270     9.7570     8.2240     9.9110 
  138.3750   -20.8280     2.1010    78.1340    22.6250     9.6450     8.3420    10.1720 
  138.5000   -21.1220     2.0880    80.5180    22.8630     9.5840     8.3940    10.1780 
  138.6250   -21.3430     2.0840    81.9570    23.0030     9.8140     8.4180     9.9900 
  138.7500   -21.5460     2.0880    79.5460    22.9870    10.2830     8.4510     9.7670 
  138.8750   -21.7260     2.0900    75.2350    22.8180    10.6730     8.5130     9.7000 
  139.0000   -21.8230     2.0830    73.5690    22.5480    10.7370     8.5860     9.8110 
  139.1250   -21.8600     2.0750    74.1470    22.3080    10.4440     8.6430    10.0190 
  139.2500   -21.7840     2.0690    74.0940    22.0660     9.8600     8.6680    10.2170 
  139.3750   -21.6440     2.0630    73.4410    21.7450     9.1740     8.6580    10.3360 
  139.5000   -21.5060     2.0530    73.9510    21.3350     8.7080     8.6370    10.3990 
  139.6250   -21.3030     2.0430    74.2930    20.5440     8.5610     8.6170    10.4500 
  139.7500   -21.0550     2.0360    73.6920    19.3400     8.5360     8.5970    10.5450 
  139.8750   -20.7380     2.0320    73.7510    17.9930     8.4570     8.5710    10.7030 
