~V
VERS. 2.00: Ver 2.00
~W
STRT.M 50.0000:
STOP.M 278.0000:
STEP.M 0.1250:
NULL. -999.2500:
UWI. F10031:
~C
DEPT.M :
GR.API :
RML.OHMM :
RI. :
RXO.OHMM :
CALI.CM :
DEN.GM/CC :
SP.MV :
~A
   50.0000    41.7130     4.4660     0.3720     0.2930    25.3360  -999.2500  -999.2500 
   50.1250    42.8570     4.4020     0.3640     0.3670    25.2570  -999.2500  -999.2500 
   50.2500    43.9840     4.3610     0.3570     0.3440    25.1000  -999.2500  -999.2500 
   50.3750    45.8510     4.3300     0.3520     0.2730    24.8490  -999.2500  -999.2500 
   50.5000    48.2310     4.2890     0.3500     0.2490    24.5480  -999.2500  -999.2500 
   50.6250    50.1630     4.2190     0.3520     0.2930    24.3020  -999.2500  -999.2500 
   50.7500    51.6550     4.1340     0.3540     0.3510    24.0940  -999.2500  -999.2500 
   50.8750    51.9550     4.0520     0.3550     0.4120    23.9240  -999.2500  -999.2500 
   51.0000    50.5030     3.9830     0.3550     0.4850    23.8160  -999.2500    20.6470 
   51.1250    49.2250     3.9220     0.3540     0.5550    23.7760  -999.2500    20.6470 
   51.2500    49.1300     3.8470     0.3530     0.5800    23.7780  -999.2500    24.4270 
   51.3750    48.6710     3.7420     0.3530     0.5590    23.8000  -999.2500    28.7660 
   51.5000    48.0850     3.6040     0.3520     0.5100    23.8160  -999.2500    29.6600 
   51.6250    48.7440     3.4470     0.3500     0.4490    23.8220  -999.2500    30.4050 
   51.7500    51.1640     3.3070     0.3490     0.4100    23.8250  -999.2500    30.8950 
   51.8750    54.5800     3.2130     0.3500     0.4110    23.8380  -999.2500    31.0970 
   52.0000    57.9350     3.1720     0.3520     0.4220    23.8720  -999.2500    30.9910 
   52.1250    58.2880     3.1690     0.3530     0.4150    23.9540  -999.2500    30.4990 
   52.2500    54.8040     3.1580     0.3500     0.4110    24.1000  -999.2500    29.6580 
   52.3750    49.5980     3.1080     0.3430     0.4530    24.2950  -999.2500    28.5670 
   52.5000    45.7020     3.0080     0.3330     0.6000    24.5040  -999.2500    27.3490 
   52.6250    44.7360     2.8780     0.3220     0.9450    24.7320  -999.2500    26.1740 
   52.7500    44.9890     2.7700     0.3160     1.2620    24.9340  -999.2500    25.2730 
   52.8750    45.0960     2.7270     0.3140     1.5030    25.0310  -999.2500    24.8570 
   53.0000    44.8490     2.7700     0.3180     1.5040    24.9590  -999.2500    25.0660 
   53.1250    44.7120     2.8920     0.3260     0.6290    24.6650  -999.2500    26.0670 
   53.2500    44.3460     3.0240     0.3340     0.3630    24.1580  -999.2500    27.5610 
   53.3750    43.2690     3.1150     0.3400     0.3210    23.5630  -999.2500    29.1230 
   53.5000    42.4630     3.1380     0.3420     0.4420    23.1890  -999.2500    30.3950 
   53.6250    44.4500     3.1110     0.3380     0.7450    23.0690  -999.2500    31.0820 
   53.7500    48.9610     3.1020     0.3320     1.1340    22.9610  -999.2500    31.1120 
   53.8750    54.5670     3.1570     0.3250     1.6040    22.8080  -999.2500    30.4250 
   54.0000    59.0420     3.2880     0.3190     2.0490    22.7280  -999.2500    29.0880 
   54.1250    59.9880     3.4710     0.3170     2.2230    22.7400  -999.2500    27.1390 
   54.2500    57.2650     3.6510     0.3180     2.8760    22.7890  -999.2500    24.9910 
   54.3750    53.2960     3.7980     0.3190     3.8660    22.8810  -999.2500    23.1460 
   54.5000    50.7700     3.9050     0.3210     4.8800    23.0280  -999.2500    21.9710 
   54.6250    50.0500     3.9810     0.3210     5.3360    23.1530  -999.2500    21.6970 
   54.7500    49.7510     4.0450     0.3210     5.6740    23.2280  -999.2500    22.1430 
   54.8750    50.3870     4.0970     0.3230     6.1140    23.3170  -999.2500    23.1580 
   55.0000    52.8630     4.1340     0.3260     6.7150    23.4890  -999.2500    24.4470 
   55.1250    56.3740     4.1510     0.3300     7.6460    23.7670  -999.2500    25.7200 
   55.2500    57.0330     4.1530     0.3330     8.6990    24.0760  -999.2500    26.8680 
   55.3750    54.5610     4.1430     0.3340     9.5460    24.3810  -999.2500    27.9110 
   55.5000    51.5580     4.1200     0.3320     9.9330    24.6270  -999.2500    28.8220 
   55.6250    49.3600     4.0760     0.3280     9.2960    24.7170  -999.2500    29.5400 
   55.7500    48.3990     4.0120     0.3230     8.3230    24.7360     2.4480    30.1110 
   55.8750    49.9710     3.9310     0.3190     7.5660    24.7330     2.4480    30.5630 
   56.0000    53.7580     3.8430     0.3160     7.0770    24.7300     2.4050    30.9900 
   56.1250    55.9350     3.7610     0.3160     7.0650    24.7210     2.3480    31.4980 
   56.2500    55.4460     3.6850     0.3180     7.1960    24.7030     2.2960    32.0830 
   56.3750    54.9850     3.6030     0.3220     7.9550    24.6750     2.2490    32.6980 
   56.5000    55.5550     3.4990     0.3280     9.1490    24.6450     2.2100    33.3300 
   56.6250    55.2310     3.3620     0.3340     9.8430    24.6210     2.1820    33.9010 
   56.7500    52.7250     3.2160     0.3380     9.3450    24.6030     2.1650    34.3360 
   56.8750    49.1500     3.0920     0.3390     7.8730    24.5950     2.1610    34.5840 
   57.0000    47.0880     3.0130     0.3380     6.1930    24.5920     2.1640    34.5950 
   57.1250    46.1020     2.9710     0.3350     4.6920    24.5980     2.1650    34.3720 
   57.2500    43.9910     2.9100     0.3340     3.3300    24.6210     2.1540    34.0090 
   57.3750    42.0520     2.7890     0.3340     2.2910    24.6750     2.1310    33.5580 
   57.5000    42.3020     2.6020     0.3370     1.7810    24.7880     2.1060    33.0590 
   57.6250    44.2330     2.3870     0.3400     1.6060    24.9930     2.0900    32.6230 
   57.7500    45.9430     2.2050     0.3440     1.4700    25.1610     2.0850    32.3370 
   57.8750    47.5770     2.0880     0.3480     1.3030    25.2250     2.0880    32.2440 
   58.0000    49.3520     2.0470     0.3520     1.0690    25.2320     2.0940    32.3810 
   58.1250    51.2340     2.0880     0.3550     0.8150    25.2300     2.0980    32.8030 
   58.2500    53.3490     2.1850     0.3580     0.6630    25.2250     2.1020    33.4420 
   58.3750    54.4920     2.3080     0.3600     0.7200    25.2160     2.1060    34.2970 
   58.5000    53.9580     2.4030     0.3600     1.0330    25.1990     2.1140    35.3710 
   58.6250    52.3900     2.3900     0.3600     1.6120    25.1770     2.1310    36.6710 
   58.7500    49.9950     2.2520     0.3620     2.2890    25.1660     2.1510    38.1360 
   58.8750    46.9440     2.0240     0.3670     2.8870    25.1600     2.1690    39.7280 
   59.0000    44.0310     1.7750     0.3760     3.2180    25.1490     2.1760    41.4310 
   59.1250    42.4670     1.5790     0.3860     2.9280    25.1240     2.1650    43.2460 
   59.2500    41.5470     1.4570     0.3950     2.6840    25.0850     2.1460    45.1250 
   59.3750    40.8620     1.4000     0.3990     2.6460    25.0350     2.1290    46.9990 
   59.5000    40.6620     1.3950     0.3960     2.7890    24.9790     2.1200    48.8320 
   59.6250    41.4550     1.4490     0.3860     2.8330    24.9470     2.1170    50.6120 
   59.7500    42.3930     1.5610     0.3730     2.6410    24.9190     2.1100    52.3390 
   59.8750    42.7820     1.7320     0.3590     1.9960    24.8690     2.0930    54.0170 
   60.0000    43.0430     1.9310     0.3440     0.9220    24.7620     2.0680    55.5780 
   60.1250    43.6920     2.0670     0.3300     0.3120    24.5580     2.0390    56.8600 
   60.2500    43.8620     2.0420     0.3160     0.1760    24.2370     2.0190    57.8750 
   60.3750    43.2480     1.7840     0.3050     0.1980    23.8360     2.0230    58.5620 
   60.5000    43.2990     1.3120     0.2950     0.2590    23.4630     2.0660    58.7790 
   60.6250    44.2540     0.7710     0.2850     0.3080    23.2540     2.1720    58.0090 
   60.7500    44.1330     0.3580     0.2680     0.3660    23.1840     2.3210    55.9420 
   60.8750    44.3190     0.1640     0.2470     0.5970    23.1600     2.4770    52.1930 
   61.0000    46.4420     0.2430     0.2500     1.2720    23.1230     2.5810    46.5740 
   61.1250    50.6170     0.7250     0.3690     2.6180    23.0470     2.5790    39.2170 
