~V
VERS. 2.00: Ver 2.00
~W
STRT.M 50.0000:
STOP.M 313.0000:
STEP.M 0.1250:
NULL. -999.2500:
UWI. F10034:
~C
DEPT.M :
GR.API :
RML.OHMM :
RI. :
RXO.OHMM :
CALI.CM :
DEN.GM/CC :
SP.MV :
~A
   50.0000    45.2410     2.8400     0.4170     1.7560    24.5860     2.4370    84.2290 
   50.1250    44.8780     2.8010     0.4130     1.8930    24.2480     2.4710    86.0100 
   50.2500    44.5800     2.7840     0.4110     2.1560    23.9810     2.5010    87.9110 
   50.3750    44.2880     2.7750     0.4080     2.5090    23.7120     2.5300    89.8990 
   50.5000    44.3380     2.7850     0.4060     2.8680    23.4610     2.5600    91.9360 
   50.6250    44.3280     2.8430     0.4050     3.2990    23.3200     2.5880    93.9620 
   50.7500    44.3350     2.9590     0.4060     3.8930    23.2590     2.6130    95.8870 
   50.8750    44.8560     3.1290     0.4110     4.6220    23.2420     2.6280    97.7110 
   51.0000    44.8160     3.3210     0.4170     5.0840    23.2390     2.6310    99.3930 
   51.1250    43.8860     3.4610     0.4230     5.1190    23.2270     2.6210   100.9410 
   51.2500    42.6690     3.4960     0.4250     4.3890    23.1800     2.6050   102.3980 
   51.3750    43.2010     3.4100     0.4220     2.4850    23.0690     2.5900   103.7450 
   51.5000    45.0090     3.2260     0.4160     1.1560    22.8810     2.5780   104.9450 
   51.6250    44.6000     3.0030     0.4090     0.7100    22.6850     2.5730   105.9920 
   51.7500    43.2540     2.8070     0.4020     0.5970    22.5420     2.5740   106.9430 
   51.8750    42.7480     2.6730     0.3980     0.5800    22.4580     2.5800   107.7260 
   52.0000    43.5140     2.6110     0.3940     0.6000    22.4310     2.5890   108.3490 
   52.1250    43.8070     2.6310     0.3930     0.6310    22.4410     2.5990   108.7950 
   52.2500    43.6060     2.7100     0.3940     0.6720    22.4700     2.6070   109.0780 
   52.3750    45.0850     2.8300     0.3990     0.7370    22.5160     2.6130   109.1650 
   52.5000    46.8830     2.9740     0.4080     0.9050    22.6400     2.6200   109.0440 
   52.6250    46.1030     3.1190     0.4200     1.3630    22.8960     2.6280   108.6210 
   52.7500    44.0260     3.2460     0.4340     2.1450    23.1390     2.6360   108.0050 
   52.8750    41.8800     3.3410     0.4480     3.1740    23.2710     2.6410   107.3400 
   53.0000    39.4280     3.3910     0.4600     4.2000    23.3070     2.6400   106.7040 
   53.1250    37.6030     3.3710     0.4660     4.6900    23.3070     2.6330   106.1380 
   53.2500    38.1600     3.2770     0.4680     4.5650    23.3100     2.6190   105.5620 
   53.3750    39.7970     3.1100     0.4640     4.3550    23.3290     2.5980   104.9320 
   53.5000    39.5620     2.8830     0.4560     4.1340    23.3900     2.5660   104.2000 
   53.6250    37.5320     2.6260     0.4460     4.0280    23.5290     2.5130   103.3790 
   53.7500    35.5800     2.3850     0.4350     4.0210    23.7900     2.4410   102.3990 
   53.8750    34.2680     2.1910     0.4260     4.0510    24.1770     2.3540   101.1080 
   54.0000    34.0590     2.0570     0.4170     4.0450    24.6100     2.2660    99.4200 
   54.1250    34.5170     1.9980     0.4130     3.9790    24.8710     2.1930    97.3810 
   54.2500    34.8070     1.9970     0.4140     3.9140    24.9590     2.1400    95.3080 
   54.3750    34.9460     2.0380     0.4190     3.8290    24.9710     2.1050    93.4100 
   54.5000    35.5410     2.1000     0.4260     3.7050    24.9630     2.0810    91.7710 
   54.6250    36.2270     2.1710     0.4330     3.6050    24.9410     2.0630    90.4000 
   54.7500    35.5680     2.2550     0.4370     3.5350    24.9160     2.0560    89.2890 
   54.8750    34.2650     2.3630     0.4400     3.4960    24.9050     2.0670    88.4980 
   55.0000    33.2250     2.4880     0.4420     3.4730    24.9040     2.0980    88.1370 
   55.1250    33.4070     2.5740     0.4440     3.4150    24.9040     2.1420    88.2060 
   55.2500    33.9040     2.5640     0.4470     3.2290    24.9040     2.1820    88.4750 
   55.3750    33.8510     2.4380     0.4490     2.8630    24.8990     2.2070    88.8920 
   55.5000    33.5960     2.2230     0.4500     2.3360    24.8820     2.2110    89.5030 
   55.6250    34.8110     1.9890     0.4500     1.7210    24.7740     2.1960    90.3620 
   55.7500    37.6720     1.8010     0.4500     1.1220    24.5560     2.1720    91.3820 
   55.8750    42.5160     1.6760     0.4510     0.7730    24.3080     2.1490    92.4710 
   56.0000    46.7200     1.6040     0.4510     0.6530    24.1810     2.1330    93.4140 
   56.1250    45.3240     1.5710     0.4500     0.6450    24.1430     2.1280    93.9900 
   56.2500    40.9800     1.5710     0.4500     0.6690    24.0040     2.1300    94.2430 
   56.3750    39.1970     1.6130     0.4510     0.7120    23.7810     2.1310    94.1620 
   56.5000    41.9060     1.7030     0.4490     0.7760    23.5440     2.1310    93.7420 
   56.6250    44.8430     1.8190     0.4420     0.8470    23.3640     2.1300    92.9210 
   56.7500    46.9850     1.8820     0.4250     0.9080    23.2390     2.1390    91.8030 
   56.8750    50.1080     1.8120     0.3980     0.9540    23.1510     2.1680    90.3980 
   57.0000    52.3380     1.5520     0.3650     0.9750    23.1180     2.2300    88.8390 
   57.1250    51.2140     1.1150     0.3340     0.9580    23.1350     2.3330    87.2340 
   57.2500    48.4720     0.6680     0.3070     0.9270    23.1720     2.4600    85.5180 
   57.3750    45.9350     0.3360     0.2810     0.9490    23.2050     2.5850    83.4410 
   57.5000    44.2280     0.1680     0.2550     1.1800    23.1960     2.6650    80.6410 
   57.6250    44.4570     0.2150     0.2550     2.1560    23.0520     2.6530    76.5720 
   57.7500    47.9140     0.4960     0.3500     4.0840    22.7770     2.5780    71.1920 
   57.8750    54.8620     1.0850     0.6570     7.0160    22.4900     2.4840    64.7220 
   58.0000    62.5590     2.0470     1.3290    10.8630    22.3450     2.4090    57.6290 
   58.1250    66.4020     3.4640     2.6170    14.5730    22.4440     2.3900    50.3170 
   58.2500    66.3930     5.2170     4.5110    17.8080    22.7390     2.4230    43.1230 
   58.3750    64.3710     7.2340     6.9530    21.3740    23.1690     2.4900    36.3420 
   58.5000    61.5930     9.4640     9.7850    25.9720    23.5560     2.5640    30.2780 
   58.6250    57.5530    11.9190    12.8240    30.7100    23.7280     2.6150    25.4740 
   58.7500    53.9440    14.5090    15.8530    34.6800    23.8210     2.6400    21.9820 
   58.8750    52.9460    17.0670    18.6890    37.5870    23.8780     2.6490    19.6260 
   59.0000    53.3690    19.3090    21.0860    40.0490    23.8920     2.6550    17.9290 
   59.1250    54.6290    20.7550    22.6200    41.1510    23.8500     2.6670    16.4820 
   59.2500    55.3300    21.2670    23.1840    42.3100    23.8090     2.6810    15.0320 
   59.3750    54.6780    20.8190    22.7310    43.0370    23.7850     2.6900    13.4860 
   59.5000    53.9990    19.5840    21.3920    42.7690    23.7820     2.6810    11.8480 
   59.6250    54.1610    17.8510    19.4180    40.2330    23.7640     2.6390    10.0840 
   59.7500    56.5650    16.0710    17.3060    33.9900    23.6410     2.5630     8.1940 
   59.8750    60.7250    14.4710    15.3340    25.4290    23.2810     2.4640     6.2180 
   60.0000    64.5550    13.1480    13.6510    17.7380    22.8420     2.3550     4.1930 
   60.1250    65.2380    12.1470    12.3630    13.0520    22.6070     2.2580     2.2420 
   60.2500    63.8800    11.3810    11.3940    10.8820    22.6080     2.1840     0.4170 
   60.3750    63.1280    10.8490    10.7280     9.7060    22.6810     2.1380    -1.2670 
   60.5000    62.9810    10.6000    10.3710     9.0790    22.6830     2.1150    -2.7910 
   60.6250    62.6150    10.7920    10.4250     9.1420    22.5830     2.1080    -4.0870 
   60.7500    63.8030    11.4300    10.8670     9.6670    22.5250     2.1030    -5.2180 
   60.8750    65.1400    12.4900    11.6760    10.6730    22.5340     2.0920    -6.1710 
   61.0000    64.7060    13.8310    12.7570    12.0700    22.5590     2.0740    -7.0040 
   61.1250    62.2630    15.1500    13.8990    13.5570    22.5270     2.0540    -7.7510 
