~V
VERS. 2.00: Ver 2.00
~W
STRT.M 50.0000:
STOP.M 216.0000:
STEP.M 0.1250:
NULL. -999.2500:
UWI. F10015:
~C
DEPT.M :
GR.API :
RML.OHMM :
RI. :
RXO.OHMM :
CALI.CM :
DEN.GM/CC :
SP.MV :
~A
# ...
  207.5000    25.4850     6.2440     4.7660     5.6760    24.1780     2.3560    -7.7860 
  207.6250    25.4850     6.2170     4.7580     5.3600    24.1780     2.3460    -7.6510 
  207.7500    25.4850     6.1650     4.7320     5.1450    24.1780     2.3390    -7.4960 
  207.8750    25.4850     6.1030     4.6960     5.1220    24.1760     2.3330    -7.3470 
  208.0000    25.4850     6.0380     4.6530     5.1150    24.1610     2.3280    -7.2270 
  208.1250    25.4850     5.9730     4.6050     5.0960    24.1370     2.3220    -7.1340 
  208.2500    25.4850     5.9080     4.5510     5.0660    24.1140     2.3170    -7.0760 
  208.3750    25.4850     5.8460     4.4910     5.0320    24.1030     2.3140    -7.0610 
  208.5000    25.4850     5.7880     4.4290     5.0060    24.1010     2.3160    -7.0860 
  208.6250    25.4850     5.7390     4.3740     5.0150    24.1010     2.3210    -7.1470 
  208.7500    25.4850     5.7010     4.3280     4.9950    24.1010     2.3220    -7.2160 
  208.8750    25.4850     5.6910     4.3080     4.9860    24.0940     2.3190    -7.2860 
  209.0000    25.4850     5.7270     4.3270     5.0120    24.0750     2.3140    -7.3600 
  209.1250    25.4850     5.8300     4.4010     5.1080    24.0440     2.3090    -7.4410 
  209.2500    25.4850     6.0270     4.5540     5.3400    24.0100     2.3100    -7.5300 
  209.3750    25.4850     6.2960     4.7710     5.8910    23.9600     2.3170    -7.5960 
  209.5000    25.4850     6.5610     5.0010     6.3890    23.9140     2.3270    -7.6090 
  209.6250    25.4850     6.7810     5.2080     6.5180    23.8880     2.3400    -7.5610 
  209.7500    25.4850     6.9260     5.3630     6.3290    23.8790     2.3530    -7.4900 
  209.8750    25.4850     6.9970     5.4570     6.0790    23.8780     2.3630    -7.4430 
  210.0000    25.4850     7.0260     5.5080     6.0570    23.8720     2.3690    -7.4400 
  210.1250    25.4850     7.0330     5.5230     6.0430    23.8240     2.3660    -7.3350 
  210.2500    25.4850     7.0370     5.5280     5.9020    23.7440     2.3590    -7.2220 
  210.3750    25.4850     7.0380     5.5270     5.8740    23.6870     2.3460    -7.1470 
  210.5000    25.4850     7.0400     5.5250     5.9430    23.6600     2.3310    -7.1260 
  210.6250    25.4850     7.0420     5.5220     5.9520    23.6450     2.3160    -7.1500 
  210.7500    25.4850     7.0460     5.5210     5.7110    23.6190     2.3020    -7.1850 
  210.8750    25.4850     7.0500     5.5200     5.4720    23.5540     2.2930    -7.1920 
  211.0000    25.4850     7.0520     5.5210     5.4080    23.3270     2.2880    -7.1560 
  211.1250    25.4850     7.0530     5.5210     5.4990    22.8560     2.2740    -7.1340 
  211.2500    25.4850     7.0530     5.5210     5.6740    22.1290     2.2370    -7.1150 
  211.3750    25.4850     7.0530     5.5210     5.8460    21.2420     2.1670    -7.0790 
  211.5000    25.4850     7.0530     5.5210     5.9460    20.4460     2.0690    -7.0580 
  211.6250    25.4850     7.0530     5.5210     6.0400    19.5070     1.9670    -7.0540 
  211.7500    25.4850     7.0530     5.5210     6.1750    18.4460     1.8970    -7.0530 
  211.8750    25.4850     7.0530     5.5210     6.3720    17.6060     1.8730    -7.0500 
  212.0000    25.4850     7.0530     5.5210     6.6310    17.1330     1.8900    -7.0430 
  212.1250    25.4850     7.0530     5.5210     6.9060    16.9970     1.9310    -7.0400 
  212.2500    25.4850     7.0530     5.5210     7.0840    17.0290     1.9820    -7.0610 
  212.3750    25.4850     7.0530     5.5210     7.0770    17.0660     2.0290    -7.0820 
  212.5000    25.4850     7.0530     5.5210     6.9570    17.1880     2.0650    -7.0830 
  212.6250    25.4850     7.0530     5.5210     6.8070    17.4010     2.0900    -7.0950 
  212.7500    25.4850     7.0530     5.5210     6.6430    17.6160     2.1010    -7.0940 
  212.8750    25.4850     7.0530     5.5210     6.5020    17.7380     2.0970    -7.0560 
  213.0000    25.4850     7.0530     5.5210     6.5290    17.7710     2.0810    -7.0130 
  213.1250    25.4850     7.0530     5.5210     6.4120    17.7520     2.0550    -6.9970 
  213.2500    25.4850     7.0530     5.5210     6.4740    17.7130     2.0320    -6.9540 
  213.3750    25.4850     7.0530     5.5210     6.5500    17.6650     2.0150    -6.9290 
  213.5000    25.4850     7.0530     5.5210     6.5500    17.6100     2.0060    -6.9100 
  213.6250    25.4850     7.0530     5.5210     6.4450    17.5360     2.0030    -6.8810 
  213.7500    25.4850     7.0530     5.5210     6.2510    17.4120     2.0010    -6.8620 
  213.8750    25.4850     7.0530     5.5210     6.2210    17.2940     1.9930    -6.8990 
  214.0000    25.4850     7.0530     5.5210     6.2020    17.2060     1.9700    -6.9330 
  214.1250    25.4850     7.0530     5.5210     6.2890    17.1310     1.9380    -6.9600 
  214.2500    25.4850     7.0530     5.5210     6.4410    17.0360     1.9050    -6.9740 
  214.3750    25.4850     7.0530     5.5210     6.5340    16.8820     1.8810    -6.9740 
  214.5000    25.4850     7.0530     5.5210     6.4150    16.6350     1.8710    -6.9740 
  214.6250    25.4850     7.0530     5.5210     6.4150    16.1750     1.8780  -999.2500 
  214.7500    25.4850     7.0530     5.5210     6.4790    15.7270     1.8830  -999.2500 
  214.8750    25.4850     7.0530     5.5210     6.5280    15.4630     1.8660  -999.2500 
  215.0000    25.4850     7.0530     5.5210     6.5450    15.3700     1.8620  -999.2500 
  215.1250    25.4850     7.0530     5.5210     6.5480    15.3550     1.8510  -999.2500 
  215.2500    25.4850     7.0530     5.5210     6.5490    15.3550     1.6550  -999.2500 
  215.3750    25.4850     7.0530     5.5210     6.5490    15.3550     1.1570  -999.2500 
  215.5000    25.4850     7.0530     5.5210     6.5480    15.3550  -999.2500  -999.2500 
  215.6250    25.4850     7.0530     5.5210     6.5460    15.3550  -999.2500  -999.2500 
  215.7500    25.4850     7.0530     5.5210     6.5450    15.3530  -999.2500  -999.2500 
  215.8750  -999.2500  -999.2500  -999.2500  -999.2500  -999.2500  -999.2500  -999.2500 
  216.0000  -999.2500  -999.2500  -999.2500  -999.2500  -999.2500  -999.2500  -999.2500 
