~V
VERS. 2.00: Ver 2.00
~W
STRT.M 60.0000:
STOP.M 271.0000:
STEP.M 0.1250:
NULL. -999.2500:
UWI. F10035:
~C
DEPT.M :
GR.API :
RML.OHMM :
RI. :
RXO.OHMM :
CALI.CM :
DEN.GM/CC :
SP.MV :
~A
# ...
  127.5000    80.1800     6.3380     5.2930     5.5930    24.7810     2.3040    -2.3750 
  127.6250    80.3900     6.1850     5.1320     5.4570    24.8400     2.3160    -2.2730 
  127.7500    83.5920     5.9930     4.9510     5.4000    24.9060     2.3240    -2.1510 
  127.8750    86.6910     5.7190     4.7250     5.2460    24.9360     2.3300    -1.9210 
  128.0000    85.7900     5.3620     4.4490     4.8400    24.9460     2.3400    -1.6150 
  128.1250    83.5780     4.9860     4.1520     4.6290    24.9090     2.3570    -1.3180 
  128.2500    85.0510     4.6800     3.8910     4.3580    24.8390     2.3730    -1.0860 
  128.3750    87.7720     4.5130     3.7180     4.1370    24.7770     2.3820    -0.9710 
  128.5000    86.8840     4.5480     3.6850     4.0510    24.7320     2.3750    -1.0170 
  128.6250    84.4220     4.8730     3.8650     4.4230    24.6890     2.3500    -1.2910 
  128.7500    83.8030     5.4440     4.2430     4.7600    24.5910     2.3120    -1.8490 
  128.8750    81.3160     6.1990     4.7970     5.5770    24.4490     2.2670    -2.7520 
  129.0000    74.9370     7.0150     5.4520     6.7150    24.3360     2.2230    -3.9000 
  129.1250    69.9430     7.6570     6.0380     7.4650    24.3750     2.1900    -5.0400 
  129.2500    70.1090     7.9590     6.3960     7.5180    24.4080     2.1750    -5.9370 
  129.3750    73.6200     7.8740     6.4520     7.4300    24.4340     2.1830    -6.4930 
  129.5000    76.9460     7.4910     6.2380     7.4750    24.4650     2.2110    -6.6580 
  129.6250    80.3560     6.9750     5.8490     6.7010    24.5360     2.2480    -6.3840 
  129.7500    83.8970     6.5140     5.4470     5.8440    24.6520     2.2800    -5.7640 
  129.8750    85.8710     6.1890     5.1090     5.4530    24.7690     2.3010    -4.8110 
  130.0000    86.4200     6.0130     4.8760     5.4100    24.8680     2.3140    -3.6610 
  130.1250    88.2350     5.9900     4.7790     5.3070    24.9110     2.3210    -2.5430 
  130.2500    89.4740     6.0840     4.7990     5.1670    24.9250     2.3250    -1.6510 
  130.3750    86.9170     6.2860     4.9230     5.1630    24.9170     2.3210    -1.0380 
  130.5000    83.1160     6.5810     5.1250     5.3480    24.8580     2.3120    -0.6820 
  130.6250    82.4070     6.9080     5.3660     5.8960    24.8130     2.3060    -0.5880 
  130.7500    82.6020     7.1440     5.5650     6.3820    24.7680     2.3100    -0.6170 
  130.8750    81.3440     7.1790     5.6530     6.3710    24.7510     2.3260    -0.6760 
  131.0000    80.2230     6.9700     5.5920     5.9080    24.7590     2.3460    -0.7120 
  131.1250    81.8710     6.5590     5.3830     5.7430    24.7430     2.3570    -0.7360 
  131.2500    86.0650     6.1250     5.1230     5.4080    24.7520     2.3570    -0.7630 
  131.3750    90.6360     5.8120     4.8940     5.0730    24.7730     2.3490    -0.7770 
  131.5000    91.8110     5.7070     4.7610     5.0300    24.7800     2.3450    -0.7600 
  131.6250    86.2160     5.8280     4.7650     5.2610    24.7560     2.3530    -0.7020 
  131.7500    80.8880     6.0640     4.8780     5.5380    24.7230     2.3660    -0.6760 
  131.8750    81.9970     6.3300     5.0720     5.9350    24.6910     2.3770    -0.7360 
  132.0000    87.3530     6.5550     5.3030     6.4270    24.6700     2.3780    -0.8620 
  132.1250    89.3750     6.6850     5.5000     6.3690    24.6700     2.3690    -1.0010 
  132.2500    87.3180     6.7360     5.6250     6.4190    24.6780     2.3570    -1.1250 
  132.3750    85.8790     6.7080     5.6540     7.6430    24.6600     2.3480    -1.2310 
  132.5000    86.4600     6.5810     5.5850     8.4890    24.6910     2.3430    -1.3040 
  132.6250    88.0830     6.3580     5.4300     6.7510    24.7720     2.3370    -1.3300 
  132.7500    91.7120     6.1220     5.2440     5.5110    24.8260     2.3310    -1.2750 
  132.8750    96.2860     5.9330     5.0570     5.1320    24.8430     2.3270    -1.1250 
  133.0000    98.1650     5.8230     4.8910     5.1650    24.8460     2.3300    -0.8980 
  133.1250    96.4470     5.7730     4.7670     5.0960    24.8440     2.3410    -0.6350 
  133.2500    96.1400     5.7090     4.6740     4.8600    24.8310     2.3570    -0.3560 
  133.3750    97.0460     5.5790     4.5970     4.5960    24.8120     2.3730    -0.0830 
  133.5000    94.8980     5.3780     4.5260     4.5760    24.8010     2.3870     0.1490 
  133.6250    93.0010     5.1700     4.4730     4.6940    24.7810     2.3970     0.3490 
  133.7500    95.7120     5.0710     4.4690     4.8380    24.6980     2.4050     0.4840 
  133.8750   100.4200     5.1800     4.5590     4.9530    24.6130     2.4160     0.5240 
  134.0000   101.5660     5.5420     4.7780     5.0820    24.5810     2.4330     0.4720 
  134.1250    97.2800     6.1270     5.1450     5.4270    24.6550     2.4490     0.3390 
  134.2500    91.8220     6.7470     5.5850     6.5740    24.6800     2.4500     0.1670 
  134.3750    86.4780     7.2230     5.9960     8.1580    24.6630     2.4280    -0.0500 
  134.5000    83.3290     7.4190     6.2610     8.5160    24.6660     2.3860    -0.3290 
  134.6250    82.6810     7.2740     6.2740     7.0990    24.6310     2.3420    -0.6630 
  134.7500    83.6930     6.9840     6.1240     6.4350    24.5100     2.3140    -0.9720 
  134.8750    85.7080     6.7200     5.9220     6.4440    24.3890     2.3070    -1.2330 
  135.0000    88.7990     6.6150     5.7790     6.5510    24.3800     2.3110    -1.4300 
  135.1250    93.1160     6.7480     5.7890     6.1190    24.4000     2.3130    -1.5810 
  135.2500    93.9760     7.0120     5.9230     5.9990    24.3270     2.3090    -1.7410 
  135.3750    89.8020     7.2860     6.1140     6.3060    24.1960     2.2990    -1.8790 
  135.5000    84.5850     7.4510     6.2700     7.2810    24.1500     2.2900    -1.9320 
  135.6250    84.8980     7.3810     6.2720     8.1460    24.2680     2.2820    -1.8980 
  135.7500    87.2660     7.1360     6.1330     7.8790    24.4690     2.2740    -1.8400 
  135.8750    87.8160     6.8880     5.9680     7.0340    24.6460     2.2700    -1.7720 
  136.0000    86.5070     6.8620     5.9420     6.4870    24.7410     2.2810    -1.7170 
  136.1250    84.1530     7.2970     6.2310     6.6290    24.7590     2.3180    -1.6710 
  136.2500    81.4590     8.1320     6.8190     7.8180    24.7560     2.3700    -1.6210 
  136.3750    79.0380     9.1790     7.6160    10.9340    24.7130     2.4170    -1.6030 
  136.5000    77.5060    10.0730     8.3970    14.9160    24.6330     2.4340    -1.6990 
  136.6250    76.7000    10.3380     8.7990    12.0920    24.4910     2.4100    -2.0360 
  136.7500    75.9680    10.0360     8.7610     8.9530    24.2960     2.3720    -2.5250 
  136.8750    74.6250     9.4330     8.4190     8.1920    24.0830     2.3460    -3.0850 
  137.0000    73.3480     8.8010     7.9630     8.6150    23.9550     2.3450    -3.6490 
  137.1250    76.0270     8.3010     7.5360     8.1050    23.9500     2.3550    -4.0980 
  137.2500    79.5600     7.8940     7.1620     7.4110    24.0820     2.3560    -4.4210 
  137.3750    80.2570     7.5050     6.8080     7.0170    24.1930     2.3410    -4.6360 
  137.5000    78.2800     7.1310     6.4710     6.6200    24.2350     2.3170    -4.7320 
  137.6250    77.9910     6.9200     6.2520     6.4530    24.3160     2.2990    -4.7170 
  137.7500    80.1390     7.0070     6.2560     6.5590    24.2900     2.2910    -4.7410 
  137.8750    81.7020     7.4770     6.5560     6.9350    24.1270     2.2850    -4.9400 
  138.0000    79.5460     8.3360     7.1730     7.3440    24.0040     2.2720    -5.4320 
  138.1250    71.3770     9.5070     8.0920     8.4680    24.0850     2.2430    -6.3120 
  138.2500    61.1840    10.6710     9.0920    10.0010    24.3800     2.2050    -7.4680 
  138.3750    53.5360    11.5240     9.9230    11.1760    24.7310     2.1650    -8.8040 
  138.5000    51.0490    11.8510    10.3580    11.3200    24.9620     2.1340   -10.2170 
  138.6250    54.1830    11.5980    10.2770    10.8930    24.8440     2.1160   -11.5700 
