~V
VERS. 2.00: Ver 2.00
~W
STRT.M 57.0000:
STOP.M 296.0000:
STEP.M 0.1250:
NULL. -999.2500:
UWI. F10043:
~C
DEPT.M :
GR.API :
RML.OHMM :
RI. :
RXO.OHMM :
CALI.CM :
DEN.GM/CC :
SP.MV :
~A
# ...
  158.2500    53.1290    21.9450    20.2510    21.6130    24.3660     2.5210   -16.6930 
  158.3750    50.9340    22.7380    20.9680    23.6470    24.4000     2.5470   -16.7510 
  158.5000    50.0770    23.7690    21.8560    23.5830    24.4050     2.5770   -16.7420 
  158.6250    51.7360    24.9180    22.8080    21.5500    24.3550     2.5900   -16.6630 
  158.7500    53.1990    25.9550    23.7020    21.8010    24.2460     2.5810   -16.5620 
  158.8750    52.6220    26.6230    24.3460    23.8270    24.0900     2.5540   -16.4430 
  159.0000    51.2210    26.6930    24.5040    26.6810    23.8780     2.5250   -16.3150 
  159.1250    50.7620    26.0010    23.9550    25.4750    23.6670     2.5090   -16.2250 
  159.2500    51.6180    24.8910    22.9970    21.4470    23.5210     2.5110   -16.1590 
  159.3750    53.3550    23.7530    21.9960    18.5180    23.4640     2.5230   -16.1250 
  159.5000    54.6500    22.9570    21.2660    17.7610    23.4990     2.5370   -16.0830 
  159.6250    55.4500    22.8050    21.0250    18.7360    23.5720     2.5460   -16.0640 
  159.7500    55.9130    23.1720    21.2010    19.9850    23.6700     2.5500   -16.0400 
  159.8750    55.3750    23.8720    21.7320    22.8070    23.8040     2.5530   -16.0340 
  160.0000    54.3460    24.7000    22.4980    27.4380    23.9660     2.5560   -16.0400 
  160.1250    54.1060    25.5170    23.3350    30.0940    24.2200     2.5560   -16.0280 
  160.2500    53.2180    26.2840    24.0690    27.6150    24.4000     2.5530   -16.0030 
  160.3750    50.7490    26.9340    24.6120    25.3280    24.4250     2.5470   -15.9930 
  160.5000    49.1000    27.3070    24.8960    25.3470    24.2870     2.5420   -16.0220 
  160.6250    50.3860    27.0710    24.7410    26.6530    24.0650     2.5470   -16.0660 
  160.7500    52.5140    26.1620    24.0700    27.3410    23.9170     2.5600   -16.1470 
  160.8750    54.0280    24.6630    22.8760    24.5450    23.9480     2.5780   -16.2600 
  161.0000    54.7220    22.8620    21.3610    19.8560    24.0810     2.5930   -16.4060 
  161.1250    53.5560    21.1860    19.8980    17.3150    24.0890     2.5970   -16.5560 
  161.2500    52.2270    19.9300    18.7650    16.6250    24.0380     2.5920   -16.7170 
  161.3750    53.8390    19.2360    18.0660    16.6950    23.9560     2.5800   -16.8650 
  161.5000    57.0650    19.1330    17.7950    16.1060    23.7630     2.5640   -17.0170 
  161.6250    57.2520    19.5930    17.9650    16.2550    23.3880     2.5510   -17.1390 
  161.7500    54.4560    20.3070    18.4470    16.9310    23.1450     2.5450   -17.2180 
  161.8750    52.9920    21.0030    19.0900    18.1590    23.2430     2.5460   -17.2650 
  162.0000    54.6220    21.3920    19.6110    19.9810    23.4110     2.5510   -17.2910 
  162.1250    57.0220    21.1850    19.5890    19.7430    23.4520     2.5520   -17.3110 
  162.2500    58.1000    20.5270    19.0400    18.1180    23.3500     2.5420   -17.3130 
  162.3750    58.1100    19.6640    18.2110    16.2770    23.1590     2.5200   -17.2910 
  162.5000    58.0470    18.8840    17.4360    15.2950    22.9500     2.4900   -17.2240 
  162.6250    58.3170    18.5180    17.0360    14.7000    22.7810     2.4650   -17.1390 
  162.7500    57.9170    18.6870    17.0710    14.8510    22.5790     2.4500   -17.0350 
  162.8750    56.2490    19.4440    17.5560    15.7970    22.4310     2.4480   -16.8940 
  163.0000    54.1860    20.7440    18.4760    17.5380    22.4890     2.4570   -16.7300 
  163.1250    52.9230    22.4240    19.7730    19.3650    22.7530     2.4760   -16.5180 
  163.2500    51.8470    24.0310    21.1020    21.4020    22.9830     2.4990   -16.3150 
  163.3750    50.7350    25.1510    22.1030    23.9310    23.1900     2.5250   -16.1300 
  163.5000    50.4520    25.5310    22.5550    24.6990    23.4020     2.5490   -15.9850 
  163.6250    50.7470    25.2180    22.5200    22.7820    23.6420     2.5650   -15.8480 
  163.7500    51.9370    24.7770    22.4050    21.6490    23.9430     2.5740   -15.7560 
  163.8750    55.0840    24.6220    22.4420    21.5510    24.2230     2.5780   -15.6970 
  164.0000    58.4500    24.9680    22.7260    22.7190    24.4120     2.5800   -15.6800 
  164.1250    57.8110    25.6990    23.2220    25.0430    24.4650     2.5840   -15.7360 
  164.2500    55.4210    26.2410    23.6390    26.4210    24.4400     2.5880   -15.7810 
  164.3750    54.4650    26.0940    23.6320    26.0630    24.3660     2.5920   -15.8480 
  164.5000    54.6190    25.0050    22.9120    25.2960    24.3040     2.5950   -15.9120 
  164.6250    54.6350    23.0280    21.3610    24.1460    24.2810     2.5990   -16.0160 
  164.7500    56.0370    20.7930    19.4700    19.5450    24.2940     2.6020   -16.1070 
  164.8750    57.8990    18.7730    17.6860    15.9890    24.3550     2.6030   -16.2260 
  165.0000    58.1030    17.2730    16.3180    15.3540    24.4360     2.6010   -16.3210 
  165.1250    57.2140    16.4810    15.5410    16.5330    24.4420     2.5910   -16.3790 
  165.2500    57.7480    16.2340    15.2170    17.4550    24.3880     2.5710   -16.4400 
  165.3750    59.2800    16.4160    15.2750    16.3880    24.3010     2.5390   -16.4690 
  165.5000    60.6470    16.8790    15.6310    14.6850    24.0960     2.5000   -16.4980 
  165.6250    60.8420    17.4700    16.1710    14.4520    23.7690     2.4680   -16.4930 
  165.7500    60.1240    18.0600    16.7350    14.7080    23.5220     2.4520   -16.4580 
  165.8750    58.9250    18.6450    17.2840    15.0690    23.4130     2.4580   -16.3730 
  166.0000    57.7430    19.3090    17.8710    15.9120    23.3190     2.4800   -16.2480 
  166.1250    56.3750    20.2530    18.6350    16.0700    23.1480     2.5060   -16.1130 
  166.2500    55.6690    21.5470    19.6320    16.3510    22.9680     2.5270   -15.9580 
  166.3750    56.6880    23.1220    20.8430    17.4140    22.7980     2.5400   -15.7970 
  166.5000    57.9330    24.7260    22.1330    19.0230    22.7080     2.5520   -15.6430 
  166.6250    57.8580    25.9050    23.1740    21.5730    22.7860     2.5650   -15.5260 
  166.7500    57.9440    26.4360    23.6850    22.8830    23.0070     2.5770   -15.4390 
  166.8750    58.5220    26.3010    23.5450    22.5730    23.2820     2.5820   -15.4020 
  167.0000    59.0320    25.6960    22.8990    20.8580    23.3290     2.5770   -15.4170 
  167.1250    58.7850    24.9380    22.1100    19.2120    23.2110     2.5640   -15.4430 
  167.2500    59.2610    24.3120    21.5050    19.0560    23.2680     2.5500   -15.5270 
  167.3750    60.2810    23.9000    21.1430    19.4770    23.4100     2.5400   -15.6250 
  167.5000    59.7410    23.6690    20.9500    19.6430    23.4950     2.5340   -15.7350 
  167.6250    57.5500    23.5750    20.8790    20.3940    23.5050     2.5340   -15.8230 
  167.7500    54.8530    23.6200    20.9550    20.5770    23.5730     2.5360   -15.9390 
  167.8750    52.9570    23.8960    21.2420    20.5930    23.8050     2.5340   -16.0420 
  168.0000    52.1830    24.4370    21.7300    20.7440    24.1470     2.5220   -16.1560 
  168.1250    51.9170    25.0830    22.2820    21.9060    24.3680     2.4950   -16.2930 
  168.2500    51.9450    25.4440    22.6480    24.1850    24.4430     2.4630   -16.4090 
  168.3750    51.8620    25.1830    22.5860    26.5400    24.4590     2.4370   -16.5390 
  168.5000    52.1690    24.1640    21.9210    26.3460    24.4740     2.4290   -16.6560 
  168.6250    53.5450    22.5560    20.6310    21.4310    24.4820     2.4440   -16.8010 
  168.7500    54.7710    20.9120    19.1670    18.2350    24.4800     2.4710   -16.9650 
  168.8750    55.7900    19.5740    17.9200    17.4730    24.4710     2.5000   -17.1830 
  169.0000    56.9140    18.7270    17.1490    17.3970    24.4390     2.5240   -17.4130 
  169.1250    57.3250    18.5060    16.9980    17.3880    24.3530     2.5320   -17.6770 
  169.2500    56.7570    18.7390    17.2530    17.6820    24.1920     2.5220   -17.9170 
  169.3750    55.3730    19.2730    17.7460    17.7010    24.0510     2.4950   -18.1470 
