~V
VERS. 2.00: Ver 2.00
~W
STRT.M 56.0000:
STOP.M 268.0000:
STEP.M 0.1250:
NULL. -999.2500:
UWI. F10027:
~C
DEPT.M :
GR.API :
RML.OHMM :
RI. :
RXO.OHMM :
CALI.CM :
DEN.GM/CC :
SP.MV :
~A
# ...
  101.0000    86.9810     6.6450     6.0970     7.9460    22.5560     2.1270   -12.3840 
  101.1250    86.2490     6.6590     5.9600     6.6530    22.4500     2.1620   -12.4270 
  101.2500    80.1090     7.4880     6.3520     6.7170    22.3500     2.2200   -12.6500 
  101.3750    72.0430     9.1040     7.3330     8.6720    22.1880     2.2920   -13.0740 
  101.5000    67.0800    11.1910     8.7960    13.7990    22.0750     2.3580   -13.6230 
  101.6250    65.5370    12.9510    10.3230    22.3790    22.0980     2.3870   -14.2270 
  101.7500    62.7690    13.6670    11.3050    20.7110    22.1510     2.3680   -14.8990 
  101.8750    60.5820    13.1880    11.4490    14.0410    22.2230     2.3060   -15.6430 
  102.0000    61.3690    11.9670    10.8990    10.5590    22.3560     2.2240   -16.4000 
  102.1250    62.5490    10.7530    10.0950     9.7670    22.5340     2.1550   -17.0820 
  102.2500    62.1180     9.9840     9.4600     9.7130    22.7430     2.1180   -17.6360 
  102.3750    61.4030     9.6720     9.1060     9.7830    22.9730     2.1100   -18.0570 
  102.5000    62.4080     9.6580     8.9950     9.8380    23.2180     2.1220   -18.4140 
  102.6250    65.3510     9.7950     9.0570     9.9080    23.3420     2.1420   -18.7740 
  102.7500    67.5190    10.0130     9.2120     9.9350    23.4260     2.1580   -19.1250 
  102.8750    68.0200    10.3340     9.4540    10.0460    23.4850     2.1610   -19.4210 
  103.0000    67.3980    10.7590     9.7770    10.2740    23.5250     2.1510   -19.6650 
  103.1250    65.9520    11.1940    10.1240    11.1960    23.6270     2.1420   -19.8580 
  103.2500    63.0210    11.4740    10.3790    13.7980    23.8180     2.1490   -20.0130 
  103.3750    60.5970    11.4800    10.4410    17.1640    23.9810     2.1730   -20.1280 
  103.5000    61.1550    11.1990    10.2610    14.1920    24.0440     2.1990   -20.1960 
  103.6250    63.9590    10.7360     9.8650    11.8290    24.0400     2.2060   -20.1950 
  103.7500    65.6090    10.2980     9.4130    10.7980    24.0270     2.1920   -20.0870 
  103.8750    65.1400    10.0000     9.0210    10.7500    23.9890     2.1690   -19.8780 
  104.0000    62.6130     9.8800     8.7640    10.7550    23.8920     2.1520   -19.6040 
  104.1250    59.1000     9.9290     8.6790    10.8830    23.6750     2.1520   -19.2720 
  104.2500    58.4100    10.0490     8.6980    11.0270    23.4440     2.1600   -18.9150 
  104.3750    62.3430    10.1770     8.7640    11.0440    23.3230     2.1640   -18.5260 
  104.5000    67.7150    10.2690     8.8300    11.0180    23.3010     2.1570   -18.0660 
  104.6250    69.4520    10.2930     8.8580    11.0510    23.2550     2.1370   -17.5450 
  104.7500    66.6870    10.2570     8.8410    10.9850    23.0890     2.1140   -17.0710 
  104.8750    63.4220    10.1780     8.7860    10.9420    22.9300     2.0980   -16.6850 
  105.0000    63.7520    10.0700     8.7100    11.1260    22.9330     2.0930   -16.3390 
  105.1250    66.6310     9.9390     8.6300    10.9770    23.1250     2.1030   -16.0140 
  105.2500    67.1470     9.7910     8.5540    11.0310    23.2780     2.1180   -15.7130 
  105.3750    65.2340     9.6380     8.4780    11.1060    23.3370     2.1300   -15.4720 
  105.5000    64.1880     9.4990     8.3930    11.0770    23.3560     2.1370   -15.3320 
  105.6250    67.3790     9.3980     8.3020    10.9640    23.3810     2.1350   -15.2790 
  105.7500    71.7200     9.3280     8.2240    10.8660    23.3910     2.1300   -15.2130 
  105.8750    74.5910     9.2770     8.1760    10.9740    23.3940     2.1250   -15.1060 
  106.0000    76.2640     9.2370     8.1640    11.1800    23.3940     2.1220   -14.9840 
  106.1250    76.9320     9.2160     8.1940    11.1790    23.3930     2.1210   -14.8740 
  106.2500    75.7440     9.2310     8.2640    11.0490    23.3830     2.1240   -14.7830 
  106.3750    72.2590     9.3040     8.3820    11.2910    23.3630     2.1280   -14.6590 
  106.5000    67.4340     9.4420     8.5480    12.0300    23.3540     2.1330   -14.4350 
  106.6250    64.9800     9.6220     8.7380    12.3000    23.3450     2.1380   -14.0610 
  106.7500    65.7010     9.7720     8.8910    11.7890    23.2580     2.1400   -13.6080 
  106.8750    67.8270     9.8040     8.9320    11.0520    23.0680     2.1390   -13.1090 
  107.0000    69.8150     9.6300     8.7950    10.5930    22.9820     2.1340   -12.5430 
  107.1250    72.5560     9.1650     8.4190    10.0940    23.1000     2.1310   -11.8480 
  107.2500    76.1740     8.4960     7.8820     9.3110    23.3020     2.1370   -11.0350 
  107.3750    79.3670     7.7290     7.2620     8.2640    23.4350     2.1550   -10.1900 
  107.5000    82.1560     6.9880     6.6440     6.8790    23.5350     2.1810    -9.4120 
  107.6250    86.1090     6.4150     6.1330     6.3080    23.7080     2.2050    -8.7710 
  107.7500    89.8790     6.0500     5.7720     6.1830    23.9690     2.2190    -8.2120 
  107.8750    91.6960     5.8940     5.5820     6.2450    24.1970     2.2220    -7.7270 
  108.0000    91.9280     5.9150     5.5520     6.1070    24.2770     2.2200    -7.3790 
  108.1250    90.8330     6.0670     5.6580     6.4950    24.2090     2.2220    -7.2310 
  108.2500    88.9870     6.2590     5.8160     7.2530    24.0710     2.2310    -7.1780 
  108.3750    87.7980     6.4280     5.9750     7.6090    23.9410     2.2420    -7.1520 
  108.5000    87.3680     6.5390     6.1050     6.9820    23.8720     2.2510    -7.1410 
  108.6250    86.6640     6.5830     6.1910     6.8100    23.8380     2.2520    -7.1460 
  108.7500    85.1330     6.5930     6.2390     7.1180    23.7810     2.2470    -7.1840 
  108.8750    85.8210     6.5760     6.2440     7.5260    23.6820     2.2370    -7.2450 
  109.0000    90.4390     6.5170     6.1900     7.4220    23.6180     2.2290    -7.2450 
  109.1250    94.8820     6.3710     6.0600     7.1700    23.6530     2.2270    -7.1560 
  109.2500    95.7380     6.1550     5.8820     7.1200    23.7720     2.2320    -7.1140 
  109.3750    94.6680     5.9280     5.7000     6.7630    23.9220     2.2430    -7.1670 
  109.5000    94.1910     5.7800     5.5700     6.3550    24.0600     2.2600    -7.2750 
  109.6250    90.8400     5.8180     5.5520     6.2230    24.1770     2.2770    -7.4370 
  109.7500    85.3250     6.0210     5.6430     6.7320    24.2710     2.2910    -7.6390 
  109.8750    81.6820     6.3370     5.8280     7.3010    24.3000     2.2940    -7.8580 
  110.0000    80.6720     6.6930     6.0770     7.7120    24.2630     2.2850    -8.1730 
  110.1250    79.3510     7.0330     6.3710     7.9860    24.1630     2.2680    -8.6090 
  110.2500    77.5980     7.3590     6.6880     7.9720    24.0630     2.2510    -9.0330 
  110.3750    76.4320     7.7090     7.0310     8.1030    23.9390     2.2380    -9.3980 
  110.5000    74.6590     8.1210     7.4000     8.7780    23.7700     2.2250    -9.7050 
  110.6250    71.5280     8.6100     7.7910     9.6560    23.6280     2.2110    -9.9470 
  110.7500    69.3390     9.1250     8.1850    10.2480    23.6030     2.1960   -10.1410 
  110.8750    68.6900     9.6180     8.5710    10.5660    23.6210     2.1840   -10.2840 
  111.0000    69.5880    10.0570     8.9390    10.6250    23.6110     2.1770   -10.2970 
  111.1250    71.5420    10.4120     9.2580    10.6010    23.5640     2.1730   -10.1520 
  111.2500    73.7190    10.6530     9.4840    10.6560    23.5000     2.1660    -9.9700 
  111.3750    75.7710    10.6980     9.5490    10.9330    23.4490     2.1560    -9.7660 
  111.5000    77.8770    10.4580     9.3920    11.2390    23.3930     2.1470    -9.5280 
  111.6250    82.1120     9.8620     8.9730    11.1400    23.3390     2.1480    -9.2560 
  111.7500    88.3370     9.0920     8.4150    10.1450    23.3390     2.1640    -8.9600 
  111.8750    93.1640     8.3490     7.8490     8.5860    23.4160     2.1910    -8.6730 
  112.0000    91.8460     7.8200     7.3990     7.5870    23.4830     2.2190    -8.4780 
  112.1250    85.7310     7.6340     7.1670     7.2630    23.5020     2.2330    -8.3970 
