~V
VERS. 2.00: Ver 2.00
~W
STRT.M 60.0000:
STOP.M 262.0000:
STEP.M 0.1250:
NULL. -999.2500:
UWI. F10018:
~C
DEPT.M :
GR.API :
RML.OHMM :
RI. :
RXO.OHMM :
CALI.CM :
DEN.GM/CC :
SP.MV :
~A
# ...
  138.7500    74.5410    11.0220    10.5330    10.0230    24.6980     2.1610     3.7210 
  138.8750    70.6790    11.6410    10.8690    10.5080    24.7490     2.1610     3.3700 
  139.0000    67.0840    12.5820    11.6600    11.0690    24.7000     2.1620     3.1650 
  139.1250    63.7490    13.5410    12.6510    12.2460    24.6810     2.1620     3.1570 
  139.2500    63.2270    14.3500    13.5800    13.6370    24.7080     2.1610     3.3330 
  139.3750    66.3300    15.0710    14.4150    14.0370    24.7980     2.1610     3.6750 
  139.5000    69.2710    15.9300    15.3030    14.5950    24.9400     2.1650     4.1240 
  139.6250    66.8660    17.3750    16.6040    17.0600    25.0920     2.1730     4.6460 
  139.7500    62.1410    19.6470    18.5660    20.7640    25.1120     2.1780     5.1890 
  139.8750    57.8900    22.8260    21.3260    24.6470    25.1230     2.1730     5.7760 
  140.0000    55.3060    26.6010    24.7000    29.7680    25.2120     2.1560     6.4420 
  140.1250    54.8740    29.8500    27.7570    37.7380    25.3830     2.1300     7.1640 
  140.2500    55.9190    31.2460    29.2160    42.0360    25.5390     2.1100     7.8490 
  140.3750    57.6120    30.1730    28.4210    40.4960    25.5290     2.1060     8.3960 
  140.5000    59.7820    27.1740    25.8090    32.3520    25.2860     2.1180     8.7410 
  140.6250    62.8860    23.6530    22.6050    24.0450    24.9790     2.1380     8.8360 
  140.7500    65.2490    20.8840    19.9520    19.2260    24.7760     2.1520     8.7390 
  140.8750    64.9680    19.2620    18.2140    18.2040    24.7370     2.1580     8.5080 
  141.0000    62.2630    18.7350    17.3990    18.5960    24.7890     2.1570     8.1920 
  141.1250    60.7630    19.0730    17.4070    19.5720    24.8210     2.1560     7.7920 
  141.2500    60.4920    19.6740    17.7800    20.8490    24.8410     2.1600     7.3540 
  141.3750    60.2880    20.1730    18.2020    21.5220    24.8600     2.1670     6.9690 
  141.5000    59.9250    20.4220    18.4810    21.2230    24.8870     2.1750     6.6800 
  141.6250    59.1960    20.5050    18.6060    20.5560    24.9780     2.1780     6.5810 
  141.7500    57.9130    20.6040    18.6970    20.3320    25.1220     2.1790     6.6520 
  141.8750    56.8420    20.7770    18.8130    20.3440    25.1960     2.1810     6.8170 
  142.0000    58.2190    21.0210    18.9780    20.8040    25.1950     2.1870     6.9810 
  142.1250    62.4990    21.3180    19.2100    21.6070    25.0940     2.1970     7.1840 
  142.2500    65.3750    21.7140    19.5360    20.9370    24.8840     2.2050     7.4830 
  142.3750    64.7620    22.4150    20.0900    20.4860    24.7000     2.2030     7.8750 
  142.5000    61.3920    23.7370    21.0990    22.6400    24.6600     2.1910     8.3750 
  142.6250    58.3410    26.1340    22.9420    26.1990    24.8640     2.1740     8.9020 
  142.7500    55.8620    29.5290    25.6380    30.4960    25.0550     2.1590     9.4040 
  142.8750    53.9040    33.7200    29.1150    35.0970    25.0850     2.1480     9.9090 
  143.0000    54.7540    38.1990    33.0270    43.9540    25.0580     2.1440    10.4420 
  143.1250    57.1380    42.1030    36.6660    48.6950    25.1100     2.1460    10.9940 
  143.2500    56.2240    45.0720    39.5710    49.3110    25.1890     2.1520    11.5070 
  143.3750    53.3400    47.2510    41.7330    49.4550    25.2450     2.1530    11.9350 
  143.5000    52.7990    48.9840    43.3910    48.3450    25.2830     2.1460    12.2660 
  143.6250    54.8030    50.3980    44.7110    47.3030    25.3940     2.1270    12.5440 
  143.7500    55.6090    51.3760    45.7420    44.9970    25.4990     2.1100    12.8120 
  143.8750    54.7150    51.6030    46.3120    45.8050    25.5460     2.1030    13.0210 
  144.0000    53.3410    50.8850    46.2440    46.6210    25.6340     2.1080    13.1360 
  144.1250    52.3200    49.3360    45.5140    50.0570    25.9240     2.1190    13.1540 
  144.2500    50.7800    47.4880    44.4570    50.2450    26.0630     2.1250    13.1340 
  144.3750    47.9870    45.3580    43.0720    49.9960    26.0710     2.1220    13.0620 
  144.5000    44.9220    42.5880    41.0610    48.9230    26.1330     2.1130    12.8590 
  144.6250    45.6270    38.6620    37.9120    47.2900    26.3290     2.1040    12.4440 
  144.7500    50.4100    33.8320    33.7690    44.8150    26.4950     2.1040    11.8380 
  144.8750    56.7930    28.5110    28.9210    38.2400    26.3450     2.1150    11.0550 
  145.0000    62.6880    23.2140    23.8460    27.0040    25.6730     2.1380    10.1110 
  145.1250    66.7750    18.5110    19.1800    19.6560    24.6680     2.1740     8.9920 
  145.2500    70.8780    14.5950    15.2480    14.7220    23.8810     2.2180     7.6980 
  145.3750    76.5550    11.5600    12.1750    11.1680    23.5610     2.2640     6.3260 
  145.5000    81.7330     9.4240     9.9640     7.8200    23.7310     2.3030     5.0530 
  145.6250    83.5870     8.2230     8.6390     6.6040    23.9370     2.3240     4.0060 
  145.7500    83.8730     7.6310     7.9100     6.6530    23.9940     2.3290     3.1600 
  145.8750    85.0410     7.4510     7.6130     7.1370    24.0280     2.3240     2.4950 
  146.0000    86.9290     7.4680     7.5700     7.5550    24.1030     2.3190     2.0270 
  146.1250    88.7300     7.4520     7.5690     7.3460    24.3000     2.3220     1.7630 
  146.2500    91.0940     7.3020     7.4680     7.1010    24.3840     2.3320     1.6570 
  146.3750    92.1490     7.0750     7.2840     6.7670    24.3690     2.3450     1.6800 
  146.5000    91.1470     6.9180     7.1300     6.5690    24.3190     2.3520     1.7510 
  146.6250    89.2910     7.0540     7.1930     6.8480    24.3560     2.3460     1.8210 
  146.7500    85.6380     7.5930     7.5800     8.1360    24.4120     2.3280     1.9240 
  146.8750    79.5870     8.6130     8.3810     9.7010    24.2760     2.3020     2.1110 
  147.0000    72.6450    10.1180     9.6320    11.1190    23.9240     2.2700     2.3830 
  147.1250    68.2360    12.0120    11.3060    14.2550    23.8150     2.2350     2.7010 
  147.2500    66.3690    13.8980    13.0450    18.8250    24.1490     2.1990     3.0210 
  147.3750    66.1510    15.4160    14.4740    20.7470    24.5280     2.1700     3.3190 
  147.5000    67.7430    16.3880    15.3660    18.8220    24.6760     2.1500     3.5900 
  147.6250    69.7330    16.9770    15.8130    16.1070    24.5920     2.1420     3.8290 
  147.7500    70.7360    17.7220    16.2830    15.4470    24.3770     2.1370     4.0640 
  147.8750    70.1620    19.0200    17.1270    16.4960    24.2150     2.1330     4.2990 
  148.0000    67.7940    21.0650    18.5640    19.4810    24.4610     2.1330     4.5590 
  148.1250    64.2720    23.7790    20.6490    22.5930    24.8130     2.1500     4.8900 
  148.2500    61.2400    26.5090    22.8980    25.3480    24.9250     2.1790     5.3220 
  148.3750    60.6170    28.6500    24.7950    26.7800    24.7560     2.2020     5.8400 
  148.5000    61.2470    29.8150    25.9450    26.3850    24.5560     2.2020     6.4130 
  148.6250    59.2440    29.9520    26.2040    26.9200    24.7120     2.1670     7.0570 
  148.7500    55.1100    29.7020    26.0510    27.2800    25.0730     2.1170     7.7300 
  148.8750    51.7950    29.5190    25.8580    28.3350    25.3240     2.0750     8.3930 
  149.0000    51.3140    29.6270    25.8540    29.5480    25.4530     2.0520     9.0130 
  149.1250    53.0290    30.0170    26.1090    30.1220    25.4920     2.0490     9.5450 
  149.2500    53.9420    30.4460    26.4630    30.4160    25.4340     2.0560     9.9520 
  149.3750    53.1600    30.7240    26.7560    31.3490    25.3260     2.0670    10.2080 
  149.5000    52.6050    30.7270    26.8590    32.3110    25.1810     2.0780    10.3230 
  149.6250    54.9830    30.3930    26.6790    31.6250    25.0060     2.0880    10.2950 
  149.7500    58.4930    29.8670    26.3120    29.8380    24.8860     2.0960    10.1530 
  149.8750    59.8270    29.2850    25.8610    28.8810    24.8320     2.1040     9.9590 
