~V
VERS. 2.00: Ver 2.00
~W
STRT.M 60.0000:
STOP.M 262.0000:
STEP.M 0.1250:
NULL. -999.2500:
UWI. F10018:
~C
DEPT.M :
GR.API :
RML.OHMM :
RI. :
RXO.OHMM :
CALI.CM :
DEN.GM/CC :
SP.MV :
~A
# ...
  195.0000    38.4230    19.2510    17.4040    18.8630    24.5440     2.5380    -4.8990 
  195.1250    41.0280    19.4370    17.5000    18.3470    24.5580     2.5310    -4.8240 
  195.2500    42.7770    19.4650    17.4700    19.4610    24.5910     2.5190    -4.7780 
  195.3750    43.0740    19.1580    17.1710    20.4940    24.6150     2.5080    -4.7770 
  195.5000    42.2640    18.4470    16.5490    20.5770    24.6060     2.5010    -4.8450 
  195.6250    40.8470    17.4190    15.6810    18.8450    24.5990     2.5000    -4.9300 
  195.7500    40.2890    16.3820    14.8120    17.2020    24.6130     2.5030    -4.9710 
  195.8750    40.8720    15.5590    14.1090    15.6110    24.6180     2.5050    -4.9970 
  196.0000    42.6140    15.0900    13.6720    15.0310    24.5900     2.5040    -5.0620 
  196.1250    43.9700    15.0690    13.5780    15.6110    24.5430     2.4960    -5.1610 
  196.2500    42.8870    15.3480    13.7370    16.3470    24.5450     2.4850    -5.2550 
  196.3750    40.5540    15.8030    14.0670    16.6380    24.5180     2.4750    -5.3150 
  196.5000    39.0750    16.3000    14.4590    16.3120    24.4360     2.4690    -5.3340 
  196.6250    41.3170    16.6920    14.7830    16.4830    24.3610     2.4720    -5.3810 
  196.7500    45.1710    16.8930    14.9460    17.0970    24.3050     2.4840    -5.5140 
  196.8750    47.1300    16.8650    14.9050    17.1790    24.2220     2.5010    -5.6590 
  197.0000    45.6780    16.6280    14.6760    16.5840    24.1270     2.5190    -5.7100 
  197.1250    42.0230    16.2510    14.3210    16.4780    24.2460     2.5320    -5.6660 
  197.2500    38.8830    15.8890    13.9670    15.8330    24.3890     2.5360    -5.6380 
  197.3750    37.2550    15.6530    13.6960    14.7090    24.4490     2.5310    -5.6730 
  197.5000    37.0370    15.5890    13.5480    14.7160    24.4780     2.5210    -5.7540 
  197.6250    37.6440    15.6440    13.4990    15.3340    24.5050     2.5090    -5.7950 
  197.7500    37.3470    15.6540    13.4430    15.8190    24.5040     2.5010    -5.7470 
  197.8750    37.0210    15.5140    13.3060    15.6110    24.4930     2.4970    -5.6360 
  198.0000    37.9800    15.2120    13.0700    15.1080    24.5270     2.4960    -5.5270 
  198.1250    38.8330    14.8480    12.7860    14.4300    24.5350     2.4960    -5.4500 
  198.2500    38.4440    14.5850    12.5600    13.5940    24.4840     2.4940    -5.3490 
  198.3750    38.8990    14.4920    12.4470    13.2970    24.4160     2.4900    -5.1960 
  198.5000    40.9020    14.5520    12.4530    13.4880    24.2400     2.4850    -5.0130 
  198.6250    42.3300    14.6840    12.5380    13.4000    23.9610     2.4790    -4.8620 
  198.7500    44.3240    14.7900    12.6320    13.2020    23.7900     2.4740    -4.7780 
  198.8750    47.3320    14.8560    12.7170    13.6980    24.0220     2.4690    -4.7570 
  199.0000    47.8000    14.9500    12.8280    14.1460    24.2990     2.4690    -4.7460 
  199.1250    43.3380    15.2350    13.0720    14.3100    24.3650     2.4730    -4.7230 
  199.2500    40.9780    15.7720    13.5080    14.5440    24.3230     2.4820    -4.7230 
  199.3750    42.9630    16.5220    14.1330    15.5400    24.3110     2.4890    -4.7600 
  199.5000    44.3690    17.3370    14.8570    17.7920    24.3580     2.4910    -4.8150 
  199.6250    41.7310    17.9520    15.4760    19.7670    24.4580     2.4860    -4.8490 
  199.7500    39.4000    18.1980    15.8110    21.0180    24.4890     2.4780    -4.8350 
  199.8750    39.5870    18.0250    15.7760    19.4570    24.4880     2.4710    -4.8090 
  200.0000    39.5000    17.5090    15.4060    16.9440    24.5070     2.4660    -4.8450 
  200.1250    37.8910    16.8000    14.8180    16.5430    24.5070     2.4600    -4.9400 
  200.2500    38.2250    16.1080    14.2130    16.5090    24.5370     2.4510    -5.0050 
  200.3750    40.8290    15.5500    13.7030    15.5790    24.4760     2.4420    -5.0260 
  200.5000    42.3450    15.1680    13.3490    14.3810    24.2590     2.4380    -5.0180 
  200.6250    41.1510    14.9500    13.1720    13.8940    23.9970     2.4450    -5.0160 
  200.7500    40.5540    14.8260    13.1170    13.7950    23.8590     2.4610    -5.0820 
  200.8750    41.2490    14.8550    13.2040    13.8510    23.9170     2.4760    -5.1840 
  201.0000    42.0800    15.2340    13.5510    14.1450    24.0720     2.4770    -5.2850 
  201.1250    42.7420    16.3220    14.4230    14.4300    24.2050     2.4470    -5.3870 
  201.2500    44.3720    17.9900    15.7970    15.2630    24.2720     2.3930    -5.5190 
  201.3750    46.8140    19.7290    17.3730    16.8000    24.3660     2.3340    -5.6920 
  201.5000    48.7560    20.6390    18.4500    21.1730    24.5150     2.2920    -5.8730 
  201.6250    50.4150    19.5420    17.8850    27.5210    24.5020     2.2900    -6.0250 
  201.7500    53.7900    16.8660    15.8320    25.6420    24.3850     2.3190    -6.1300 
  201.8750    60.1760    13.6280    13.1390    15.2750    24.2640     2.3610    -6.2160 
  202.0000    66.8990    10.8340    10.6990     9.5800    24.2450     2.3970    -6.3030 
  202.1250    68.2570     9.1160     9.0680     8.2740    24.3490     2.4110    -6.4020 
  202.2500    67.9880     8.2710     8.1380     8.2240    24.4100     2.4080    -6.5230 
  202.3750    70.2450     8.0690     7.7760     8.1120    24.3830     2.4000    -6.6180 
  202.5000    74.6370     8.2370     7.7970     7.9550    24.3250     2.3930    -6.6890 
  202.6250    77.1770     8.5040     7.9900     8.0020    24.2610     2.3910    -6.7890 
  202.7500    76.7910     8.6670     8.1340     8.3230    24.1820     2.3890    -6.9650 
  202.8750    74.8040     8.6530     8.1390     8.5300    24.0790     2.3860    -7.1790 
  203.0000    72.4760     8.4580     7.9860     8.3570    24.0590     2.3820    -7.3710 
  203.1250    71.6820     8.1650     7.7370     7.9930    24.2250     2.3810    -7.5150 
  203.2500    72.0000     7.9860     7.5610     7.7560    24.3070     2.3830    -7.6480 
  203.3750    72.1470     8.1520     7.6300     7.7150    24.3130     2.3850    -7.8060 
  203.5000    71.8040     8.9090     8.1220     7.9030    24.3120     2.3920    -8.0280 
  203.6250    70.4400    10.6560     9.3600     9.3640    24.3470     2.4090    -8.2840 
  203.7500    66.7700    13.4070    11.4490    12.8560    24.3500     2.4310    -8.4710 
  203.8750    61.0440    17.1070    14.4730    18.3460    24.3130     2.4410    -8.6020 
  204.0000    55.9990    21.3860    18.2510    24.2370    24.3080     2.4230    -8.7450 
  204.1250    54.2760    25.3430    22.0550    30.2700    24.3900     2.3670    -8.9220 
  204.2500    55.4250    28.1590    24.9440    32.3310    24.5040     2.2950    -9.1180 
  204.3750    56.6220    29.6380    26.5630    32.2420    24.5830     2.2340    -9.3150 
  204.5000    56.2380    30.1800    27.1740    31.6990    24.6250     2.1990    -9.4620 
  204.6250    55.8410    30.3880    27.2740    31.9370    24.6400     2.1880    -9.5520 
  204.7500    55.6820    30.6970    27.3440    32.5450    24.6550     2.1820    -9.6280 
  204.8750    55.6570    31.1870    27.5370    33.4670    24.6450     2.1720    -9.6810 
  205.0000    55.2950    31.8070    27.8720    33.5120    24.5910     2.1620    -9.6940 
  205.1250    54.4950    32.4450    28.3030    32.4630    24.4720     2.1680    -9.6600 
  205.2500    52.6720    32.9520    28.7070    31.7860    24.3790     2.1890    -9.5680 
  205.3750    50.3720    33.1630    28.9550    31.7890    24.3560     2.2170    -9.4510 
  205.5000    49.9650    32.9240    28.9160    33.3900    24.4280     2.2360    -9.3630 
  205.6250    52.5750    32.0980    28.4460    33.1660    24.4800     2.2350    -9.3140 
  205.7500    55.4250    30.8910    27.6500    30.9340    24.4350     2.2190    -9.2520 
  205.8750    57.6420    29.5040    26.6510    27.9020    24.3950     2.2020    -9.1460 
  206.0000    59.0730    28.1030    25.5740    26.3690    24.4220     2.1900    -9.0270 
  206.1250    59.5480    26.7600    24.4940    26.3940    24.5020     2.1880    -8.9360 
