~V
VERS. 2.00: Ver 2.00
~W
STRT.M 50.0000:
STOP.M 286.0000:
STEP.M 0.1250:
NULL. -999.2500:
UWI. F10036:
~C
DEPT.M :
GR.API :
RML.OHMM :
RI. :
RXO.OHMM :
CALI.CM :
DEN.GM/CC :
SP.MV :
~A
# ...
  263.7500    71.8850     9.0610     7.7850    10.4880    24.1210     2.3490   -12.7560 
  263.8750    68.6450     9.1170     8.0220    11.4110    24.0860     2.3450   -13.0690 
  264.0000    65.4200     8.5030     7.6600    11.8590    24.0100     2.3420   -13.3700 
  264.1250    62.0380     7.4480     6.8400    10.6280    23.9660     2.3450   -13.5240 
  264.2500    54.9910     6.4000     5.9440     7.6440    23.9450     2.3510   -13.5410 
  264.3750    45.0380     5.5990     5.1910     5.1600    23.9550     2.3560   -13.5200 
  264.5000    39.0410     5.1560     4.6940     4.5020    23.9830     2.3560   -13.4980 
  264.6250    41.2520     5.1230     4.5240     4.8750    24.0340     2.3510   -13.4500 
  264.7500    46.1150     5.3370     4.5870     5.2330    24.0800     2.3420   -13.3790 
  264.8750    48.9480     5.6470     4.7820     5.5110    24.1130     2.3340   -13.3120 
  265.0000    48.6060     5.8810     4.9830     5.5970    24.1100     2.3280   -13.2950 
  265.1250    46.7410     5.8960     5.0590     5.4560    24.1100     2.3280   -13.3250 
  265.2500    43.7140     5.7480     5.0040     5.1010    24.1220     2.3360   -13.4080 
  265.3750    39.5050     5.5350     4.8740     4.7410    24.1310     2.3510   -13.5170 
  265.5000    35.9750     5.3560     4.7420     4.5950    24.1000     2.3680   -13.5910 
  265.6250    35.8860     5.2870     4.6800     4.6850    24.0480     2.3800   -13.5760 
  265.7500    38.4050     5.3080     4.6940     4.8480    23.9920     2.3820   -13.5330 
  265.8750    40.7600     5.3770     4.7510     5.0690    23.9650     2.3760   -13.4720 
  266.0000    42.0470     5.4380     4.7990     5.1910    23.9460     2.3680   -13.3640 
  266.1250    41.6390     5.4320     4.7780     5.1270    23.9160     2.3670   -13.2670 
  266.2500    38.5990     5.3580     4.6960     4.7910    23.9020     2.3710   -13.1910 
  266.3750    33.4970     5.2430     4.5820     4.5030    23.8890     2.3740   -13.1480 
  266.5000    29.7300     5.1290     4.4750     4.3860    23.8620     2.3700   -13.1960 
  266.6250    29.5590     5.0560     4.4070     4.4670    23.7960     2.3630   -13.3640 
  266.7500    29.7940     5.0200     4.3830     4.6180    23.7480     2.3630   -13.5440 
  266.8750    29.3370     5.0020     4.3930     4.6650    23.7130     2.3770   -13.6460 
  267.0000    29.6930     4.9930     4.4260     4.6020    23.6930     2.4030   -13.6890 
  267.1250    30.4090     5.0020     4.4700     4.5200    23.6920     2.4320   -13.6760 
  267.2500    29.8640     5.0360     4.5140     4.5230    23.7100     2.4520   -13.6220 
  267.3750    29.4140     5.0880     4.5500     4.6330    23.6710     2.4590   -13.5040 
  267.5000    30.1310     5.1320     4.5710     4.7920    23.4990     2.4510   -13.3350 
  267.6250    30.5390     5.1340     4.5620     4.7800    23.1640     2.4310   -13.1280 
  267.7500    29.0430     5.0930     4.5210     4.5760    22.8560     2.4060   -12.9240 
  267.8750    26.8980     5.0270     4.4570     4.3110    22.8190     2.3800   -12.7760 
  268.0000    25.4410     4.9590     4.3820     4.1460    23.1030     2.3540   -12.6450 
  268.1250    24.3810     4.9110     4.3110     4.1690    23.4580     2.3320   -12.5670 
  268.2500    23.1880     4.8880     4.2510     4.3460    23.6870     2.3150   -12.5820 
  268.3750    22.3580     4.8830     4.2050     4.4970    23.8410     2.3050   -12.6440 
  268.5000    23.1270     4.8790     4.1710     4.4860    23.9290     2.3040   -12.6510 
  268.6250    25.1650     4.8620     4.1530     4.3370    23.9510     2.3090   -12.6210 
  268.7500    26.3070     4.8380     4.1540     4.2460    23.9130     2.3180   -12.5730 
  268.8750    26.8720     4.8280     4.1770     4.2380    23.8210     2.3290   -12.5160 
  269.0000    29.5650     4.8480     4.2170     4.4090    23.6920     2.3410   -12.5410 
  269.1250    33.1360     4.9110     4.2650     4.5130    23.6600     2.3550   -12.6050 
  269.2500    33.8780     4.9970     4.3110     4.5340    23.7380     2.3700   -12.5790 
  269.3750    31.8940     5.0850     4.3520     4.5450    23.8860     2.3850   -12.5050 
  269.5000    29.6210     5.1500     4.3870     4.5640    24.0060     2.3980   -12.4720 
  269.6250    29.0040     5.1720     4.4140     4.5750    24.0570     2.4130   -12.4140 
  269.7500    29.3810     5.1610     4.4290     4.5840    24.0450     2.4300   -12.3760 
  269.8750    29.6220     5.1410     4.4300     4.6510    23.9540     2.4480   -12.3600 
  270.0000    28.4690     5.1300     4.4170     4.7430    23.8060     2.4620   -12.3150 
  270.1250    27.2810     5.1360     4.3940     4.6330    23.8240     2.4590   -12.2740 
  270.2500    28.0380     5.1460     4.3730     4.5430    24.0200     2.4320   -12.2540 
  270.3750    29.1390     5.1510     4.3600     4.5290    24.2810     2.3810   -12.2860 
  270.5000    29.1730     5.1500     4.3580     4.5800    24.5510     2.3160   -12.3440 
  270.6250    28.7570     5.1450     4.3630     4.5800    24.8310     2.2610   -12.4050 
  270.7500    28.2890     5.1360     4.3680     4.5620    24.9770     2.2370   -12.4480 
  270.8750    27.3970     5.1180     4.3650     4.5320    24.6800     2.2520   -12.5400 
  271.0000    26.8080     5.0860     4.3510     4.5530    24.3600     2.2960   -12.6920 
  271.1250    26.6540     5.0370     4.3210     4.5560    24.2610     2.3390   -12.8500 
  271.2500    26.5400     4.9790     4.2810     4.4770    24.2710     2.3560   -12.9670 
  271.3750    27.0310     4.9200     4.2360     4.3460    24.4350     2.3460   -12.9630 
  271.5000    28.3040     4.8710     4.1930     4.3030    24.7970     2.3250   -12.9060 
  271.6250    27.2080     4.8560     4.1700     4.3050    24.9890     2.3110   -12.9630 
  271.7500    24.9740     4.8800     4.1720     4.2730    24.6200     2.3100   -13.0570 
  271.8750    24.3270     4.9300     4.1980     4.2110    24.2790     2.3140   -13.0860 
  272.0000    25.6090     4.9860     4.2420     4.2640    24.2080     2.3200   -13.0400 
  272.1250    27.1180     5.0240     4.2930     4.3640    24.2030     2.3320   -12.9890 
  272.2500    28.6090     5.0430     4.3370     4.3940    24.1730     2.3560   -12.9880 
  272.3750    30.1300     5.0570     4.3730     4.4110    24.1210     2.3880   -13.0250 
  272.5000    31.1450     5.0870     4.4060     4.4650    24.0770     2.4160   -13.0400 
  272.6250    31.2030     5.1390     4.4480     4.5390    24.0330     2.4220   -12.9960 
  272.7500    30.7810     5.1920     4.4990     4.6040    24.0080     2.4110   -12.9060 
  272.8750    30.1100     5.2220     4.5480     4.6990    24.0410     2.3930   -12.7690 
  273.0000    30.1220     5.2120     4.5730     5.2670    24.0750     2.3790   -12.6050 
  273.1250    31.2250     5.1460     4.5430     5.9770    24.0870     2.3770   -12.4270 
  273.2500    31.3270     5.0450     4.4630     5.7480    24.0850     2.3840   -12.2160 
  273.3750    29.5070     4.9330     4.3530     4.7070    24.0820     2.3950   -11.9800 
  273.5000    27.1050     4.8390     4.2500     4.2070    24.0810     2.4050   -11.7350 
  273.6250    25.8750     4.7990     4.1910     4.2250    24.0830     2.4100   -11.4060 
  273.7500    25.1040     4.8220     4.1880     4.2710    24.0830     2.4130   -11.0570 
  273.8750    24.2070     4.8960     4.2350     4.3470    24.0840     2.4160   -10.8030 
  274.0000    23.5120     4.9910     4.3110     4.4300    24.0860     2.4180   -10.6390 
  274.1250    23.1830     5.0560     4.3790     4.5390    24.0860     2.4210   -10.4640 
  274.2500    23.1450     5.0610     4.4060     4.6470    24.0750     2.4210   -10.2880 
  274.3750    24.4410     5.0090     4.3870     4.6730    24.0420     2.4170   -10.1220 
  274.5000    26.9610     4.9330     4.3410     4.4970    24.0030     2.4080    -9.9550 
  274.6250    27.9920     4.8960     4.3120     4.3960    24.0150     2.3930    -9.8460 
  274.7500    27.9920     4.9280     4.3290     4.3630    24.0570     2.3730    -9.8100 
  274.8750    27.9920     5.0200     4.3910     4.5650    24.0810     2.3520    -9.7740 
