~V
VERS. 2.00: Ver 2.00
~W
STRT.M 50.0000:
STOP.M 293.0000:
STEP.M 0.1250:
NULL. -999.2500:
UWI. F10037:
~C
DEPT.M :
GR.API :
RML.OHMM :
RI. :
RXO.OHMM :
CALI.CM :
SP.MV :
DEN.GM/CC :
~A
# ...
  218.7500    74.0220    11.7000    10.9740    13.0640    25.0240   -11.1390     2.4230 
  218.8750    74.1160    10.7880    10.1340    11.7380    24.9640   -11.0580     2.4460 
  219.0000    72.8910     9.9940     9.3720    10.5970    24.9080   -10.9740     2.4670 
  219.1250    70.6070     9.3720     8.7520     9.6960    24.8730   -10.9130     2.4780 
  219.2500    69.2920     8.9210     8.2820     9.0800    24.8480   -10.8790     2.4760 
  219.3750    69.3620     8.6500     7.9720     8.7950    24.8140   -10.8320     2.4690 
  219.5000    71.3130     8.5410     7.8140     8.7690    24.7650   -10.8150     2.4600 
  219.6250    77.0810     8.5550     7.7890     8.8950    24.7280   -10.8060     2.4550 
  219.7500    82.6790     8.6000     7.8200     9.0840    24.7460   -10.7670     2.4530 
  219.8750    84.3190     8.6200     7.8560     9.2820    24.8240   -10.7450     2.4520 
  220.0000    81.5230     8.5860     7.8640     9.4120    24.9420   -10.6990     2.4500 
  220.1250    79.0830     8.5030     7.8300     9.3230    25.0400   -10.6230     2.4480 
  220.2500    79.0450     8.4130     7.7750     9.1910    25.0830   -10.5410     2.4460 
  220.3750    78.0280     8.3390     7.7170     9.1730    25.0930   -10.4450     2.4490 
  220.5000    76.8030     8.2780     7.6590     9.2660    25.0940   -10.3390     2.4560 
  220.6250    80.5280     8.2020     7.5900     9.3200    25.0940   -10.2290     2.4670 
  220.7500    85.6890     8.0840     7.4920     9.2910    25.0940   -10.1350     2.4760 
  220.8750    85.2480     7.9150     7.3600     9.0530    25.0940   -10.0220     2.4820 
  221.0000    79.5400     7.7130     7.2030     8.5240    25.0940    -9.9240     2.4830 
  221.1250    77.3080     7.5250     7.0490     8.2100    25.0940    -9.8430     2.4810 
  221.2500    78.5700     7.3880     6.9270     8.1580    25.0940    -9.7500     2.4800 
  221.3750    78.6280     7.3150     6.8510     8.3420    25.0920    -9.6800     2.4800 
  221.5000    76.2590     7.2930     6.8160     8.6510    25.0870    -9.6190     2.4780 
  221.6250    73.0720     7.2800     6.8000     8.7960    25.0770    -9.5670     2.4740 
  221.7500    71.9650     7.2290     6.7670     8.6060    25.0620    -9.5250     2.4680 
  221.8750    72.6450     7.1160     6.6970     8.3590    25.0440    -9.5000     2.4620 
  222.0000    74.0090     6.9480     6.5890     8.0270    25.0320    -9.4970     2.4570 
  222.1250    75.8310     6.7670     6.4640     7.7100    25.0270    -9.5090     2.4540 
  222.2500    77.7440     6.6410     6.3690     7.3900    25.0220    -9.5430     2.4520 
  222.3750    78.4660     6.6180     6.3370     7.2590    25.0110    -9.5810     2.4510 
  222.5000    77.3790     6.7130     6.3890     7.3140    24.9940    -9.6250     2.4520 
  222.6250    77.3210     6.9040     6.5240     7.5430    24.9690    -9.6600     2.4560 
  222.7500    78.0410     7.0970     6.6780     7.8360    24.9440    -9.6890     2.4620 
  222.8750    77.6020     7.2130     6.7900     8.0640    24.9250    -9.7370     2.4680 
  223.0000    77.2200     7.1970     6.8030     8.1610    24.9080    -9.7530     2.4710 
  223.1250    78.6420     7.0230     6.6760     7.9630    24.8830    -9.7440     2.4700 
  223.2500    79.0200     6.7710     6.4590     7.4430    24.8310    -9.7590     2.4700 
  223.3750    76.3840     6.5000     6.2170     6.9550    24.7390    -9.7610     2.4750 
  223.5000    72.7280     6.2940     6.0240     6.7060    24.6100    -9.7660     2.4910 
  223.6250    72.1170     6.2700     5.9780     6.7680    24.4970    -9.7870     2.5170 
  223.7500    73.1730     6.4930     6.1100     7.0200    24.4270    -9.8020     2.5430 
  223.8750    74.1830     7.0230     6.4540     7.4370    24.4040    -9.8270     2.5540 
  224.0000    73.9430     7.9630     7.0380     8.0370    24.3970    -9.8750     2.5410 
  224.1250    73.3620     9.3370     7.9430     9.0280    24.3790    -9.9530     2.5000 
  224.2500    72.7630    10.9800     9.1360    10.4000    24.3340   -10.0370     2.4460 
  224.3750    71.6320    12.6560    10.5570    12.1260    24.2420   -10.1300     2.3920 
  224.5000    69.5680    14.3280    12.0290    14.4290    24.1160   -10.2230     2.3490 
  224.6250    65.9460    15.4880    13.1570    17.3900    24.0020   -10.3120     2.3260 
  224.7500    62.3210    15.7990    13.6280    20.3070    23.9850   -10.4220     2.3220 
  224.8750    60.3750    15.1800    13.3090    22.0390    24.1630   -10.5180     2.3350 
  225.0000    62.0550    13.9470    12.3870    21.6010    24.5020   -10.5960     2.3590 
  225.1250    67.1890    12.8590    11.3990    17.3750    24.8250   -10.6720     2.3830 
  225.2500    71.7820    12.6310    10.9650    13.0280    24.9790   -10.7510     2.3920 
  225.3750    73.1460    13.6490    11.4710    13.0700    25.0040   -10.8170     2.3820 
  225.5000    70.8350    15.9950    13.1020    16.8460    24.9910   -10.8760     2.3580 
  225.6250    68.3770    19.4860    15.8980    22.4140    24.9980   -10.9700     2.3310 
  225.7500    66.9290    23.1840    19.1710    27.2930    25.0290   -11.0290     2.3130 
  225.8750    63.6470    26.2130    22.1940    29.8310    25.0570   -11.1070     2.3050 
  226.0000    57.6020    27.8860    24.2670    30.1080    25.0570   -11.2120     2.3000 
  226.1250    53.0580    27.9510    24.9260    29.4760    25.0180   -11.2660     2.2940 
  226.2500    52.6170    27.4060    24.8270    28.7280    24.9390   -11.3310     2.2870 
  226.3750    54.9460    27.1000    24.6610    28.1530    24.7990   -11.4060     2.2900 
  226.5000    57.9880    27.5530    24.9500    27.9020    24.5780   -11.4560     2.3170 
  226.6250    59.1990    28.8890    25.9320    28.4910    24.2780   -11.5070     2.3800 
  226.7500    57.4780    30.4780    27.2070    30.1060    23.9900   -11.5330     2.4640 
  226.8750    53.9700    31.6460    28.2650    32.2640    23.7610   -11.5450     2.5500 
  227.0000    51.1410    31.7830    28.5770    34.2020    23.6170   -11.5780     2.6120 
  227.1250    49.5180    30.4400    27.6730    34.0250    23.5600   -11.6070     2.6260 
  227.2500    49.3280    28.1850    25.8990    30.2890    23.5620   -11.6300     2.6060 
  227.3750    50.8180    25.5820    23.6780    24.9510    23.5860   -11.6490     2.5700 
  227.5000    54.0620    23.0390    21.3860    20.7950    23.5970   -11.6700     2.5320 
  227.6250    58.5580    20.6980    19.2230    18.8010    23.5880   -11.7100     2.5040 
  227.7500    61.2680    18.4730    17.1840    17.3900    23.5570   -11.7520     2.4850 
  227.8750    61.3490    16.3740    15.2860    16.1510    23.5100   -11.7810     2.4730 
  228.0000    60.9250    14.5440    13.6200    15.1560    23.4710   -11.7920     2.4650 
  228.1250    63.2070    13.3050    12.4180    13.6430    23.4610   -11.8040     2.4600 
  228.2500    67.2100    12.7160    11.7320    12.5070    23.4630   -11.7950     2.4570 
  228.3750    68.9340    12.7480    11.5640    12.6900    23.5220   -11.7720     2.4580 
  228.5000    66.7890    13.2370    11.8220    13.7500    23.6620   -11.7310     2.4650 
  228.6250    62.4410    13.9240    12.3500    14.8260    23.8750   -11.6820     2.4750 
  228.7500    58.9940    14.5020    12.8900    14.8140    24.0880   -11.6520     2.4830 
  228.8750    57.9000    14.8350    13.3040    14.1010    24.2290   -11.6260     2.4810 
  229.0000    59.1010    14.9350    13.5570    13.8050    24.2690   -11.6270     2.4660 
  229.1250    62.2570    14.9420    13.7170    14.0700    24.2770   -11.6150     2.4400 
  229.2500    65.0900    15.0330    13.9180    14.5450    24.3120   -11.5970     2.4140 
  229.3750    66.4780    15.2710    14.2160    15.1380    24.3920   -11.6240     2.3940 
  229.5000    66.1110    15.6230    14.5910    15.8470    24.5330   -11.6390     2.3870 
  229.6250    63.8290    15.9870    14.9500    16.5740    24.6750   -11.6240     2.3940 
  229.7500    60.7780    16.2620    15.2020    16.8840    24.7300   -11.6390     2.4050 
  229.8750    58.7870    16.4070    15.3070    16.8030    24.7380   -11.6410     2.4140 
