~V
VERS. 2.00: Ver 2.00
~W
STRT.M 55.0000:
STOP.M 279.0000:
STEP.M 0.1250:
NULL. -999.2500:
UWI. F10072:
~C
DEPT.M :
GR.API :
RML.OHMM :
RI. :
RXO.OHMM :
CALI.CM :
DEN.GM/CC :
SP.MV :
~A
# ...
  201.2500    55.8790   172.1330   149.2180   135.4540    24.5300     2.2080   -22.6720 
  201.3750    56.5400   180.0640   157.0150   140.9580    24.4130     2.2010   -22.6150 
  201.5000    57.4670   186.6630   164.9140   141.7450    24.3570     2.1950   -22.5080 
  201.6250    57.9840   187.5420   169.0860   135.8970    24.2970     2.1890   -22.2680 
  201.7500    57.9570   181.0440   166.7920   126.9170    24.2330     2.1830   -21.7860 
  201.8750    57.5980   167.1950   156.8550   120.2620    24.2130     2.1790   -21.2090 
  202.0000    57.9840   148.3160   140.7000   122.7220    24.2490     2.1800   -20.6150 
  202.1250    59.8180   128.4920   121.9640   119.8410    24.2900     2.1880   -20.1300 
  202.2500    61.3440   111.4910   105.0020   102.3060    24.2780     2.2020   -19.7250 
  202.3750    61.8180    98.9020    91.8510    83.0950    24.2740     2.2190   -19.3100 
  202.5000    63.2370    90.9870    83.1290    75.4090    24.3180     2.2350   -18.9700 
  202.6250    66.0320    87.6370    79.0300    76.4870    24.3910     2.2450   -18.7630 
  202.7500    67.6960    86.8650    77.8320    78.5910    24.4240     2.2480   -18.7250 
  202.8750    66.5860    87.2940    78.2590    83.2250    24.4340     2.2460   -18.6810 
  203.0000    64.3640    87.6510    78.9160    92.2080    24.4360     2.2400   -18.6940 
  203.1250    63.5030    87.0030    78.5920    97.4670    24.4270     2.2360   -18.7060 
  203.2500    63.0960    85.7560    77.4290    93.3560    24.3610     2.2350   -18.7620 
  203.3750    62.1290    85.0360    76.2750    85.8490    24.1750     2.2380   -18.8170 
  203.5000    60.4110    86.4040    76.3160    78.6090    23.9090     2.2440   -18.8690 
  203.6250    59.0230    91.9840    79.4000    76.8440    23.7260     2.2450   -18.8000 
  203.7500    59.2290   101.3990    86.1790    85.7800    23.6710     2.2400   -18.6710 
  203.8750    59.7180   112.9580    96.4940   103.4380    23.7930     2.2260   -18.5420 
  204.0000    58.3720   123.2390   108.2320   120.6810    24.1520     2.2110   -18.3450 
  204.1250    56.3560   126.5250   115.6230   153.7160    24.5070     2.2120   -18.0350 
  204.2500    55.8270   121.0300   114.1900   172.3180    24.7440     2.2380   -17.6540 
  204.3750    57.2460   108.3070   103.8400   165.1890    24.9540     2.2910   -17.2580 
  204.5000    58.2020    93.0450    89.0520   124.0250    25.1470     2.3590   -16.7940 
  204.6250    58.4980    80.6580    75.8450    82.2160    25.0290     2.4220   -16.3240 
  204.7500    59.7460    72.5490    66.7260    57.0770    24.8990     2.4640   -15.7940 
  204.8750    61.0860    68.1620    61.6010    47.5150    24.9190     2.4890   -15.2490 
  205.0000    60.4720    66.4090    59.3680    56.4260    24.8310     2.5040   -14.6930 
  205.1250    56.7640    66.4110    58.9270    59.7230    24.6410     2.5130   -14.1610 
  205.2500    53.4130    66.8960    59.3350    58.1580    24.6390     2.5120   -13.6290 
  205.3750    52.6010    66.8030    60.2150    48.5970    24.7620     2.4950   -13.1020 
  205.5000    53.8190    64.5950    60.1910    43.1500    24.7690     2.4710   -12.5580 
  205.6250    55.2640    58.0340    55.6770    43.9650    24.6970     2.4700   -12.0210 
  205.7500    53.2970    47.6080    45.9400    56.8700    24.5630     2.5040   -11.4430 
  205.8750    49.8280    35.2510    33.5340    78.0310    24.4360     2.5610   -10.7600 
  206.0000    49.7710    23.4990    22.3180    52.3330    24.3810     2.6060    -9.9730 
  206.1250    55.1770    15.1090    14.9430    19.2000    24.3960     2.6010    -9.0850 
  206.2500    60.2640    10.0800    10.5270     9.1260    24.4130     2.5560    -8.1340 
  206.3750    61.8230     7.9930     8.1060     6.9780    24.4080     2.5000    -7.1870 
  206.5000    61.4550     7.1530     6.9290     6.9060    24.3630     2.4630    -6.2940 
  206.6250    61.4380     7.0050     6.6060     6.8990    24.2820     2.4570    -5.4660 
  206.7500    60.8520     7.0000     6.6270     6.8960    24.1570     2.4640    -4.7030 
  206.8750    60.2430     6.9290     6.7270     6.3050    24.0430     2.4670    -4.1150 
  207.0000    60.2010     6.7600     6.7920     5.7110    23.9720     2.4600    -3.6620 
  207.1250    60.7370     6.6100     6.8740     5.4420    23.9100     2.4450    -3.4470 
  207.2500    59.6940     6.5980     7.0340     5.5290    23.8410     2.4290    -3.3840 
  207.3750    55.8610     6.7370     7.2630     5.6970    23.8000     2.4170    -3.4100 
  207.5000    52.1800     6.9730     7.4970     5.8720    23.7890     2.4090    -3.4540 
  207.6250    51.8130     7.2090     7.6440     6.0560    23.7970     2.4050    -3.4720 
  207.7500    51.5950     7.3730     7.6900     6.1440    23.8150     2.4040    -3.4980 
  207.8750    49.3760     7.4510     7.6560     6.1010    23.8450     2.4050    -3.4980 
  208.0000    47.8920     7.4640     7.5800     5.9980    23.8850     2.4090    -3.4880 
  208.1250    50.0190     7.4610     7.4880     6.0140    23.9440     2.4140    -3.4070 
  208.2500    51.4630     7.4970     7.4050     6.0850    23.9700     2.4190    -3.2960 
  208.3750    50.4880     7.6130     7.3530     6.2240    23.9760     2.4240    -3.1700 
  208.5000    49.2660     7.8300     7.3320     6.3990    23.9630     2.4300    -3.0650 
  208.6250    50.6070     8.1530     7.3390     6.4340    23.9240     2.4370    -3.0760 
  208.7500    54.1860     8.5370     7.3700     6.4380    23.8700     2.4460    -3.1690 
  208.8750    59.1940     8.9300     7.4270     6.5580    23.8390     2.4550    -3.3470 
  209.0000    65.2050     9.2570     7.5070     6.7210    23.8320     2.4600    -3.6290 
  209.1250    72.4320     9.4090     7.5650     7.0620    23.8680     2.4590    -4.0100 
  209.2500    82.3800     9.3810     7.5480     7.3460    23.9430     2.4550    -4.4440 
  209.3750    92.9330     9.2430     7.4500     7.2990    23.9700     2.4490    -4.9800 
  209.5000    99.3030     9.1410     7.3240     6.8110    23.9480     2.4430    -5.6560 
  209.6250    98.6880     9.3120     7.3090     6.5640    23.9280     2.4350    -6.4720 
  209.7500    94.8190     9.8970     7.5200     7.2030    23.9690     2.4220    -7.4720 
  209.8750    90.6820    10.9920     8.0520     8.6210    24.0560     2.4040    -8.5430 
  210.0000    86.6030    12.5990     8.9620    10.1380    24.1290     2.3830    -9.7050 
  210.1250    83.3240    14.5820    10.2750    11.8160    24.1360     2.3660   -10.9100 
  210.2500    81.1080    16.4970    11.7520    14.1320    24.1130     2.3570   -12.1010 
  210.3750    79.4410    17.9060    13.0510    17.6380    24.0830     2.3580   -13.1720 
  210.5000    79.2800    18.4390    13.7480    20.4870    24.0350     2.3670   -14.0690 
  210.6250    81.5350    17.8380    13.4720    18.9120    23.9910     2.3770   -14.6950 
  210.7500    83.5740    16.5760    12.5820    15.9280    23.9530     2.3840   -15.0120 
  210.8750    84.9880    15.1340    11.4740    13.8470    23.8990     2.3870   -15.1480 
  211.0000    88.2120    13.9560    10.4910    11.5090    23.8610     2.3870   -15.1160 
  211.1250    92.9110    13.4010     9.9140    10.6610    23.8380     2.3850   -14.9720 
  211.2500    94.6900    13.3870     9.7530    10.7820    23.8170     2.3810   -14.7600 
  211.3750    94.7650    13.7760     9.9620    11.7400    23.8180     2.3780   -14.5180 
  211.5000    95.2370    14.3980    10.4420    12.4300    23.9040     2.3740   -14.2700 
  211.6250    93.8110    15.0780    11.0370    12.9750    24.1740     2.3730   -13.9880 
  211.7500    89.7940    15.6140    11.5450    13.3430    24.5140     2.3750   -13.7430 
  211.8750    86.6220    15.8340    11.8340    13.8650    24.6910     2.3810   -13.5080 
  212.0000    87.7460    15.6080    11.8230    14.2250    24.7140     2.3920   -13.2900 
  212.1250    90.2980    14.8630    11.4290    13.7710    24.7140     2.4060   -13.0310 
  212.2500    91.6060    13.8770    10.7940    13.2110    24.7520     2.4190   -12.7660 
  212.3750    91.8430    12.9500    10.0950    12.4970    24.7190     2.4290   -12.4960 
