~V
VERS. 2.00: Ver 2.00
~W
STRT.M 51.0000:
STOP.M 242.0000:
STEP.M 0.1250:
NULL. -999.2500:
UWI. F10056:
~C
DEPT.M :
GR.API :
RML.OHMM :
RI. :
RXO.OHMM :
CALI.CM :
SP.MV :
DEN.GM/CC :
~A
# ...
  197.2500    54.6600    91.7060    88.6160    86.5750    25.0590    -9.8390     2.2300 
  197.3750    55.7370   103.0980    99.3110    92.4950    25.1160    -9.8720     2.2230 
  197.5000    55.6850   113.7280   109.6090   100.1190    25.1330    -9.8970     2.2150 
  197.6250    54.8640   121.9300   117.8450   109.7710    25.1290    -9.8970     2.2070 
  197.7500    54.1610   127.7090   123.9710   134.6510    25.1450    -9.8870     2.1960 
  197.8750    53.8060   130.4530   127.5670   164.8300    25.1730    -9.8260     2.1820 
  198.0000    54.5730   128.3430   127.0640   147.1650    25.1970    -9.7820     2.1680 
  198.1250    57.5850   118.2440   119.2620   124.0300    25.2040    -9.7610     2.1620 
  198.2500    62.2770   102.1360   105.1940   124.0610    25.1670    -9.7550     2.1700 
  198.3750    65.1020    83.6340    87.7560   120.4890    25.1160    -9.7730     2.1870 
  198.5000    64.1150    66.7100    70.8920    83.5930    25.0760    -9.8020     2.2090 
  198.6250    62.2280    54.5380    58.2550    49.3310    25.0320    -9.8920     2.2240 
  198.7500    63.4980    46.8510    50.0650    37.9710    25.0140    -9.9650     2.2300 
  198.8750    66.3920    43.1670    45.9000    34.8390    25.0100   -10.1140     2.2310 
  199.0000    67.1550    42.9020    45.1740    35.2080    25.0160   -10.2970     2.2320 
  199.1250    65.5830    45.8830    47.7790    39.0080    25.0450   -10.5070     2.2430 
  199.2500    63.6390    50.9970    52.6500    48.5260    25.0910   -10.7510     2.2610 
  199.3750    60.8120    57.5910    59.1300    66.8050    25.1260   -11.0350     2.2760 
  199.5000    57.9050    64.9370    66.4040    77.8390    25.1670   -11.3870     2.2770 
  199.6250    57.0240    72.4250    73.6990    74.3700    25.2530   -11.7260     2.2590 
  199.7500    58.9640    79.8860    80.7680    73.8970    25.3710   -12.0820     2.2310 
  199.8750    61.9870    87.5070    87.7680    88.1510    25.4530   -12.3610     2.2060 
  200.0000    61.9770    95.4210    94.8400   103.5020    25.4560   -12.5530     2.1930 
  200.1250    58.3030   103.3250   101.7170   111.7240    25.4310   -12.7630     2.1950 
  200.2500    56.0220   110.3190   107.6990   112.0210    25.4140   -12.9390     2.2010 
  200.3750    57.4080   115.2310   111.8730   114.5930    25.4430   -13.1300     2.2050 
  200.5000    60.6330   116.9770   113.4230   117.4500    25.4930   -13.2570     2.2020 
  200.6250    61.2300   114.3960   111.4130   121.3900    25.5280   -13.4110     2.1950 
  200.7500    58.9310   108.6270   106.6620   120.1130    25.5270   -13.4880     2.1920 
  200.8750    56.9770   101.1460   100.2330   111.9550    25.5180   -13.5740     2.1930 
  201.0000    57.1520    93.9650    93.7700    95.0000    25.4970   -13.6770     2.1980 
  201.1250    57.0390    89.4480    89.4500    77.5980    25.4240   -13.7500     2.2000 
  201.2500    54.8670    88.2970    88.1540    69.1000    25.2990   -13.8810     2.1910 
  201.3750    53.0960    90.5760    90.0600    70.4490    25.1920   -14.0110     2.1730 
  201.5000    53.5320    95.3290    94.2930    73.8450    25.1030   -14.1580     2.1570 
  201.6250    55.3510    99.6130    98.0640    79.5000    25.0580   -14.2580     2.1600 
  201.7500    58.5900    99.7530    98.0250    82.5650    25.0920   -14.3680     2.1840 
  201.8750    61.9900    94.2950    92.8280    91.8610    25.1460   -14.5040     2.2220 
  202.0000    62.7460    85.1730    83.9950    96.1910    25.1150   -14.7210     2.2580 
  202.1250    60.8930    77.0210    75.4840    76.3850    25.0260   -14.9800     2.2770 
  202.2500    60.8250    73.4620    70.9030    57.0120    25.0010   -15.1950     2.2760 
  202.3750    62.3070    76.4210    72.3780    51.4220    25.0260   -15.3850     2.2620 
  202.5000    61.9460    87.3240    81.4660    60.8020    25.0710   -15.4660     2.2400 
  202.6250    58.3640   109.6070   101.1480    86.9190    25.0940   -15.4560     2.2140 
  202.7500    54.6470   142.7590   129.7550   149.9460    25.1030   -15.4860     2.1900 
  202.8750    52.9230   183.7710   163.2170   242.7790    25.1040   -15.5010     2.1720 
  203.0000    52.5590   222.6160   193.1080   291.6600    25.0870   -15.3580     2.1590 
  203.1250    52.2810   242.7980   208.2430   263.2910    25.0680   -15.1590     2.1470 
  203.2500    52.6890   245.3710   210.1190   214.2170    25.0620   -14.9610     2.1330 
  203.3750    54.0410   238.0680   204.0370   186.9760    25.0570   -14.7120     2.1190 
  203.5000    55.1800   226.5300   194.4010   160.9460    24.9610   -14.5510     2.1120 
  203.6250    55.4990   210.6960   181.7930   112.9500    24.7040   -14.3790     2.1220 
  203.7500    56.6700   189.9790   165.7310    70.6350    24.4070   -14.0870     2.1440 
  203.8750    59.7960   165.9060   146.8780    51.2730    24.1610   -13.8010     2.1720 
  204.0000    62.3530   142.3220   127.7640    42.9720    23.9290   -13.5490     2.1980 
  204.1250    61.5020   124.1400   112.2990    38.4040    23.6850   -13.2910     2.2130 
  204.2500    59.6660   112.1530   101.8040    33.6030    23.4180   -12.9760     2.2210 
  204.3750    58.5260   105.3700    95.8530    30.8790    23.1680   -12.6610     2.2210 
  204.5000    57.8180   101.6760    92.7830    28.0880    22.9740   -12.3020     2.2170 
  204.6250    57.7390    98.3760    90.2750    22.6460    22.7030   -12.0190     2.2170 
  204.7500    59.8120    93.2070    86.2170    18.6660    22.3240   -11.8180     2.2270 
  204.8750    62.4130    85.7160    80.0170    18.8410    22.0450   -11.6110     2.2460 
  205.0000    62.7290    77.1140    72.5230    19.3630    22.0530   -11.5160     2.2720 
  205.1250    61.1630    69.7510    65.7150    24.7280    22.2630   -11.4570     2.2930 
  205.2500    60.9780    64.9310    60.9670    32.3530    22.4870   -11.3910     2.3020 
  205.3750    61.8400    63.1710    58.9020    39.3260    22.7490   -11.3960     2.2980 
  205.5000    61.9960    64.6490    59.8470    39.0760    22.9960   -11.4080     2.2890 
  205.6250    62.1300    69.8760    64.4700    40.5640    23.2550   -11.3550     2.2810 
  205.7500    63.8670    78.3810    72.3650    49.6350    23.6280   -11.2760     2.2770 
  205.8750    65.7700    90.7920    84.1270    60.5100    24.0160   -11.1100     2.2780 
  206.0000    64.3020   108.2740   100.9710    66.6130    24.1950   -10.8180     2.2840 
  206.1250    58.2260   130.3760   123.0210    67.3580    24.1200   -10.4390     2.3050 
  206.2500    53.5660   145.1000   140.3200    73.1650    23.9430    -9.9720     2.3520 
  206.3750    54.0300   134.3260   136.1270   101.6120    23.7820    -9.3360     2.4210 
  206.5000    57.9090    96.8410   103.7170   144.0330    23.6960    -8.6230     2.4970 
  206.6250    61.3410    57.8480    63.0930   119.9360    23.7970    -7.8140     2.5470 
  206.7500    62.8550    32.1230    34.5810    44.5160    23.9030    -6.9770     2.5550 
  206.8750    63.0880    17.8650    18.8290    14.9030    24.0260    -6.1450     2.5220 
  207.0000    61.6280    10.7540    11.3080     6.9780    24.1790    -5.3580     2.4650 
  207.1250    58.3310     7.8050     8.3150     5.6460    24.2710    -4.6040     2.4040 
  207.2500    54.4320     6.4570     6.8950     5.6880    24.3490    -3.9550     2.3510 
  207.3750    50.8730     5.9040     6.2800     5.8750    24.4230    -3.4440     2.3110 
  207.5000    50.8670     5.7220     6.1150     5.7880    24.4410    -3.1830     2.2840 
  207.6250    57.8080     5.7210     6.2220     5.3040    24.3920    -3.2950     2.2720 
  207.7500    68.6800     5.8430     6.4860     5.0950    24.3590    -3.6780     2.2730 
  207.8750    78.5760     6.1440     6.9330     5.4570    24.3860    -4.3090     2.2840 
  208.0000    84.2850     6.6600     7.5970     6.1400    24.5360    -5.0660     2.3040 
  208.1250    86.2630     7.3560     8.4680     7.5440    24.7790    -5.9070     2.3280 
  208.2500    86.8350     8.0550     9.3480     8.3260    24.9960    -6.7600     2.3480 
  208.3750    87.1460     8.6010    10.0180     8.6760    25.0860    -7.6140     2.3610 
