~V
VERS. 2.00: Ver 2.00
~W
STRT.M 55.0000:
STOP.M 247.0000:
STEP.M 0.1250:
NULL. -999.2500:
UWI. F10032:
~C
DEPT.M :
GR.API :
RML.OHMM :
RI. :
RXO.OHMM :
CALI.CM :
DEN.GM/CC :
SP.MV :
~A
# ...
  122.5000   109.7790     5.9670     5.9420     5.4100    23.7670     2.3500    -9.0490 
  122.6250   110.1070     5.6050     5.6930     5.2640    23.7800     2.3590    -8.9710 
  122.7500   109.7580     5.4400     5.5580     5.4340    23.7820     2.3550    -8.8930 
  122.8750   110.3440     5.4810     5.5480     5.8120    23.7860     2.3430    -8.8480 
  123.0000   111.4810     5.6810     5.6500     6.2010    23.7640     2.3280    -8.8350 
  123.1250   108.7850     5.9680     5.8650     6.3220    23.7180     2.3200    -8.8380 
  123.2500   103.9330     6.2410     6.1180     6.4410    23.6910     2.3240    -8.8540 
  123.3750   101.0370     6.4240     6.3050     6.5940    23.8290     2.3370    -8.8460 
  123.5000   100.2170     6.4560     6.3430     6.4020    24.2150     2.3550    -8.8050 
  123.6250    98.9340     6.2860     6.2020     6.1260    24.6300     2.3710    -8.7610 
  123.7500    99.2680     5.9890     5.9520     5.8650    24.9050     2.3810    -8.7380 
  123.8750   103.5540     5.6620     5.6550     5.5050    24.9970     2.3870    -8.7510 
  124.0000   108.7760     5.4120     5.3960     5.1760    25.0290     2.3940    -8.7620 
  124.1250   109.3300     5.3430     5.2670     5.0260    25.0370     2.4060    -8.7610 
  124.2500   105.7360     5.4440     5.2570     5.2290    25.0090     2.4200    -8.7530 
  124.3750   102.3930     5.6910     5.3630     6.0440    24.9930     2.4280    -8.7680 
  124.5000   101.6410     6.0460     5.5950     7.0570    25.0240     2.4240    -8.8230 
  124.6250   102.3110     6.4550     5.9400     6.4810    25.0860     2.4030    -8.9610 
  124.7500    99.5980     6.8480     6.2890     6.1650    25.0650     2.3730    -9.1530 
  124.8750    93.6310     7.1730     6.5670     6.5010    24.9640     2.3420    -9.3220 
  125.0000    88.8590     7.3720     6.7390     6.9370    24.7740     2.3180    -9.4880 
  125.1250    88.9260     7.3380     6.7550     7.1700    24.5990     2.3040    -9.6590 
  125.2500    90.3750     7.1000     6.6330     7.0690    24.5510     2.2940    -9.8520 
  125.3750    90.2280     6.8290     6.4650     7.0290    24.5900     2.2840   -10.0710 
  125.5000    89.1390     6.8520     6.4510     7.2260    24.6110     2.2770   -10.3120 
  125.6250    88.5930     7.6310     6.8970     7.6500    24.6380     2.2890   -10.5210 
  125.7500    85.3330     9.2060     7.9020     8.4860    24.6880     2.3330   -10.7120 
  125.8750    76.9910    11.3920     9.4730    12.1390    24.7190     2.4050   -10.9120 
  126.0000    67.1480    13.6050    11.3360    23.9670    24.7200     2.4740   -11.1490 
  126.1250    63.4350    14.6810    12.6160    32.4280    24.6780     2.4940   -11.4400 
  126.2500    66.2940    14.2920    12.7590    22.5320    24.5840     2.4540   -11.7220 
  126.3750    70.8040    13.0130    12.0320    13.1000    24.4800     2.3730   -11.9410 
  126.5000    72.4310    11.7540    11.1110     9.8790    24.4800     2.2840   -12.0700 
  126.6250    72.7330    11.1800    10.5410     9.5770    24.6980     2.2240   -12.0780 
  126.7500    73.7490    11.1280    10.3510    10.1260    25.0150     2.2000   -11.9660 
  126.8750    76.3530    11.1740    10.3410    11.5380    25.1510     2.2050   -11.7820 
  127.0000    80.9160    10.8570    10.1670    12.6890    25.3300     2.2310   -11.5330 
  127.1250    88.9680     9.9580     9.5420    10.1580    24.9370     2.2660   -11.2110 
  127.2500    95.1870     8.8890     8.6970     7.5050    24.8500     2.2970   -10.8560 
  127.3750    95.2020     8.0200     7.9200     6.5850    24.8310     2.3170   -10.5090 
  127.5000    90.7670     7.5330     7.3850     6.6550    24.8350     2.3250   -10.1840 
  127.6250    88.4560     7.4040     7.1420     6.9000    24.7950     2.3210    -9.9520 
  127.7500    89.5710     7.3330     7.0470     7.0000    24.7200     2.3120    -9.7880 
  127.8750    91.0970     7.1680     6.9830     7.0710    24.6620     2.3010    -9.6910 
  128.0000    90.4900     6.9800     6.9270     7.1640    24.6940     2.2920    -9.6530 
  128.1250    88.2420     7.0920     7.0460     7.0900    24.7410     2.3010    -9.6260 
  128.2500    87.2530     7.6810     7.4970     7.1400    24.7790     2.3360    -9.6110 
  128.3750    86.4010     8.7540     8.3310     8.5000    24.7810     2.3950    -9.6040 
  128.5000    82.1360    10.0980     9.4440    12.6790    24.7450     2.4540    -9.6230 
  128.6250    75.2720    11.1770    10.4920    17.5300    24.6440     2.4790    -9.6760 
  128.7500    72.5250    11.5290    11.0310    15.1040    24.5290     2.4580    -9.7690 
  128.8750    73.8320    11.0590    10.8350    10.9960    24.4380     2.4060    -9.8710 
  129.0000    77.0200    10.0450    10.0470     9.3630    24.4020     2.3480    -9.9580 
  129.1250    79.4890     8.9420     9.0630     9.1080    24.4050     2.3130   -10.0530 
  129.2500    79.8570     8.1180     8.2370     8.0300    24.4850     2.2990   -10.1200 
  129.3750    79.4740     7.7080     7.6380     7.5140    24.5330     2.2960   -10.1870 
  129.5000    80.1580     7.5670     7.2550     7.5510    24.5450     2.2900   -10.2640 
  129.6250    80.1830     7.4000     7.2010     7.8500    24.5650     2.2790   -10.3160 
  129.7500    77.5330     7.6100     7.5930     8.0990    24.6220     2.2790   -10.3490 
  129.8750    74.3870     9.1530     8.6380     8.2330    24.6820     2.3070   -10.3370 
  130.0000    72.3040    11.5870    10.5840     9.5650    24.6770     2.3710   -10.2880 
  130.1250    68.2410    15.1580    13.6650    15.9580    24.5980     2.4550   -10.2040 
  130.2500    63.0150    18.4490    16.9870    27.2670    24.5610     2.5200   -10.1320 
  130.3750    62.0080    19.7780    18.9190    30.3700    24.6440     2.5420   -10.0840 
  130.5000    66.0520    18.1910    18.1790    21.3200    24.5930     2.5130   -10.0440 
  130.6250    71.0680    14.5590    15.2550    15.3670    24.5660     2.4510    -9.9770 
  130.7500    75.8650    11.1230    12.2280    11.1290    24.4970     2.3900    -9.8850 
  130.8750    81.2920     9.4680     9.9790     8.9480    24.5050     2.3450    -9.8030 
  131.0000    86.3020     8.8220     8.7360     8.5820    24.5280     2.3200    -9.7510 
  131.1250    86.4750     8.9090     8.6000     9.3480    24.5310     2.3220    -9.7510 
  131.2500    82.4040     9.3330     9.3920     9.4900    24.5560     2.3480    -9.7910 
  131.3750    76.1150    11.6140    11.1700    10.2350    24.5640     2.3930    -9.8390 
  131.5000    68.4770    14.5850    13.8600    14.2530    24.5090     2.4470    -9.8790 
  131.6250    62.2810    17.4100    16.8830    21.1130    24.1680     2.4870    -9.9260 
  131.7500    59.4740    19.0670    19.1300    24.0680    23.9560     2.5000    -9.9920 
  131.8750    59.7390    19.1830    20.0020    22.1910    23.8700     2.4860   -10.0990 
  132.0000    60.8600    18.2730    19.7120    18.5350    23.8380     2.4510   -10.2270 
  132.1250    62.1080    17.4230    19.0680    16.3270    23.9260     2.4020   -10.3370 
  132.2500    64.0110    17.3650    18.8590    15.8360    24.2160     2.3500   -10.4160 
  132.3750    65.3760    18.1730    19.3200    19.9180    24.6290     2.3020   -10.4640 
  132.5000    65.4530    19.5220    20.3300    27.0330    24.9110     2.2640   -10.4830 
  132.6250    66.6330    20.8910    21.6200    27.6590    24.9620     2.2470   -10.5110 
  132.7500    68.3110    22.0030    22.9210    24.5890    24.9490     2.2480   -10.5600 
  132.8750    68.4290    23.0370    24.2210    23.6350    24.9180     2.2560   -10.6040 
  133.0000    67.0950    24.4790    25.7440    23.6080    24.8070     2.2590   -10.6180 
  133.1250    66.3020    27.0800    28.1100    23.0420    24.5340     2.2450   -10.6160 
  133.2500    65.6250    30.8350    31.5680    27.2590    24.1740     2.2170   -10.6020 
  133.3750    63.8510    40.0950    35.7060    35.1350    23.9050     2.1850   -10.5750 
  133.5000    62.4560    45.0900    39.0900    40.6200    23.7880     2.1630   -10.5440 
  133.6250    62.3220    44.5120    39.2700    41.7690    23.7300     2.1630   -10.5290 
