~V
VERS. 2.00: Ver 2.00
~W
STRT.M 55.0000:
STOP.M 308.0000:
STEP.M 0.1250:
NULL. -999.2500:
UWI. F10053:
~C
DEPT.M :
GR.API :
RML.OHMM :
RI. :
RXO.OHMM :
CALI.CM :
DEN.GM/CC :
SP.MV :
~A
# ...
   88.7500    85.9530     6.5270     6.1390     6.6400    24.6200     2.2330    -9.4760 
   88.8750    83.8770     6.4400     6.0360     6.7050    24.5690     2.2240    -9.3690 
   89.0000    82.4670     6.7340     6.2370     6.7640    24.5910     2.2170    -9.1850 
   89.1250    82.2800     7.2480     6.5950     6.7810    24.6130     2.2150    -8.8600 
   89.2500    79.9980     7.8150     6.9680     7.3630    24.6170     2.2170    -8.5790 
   89.3750    75.3510     8.3330     7.2890     8.0070    24.5730     2.2220    -8.5010 
   89.5000    73.1760     8.7070     7.5050     8.3750    24.4640     2.2310    -8.4930 
   89.6250    78.7260     8.8550     7.5380     8.3010    24.4480     2.2440    -8.2910 
   89.7500    86.0690     8.8340     7.3870     7.7740    24.5220     2.2590    -7.8520 
   89.8750    90.2790     8.7150     7.0940     6.7760    24.6290     2.2720    -7.2690 
   90.0000    91.4100     8.5500     6.7530     6.2150    24.6910     2.2780    -6.6090 
   90.1250    91.9770     8.3410     6.4930     5.9720    24.6930     2.2780    -5.9360 
   90.2500    92.9910     8.0680     6.3490     5.9810    24.6340     2.2780    -5.3240 
   90.3750    93.7060     7.7420     6.2880     5.9400    24.5170     2.2820    -4.7790 
   90.5000    94.0520     7.4290     6.2620     5.9090    24.4240     2.2850    -4.3980 
   90.6250    93.1650     7.2590     6.2640     5.7510    24.3840     2.2750    -4.5050 
   90.7500    92.1970     7.2630     6.3320     5.5790    24.3690     2.2470    -5.1860 
   90.8750    90.9710     7.3930     6.4980     5.6740    24.3040     2.2050    -6.3950 
   91.0000    86.9060     7.5680     6.7350     6.6090    24.0970     2.1570    -7.9480 
   91.1250    78.1530     7.8120     7.0120     8.6430    23.8210     2.1210    -9.6400 
   91.2500    69.2330     8.3380     7.4110    10.1500    23.7110     2.1160   -11.2930 
   91.3750    63.3800     9.4650     8.1620    10.9250    23.9570     2.1590   -12.7450 
   91.5000    60.8290    11.4340     9.5320    11.6170    24.4020     2.2530   -13.8500 
   91.6250    60.6080    14.1500    11.7750    14.9120    24.5680     2.3710   -14.3100 
   91.7500    62.4080    16.5640    14.3280    25.0920    24.5990     2.4630   -14.0390 
   91.8750    65.2330    17.4910    15.9520    45.1310    24.5600     2.4980   -13.0620 
   92.0000    69.6690    16.2350    15.2760    47.7680    24.4940     2.4750   -11.5750 
   92.1250    78.9070    13.0910    12.3570    24.8440    24.4250     2.4210    -9.8710 
   92.2500    90.5030     9.7480     9.2790     9.9100    24.3960     2.3780    -8.1340 
   92.3750    99.6680     7.1920     6.9560     5.9590    24.3900     2.3590    -6.4840 
   92.5000   104.1320     5.7300     5.5410     4.9710    24.3890     2.3600    -5.0770 
   92.6250   106.8650     5.2770     4.9740     4.5900    24.3880     2.3680    -4.1000 
   92.7500   109.7930     5.2930     4.8800     4.4330    24.3870     2.3720    -3.5230 
   92.8750   110.3140     5.4730     5.0390     4.3510    24.3860     2.3660    -3.2100 
   93.0000   108.5670     5.6250     5.2580     4.3360    24.3830     2.3510    -3.0650 
   93.1250   109.0790     5.6530     5.4040     4.2630    24.3780     2.3330    -3.0150 
   93.2500   112.6680     5.5930     5.4230     4.1040    24.3820     2.3230    -2.9940 
   93.3750   114.2270     5.4820     5.2880     4.0800    24.3680     2.3220    -3.0600 
   93.5000   111.3570     5.3560     5.0470     4.2560    24.3190     2.3260    -3.1610 
   93.6250   106.0230     5.2750     4.8400     4.6470    24.2540     2.3220    -3.2570 
   93.7500   100.7980     5.3190     4.8040     4.5900    24.2110     2.3080    -3.4490 
   93.8750    95.9100     5.6090     5.0200     4.9100    24.1960     2.2950    -3.8860 
   94.0000    89.7400     6.3000     5.5530     6.6740    24.1920     2.3020    -4.5580 
   94.1250    83.2610     7.7030     6.5810    10.5070    24.1760     2.3510    -5.2180 
   94.2500    78.2630     9.9170     8.2080    12.9580    24.1290     2.4360    -5.7750 
   94.3750    73.5460    13.0260    10.6420    14.1360    24.0560     2.5390    -6.2460 
   94.5000    68.0310    16.8590    13.9990    19.8860    24.0080     2.6340    -6.7750 
   94.6250    64.7450    20.6130    17.8880    28.9150    23.9590     2.6780    -7.4830 
   94.7500    65.7380    23.0030    20.8570    31.7060    23.8410     2.6560    -8.2940 
   94.8750    67.5300    23.1130    21.5400    31.7700    23.6120     2.5700    -9.2490 
   95.0000    66.9540    20.9210    19.6440    32.5460    23.3000     2.4460   -10.4280 
   95.1250    65.8930    17.3640    16.2300    25.5000    23.0500     2.3260   -11.9520 
   95.2500    66.1060    14.0300    13.0350    15.7910    23.0300     2.2370   -13.7060 
   95.3750    67.9470    11.6290    10.6660    11.2780    23.0980     2.1840   -15.6140 
   95.5000    69.1370    10.3000     9.1760    10.3650    23.1960     2.1560   -17.5800 
   95.6250    66.4980     9.9590     8.5200    10.5710    23.4390     2.1400   -19.4200 
   95.7500    64.7930    10.1400     8.3870    10.8300    23.7670     2.1290   -21.0440 
   95.8750    67.1290    10.5550     8.5990    10.9710    23.9900     2.1220   -22.3180 
   96.0000    70.3690    10.9470     8.9570    11.3570    24.1440     2.1190   -23.1370 
   96.1250    69.3140    11.0930     9.2730    11.6750    24.2960     2.1190   -23.5950 
   96.2500    67.0370    11.0010     9.4710    11.9090    24.3340     2.1210   -23.8290 
   96.3750    67.3390    10.7690     9.5370    12.0760    24.2190     2.1260   -23.8170 
   96.5000    67.8220    10.5340     9.4850    12.1070    23.9630     2.1360   -23.5790 
   96.6250    67.4280    10.4100     9.3400    11.8070    23.6860     2.1480   -23.1570 
   96.7500    68.1060    10.3820     9.1770    11.3740    23.4750     2.1570   -22.6850 
   96.8750    69.9740    10.4050     9.0510    11.2550    23.1700     2.1610   -22.2410 
   97.0000    71.6490    10.4390     8.9900    11.4460    22.8550     2.1620   -21.7970 
   97.1250    69.7030    10.4860     8.9870    11.6430    22.8330     2.1640   -21.3600 
   97.2500    65.9820    10.5530     8.9920    11.5880    23.1340     2.1670   -21.0250 
   97.3750    64.3620    10.6200     8.9710    11.6630    23.5780     2.1690   -20.7480 
   97.5000    65.6040    10.6310     8.9040    11.7730    23.9230     2.1660   -20.3940 
   97.6250    67.2650    10.5090     8.7680    11.9390    23.9450     2.1560   -20.0080 
   97.7500    69.6060    10.2720     8.5740    11.6950    23.8270     2.1470   -19.5250 
   97.8750    74.1410     9.9740     8.3410    10.6860    23.6410     2.1440   -18.8270 
   98.0000    78.2740     9.6810     8.1070     9.6930    23.5080     2.1480   -18.0540 
   98.1250    77.0160     9.4520     7.9230     8.9860    23.4440     2.1580   -17.2710 
   98.2500    73.3680     9.2940     7.7990     9.0700    23.4170     2.1660   -16.5040 
   98.3750    70.5690     9.2110     7.7410     9.2200    23.4080     2.1700   -15.8270 
   98.5000    69.2020     9.2070     7.7710     9.2920    23.4120     2.1690   -15.3560 
   98.6250    69.1290     9.3220     7.9390     9.4650    23.4140     2.1630   -15.0650 
   98.7500    70.2440     9.5610     8.2150     9.6120    23.4140     2.1550   -14.9530 
   98.8750    71.1180     9.9140     8.5450    10.1600    23.4510     2.1450   -15.1100 
   99.0000    69.8730    10.3200     8.8460    11.7010    23.5670     2.1340   -15.4970 
   99.1250    65.8970    10.6360     9.0120    13.4430    23.7010     2.1260   -16.0290 
   99.2500    62.9700    10.7400     9.0130    12.9670    23.8440     2.1220   -16.5870 
   99.3750    64.1730    10.5860     8.8660    11.5910    23.9800     2.1220   -17.1060 
   99.5000    68.1230    10.2120     8.6210    10.7190    24.0510     2.1270   -17.5480 
   99.6250    70.8420     9.7260     8.3390    10.2520    24.0740     2.1350   -17.8450 
   99.7500    72.6130     9.2800     8.0770     9.8440    24.0950     2.1440   -18.0160 
   99.8750    74.5700     8.9580     7.8590     9.6120    24.1160     2.1500   -18.0720 
