~V
VERS. 2.00: Ver 2.00
~W
STRT.M 59.0000:
STOP.M 275.0000:
STEP.M 0.1250:
NULL. -999.2500:
UWI. F10021:
~C
DEPT.M :
GR.API :
RML.OHMM :
RI. :
RXO.OHMM :
CALI.CM :
DEN.GM/CC :
SP.MV :
~A
# ...
  194.0000    46.9730     5.3810     5.0090     4.3830    23.7670     2.5360   -11.3370 
  194.1250    42.2560     5.2610     4.7790     4.3120    23.6930     2.5220   -11.1860 
  194.2500    40.5530     5.3110     4.7410     4.3010    23.6540     2.4980   -11.0300 
  194.3750    41.4060     5.4760     4.8490     4.3770    23.6590     2.4730   -10.8870 
  194.5000    44.2740     5.7050     5.0500     4.5650    23.7000     2.4560   -10.7280 
  194.6250    43.8820     5.9400     5.2920     4.8620    23.7690     2.4510   -10.6280 
  194.7500    39.4420     6.1340     5.5190     5.1650    23.8220     2.4560   -10.5510 
  194.8750    35.4600     6.2780     5.7010     5.3890    23.8420     2.4670   -10.5080 
  195.0000    35.6210     6.3690     5.8220     5.4830    23.8250     2.4770   -10.5080 
  195.1250    37.2540     6.4110     5.8720     5.4800    23.7800     2.4830   -10.5450 
  195.2500    36.7500     6.4180     5.8770     5.4630    23.7340     2.4860   -10.6220 
  195.3750    37.2800     6.3960     5.8560     5.4890    23.6940     2.4870   -10.7370 
  195.5000    39.8060     6.3290     5.8290     5.5560    23.6650     2.4870   -10.9130 
  195.6250    40.2440     6.2670     5.8170     5.6450    23.6440     2.4870   -11.1130 
  195.7500    38.5240     6.2760     5.8340     5.7400    23.6260     2.4890   -11.3520 
  195.8750    38.1700     6.4280     5.8970     5.8360    23.6110     2.4940   -11.6240 
  196.0000    40.2610     6.6340     6.0120     5.9350    23.5920     2.5030   -11.9580 
  196.1250    43.5460     6.8970     6.1830     6.0760    23.5800     2.5160   -12.3400 
  196.2500    47.8470     7.1910     6.3810     6.3130    23.5610     2.5300   -12.7950 
  196.3750    54.0230     7.4950     6.5800     6.6370    23.5350     2.5420   -13.3000 
  196.5000    62.0690     7.8010     6.7670     6.9440    23.4690     2.5480   -13.8410 
  196.6250    71.3350     8.1410     6.9630     7.2150    23.2690     2.5430   -14.4330 
  196.7500    78.4440     8.5690     7.2170     7.4910    22.9210     2.5300   -15.0310 
  196.8750    81.1740     9.1360     7.5850     7.9360    22.4940     2.5100   -15.6460 
  197.0000    80.2130     9.8620     8.1010     8.7000    22.1660     2.4870   -16.2180 
  197.1250    77.0970    10.7350     8.7830     9.9750    22.2850     2.4670   -16.7550 
  197.2500    72.6780    11.6630     9.5650    11.5700    22.8650     2.4510   -17.1910 
  197.3750    68.7160    12.6210    10.4130    13.1000    23.4990     2.4420   -17.5260 
  197.5000    67.0930    13.6910    11.3550    14.3000    23.8770     2.4390   -17.7620 
  197.6250    67.0580    15.1900    12.5770    15.3130    24.0310     2.4380   -17.8450 
  197.7500    65.7230    17.3170    14.2330    16.8250    24.1570     2.4330   -17.8440 
  197.8750    62.7900    20.0580    16.3590    18.9740    24.2660     2.4230   -17.7190 
  198.0000    60.7240    22.9740    18.7100    22.0150    24.3110     2.4100   -17.5080 
  198.1250    60.9810    24.9370    20.5160    25.7580    24.2550     2.4030   -17.1520 
  198.2500    60.7470    25.0620    21.0200    28.0180    24.0990     2.4080   -16.7080 
  198.3750    58.3720    23.0350    19.8290    27.6880    23.8710     2.4230   -16.1840 
  198.5000    57.2200    19.4110    17.2090    24.2530    23.6470     2.4420   -15.5940 
  198.6250    61.0520    15.4300    14.0310    17.2300    23.5150     2.4560   -14.9830 
  198.7500    64.6730    12.1610    11.2370    11.5330    23.5120     2.4590   -14.3480 
  198.8750    63.0940     9.8570     9.1300     8.7420    23.5570     2.4520   -13.7560 
  199.0000    56.9920     8.3890     7.6970     7.6370    23.4930     2.4410   -13.2090 
  199.1250    51.7220     7.5740     6.8610     6.8900    23.3160     2.4370   -12.7690 
  199.2500    48.9750     7.0830     6.3630     6.1200    23.0930     2.4400   -12.3980 
  199.3750    47.0170     6.7840     6.0830     5.5660    22.8880     2.4500   -12.1240 
  199.5000    44.1110     6.6030     5.9360     5.3220    22.7320     2.4620   -11.9560 
  199.6250    40.6510     6.5190     5.8860     5.2520    22.6090     2.4690   -11.8650 
  199.7500    38.3660     6.5010     5.8930     5.2300    22.4980     2.4700   -11.8170 
  199.8750    38.2670     6.5310     5.9400     5.2360    22.4060     2.4670   -11.8010 
  200.0000    40.2920     6.5930     6.0110     5.2840    22.3510     2.4630   -11.7890 
  200.1250    41.8300     6.6780     6.0990     5.4260    22.3670     2.4640   -11.7610 
  200.2500    40.6710     6.7710     6.1920     5.5700    22.4460     2.4690   -11.7650 
  200.3750    37.8240     6.8610     6.2830     5.6930    22.5340     2.4790   -11.7710 
  200.5000    35.9080     6.9400     6.3630     5.8130    22.5530     2.4900   -11.7570 
  200.6250    37.1480     7.0030     6.4160     5.8270    22.4460     2.4990   -11.7650 
  200.7500    39.1100     7.0530     6.4360     5.7650    22.2350     2.5020   -11.7780 
  200.8750    39.8910     7.0850     6.4170     5.6640    21.9600     2.4990   -11.7700 
  201.0000    40.3330     7.0820     6.3550     5.5390    21.7200     2.4910   -11.7840 
  201.1250    41.9410     7.0180     6.2460     5.4410    21.6820     2.4830   -11.7970 
  201.2500    42.5000     6.8950     6.1060     5.3980    21.8360     2.4780   -11.7930 
  201.3750    41.6500     6.7240     5.9470     5.3800    22.1430     2.4760   -11.7700 
  201.5000    42.5840     6.5230     5.7820     5.3480    22.4310     2.4760   -11.7130 
  201.6250    46.0250     6.3170     5.6240     5.2350    22.5700     2.4760   -11.6540 
  201.7500    46.6150     6.1260     5.4780     5.0990    22.5680     2.4720   -11.6040 
  201.8750    43.4760     5.9640     5.3490     4.9920    22.4890     2.4650   -11.5470 
  202.0000    40.4760     5.8390     5.2390     4.9260    22.3760     2.4540   -11.5090 
  202.1250    40.1940     5.7590     5.1570     4.9080    22.2750     2.4430   -11.4990 
  202.2500    39.7660     5.7090     5.1000     4.9530    22.2270     2.4340   -11.5000 
  202.3750    38.5080     5.6800     5.0700     5.0870    22.2580     2.4290   -11.5460 
  202.5000    38.1240     5.6660     5.0630     5.3270    22.3360     2.4280   -11.6200 
  202.6250    39.8770     5.6680     5.0840     5.6100    22.3740     2.4280   -11.6730 
  202.7500    42.7420     5.6970     5.1350     5.9020    22.3620     2.4310   -11.7150 
  202.8750    46.5090     5.7740     5.2300     6.1550    22.3460     2.4360   -11.7510 
  203.0000    49.5030     5.9240     5.3820     6.2130    22.3900     2.4430   -11.7550 
  203.1250    50.5650     6.1680     5.6020     6.1150    22.5380     2.4510   -11.7600 
  203.2500    52.4990     6.4570     5.8510     6.0650    22.7710     2.4590   -11.7190 
  203.3750    57.1370     6.7310     6.0790     6.1930    23.0470     2.4650   -11.6430 
  203.5000    63.0820     6.9250     6.2350     6.4150    23.2920     2.4700   -11.5920 
  203.6250    66.8930     6.9790     6.2650     6.5630    23.4310     2.4740   -11.5230 
  203.7500    68.1170     6.9280     6.1960     6.5390    23.4810     2.4770   -11.4620 
  203.8750    66.9000     6.8200     6.0650     6.3510    23.4640     2.4810   -11.4620 
  204.0000    64.9560     6.7060     5.9190     6.3140    23.4110     2.4840   -11.4740 
  204.1250    66.9220     6.6220     5.8000     6.4890    23.3490     2.4820   -11.4790 
  204.2500    71.2750     6.5860     5.7280     6.7870    23.2900     2.4740   -11.5430 
  204.3750    72.6490     6.6320     5.7310     7.0820    23.2510     2.4590   -11.6100 
  204.5000    69.5860     6.8370     5.8590     7.4250    23.2420     2.4380   -11.6680 
  204.6250    66.0270     7.3730     6.2340     8.0820    23.2290     2.4160   -11.7830 
  204.7500    64.8040     8.3150     6.9220     9.3290    23.1930     2.3970   -11.9040 
  204.8750    64.4280     9.7020     7.9870    11.2730    23.1250     2.3860   -12.0170 
  205.0000    63.4050    11.4620     9.4240    13.7220    23.0770     2.3850   -12.1600 
  205.1250    62.6680    13.3890    11.1370    16.5210    23.1410     2.3890   -12.3280 
