~V
VERS. 2.00: Ver 2.00
~W
STRT.M 57.0000:
STOP.M 255.0000:
STEP.M 0.1250:
NULL. -999.2500:
UWI. F10046:
~C
DEPT.M :
GR.API :
RML.OHMM :
RI. :
RXO.OHMM :
CALI.CM :
DEN.GM/CC :
SP.MV :
~A
# ...
  248.2500    58.8280    15.1090    14.9490    15.7410    23.9000     2.4160    -3.3540 
  248.3750    58.8280    15.0960    15.0030    14.4600    24.1380     2.4450    -3.3690 
  248.5000    58.8280    15.0890    15.0470    13.7020    24.4260     2.4700    -3.3510 
  248.6250    58.8280    15.0780    15.0690    14.4420    24.5260     2.4750    -3.3000 
  248.7500    58.8280    15.0670    15.0770    15.7890    24.5960     2.4700    -3.2710 
  248.8750    58.8280    15.0560    15.0830    16.8420    24.6450     2.4690    -3.2560 
  249.0000    58.8280    15.0370    15.0910    17.1550    24.6350     2.4820    -3.2410 
  249.1250    58.8280    15.0060    15.1000    17.5220    24.6090     2.5060    -3.2010 
  249.2500    58.8280    14.9770    15.1090    18.0430    24.6930     2.5330    -3.1710 
  249.3750    58.8280    14.9610    15.1160    18.7180    24.7360     2.5520    -3.1810 
  249.5000    58.8280    14.9560    15.1190    18.8660    24.7570     2.5590    -3.2710 
  249.6250    58.8280    14.9540    15.1200    19.0260    24.7430     2.5430    -3.4790 
  249.7500    58.8280    14.9490    15.1210    19.9330    24.6950     2.5070    -3.6960 
  249.8750    58.8280    14.9430    15.1230    21.4470    24.6500     2.4610    -3.9080 
  250.0000    58.8280    14.9400    15.1250    22.9420    24.6250     2.4260    -4.1020 
  250.1250    58.8280    14.9450    15.1260    23.0960    24.5670     2.4230    -4.2980 
  250.2500    58.8280    14.9550    15.1270    22.1540    24.3850     2.4470    -4.4370 
  250.3750    58.8280    14.9660    15.1260    20.4940    24.2800     2.4800    -4.5440 
  250.5000    58.8280    14.9730    15.1250    18.9640    24.3930     2.4990    -4.5650 
  250.6250    58.8280    14.9730    15.1240    16.3190    24.5300     2.4840    -4.5650 
  250.7500    58.8280    14.9690    15.1230    13.4520    24.6520     2.4470  -999.2500 
  250.8750    58.8280    14.9650    15.1230    11.0560    24.6820     2.4000  -999.2500 
  251.0000    58.8280    14.9630    15.1230    10.3200    24.6380     2.3530  -999.2500 
  251.1250    58.8280    14.9630    15.1230    11.3000    24.5370     2.3090  -999.2500 
  251.2500    58.8280    14.9630    15.1230    13.0490    24.4780     2.2690  -999.2500 
  251.3750    58.8280    14.9630    15.1230    14.9060    24.4490     2.2320  -999.2500 
  251.5000    58.8280    14.9630    15.1230    16.1380    24.3270     2.2000  -999.2500 
  251.6250    58.8280    14.9630    15.1230    14.8900    23.7190     2.1740  -999.2500 
  251.7500    58.8280    14.9630    15.1230    11.7860    22.2420     2.1530  -999.2500 
  251.8750    58.8280    14.9630    15.1230     8.2260    20.0230     2.1350  -999.2500 
  252.0000    58.8280    14.9630    15.1230     6.3000    17.5020     2.1210  -999.2500 
  252.1250    58.8280    14.9630    15.1230     5.9280    15.9070     2.1080  -999.2500 
  252.2500    58.8280    14.9630    15.1230     5.9610    15.3230     2.0970  -999.2500 
  252.3750    58.8280    14.9630    15.1230     6.0080    15.2290     2.0890  -999.2500 
  252.5000    58.8280    14.9630    15.1230     6.0170    15.2270     2.0840  -999.2500 
  252.6250    58.8280    14.9630    15.1230     6.0170    15.2270     2.0840  -999.2500 
  252.7500    58.8280    14.9630    15.1230     6.0170    15.2270     2.0850  -999.2500 
  252.8750    58.8280    14.9630    15.1230     6.0170    15.2270     2.0870  -999.2500 
  253.0000    58.8280    14.9630    15.1230     6.0180    15.2270     2.0880  -999.2500 
  253.1250    58.8280    14.9630    15.1230     6.0180    15.2270     2.0870  -999.2500 
  253.2500    58.8280    14.9630    15.1230     6.0170    15.2270     2.0860  -999.2500 
  253.3750    58.8280    14.9630    15.1230     6.0160    15.2270     2.0840  -999.2500 
  253.5000    58.8280    14.9630    15.1230     6.0160    15.2270     2.0820  -999.2500 
  253.6250    58.8280    14.9630    15.1230     6.0160    15.2270     2.0820  -999.2500 
  253.7500    58.8280    14.9630    15.1230     6.0160    15.2270     2.0830  -999.2500 
  253.8750    58.8280    14.9630    15.1230     6.0160    15.2270     2.0840  -999.2500 
  254.0000    58.8280    14.9630    15.1230     6.0160    15.2270     2.0840  -999.2500 
  254.1250    58.8280    14.9630    15.1230     6.0160    15.2270     2.0850  -999.2500 
  254.2500    58.8280    14.9630    15.1230     6.0150    15.2270     2.0860  -999.2500 
  254.3750    58.8280    14.9630    15.1230     6.0140    15.2260     2.0860  -999.2500 
  254.5000    58.8280    14.9630    15.1230     6.0140    15.2220     2.0840  -999.2500 
  254.6250    58.8280    14.9630    15.1230     6.0130    15.2190     2.0810  -999.2500 
  254.7500    58.8280    14.9630    15.1230     6.0130    15.2180     2.0780  -999.2500 
  254.8750    58.8280    14.9630    15.1230     6.0140    15.2180     2.0750  -999.2500 
  255.0000    58.8280    14.9630    15.1230     6.0140    15.2180     2.0730  -999.2500 
