~V
VERS. 2.00: Ver 2.00
~W
STRT.M 50.0000:
STOP.M 265.0000:
STEP.M 0.1250:
NULL. -999.2500:
UWI. F10025:
~C
DEPT.M :
SP.MV :
DEN.GM/CC :
GR.API :
CALI.CM :
RXO.OHMM :
RI. :
RML.OHMM :
~A
# ...
  185.0000   -14.7410     2.3280    96.3030    23.1160    14.1170    13.3170    14.9310 
  185.1250   -15.2320     2.3170    96.5700    23.0550    14.0080    13.3860    15.0310 
  185.2500   -15.6750     2.3020    94.4180    22.9950    14.5170    13.4110    15.0930 
  185.3750   -16.0670     2.2890    94.1700    22.9780    15.2400    13.4450    15.1580 
  185.5000   -16.3760     2.2800    95.2340    23.0580    15.4280    13.4930    15.2070 
  185.6250   -16.5810     2.2730    95.5610    23.2030    15.1270    13.5260    15.1950 
  185.7500   -16.6840     2.2650    95.3530    23.3670    14.8570    13.5080    15.0730 
  185.8750   -16.7740     2.2640    96.8200    23.4270    14.7430    13.4030    14.8280 
  186.0000   -16.7850     2.2740    99.1320    23.3180    14.5880    13.2320    14.5500 
  186.1250   -16.7450     2.2970   100.1740    23.0270    14.3140    13.0210    14.3040 
  186.2500   -16.6230     2.3250   100.8100    22.8210    13.9370    12.8040    14.1200 
  186.3750   -16.4190     2.3460   101.9760    22.8400    13.6310    12.6200    13.9830 
  186.5000   -16.2300     2.3510   103.8400    22.9760    13.4270    12.4840    13.8430 
  186.6250   -16.0500     2.3390   104.2820    22.9890    13.3230    12.3930    13.6790 
  186.7500   -15.9250     2.3220   103.5220    22.9210    13.2910    12.3270    13.5110 
  186.8750   -15.8500     2.3080   103.3660    22.8930    13.3680    12.2600    13.3960 
  187.0000   -15.8640     2.3040   103.7110    22.9370    13.2930    12.1750    13.3420 
  187.1250   -15.8940     2.3110   103.6470    23.0930    13.0580    12.0750    13.3160 
  187.2500   -16.0040     2.3160   102.9290    23.3110    12.8470    11.9700    13.2800 
  187.3750   -16.2100     2.3120   102.5560    23.6050    12.8230    11.8860    13.2110 
  187.5000   -16.4190     2.3060   102.5670    23.9520    12.9030    11.8410    13.1430 
  187.6250   -16.6900     2.3040   102.1290    24.1690    12.9860    11.8490    13.1190 
  187.7500   -16.9400     2.3050   102.9030    24.2290    13.0250    11.9150    13.1770 
  187.8750   -17.2130     2.3020   105.3750    24.1370    13.0780    12.0380    13.3400 
  188.0000   -17.5050     2.2880   106.3610    23.9870    13.1520    12.1860    13.5530 
  188.1250   -17.8300     2.2680   104.1810    23.7580    13.1590    12.3240    13.7450 
  188.2500   -18.2240     2.2600    99.4670    23.4860    13.2250    12.4140    13.8300 
  188.3750   -18.5420     2.2650    92.9510    23.1270    13.3140    12.4120    13.7380 
  188.5000   -18.8100     2.2720    86.6560    22.8240    13.2030    12.3340    13.5290 
  188.6250   -19.0360     2.2710    82.7150    22.5250    12.8310    12.2090    13.2860 
  188.7500   -19.2610     2.2670    83.3770    22.2700    12.4110    12.0710    13.0900 
  188.8750   -19.4960     2.2690    89.9110    22.0630    12.0860    11.9540    12.9990 
  189.0000   -19.7430     2.2740    96.1920    21.9110    11.9440    11.8700    12.9830 
  189.1250   -19.9540     2.2770    97.3570    21.7820    12.0980    11.8230    12.9920 
  189.2500   -20.1000     2.2770    93.8530    21.7100    12.5400    11.8110    12.9960 
  189.3750   -20.3200     2.2740    91.1890    21.7550    13.0330    11.8370    13.0140 
  189.5000   -20.5490     2.2690    89.6000    21.8600    13.3920    11.8940    13.0770 
  189.6250   -20.7530     2.2620    87.7880    21.9060    13.5150    11.9770    13.1900 
  189.7500   -20.9600     2.2550    87.4660    21.9040    13.5260    12.0780    13.3310 
  189.8750   -21.1130     2.2510    87.3600    21.8730    13.5900    12.1890    13.4810 
  190.0000   -21.2380     2.2500    86.6460    21.8510    13.7180    12.2940    13.6370 
  190.1250   -21.3750     2.2490    86.8730    21.8700    13.8070    12.3790    13.7910 
  190.2500   -21.5180     2.2450    88.1150    21.9200    13.7900    12.4310    13.9230 
  190.3750   -21.5840     2.2400    87.8110    21.9700    13.7570    12.4320    13.9490 
  190.5000   -21.6770     2.2330    85.0170    21.9850    13.7110    12.3880    13.8160 
  190.6250   -21.7900     2.2230    82.9460    21.9640    13.6210    12.3070    13.5420 
  190.7500   -21.8910     2.2090    82.3730    21.9290    13.4510    12.2130    13.2170 
  190.8750   -22.0190     2.1940    81.1230    21.9000    13.2890    12.1440    12.9640 
  191.0000   -22.0920     2.1870    78.6570    21.8670    13.2430    12.1240    12.8510 
  191.1250   -22.1650     2.1940    76.3900    21.8430    13.3300    12.1550    12.8890 
  191.2500   -22.1770     2.2060    75.4670    21.8090    13.5050    12.2200    13.0260 
  191.3750   -22.1760     2.2110    74.8980    21.7530    13.5820    12.2800    13.1420 
  191.5000   -22.1280     2.2060    75.1980    21.6770    13.5030    12.3000    13.1460 
  191.6250   -22.0450     2.1950    76.8890    21.5180    13.3820    12.2630    13.0280 
  191.7500   -22.0030     2.1850    78.4810    21.2560    13.3110    12.1740    12.8410 
  191.8750   -21.8940     2.1760    77.0320    20.9900    13.2190    12.0520    12.6640 
  192.0000   -21.7750     2.1700    73.7690    20.9300    13.0880    11.9360    12.5430 
  192.1250   -21.6590     2.1670    70.3570    21.1930    12.9610    11.8490    12.4700 
  192.2500   -21.5280     2.1650    67.5720    21.5950    12.8580    11.8030    12.4120 
  192.3750   -21.3460     2.1650    66.1680    21.8420    12.7810    11.8050    12.3600 
  192.5000   -21.1460     2.1700    66.5630    21.9120    12.7370    11.8510    12.3410 
  192.6250   -20.9100     2.1870    70.2790    21.8980    12.7810    11.9590    12.4180 
  192.7500   -20.5850     2.2120    76.3190    21.8720    12.9330    12.1640    12.6770 
  192.8750   -20.2920     2.2400    81.1990    21.8370    12.9680    12.5640    13.2520 
  193.0000   -19.9570     2.2610    84.8110    21.7820    12.7710    13.2360    14.1660 
  193.1250   -19.5310     2.2750    88.1160    21.7140    12.6200    14.2570    15.4410 
  193.2500   -19.1640     2.2960    90.1190    21.7260    13.0360    15.6200    17.0070 
  193.3750   -18.8380     2.3300    88.0510    21.7940    14.8860    17.1220    18.5640 
  193.5000   -18.5230     2.3670    85.3030    21.8430    17.7360    18.3010    19.5690 
  193.6250   -18.2400     2.3840    85.3910    21.8570    20.2080    18.7930    19.6650 
  193.7500   -18.0050     2.3760    86.3000    21.8800    20.4360    18.6040    19.0210 
  193.8750   -17.7470     2.3540    85.7540    21.9040    18.3320    18.2040    18.3320 
  194.0000   -17.5110     2.3430    85.6540    21.8980    16.4330    18.1920    18.2280 
  194.1250   -17.2790     2.3590    85.6330    21.8740    16.4620    18.7950    18.8670 
  194.2500   -17.0110     2.3870    84.5240    21.8590    19.1690    19.8840    19.9910 
  194.3750   -16.7700     2.4070    82.2900    21.8370    24.0520    20.8620    20.8380 
  194.5000   -16.4740     2.4010    83.4680    21.8150    26.5720    21.1960    20.9160 
  194.6250   -16.1220     2.3730    87.0590    21.7950    24.3420    21.0200    20.5870 
  194.7500   -15.6870     2.3530    89.7260    21.7930    19.5670    20.9680    20.6610 
  194.8750   -15.1150     2.3730    90.1110    21.8110    16.8650    21.6840    21.7970 
  195.0000   -14.4670     2.4450    86.6570    21.8320    18.7460    22.7580    23.3060 
  195.1250   -13.7720     2.5430    77.8470    21.8380    24.9960    22.9150    23.4740 
  195.2500   -13.0210     2.6010    67.2520    21.7900    27.8570    20.6670    20.5950 
  195.3750   -12.1930     2.5910    63.2220    21.6830    20.5230    16.1120    15.4650 
  195.5000   -11.3680     2.5300    65.5850    21.5980    11.0120    11.6770    10.9960 
  195.6250   -10.5950     2.4690    68.3350    21.6260     6.4060     8.4150     8.0590 
  195.7500    -9.8950     2.4350    69.1270    21.6470     5.1960     6.4030     6.5240 
  195.8750    -9.3830     2.4180    67.5300    21.6160     5.0820     5.5000     6.1370 
  196.0000    -8.9830     2.4040    64.7410    21.6080     5.1990     5.2520     6.3260 
  196.1250    -8.6980     2.3910    60.9430    21.4970     5.3890     5.4290     6.7350 
