~V
VERS. 2.00: Ver 2.00
~W
STRT.M 50.0000:
STOP.M 300.0000:
STEP.M 0.1250:
NULL. -999.2500:
UWI. F10041:
~C
DEPT.M :
DEN.GM/CC :
GR.API :
RML.OHMM :
RI. :
RXO.OHMM :
CALI.CM :
SP.MV :
~A
# ...
  241.2500     2.4450    55.9620    30.1530    27.4350    26.4750    24.3260   -11.8890 
  241.3750     2.4190    56.5730    26.3110    24.5060    28.4750    24.1550   -12.1090 
  241.5000     2.3910    58.8900    22.2420    21.4020    28.1800    24.0390   -12.1750 
  241.6250     2.3740    63.8650    18.4830    18.3990    19.0950    23.9490   -12.0670 
  241.7500     2.3720    69.0590    15.2440    15.7740    13.2160    23.9140   -11.8290 
  241.8750     2.3800    73.5280    12.6940    13.7090    11.0030    23.8800   -11.4980 
  242.0000     2.3930    75.8920    11.0060    12.2620    10.1730    23.8410   -11.1130 
  242.1250     2.4020    75.1820    10.2600    11.4580     9.8400    23.8170   -10.7030 
  242.2500     2.4050    74.8150     9.9350    11.0510     9.8770    23.8220   -10.3170 
  242.3750     2.4000    76.6340     9.6780    10.8690     9.9250    23.8660   -10.0130 
  242.5000     2.3900    78.6660     9.3430    10.7330     9.6190    23.9210    -9.7800 
  242.6250     2.3750    77.1210     8.8600    10.4780     9.3850    23.9470    -9.6670 
  242.7500     2.3590    75.1050     8.3180    10.1000     8.8950    23.9580    -9.6790 
  242.8750     2.3400    75.8930     7.8400     9.6910     8.3160    23.9720    -9.7720 
  243.0000     2.3230    78.5070     7.5660     9.3980     8.0070    23.9700    -9.8990 
  243.1250     2.3100    79.0670     7.7000     9.4330     8.4600    23.9610    -9.9940 
  243.2500     2.3030    75.8520     8.2870     9.8660     9.5750    23.9270   -10.0750 
  243.3750     2.2990    70.9820     9.3020    10.7230    10.9610    23.8980   -10.1520 
  243.5000     2.2960    67.2040    10.5630    11.9330    12.3300    23.8500   -10.2640 
  243.6250     2.2910    67.2210    11.6960    13.2740    14.3790    23.8240   -10.3690 
  243.7500     2.2850    68.4400    12.4130    14.3840    15.6780    23.8050   -10.4400 
  243.8750     2.2780    68.2110    12.6730    15.0130    16.1450    23.7840   -10.4870 
  244.0000     2.2700    67.5100    12.6560    15.1080    15.5500    23.7630   -10.4970 
  244.1250     2.2590    67.4740    12.6900    14.8480    14.0260    23.7640   -10.4760 
  244.2500     2.2450    66.6990    13.0330    14.6690    13.9330    23.7840   -10.4400 
  244.3750     2.2310    65.1190    13.8240    14.8680    15.2550    23.8210   -10.4090 
  244.5000     2.2200    63.6860    15.1750    15.6360    16.6930    23.8760   -10.3650 
  244.6250     2.2210    62.1640    17.2610    17.1380    20.8660    23.9720   -10.3030 
  244.7500     2.2320    58.4210    19.8100    19.1120    25.0870    24.0310   -10.2550 
  244.8750     2.2500    56.3960    22.2970    21.1660    27.6500    24.0610   -10.2290 
  245.0000     2.2690    59.4500    23.9500    22.7140    27.9220    24.0700   -10.2140 
  245.1250     2.2810    63.5460    23.8430    22.9890    27.0540    24.0700   -10.2290 
  245.2500     2.2840    63.8850    22.2540    22.0640    24.6700    24.0700   -10.2700 
  245.3750     2.2810    62.2270    19.8470    20.3470    20.5580    24.0700   -10.3060 
  245.5000     2.2770    62.1610    17.4920    18.4610    16.1760    24.0700   -10.3460 
  245.6250     2.2770    63.1940    16.0410    17.0540    15.3950    24.0680   -10.4320 
  245.7500     2.2810    63.7220    15.6240    16.3290    16.8060    24.0570   -10.5190 
  245.8750     2.2860    63.8950    16.1430    16.3040    18.8510    24.0290   -10.6050 
  246.0000     2.2900    64.4180    17.3200    16.8810    19.7540    23.9910   -10.6730 
  246.1250     2.2910    64.9950    18.7530    17.9170    20.3110    23.9750   -10.7670 
  246.2500     2.2900    63.5290    20.0160    19.0880    20.5250    23.9550   -10.8520 
  246.3750     2.2880    60.3650    20.9550    20.1950    21.3260    23.9330   -10.8940 
  246.5000     2.2810    58.7530    21.6140    21.1240    22.8360    24.0120   -10.8860 
  246.6250     2.2660    58.7630    22.1240    21.8200    25.0170    24.2970   -10.8490 
  246.7500     2.2460    56.9220    22.5630    22.3380    26.7180    24.6210   -10.7800 
  246.8750     2.2270    54.6320    22.8390    22.6710    25.8500    24.7870   -10.6920 
  247.0000     2.2160    55.1220    22.8390    22.7930    23.9870    24.8110   -10.6410 
  247.1250     2.2160    57.7640    22.5580    22.6790    22.7380    24.7460   -10.5830 
  247.2500     2.2210    59.4300    22.2500    22.4490    22.6950    24.6360   -10.4840 
  247.3750     2.2260    59.7350    22.1090    22.2120    22.9090    24.6110   -10.3900 
  247.5000     2.2270    60.1670    22.2120    22.0500    23.1870    24.6330   -10.3390 
  247.6250     2.2280    61.6150    22.4710    21.9610    22.9490    24.6510   -10.2920 
  247.7500     2.2360    64.3590    22.6170    21.8090    23.0310    24.6510   -10.2800 
  247.8750     2.2500    67.2390    22.3940    21.4370    22.7780    24.6510   -10.2480 
  248.0000     2.2670    68.1320    21.6310    20.7380    21.7260    24.6510   -10.1890 
  248.1250     2.2800    66.6420    20.4040    19.6730    19.8320    24.6510   -10.0820 
  248.2500     2.2840    65.4910    19.1250    18.4530    17.8240    24.6510   -10.0410 
  248.3750     2.2820    66.7140    18.0120    17.2930    15.9840    24.6510   -10.0420 
  248.5000     2.2760    68.3000    17.1570    16.3950    15.2700    24.6510   -10.0690 
  248.6250     2.2730    65.4720    16.6940    15.9510    14.6490    24.6510   -10.1520 
  248.7500     2.2730    60.8030    16.6110    15.8760    15.3010    24.6510   -10.2390 
  248.8750     2.2760    58.7560    16.7770    16.0360    17.1030    24.6510   -10.3910 
  249.0000     2.2800    60.5290    16.9760    16.2270    18.5090    24.6510   -10.5530 
  249.1250     2.2850    63.5290    16.9670    16.2180    17.6150    24.6510   -10.8000 
  249.2500     2.2890    66.7960    16.7140    15.9750    15.5640    24.6490   -11.0590 
  249.3750     2.2890    70.4790    16.3220    15.5980    14.2850    24.6340   -11.2620 
  249.5000     2.2850    73.7570    15.9740    15.2630    14.2290    24.6010   -11.4580 
  249.6250     2.2790    74.8340    15.8740    15.1670    14.9710    24.5530   -11.5890 
  249.7500     2.2760    74.0400    16.0260    15.3130    16.2280    24.5360   -11.7290 
  249.8750     2.2820    72.9450    16.3480    15.6230    17.9350    24.5340   -11.8070 
  250.0000     2.2970    72.4700    16.7160    15.9770    17.5970    24.5450   -11.8860 
  250.1250     2.3130    71.8210    17.0190    16.2680    16.5790    24.5630   -11.8990 
  250.2500     2.3220    69.2140    17.2620    16.5020    16.1300    24.5560   -11.8200 
  250.3750     2.3200    65.2730    17.5070    16.7370    17.6430    24.5480   -11.7890 
  250.5000     2.3070    64.4350    17.8110    17.0290    22.6350    24.5720   -11.7040 
  250.6250     2.2890    67.5940    18.1840    17.3880    21.7430    24.6370   -11.6200 
  250.7500     2.2720    69.8900    18.5590    17.7490    20.0650    24.7050   -11.5340 
  250.8750     2.2600    69.0020    18.8740    18.0520    18.9210    24.7800   -11.4520 
  251.0000     2.2540    66.6600    19.0960    18.2660    18.7280    24.8140   -11.4020 
  251.1250     2.2550    64.1380    19.2250    18.3890    18.6710    24.7720   -11.3310 
  251.2500     2.2600    62.3600    19.3200    18.4810    18.9810    24.6930   -11.3010 
  251.3750     2.2670    62.9210    19.4130    18.5710    19.1000    24.6450   -11.2860 
  251.5000     2.2770    64.4970    19.5100    18.6640    19.2560    24.5920   -11.3080 
  251.6250     2.2890    63.6950    19.5970    18.7470    19.4640    24.4980   -11.3110 
  251.7500     2.3010    61.8430    19.6680    18.8160    19.5790    24.4220   -11.2760 
  251.8750     2.3090    61.8740    19.7340    18.8790    19.3710    24.3920   -11.2930 
  252.0000     2.3090    63.4910    19.8110    18.9530    18.9260    24.3750   -11.3390 
  252.1250     2.2950    63.8800    19.9130    19.0510    19.4800    24.3380   -11.4330 
  252.2500     2.2740    62.5800    20.0280    19.1610    20.2590    24.2810   -11.5560 
  252.3750     2.2510    60.8780    20.1490    19.2770    21.0070    24.2200   -11.6740 
