~V
VERS. 2.00: Ver 2.00
~W
STRT.M 50.0000:
STOP.M 293.0000:
STEP.M 0.1250:
NULL. -999.2500:
UWI. F10037:
~C
DEPT.M :
GR.API :
RML.OHMM :
RI. :
RXO.OHMM :
CALI.CM :
SP.MV :
DEN.GM/CC :
~A
# ...
  252.5000    49.2680   199.8810   177.3250   180.3210    24.8350   -19.2380     2.2790 
  252.6250    48.3210   187.8720   167.7670   170.0900    24.8160   -19.0520     2.2800 
  252.7500    50.0330   172.3590   154.9190   162.3820    24.7840   -18.8450     2.2810 
  252.8750    52.4730   156.1220   141.2150   155.2720    24.7370   -18.6100     2.2800 
  253.0000    53.7040   140.9530   128.2750   143.2700    24.6790   -18.3590     2.2790 
  253.1250    53.9710   128.5600   117.6330   125.7360    24.6160   -18.1150     2.2810 
  253.2500    53.7240   119.2660   109.7080   110.0990    24.5600   -17.8740     2.2850 
  253.3750    53.7030   112.9660   104.5460   100.7890    24.5260   -17.6510     2.2890 
  253.5000    54.5670   108.7640   101.4670    98.7060    24.5360   -17.4250     2.2910 
  253.6250    55.6530   104.9940    99.0290   104.9110    24.6100   -17.1860     2.2890 
  253.7500    55.9010    99.9540    95.5100   108.2830    24.7050   -16.9560     2.2850 
  253.8750    56.4150    93.1050    90.1840   107.1590    24.7900   -16.6980     2.2830 
  254.0000    57.8610    85.0490    83.4180    98.9520    24.8310   -16.4370     2.2850 
  254.1250    58.4290    77.5130    76.7020    82.0630    24.8160   -16.1440     2.2940 
  254.2500    58.0080    71.8680    71.5240    66.3740    24.7900   -15.7990     2.3060 
  254.3750    57.7530    68.4370    68.3360    59.1720    24.7760   -15.4400     2.3170 
  254.5000    57.4520    66.5740    66.6290    60.1980    24.7730   -15.0510     2.3220 
  254.6250    58.4070    65.1180    65.1660    66.1990    24.7740   -14.6120     2.3190 
  254.7500    60.4400    63.3120    62.8170    68.7200    24.7760   -14.1940     2.3130 
  254.8750    62.6580    60.7400    59.3800    64.1960    24.7720   -13.7480     2.3100 
  255.0000    63.8140    57.4010    55.4660    54.5740    24.7540   -13.2450     2.3190 
  255.1250    64.2770    54.6500    52.6130    46.2340    24.7080   -12.8100     2.3540 
  255.2500    64.4350    55.2670    52.1870    45.5410    24.6350   -12.3470     2.4150 
  255.3750    64.0610    59.6440    55.2440    53.8300    24.5570   -11.8760     2.4970 
  255.5000    63.9050    68.4360    62.4590    69.4260    24.5020   -11.4930     2.5840 
  255.6250    64.1860    81.4300    74.6680    93.2260    24.4790   -11.1010     2.6530 
  255.7500    62.9660    97.3780    90.3290   124.9470    24.4640   -10.7240     2.6910 
  255.8750    60.8940   114.0710   107.7060   161.0750    24.4470   -10.4160     2.7010 
  256.0000    60.7400   129.2140   124.4360   184.1550    24.4180   -10.1380     2.6950 
  256.1250    63.4350   143.2270   137.4430   174.8230    24.3910    -9.9040     2.6880 
  256.2500    66.1330   152.4240   145.7990   162.3420    24.3620    -9.7350     2.6840 
  256.3750    67.7050   156.7710   149.4440   172.3620    24.3300    -9.6110     2.6810 
  256.5000    68.2120   157.1740   149.1690   182.8670    24.3040    -9.4970     2.6750 
  256.6250    67.8630   154.7190   145.9230   185.3570    24.2730    -9.3870     2.6630 
  256.7500    67.1700   151.2250   141.4780   171.3690    24.2410    -9.2990     2.6510 
  256.8750    66.1230   147.8730   136.9600   152.8630    24.1960    -9.2060     2.6440 
  257.0000    65.2910   145.8780   133.5210   135.1800    24.1370    -9.0820     2.6440 
  257.1250    65.0320   146.7070   132.5960   127.9780    24.0650    -8.9460     2.6470 
  257.2500    64.8330   150.0350   134.1660   132.3840    24.0010    -8.8010     2.6450 
  257.3750    65.0580   154.5600   137.4880   138.2300    23.9730    -8.5970     2.6360 
  257.5000    64.9320   157.6540   140.7130   147.2050    23.9970    -8.3740     2.6270 
  257.6250    64.6140   154.5040   140.1080   158.9770    24.0260    -8.1860     2.6310 
  257.7500    63.2850   143.1480   133.2990   173.1240    24.0190    -7.9320     2.6560 
  257.8750    58.5720   124.4280   119.8840   191.2240    24.0060    -7.6950     2.6970 
  258.0000    48.9070   102.9180   102.4970   222.5290    24.0210    -7.5130     2.7380 
  258.1250    35.4250    85.7500    86.6840   254.6910    24.0750    -7.2630     2.7550 
  258.2500    23.9700    75.5830    76.1990   262.5570    24.1390    -7.0530     2.7460 
  258.3750    16.5400    71.4830    71.2850   246.4080    24.1740    -6.8830     2.7230 
  258.5000    12.5740    70.3230    69.5460   223.9730    24.1790    -6.6710     2.7070 
  258.6250    11.5560    67.3040    66.5030   197.7160    24.1520    -6.4940     2.7160 
  258.7500    11.7100    59.2110    58.7440   150.9220    24.1080    -6.3260     2.7400 
  258.8750    12.2670    45.9030    45.8590    98.5750    24.0620    -6.1260     2.7540 
  259.0000    13.8130    30.6840    30.8300    50.3930    24.0300    -5.9450     2.7290 
  259.1250    17.3510    18.6300    18.7540    23.2160    24.0170    -5.7720     2.6490 
  259.2500    21.9330    10.9270    10.9610    10.9900    24.0120    -5.5970     2.5470 
  259.3750    25.8990     6.5940     6.5740     5.3570    23.9980    -5.4860     2.4530 
  259.5000    27.7230     4.4010     4.3530     3.5460    23.9530    -5.4260     2.3850 
  259.6250    27.5040     3.9170     3.5170     3.3360    23.8230    -5.4000     2.3510 
  259.7500    27.5840     3.9670     3.3140     3.5640    23.5990    -5.4410     2.3350 
  259.8750    28.5770     4.2630     3.4640     3.8260    23.2940    -5.5100     2.3290 
  260.0000    30.3630     4.5940     3.7540     4.0570    22.9800    -5.5970     2.3280 
  260.1250    32.6610     4.7930     4.0040     4.1470    22.8460    -5.7070     2.3300 
  260.2500    34.1750     4.8240     4.1240     4.0520    22.9360    -5.7830     2.3320 
  260.3750    34.0370     4.7220     4.1110     3.8110    23.2140    -5.8410     2.3330 
  260.5000    32.1520     4.5500     4.0120     3.5700    23.5690    -5.9020     2.3350 
  260.6250    30.2700     4.3870     3.8990     3.4990    23.8530    -5.9450     2.3450 
  260.7500    30.2360     4.2820     3.8360     3.5070    23.9950    -6.0210     2.3670 
  260.8750    31.4680     4.2510     3.8490     3.5670    24.0040    -6.0970     2.3990 
  261.0000    32.6820     4.2840     3.9410     3.6600    23.9240    -6.1280     2.4350 
  261.1250    33.9190     4.3850     4.0950     3.8890    23.7690    -6.2320     2.4600 
  261.2500    35.5390     4.5470     4.2620     4.2450    23.5370    -6.3630     2.4640 
  261.3750    37.0010     4.7390     4.4050     4.6480    23.2550    -6.4440     2.4460 
  261.5000    37.1820     4.8950     4.4980     4.9820    23.0080    -6.5490     2.4110 
  261.6250    36.8100     4.9810     4.5270     5.0260    22.8680    -6.6310     2.3780 
  261.7500    37.0820     5.0270     4.5180     5.0190    22.8530    -6.6410     2.3620 
  261.8750    37.3940     5.0590     4.4980     5.0610    22.9800    -6.6730     2.3710 
  262.0000    37.3870     5.1060     4.4930     5.1570    23.2290    -6.7080     2.3970 
  262.1250    37.1660     5.2030     4.5360     5.2900    23.5280    -6.6770     2.4200 
  262.2500    37.6160     5.3650     4.6380     5.2690    23.7330    -6.6560     2.4250 
  262.3750    39.7340     5.5910     4.7970     5.2020    23.7990    -6.6300     2.4150 
  262.5000    42.9160     5.8540     4.9920     5.0820    23.7780    -6.5730     2.4060 
  262.6250    45.3730     6.0960     5.1780     4.7510    23.7370    -6.5260     2.4140 
  262.7500    45.3240     6.2580     5.3040     4.6830    23.7160    -6.4700     2.4340 
  262.8750    42.9540     6.3040     5.3390     4.9320    23.7370    -6.4220     2.4470 
  263.0000    39.4090     6.2260     5.2720     5.2400    23.8120    -6.4030     2.4380 
  263.1250    35.9640     6.0430     5.1150     5.6820    23.9490    -6.3640     2.4110 
  263.2500    33.7290     5.8390     4.9330     5.8290    24.0810    -6.3380     2.3900 
  263.3750    33.3790     5.6960     4.7930     5.4250    24.1490    -6.3310     2.3920 
  263.5000    34.4630     5.7140     4.7750     5.1310    24.1510    -6.3050     2.4210 
  263.6250    34.1500     6.0330     5.0030     5.6410    24.1030    -6.3060     2.4690 
