~V
VERS. 2.00: Ver 2.00
~W
STRT.M 55.0000:
STOP.M 264.0000:
STEP.M 0.1250:
NULL. -999.2500:
UWI. F10017:
~C
DEPT.M :
DEN.GM/CC :
SP.MV :
GR.API :
CALI.CM :
RXO.OHMM :
RI. :
RML.OHMM :
~A
# ...
  190.0000     2.2190   -48.6230    64.0500    24.3040    23.6030    20.4030    21.9390 
  190.1250     2.2220   -48.5820    64.3500    24.2660    22.3730    20.0130    21.5980 
  190.2500     2.2310   -48.5680    67.3350    24.2190    21.5280    19.9640    21.7180 
  190.3750     2.2410   -48.5910    68.4940    24.1750    21.1060    20.3200    22.2970 
  190.5000     2.2420   -48.5990    67.0830    24.1560    21.5510    21.1090    23.2980 
  190.6250     2.2300   -48.5760    66.8170    24.1720    23.7220    22.3310    24.6220 
  190.7500     2.2110   -48.5350    68.9470    24.2230    27.9070    23.6980    25.8970 
  190.8750     2.1990   -48.4800    70.6940    24.2930    31.7500    24.8900    26.7520 
  191.0000     2.1990   -48.4460    70.5800    24.3350    32.8220    25.6200    27.0130 
  191.1250     2.2040   -48.4020    69.8700    24.3150    30.4400    25.7620    26.8830 
  191.2500     2.1990   -48.3550    70.2370    24.2250    27.3630    25.7160    26.9030 
  191.3750     2.1850   -48.2390    70.6320    24.0990    25.3730    25.9240    27.4560 
  191.5000     2.1730   -48.0310    68.2400    24.0180    26.8450    26.7730    28.7230 
  191.6250     2.1740   -47.8300    65.5550    24.0340    31.9450    28.6300    30.8160 
  191.7500     2.1840   -47.6990    65.8610    24.1240    38.2480    31.2790    33.4940 
  191.8750     2.1920   -47.5720    66.2510    24.2380    44.0360    34.3550    36.5000 
  192.0000     2.1950   -47.4030    62.8470    24.2990    49.0870    37.2750    39.3710 
  192.1250     2.1910   -47.2020    57.9070    24.3140    51.2980    39.2970    41.3530 
  192.2500     2.1820   -46.9970    55.9920    24.3350    50.7450    40.3510    42.2970 
  192.3750     2.1700   -46.8430    56.7370    24.3500    48.8690    40.6540    42.4570 
  192.5000     2.1610   -46.7500    58.3740    24.3550    47.7340    40.5550    42.2510 
  192.6250     2.1600   -46.7030    59.5950    24.3470    48.4790    40.3670    42.0850 
  192.7500     2.1680   -46.6560    59.5770    24.3160    49.0150    40.2650    42.0530 
  192.8750     2.1790   -46.6540    60.4680    24.2630    48.8220    40.1740    41.9910 
  193.0000     2.1920   -46.6530    63.3760    24.2280    48.4750    39.8270    41.5710 
  193.1250     2.2140   -46.6680    63.8160    24.2190    48.0530    38.7600    40.2780 
  193.2500     2.2390   -46.7080    60.7180    24.2310    46.2460    36.9440    38.1240 
  193.3750     2.2510   -46.7060    59.3690    24.2610    42.2010    34.5510    35.3310 
  193.5000     2.2410   -46.6410    63.8780    24.2900    36.1690    31.9150    32.4350 
  193.6250     2.2120   -46.5170    70.3600    24.3140    31.0050    29.4840    30.3670 
  193.7500     2.1850   -46.3420    71.9090    24.3090    28.2760    27.5060    29.2580 
  193.8750     2.1710   -46.1020    69.1740    24.2840    27.0500    25.9570    28.6870 
  194.0000     2.1770   -45.8290    66.8950    24.2340    25.5120    24.6290    27.7920 
  194.1250     2.2010   -45.5530    66.8120    24.1600    23.2790    23.2530    25.6110 
  194.2500     2.2210   -45.2320    66.5340    23.9660    20.9110    21.7500    22.7750 
  194.3750     2.2230   -44.9230    64.5680    23.5630    18.3410    20.2150    20.2360 
  194.5000     2.2170   -44.7190    62.7060    22.9770    15.9820    18.8140    18.4860 
  194.6250     2.2260   -44.5730    62.5240    22.6070    14.5380    17.7810    17.5490 
  194.7500     2.2470   -44.4750    63.1730    22.4270    14.2550    17.1850    17.1240 
  194.8750     2.2580   -44.4740    64.4360    22.3960    14.6780    17.0980    17.2650 
  195.0000     2.2430   -44.6150    64.8380    22.5180    15.0140    17.6090    18.0220 
  195.1250     2.2080   -44.8610    63.9870    22.9010    17.1170    18.9150    19.5350 
  195.2500     2.1740   -45.1280    62.7860    23.3210    20.6690    20.7900    21.4820 
  195.3750     2.1620   -45.4310    62.3000    23.5030    24.4510    22.8410    23.3290 
  195.5000     2.1850   -45.7260    62.3180    23.3520    27.4630    24.4820    24.4850 
  195.6250     2.2360   -46.0310    60.4350    23.1300    31.3070    25.0370    24.4790 
  195.7500     2.2800   -46.2840    58.4210    22.8980    36.0890    24.7000    23.7770 
  195.8750     2.3000   -46.4730    58.8710    22.9480    39.6010    24.0110    22.9880 
  196.0000     2.2950   -46.5490    60.2630    23.3680    40.4740    23.5760    22.6550 
  196.1250     2.2800   -46.4960    58.4690    23.8340    33.3030    23.8140    23.1170 
  196.2500     2.2750   -46.4550    55.3220    24.0050    25.9340    24.5210    24.0890 
  196.3750     2.2870   -46.4360    55.3850    24.0110    21.7270    25.4020    25.2300 
  196.5000     2.3100   -46.4270    58.0000    23.9450    21.6940    26.1500    26.1940 
  196.6250     2.3320   -46.3920    57.9590    23.8390    25.0790    26.6240    26.8020 
  196.7500     2.3410   -46.3810    55.8940    23.8070    30.8750    27.1420    27.4190 
  196.8750     2.3280   -46.3800    55.1740    23.9320    37.0950    28.1430    28.5250 
  197.0000     2.2940   -46.3970    56.5800    24.0580    42.1900    29.9700    30.4640 
  197.1250     2.2560   -46.4960    57.2160    24.1820    45.5660    32.8230    33.8070 
  197.2500     2.2280   -46.6040    56.5270    24.2770    48.4040    36.2080    37.2940 
  197.3750     2.2090   -46.6620    56.3990    24.3220    50.6190    39.4940    40.6780 
  197.5000     2.1930   -46.7140    57.8380    24.3550    51.7600    41.9670    43.2260 
  197.6250     2.1860   -46.7610    59.0660    24.3750    51.9810    42.9780    44.2680 
  197.7500     2.1910   -46.8390    58.5540    24.3830    51.6200    42.8730    44.1590 
  197.8750     2.1980   -46.8980    57.1790    24.3790    50.8350    42.0440    43.3050 
  198.0000     2.1870   -46.9820    56.4100    24.3600    49.2210    40.8430    42.0680 
  198.1250     2.1580   -47.0520    56.0350    24.3470    46.6730    39.5450    40.7310 
  198.2500     2.1470   -47.1070    55.1870    24.3160    44.7020    38.3600    39.5110 
  198.3750     2.1730   -47.1800    54.1590    24.2630    43.4480    37.3910    38.5130 
  198.5000     2.2160   -47.2260    54.4850    24.2280    42.1420    36.6970    37.7980 
  198.6250     2.2360   -47.2690    55.5420    24.2190    41.1240    36.3790    37.4700 
  198.7500     2.2280   -47.2660    56.5510    24.2310    40.9120    36.4210    37.5130 
  198.8750     2.2050   -47.2770    58.0480    24.2610    41.3260    36.8410    37.9460 
  199.0000     2.1850   -47.2380    60.6610    24.2900    42.5690    37.6380    38.7680 
  199.1250     2.1810   -47.1210    62.4980    24.3140    44.4610    38.8200    39.9840 
  199.2500     2.1880   -46.9880    61.4920    24.3090    46.4200    40.1630    41.3680 
  199.3750     2.1950   -46.8690    59.3900    24.2840    48.2010    41.4120    42.6550 
  199.5000     2.1970   -46.7750    58.1790    24.2340    50.1760    42.2700    43.5390 
  199.6250     2.1980   -46.6970    58.1770    24.2410    52.6170    42.3980    43.6700 
  199.7500     2.1980   -46.6770    58.9430    24.4010    53.7760    41.8800    43.1360 
  199.8750     2.1920   -46.6620    59.2940    24.4160    52.6440    40.8560    42.0820 
  200.0000     2.1790   -46.6470    58.9090    24.4500    49.6190    39.5120    40.6980 
  200.1250     2.1690   -46.6450    59.6990    24.4480    45.5330    38.0510    39.1920 
  200.2500     2.1710   -46.6590    61.8590    24.4280    41.7880    36.6380    37.7370 
  200.3750     2.1840   -46.6410    62.6010    24.4170    40.3390    35.2580    36.3160 
  200.5000     2.2010   -46.5980    59.8310    24.4160    40.4600    33.8160    34.8310 
  200.6250     2.2210   -46.5380    56.6220    24.4170    39.0960    32.2980    33.2670 
  200.7500     2.2460   -46.4390    56.3660    24.3980    37.9720    30.8840    31.8100 
  200.8750     2.2720   -46.3040    58.3260    24.3340    37.1990    29.7960    30.6900 
  201.0000     2.2940   -46.2260    59.5470    24.2430    34.5230    29.2440    30.1210 
  201.1250     2.3000   -46.2150    58.4380    24.1680    31.3500    29.4510    30.3340 
