~V
VERS. 2.00: Ver 2.00
~W
STRT.M 55.0000:
STOP.M 292.0000:
STEP.M 0.1250:
NULL. -999.2500:
UWI. F10078:
~C
DEPT.M :
GR.API :
RML.OHMM :
RI. :
RXO.OHMM :
CALI.CM :
DEN.GM/CC :
SP.MV :
~A
# ...
  145.0000    72.1320     6.6800     5.9080     6.3450    23.4890     2.2710    -5.1150 
  145.1250    71.4040     6.6950     5.9210     6.4600    23.4530     2.2750    -5.4240 
  145.2500    73.1500     6.6780     5.9060     6.5320    23.3970     2.2810    -5.8470 
  145.3750    73.8460     6.6370     5.8680     6.5750    23.3330     2.2860    -6.3520 
  145.5000    73.1720     6.5960     5.8290     6.6440    23.2600     2.2910    -6.9270 
  145.6250    73.2410     6.6030     5.8360     6.7920    23.1570     2.2960    -7.6420 
  145.7500    72.7600     6.6910     5.9180     7.0470    23.0550     2.2980    -8.4110 
  145.8750    70.0140     6.8790     6.0920     7.3680    22.9960     2.2900    -9.2210 
  146.0000    66.2720     7.1630     6.3540     7.7820    23.0010     2.2700   -10.0590 
  146.1250    65.0600     7.5210     6.6860     8.4690    23.0650     2.2390   -10.8090 
  146.2500    65.0150     7.8980     7.0360     9.0460    23.1630     2.2090   -11.4380 
  146.3750    63.1100     8.2610     7.3710     9.2850    23.2710     2.1860   -11.9160 
  146.5000    59.0050     8.5740     7.6640     9.3550    23.3300     2.1730   -12.1830 
  146.6250    57.0900     8.7920     7.8650     9.3950    23.3540     2.1650   -12.1250 
  146.7500    57.0150     8.8790     7.9250     9.4750    23.4030     2.1560   -11.8070 
  146.8750    56.5180     8.7300     7.7800     9.4700    23.4370     2.1460   -11.2290 
  147.0000    56.8560     8.2940     7.3780     9.2240    23.4220     2.1420   -10.4490 
  147.1250    61.0830     7.4230     6.6960     8.6730    23.4100     2.1520    -9.4530 
  147.2500    68.0980     6.3710     5.8810     7.7880    23.4230     2.1770    -8.3370 
  147.3750    74.7090     5.3030     5.0860     6.6410    23.4400     2.2140    -7.2860 
  147.5000    80.6820     4.4550     4.4560     5.4700    23.4360     2.2530    -6.4510 
  147.6250    88.5590     4.4790     4.1490     4.7490    23.3840     2.2810    -5.8520 
  147.7500    94.4100     4.8660     4.1700     4.4600    23.2810     2.2930    -5.4350 
  147.8750    92.8360     5.5250     4.5220     4.6560    23.1420     2.2890    -5.2660 
  148.0000    84.3330     6.3300     5.1600     5.2560    22.9660     2.2740    -5.3280 
  148.1250    74.9260     7.0720     5.9580     6.1050    22.8290     2.2530    -5.5970 
  148.2500    68.6340     7.5450     6.6490     6.7030    22.7520     2.2310    -5.8810 
  148.3750    65.7240     7.6090     7.0030     7.0930    22.7160     2.2140    -6.0590 
  148.5000    67.7530     7.2310     6.8750     7.1670    22.6970     2.2090    -6.0790 
  148.6250    75.0140     6.4970     6.2550     6.4580    22.7010     2.2220    -5.9620 
  148.7500    82.3180     5.7150     5.4800     5.3460    22.7540     2.2500    -5.7460 
  148.8750    88.3240     5.1310     4.8250     4.3930    22.8180     2.2860    -5.5080 
  149.0000    91.7460     4.9170     4.4810     4.0960    22.8370     2.3160    -5.3040 
  149.1250    89.2740     5.2060     4.5740     4.5210    22.7770     2.3230    -5.1300 
  149.2500    83.0070     5.8180     4.9740     5.4780    22.6540     2.3070    -5.0050 
  149.3750    78.2760     6.5270     5.5270     6.7840    22.4740     2.2790    -4.9070 
  149.5000    76.8050     7.0660     6.0340     7.9750    22.2640     2.2540    -4.8340 
  149.6250    78.3720     7.1670     6.2590     8.3150    22.1480     2.2470    -4.7910 
  149.7500    82.7470     6.8960     6.1780     7.5560    22.0690     2.2540    -4.7520 
  149.8750    85.6410     6.4250     5.8790     6.3520    21.9750     2.2670    -4.6480 
  150.0000    81.9450     5.9560     5.5160     5.7370    21.8950     2.2790    -4.4560 
  150.1250    77.8010     5.6510     5.2460     5.5400    21.8610     2.2880    -4.2570 
  150.2500    80.0250     5.5030     5.1110     5.5250    21.8540     2.2970    -4.1110 
  150.3750    83.5660     5.4790     5.1000     5.5260    21.8530     2.3060    -4.0150 
  150.5000    82.2050     5.5480     5.1750     5.5240    21.8540     2.3130    -3.9490 
  150.6250    79.9840     5.6900     5.3020     5.6040    21.8570     2.3110    -3.9410 
  150.7500    82.4520     5.8650     5.4440     5.6480    21.8750     2.2990    -4.0130 
  150.8750    85.4050     6.0560     5.5920     5.7170    21.9100     2.2800    -4.1030 
  151.0000    86.0140     6.2500     5.7460     5.7740    21.9470     2.2620    -4.1440 
  151.1250    85.6810     6.4350     5.9080     5.6990    21.9910     2.2550    -4.1170 
  151.2500    84.3490     6.5660     6.0580     5.4840    22.0490     2.2650    -4.1200 
  151.3750    82.1210     6.6140     6.1600     5.2730    22.1200     2.2910    -4.1690 
  151.5000    80.6330     6.5490     6.1730     5.2410    22.1550     2.3220    -4.2360 
  151.6250    83.8440     6.3790     6.0560     5.2980    22.0810     2.3410    -4.3320 
  151.7500    88.1250     6.1580     5.8520     5.3010    22.0180     2.3380    -4.4620 
  151.8750    89.5950     5.9470     5.6320     5.2830    22.1010     2.3150    -4.6550 
  152.0000    89.1090     5.7780     5.5000     5.4290    22.2440     2.2850    -4.9130 
  152.1250    86.4330     5.8280     5.6160     5.8770    22.3460     2.2630    -5.2540 
  152.2500    81.5940     6.2760     6.0260     6.6250    22.4000     2.2540    -5.6640 
  152.3750    77.6170     7.1870     6.7230     7.8040    22.4410     2.2570    -6.1390 
  152.5000    76.2730     8.3710     7.5970     9.4650    22.4680     2.2650    -6.6650 
  152.6250    75.6580     9.4400     8.4180    11.2620    22.4600     2.2660    -7.1990 
  152.7500    74.5170    10.0470     8.9580    12.4490    22.4260     2.2540    -7.7270 
  152.8750    72.4830    10.0660     9.1060    11.9890    22.3880     2.2290    -8.2460 
  153.0000    69.0760     9.6110     8.8950    10.2990    22.3590     2.1960    -8.7710 
  153.1250    65.3440     8.9860     8.4760     9.4950    22.3420     2.1660    -9.2090 
  153.2500    64.5720     8.4980     8.0710     9.3040    22.3400     2.1430    -9.5250 
  153.3750    65.9370     8.2390     7.7720     9.3080    22.3790     2.1310    -9.7440 
  153.5000    65.5110     8.1580     7.5940     9.2470    22.4630     2.1280    -9.9300 
  153.6250    64.5930     8.1880     7.5170     9.1190    22.5810     2.1320   -10.0330 
  153.7500    66.0520     8.2550     7.4960     8.9480    22.6030     2.1400   -10.0250 
  153.8750    67.8130     8.3820     7.5240     8.8060    22.5420     2.1480    -9.9260 
  154.0000    68.4760     8.5550     7.6100     8.8230    22.5140     2.1530    -9.7530 
  154.1250    69.4820     8.6930     7.7440     8.8640    22.5620     2.1530    -9.5730 
  154.2500    72.9510     8.7190     7.8450     8.8770    22.6170     2.1510    -9.3540 
  154.3750    76.8730     8.5580     7.8110     8.8310    22.6790     2.1520    -9.0420 
  154.5000    79.1600     8.1870     7.5530     8.4690    22.7500     2.1570    -8.5880 
  154.6250    82.8670     7.5670     7.0180     7.7680    22.8040     2.1700    -8.0540 
  154.7500    90.4440     6.8400     6.3540     6.8390    22.8290     2.1900    -7.5290 
  154.8750    98.6080     6.1670     5.7180     5.7830    22.8130     2.2160    -7.0310 
  155.0000   101.6210     5.7090     5.2450     4.8950    22.7570     2.2420    -6.5920 
  155.1250    97.2460     5.6300     5.0570     4.8160    22.6550     2.2570    -6.2990 
  155.2500    91.3690     5.8610     5.1120     5.2810    22.5500     2.2580    -6.1220 
  155.3750    87.1890     6.2920     5.3600     5.9540    22.4550     2.2460    -6.0680 
  155.5000    85.3370     6.7750     5.7270     6.5040    22.4240     2.2280    -6.1650 
  155.6250    84.5060     7.1630     6.1260     6.9230    22.4960     2.2110    -6.4420 
  155.7500    82.8680     7.4250     6.4850     7.3230    22.5580     2.1960    -6.7840 
  155.8750    80.6840     7.6020     6.7770     7.7710    22.5800     2.1870    -7.0940 
  156.0000    80.4400     7.7630     7.0070     8.2390    22.6030     2.1830    -7.3790 
  156.1250    83.5070     7.9480     7.1820     8.5400    22.6510     2.1870    -7.6190 
