~V
VERS. 2.00: Ver 2.00
~W
STRT.M 55.0000:
STOP.M 308.0000:
STEP.M 0.1250:
NULL. -999.2500:
UWI. F10053:
~C
DEPT.M :
GR.API :
RML.OHMM :
RI. :
RXO.OHMM :
CALI.CM :
DEN.GM/CC :
SP.MV :
~A
# ...
  201.2500    77.5550    24.7180    22.9620    40.4050    23.8300     2.2730   -16.4970 
  201.3750    75.3870    29.2630    27.3640    42.9920    23.7830     2.2680   -17.4280 
  201.5000    74.2270    33.0340    31.4440    40.1990    23.7320     2.2660   -18.3240 
  201.6250    73.8580    36.0500    34.5340    44.7340    23.6330     2.2650   -19.1330 
  201.7500    74.5520    38.7830    36.8390    53.0340    23.4880     2.2630   -19.8300 
  201.8750    75.6260    41.5440    38.8240    62.1070    23.3870     2.2610   -20.3150 
  202.0000    75.7720    44.5420    40.9580    61.2330    23.4750     2.2600   -20.6690 
  202.1250    74.5910    47.7850    43.5330    58.5850    23.6240     2.2590   -20.8740 
  202.2500    73.8150    51.0650    46.4210    60.2380    23.6560     2.2570   -21.0220 
  202.3750    76.0470    54.1850    49.3950    63.3660    23.5850     2.2540   -21.1260 
  202.5000    79.3660    56.9180    52.1230    68.7970    23.5310     2.2500   -21.2140 
  202.6250    76.0700    58.9070    54.1260    71.7350    23.5240     2.2480   -21.3360 
  202.7500    68.1860    60.1550    55.3810    66.6670    23.5310     2.2470   -21.4290 
  202.8750    62.9700    60.7610    56.0450    62.5730    23.5600     2.2440   -21.5260 
  203.0000    63.3490    60.8570    56.3490    66.0520    23.6000     2.2390   -21.5730 
  203.1250    64.4030    60.2930    56.3090    69.6740    23.6310     2.2320   -21.6240 
  203.2500    63.5510    58.8750    55.6880    72.4560    23.6310     2.2270   -21.6820 
  203.3750    63.3720    56.4130    54.1270    73.2010    23.6370     2.2270   -21.6910 
  203.5000    64.8100    53.0710    51.5360    73.5200    23.6870     2.2350   -21.6240 
  203.6250    65.4960    49.4910    48.3550    68.4230    23.7290     2.2480   -21.5260 
  203.7500    65.6870    46.5440    45.5360    59.9810    23.7290     2.2600   -21.4380 
  203.8750    66.7720    44.7240    43.6780    53.6030    23.7370     2.2680   -21.3740 
  204.0000    67.8850    44.1410    43.0430    52.0840    23.7860     2.2700   -21.3290 
  204.1250    67.3890    44.6260    43.6680    59.3510    23.8450     2.2690   -21.3080 
  204.2500    66.8840    45.4390    44.8850    62.5620    23.8810     2.2660   -21.3040 
  204.3750    68.1240    46.0510    46.0840    63.3200    23.8820     2.2630   -21.3370 
  204.5000    70.3050    46.1470    46.7240    61.1980    23.8520     2.2610   -21.4570 
  204.6250    70.8210    45.7250    46.5600    57.1060    23.8010     2.2620   -21.6190 
  204.7500    68.3680    45.2740    46.1080    56.1410    23.7840     2.2630   -21.8040 
  204.8750    65.0720    45.2130    45.8800    58.2560    23.7800     2.2640   -21.9730 
  205.0000    64.0080    45.8040    46.2480    57.7810    23.7780     2.2620   -22.1430 
  205.1250    65.6050    47.1380    47.4190    59.6840    23.7690     2.2560   -22.3660 
  205.2500    67.4870    48.8110    49.0570    67.0500    23.7670     2.2490   -22.5950 
  205.3750    69.8540    50.4560    50.8250    75.7660    23.7660     2.2420   -22.8050 
  205.5000    72.6250    51.7940    52.4530    77.1800    23.7660     2.2360   -22.9830 
  205.6250    74.3240    52.6930    53.7610    74.6980    23.7680     2.2280   -23.1380 
  205.7500    73.9720    53.3330    54.7860    72.5150    23.7870     2.2210   -23.2900 
  205.8750    72.1480    53.7840    55.5340    77.9730    23.8320     2.2170   -23.4910 
  206.0000    69.1000    53.9550    55.9540    81.4050    23.8670     2.2190   -23.6680 
  206.1250    66.1270    53.5100    55.8130    79.5870    23.8810     2.2250   -23.8060 
  206.2500    65.7220    52.4040    55.0900    77.4350    23.8570     2.2320   -23.9060 
  206.3750    67.3970    50.7890    53.8880    76.4090    23.8080     2.2360   -24.0480 
  206.5000    69.4900    49.0020    52.4110    72.7690    23.7670     2.2390   -24.2320 
  206.6250    69.9830    47.4380    50.8000    68.2820    23.7350     2.2450   -24.3640 
  206.7500    69.0950    46.2260    49.2140    66.2470    23.7100     2.2550   -24.4570 
  206.8750    67.8620    45.2800    47.7940    64.2430    23.6990     2.2640   -24.5110 
  207.0000    66.7720    44.3310    46.5580    62.4790    23.6960     2.2680   -24.5530 
  207.1250    65.3170    42.9210    45.1500    60.8500    23.6950     2.2640   -24.5300 
  207.2500    64.4040    40.9380    43.2190    55.2940    23.6920     2.2590   -24.4440 
  207.3750    65.3410    38.6270    40.8180    53.2380    23.6710     2.2560   -24.3050 
  207.5000    68.1400    36.5640    38.4410    51.0900    23.6080     2.2590   -24.1040 
  207.6250    71.3660    35.7610    37.0660    39.8150    23.5000     2.2610   -23.8860 
  207.7500    72.6810    36.7410    37.3710    32.5230    23.3820     2.2580   -23.6200 
  207.8750    70.1690    39.7720    39.8090    38.6000    23.1980     2.2510   -23.3160 
  208.0000    65.0710    44.6250    44.4190    50.5540    22.9940     2.2420   -22.9640 
  208.1250    63.5670    50.3540    50.6750    58.4770    22.8140     2.2340   -22.6000 
  208.2500    65.5710    55.1380    56.5260    62.8140    22.6770     2.2270   -22.2940 
  208.3750    67.4810    57.6420    59.9700    66.4630    22.5540     2.2200   -21.9730 
  208.5000    66.7680    57.4910    60.0800    65.1990    22.5230     2.2100   -21.6630 
  208.6250    65.0150    55.4160    57.6760    59.4330    22.6690     2.2020   -21.3770 
  208.7500    63.6850    53.2930    55.1490    54.9550    22.7900     2.1980   -21.1500 
  208.8750    63.4440    52.1610    53.6750    48.3100    22.7650     2.1990   -20.9370 
  209.0000    64.1610    52.4330    53.7210    48.0040    22.6660     2.2040   -20.7850 
  209.1250    63.5920    54.0810    55.3430    56.5680    22.6770     2.2090   -20.7350 
  209.2500    62.4130    56.1510    57.5700    62.0080    22.7900     2.2140   -20.7690 
  209.3750    62.6430    57.7320    59.4570    60.3900    22.8950     2.2190   -20.8690 
  209.5000    63.7060    58.0020    60.1070    54.8750    22.9190     2.2260   -20.9580 
  209.6250    63.8880    56.2200    58.6630    54.8710    22.8150     2.2340   -21.0710 
  209.7500    64.4160    52.8660    55.4470    51.4440    22.6510     2.2440   -21.1690 
  209.8750    66.0130    48.5590    50.9730    45.7130    22.4380     2.2560   -21.2860 
  210.0000    67.3760    44.1240    46.0600    39.8320    22.1750     2.2650   -21.3930 
  210.1250    65.6190    40.5990    41.8200    36.2640    21.8730     2.2690   -21.3790 
  210.2500    62.2730    38.5270    39.0190    32.1860    21.6180     2.2660   -21.3260 
  210.3750    59.6510    38.2180    38.1420    28.1180    21.4660     2.2580   -21.2780 
  210.5000    59.5850    39.6900    39.3990    29.8250    21.3780     2.2480   -21.2910 
  210.6250    61.5000    42.6950    42.8080    37.5920    21.2330     2.2420   -21.3730 
  210.7500    62.9290    45.9380    46.9660    42.6850    21.0620     2.2420   -21.5020 
  210.8750    63.0950    48.1130    50.2150    44.2930    20.9150     2.2460   -21.6220 
  211.0000    61.9940    48.1440    50.9180    44.3550    20.8600     2.2540   -21.7330 
  211.1250    60.7230    45.5330    48.2160    43.9870    20.9540     2.2640   -21.9000 
  211.2500    60.2450    41.7470    44.0370    41.3050    21.1060     2.2730   -22.0250 
  211.3750    61.0520    38.1310    40.0470    35.4230    21.2460     2.2760   -22.1260 
  211.5000    62.6900    35.6400    37.2430    29.4620    21.3910     2.2750   -22.2270 
  211.6250    62.4300    34.7000    36.0250    29.0730    21.6270     2.2700   -22.3150 
  211.7500    61.1600    34.5470    35.6870    31.6270    21.9080     2.2670   -22.4350 
  211.8750    61.4360    34.3810    35.4690    35.0200    22.1850     2.2710   -22.5980 
  212.0000    63.2610    33.4880    34.5480    38.6540    22.3820     2.2810   -22.7840 
  212.1250    64.1880    31.4430    32.2830    35.8810    22.5090     2.2940   -23.0440 
  212.2500    63.7840    28.8340    29.2620    29.7900    22.6720     2.3040   -23.3990 
  212.3750    64.1350    26.3690    26.2810    26.1350    22.9280     2.3050   -23.8220 
