~V
VERS. 2.00: Ver 2.00
~W
STRT.M 57.0000:
STOP.M 255.0000:
STEP.M 0.1250:
NULL. -999.2500:
UWI. F10046:
~C
DEPT.M :
GR.API :
RML.OHMM :
RI. :
RXO.OHMM :
CALI.CM :
DEN.GM/CC :
SP.MV :
~A
# ...
  158.2500    46.5170    20.8780    19.7790    24.3620    24.3380     2.5960    -5.4230 
  158.3750    45.2890    20.6090    19.6430    23.5260    24.3400     2.5730    -5.3250 
  158.5000    43.4450    20.5710    19.6290    23.0520    24.3210     2.5530    -5.2800 
  158.6250    43.9010    20.7410    19.7430    22.4410    24.2490     2.5480    -5.2570 
  158.7500    45.7230    20.9100    19.8500    22.3850    24.1470     2.5590    -5.2220 
  158.8750    47.5930    20.9120    19.8150    22.9520    24.0990     2.5750    -5.1450 
  159.0000    48.6580    20.6490    19.5350    23.1880    24.1570     2.5860    -5.0350 
  159.1250    48.2440    20.0890    18.9470    22.4720    24.2370     2.5850    -4.9380 
  159.2500    48.3570    19.3560    18.1780    20.7920    24.3000     2.5760    -4.8980 
  159.3750    50.2650    18.5310    17.3410    19.7290    24.3060     2.5660    -4.8770 
  159.5000    52.3130    17.6920    16.5410    18.9330    24.3010     2.5580    -4.8340 
  159.6250    52.7280    16.9420    15.8740    18.4650    24.3160     2.5500    -4.7850 
  159.7500    52.4720    16.3400    15.3530    17.4600    24.3500     2.5430    -4.7360 
  159.8750    51.9790    15.9160    14.9840    15.8670    24.3840     2.5350    -4.7240 
  160.0000    51.0680    15.6750    14.7680    14.8180    24.4140     2.5230    -4.7420 
  160.1250    49.8030    15.6210    14.7100    14.4390    24.4860     2.5040    -4.7870 
  160.2500    47.7540    15.6770    14.7410    14.1970    24.5030     2.4810    -4.8220 
  160.3750    44.0210    15.7850    14.8060    14.1650    24.4220     2.4620    -4.8610 
  160.5000    40.5750    15.8890    14.8610    14.3060    24.2600     2.4540    -4.9190 
  160.6250    40.4500    15.9530    14.8990    14.6930    24.0470     2.4610    -5.0080 
  160.7500    41.8440    16.0090    14.9600    14.9660    23.8410     2.4770    -5.1060 
  160.8750    43.2150    16.1390    15.0910    14.9660    23.7240     2.4920    -5.1800 
  161.0000    45.6680    16.4300    15.3240    14.9750    23.6370     2.4980    -5.2370 
  161.1250    48.3610    16.9490    15.6770    15.1660    23.5300     2.4910    -5.2870 
  161.2500    49.8110    17.6120    16.1080    15.2890    23.4550     2.4780    -5.3590 
  161.3750    50.0870    18.3260    16.5850    15.4440    23.4220     2.4690    -5.4260 
  161.5000    50.4230    18.9880    17.0620    15.6620    23.2740     2.4680    -5.4570 
  161.6250    50.9310    19.4720    17.4480    15.6510    22.9490     2.4750    -5.4180 
  161.7500    50.1440    19.7280    17.6650    15.5290    22.6610     2.4850    -5.3500 
  161.8750    47.8490    19.7190    17.6530    15.5900    22.5580     2.4930    -5.2900 
  162.0000    44.8560    19.4340    17.3960    15.9670    22.5630     2.4980    -5.2670 
  162.1250    44.1160    18.8810    16.9160    16.3730    22.5640     2.5030    -5.2800 
  162.2500    46.0400    18.2190    16.3610    16.1040    22.5320     2.5090    -5.2610 
  162.3750    48.2360    17.6080    15.8610    15.6990    22.5040     2.5150    -5.1880 
  162.5000    49.6750    17.2190    15.5420    15.2480    22.5380     2.5180    -5.0900 
  162.6250    51.4990    17.2240    15.5330    14.7610    22.6870     2.5160    -4.9840 
  162.7500    52.6930    17.5060    15.7550    14.5970    22.9670     2.5140    -4.8860 
  162.8750    52.0090    17.8440    16.0470    15.1800    23.4200     2.5130    -4.8070 
  163.0000    49.9160    17.9600    16.1880    16.4130    23.8560     2.5120    -4.7360 
  163.1250    50.0130    17.5730    15.9320    17.5890    24.1050     2.5100    -4.6840 
  163.2500    52.2150    16.7810    15.3360    17.8460    24.0910     2.5090    -4.6510 
  163.3750    53.9180    15.8230    14.5840    16.4810    23.8760     2.5090    -4.6630 
  163.5000    53.7060    15.0270    13.9410    14.3760    23.4850     2.5130    -4.7060 
  163.6250    51.9660    14.7680    13.7210    13.4810    23.2530     2.5200    -4.7760 
  163.7500    50.9250    15.0560    13.9600    13.8210    23.3040     2.5290    -4.8460 
  163.8750    49.9530    15.7660    14.5730    14.5780    23.4650     2.5400    -4.9030 
  164.0000    48.6440    16.6450    15.3470    15.5620    23.6540     2.5500    -4.9320 
  164.1250    46.6950    17.2960    15.9120    16.4330    23.8510     2.5600    -4.9330 
  164.2500    45.5170    17.4440    16.0030    16.9300    23.9560     2.5620    -4.9380 
  164.3750    46.6570    16.9910    15.5310    16.6950    23.9810     2.5540    -4.9190 
  164.5000    49.3170    16.0430    14.6150    15.4410    24.0260     2.5360    -4.8640 
  164.6250    52.6570    14.8890    13.5420    13.1760    24.1910     2.5150    -4.7940 
  164.7500    56.1030    13.9130    12.6420    11.4900    24.3780     2.5010    -4.7640 
  164.8750    59.2960    13.3240    12.0810    11.0520    24.5020     2.4980    -4.7700 
  165.0000    59.9220    13.1730    11.9050    11.4450    24.5440     2.5070    -4.8030 
  165.1250    57.0530    13.4310    12.1100    12.4950    24.4960     2.5180    -4.8100 
  165.2500    54.6710    13.8950    12.5220    13.7280    24.3210     2.5250    -4.7700 
  165.3750    54.2450    14.4400    13.0220    15.0450    24.0450     2.5260    -4.7210 
  165.5000    54.6120    14.9680    13.5070    15.9880    23.8380     2.5250    -4.7120 
  165.6250    54.2790    15.3900    13.8870    16.4910    23.7670     2.5260    -4.7490 
  165.7500    53.3960    15.6850    14.1440    16.7090    23.8450     2.5310    -4.7730 
  165.8750    53.5070    15.8370    14.2730    16.4050    24.1090     2.5390    -4.7840 
  166.0000    55.0190    15.8350    14.2850    15.8930    24.3390     2.5450    -4.7790 
  166.1250    57.5870    15.6920    14.2060    15.4680    24.3860     2.5460    -4.7820 
  166.2500    58.8900    15.5090    14.1140    15.3630    24.4040     2.5410    -4.8000 
  166.3750    57.4370    15.3840    14.0580    15.3680    24.4470     2.5330    -4.8280 
  166.5000    54.2140    15.3760    14.0560    15.3480    24.4650     2.5270    -4.8580 
  166.6250    52.6180    15.4740    14.0960    15.1810    24.4210     2.5220    -4.9120 
  166.7500    54.8160    15.5730    14.1330    15.3280    24.2780     2.5190    -5.0050 
  166.8750    58.3230    15.6210    14.1500    15.6610    24.0290     2.5130    -5.1120 
  167.0000    59.2540    15.6370    14.1640    15.7540    23.7670     2.5030    -5.2180 
  167.1250    56.9590    15.7150    14.2270    15.5060    23.7820     2.4880    -5.3150 
  167.2500    54.7590    15.9080    14.3690    15.3020    24.0540     2.4720    -5.3920 
  167.3750    54.7990    16.2020    14.5880    15.3270    24.4330     2.4580    -5.4470 
  167.5000    56.9020    16.5250    14.8400    15.7570    24.6180     2.4470    -5.4750 
  167.6250    59.1520    16.7360    15.0230    16.4530    24.6510     2.4430    -5.4700 
  167.7500    59.9050    16.7320    15.0500    16.8960    24.6120     2.4480    -5.4410 
  167.8750    58.9230    16.4540    14.8810    16.7330    24.5160     2.4600    -5.3940 
  168.0000    58.3620    15.9260    14.5370    16.0610    24.3730     2.4780    -5.3280 
  168.1250    57.3450    15.2770    14.0870    15.3460    24.2780     2.4950    -5.2320 
  168.2500    55.4490    14.7320    13.6570    14.9410    24.2570     2.5070    -5.1150 
  168.3750    54.8420    14.4430    13.3320    14.6800    24.2720     2.5140    -5.0060 
  168.5000    56.0100    14.4510    13.1600    14.4500    24.2940     2.5200    -4.9190 
  168.6250    56.6940    14.6830    13.1520    14.4430    24.3520     2.5290    -4.8320 
  168.7500    56.5870    14.9130    13.2200    14.2690    24.4670     2.5400    -4.7210 
  168.8750    56.9970    14.9890    13.2890    14.5260    24.5920     2.5490    -4.5780 
  169.0000    57.8590    14.8480    13.2970    14.9410    24.7000     2.5530    -4.4070 
  169.1250    57.6530    14.5540    13.2030    14.7760    24.7960     2.5500    -4.2360 
  169.2500    57.1380    14.2330    13.0360    14.1150    24.8820     2.5440    -4.0950 
  169.3750    57.1000    14.0010    12.8290    13.5320    24.9470     2.5380    -3.9870 
