~V
VERS. 2.00: Ver 2.00
~W
STRT.M 56.0000:
STOP.M 268.0000:
STEP.M 0.1250:
NULL. -999.2500:
UWI. F10027:
~C
DEPT.M :
GR.API :
RML.OHMM :
RI. :
RXO.OHMM :
CALI.CM :
DEN.GM/CC :
SP.MV :
~A
# ...
  134.7500    94.7990     7.1530     7.1800     7.8590    24.2860     2.2180    -5.9660 
  134.8750    96.0270     6.7300     6.7910     6.9930    24.2840     2.2350    -5.7940 
  135.0000    96.1360     6.4470     6.4680     6.9050    24.1940     2.2600    -5.5540 
  135.1250    96.6520     6.3790     6.3110     6.9640    24.1290     2.2800    -5.2890 
  135.2500    97.8680     6.4590     6.3090     7.0110    24.1830     2.2890    -5.0870 
  135.3750    98.7140     6.6090     6.4210     7.0390    24.2650     2.2890    -4.9640 
  135.5000    98.4410     6.7460     6.5750     7.0380    24.3060     2.2880    -4.9070 
  135.6250    98.2240     6.7980     6.6800     7.3770    24.3080     2.2910    -4.8660 
  135.7500    98.4940     6.7630     6.7000     7.6770    24.3100     2.2990    -4.8130 
  135.8750    99.0850     6.6630     6.6400     7.3510    24.3120     2.3060    -4.7730 
  136.0000    99.5120     6.5400     6.5400     6.8500    24.3090     2.3120    -4.7850 
  136.1250    98.6490     6.4510     6.4620     6.8940    24.3020     2.3120    -4.8520 
  136.2500    96.7410     6.4430     6.4540     7.0370    24.2860     2.3100    -4.9100 
  136.3750    95.3350     6.5590     6.5420     7.0850    24.2510     2.3080    -4.9500 
  136.5000    96.3320     6.8210     6.7300     7.4890    24.1910     2.3090    -4.9500 
  136.6250    97.9200     7.2150     6.9980     8.1430    24.0990     2.3110    -4.9610 
  136.7500    96.5430     7.6260     7.2790     8.4410    24.0430     2.3090    -5.0260 
  136.8750    92.9900     7.9340     7.5140     8.3420    23.9710     2.2980    -5.0920 
  137.0000    89.2540     8.0540     7.6590     8.8930    23.8520     2.2780    -5.0840 
  137.1250    87.2310     8.0030     7.7140     9.3980    23.6860     2.2520    -4.9610 
  137.2500    86.0270     8.0320     7.8230     9.2570    23.5230     2.2300    -4.7820 
  137.3750    84.6230     8.4560     8.1890     9.2230    23.4350     2.2190    -4.5580 
  137.5000    81.6740     9.6040     9.0600     9.5740    23.4490     2.2270    -4.3150 
  137.6250    73.7900    11.9500    10.8530    11.9960    23.5730     2.2580    -4.0100 
  137.7500    64.1820    15.5300    13.5960    19.7770    23.7230     2.3010    -3.6130 
  137.8750    58.9440    20.0470    17.1080    31.9070    23.7970     2.3450    -3.1480 
  138.0000    60.2970    24.1360    20.7460    33.2630    23.6200     2.3740    -2.6920 
  138.1250    63.5180    26.3430    23.3170    26.9410    23.3620     2.3680    -2.3380 
  138.2500    63.9180    26.6850    24.3560    23.5970    23.3420     2.3290    -2.0510 
  138.3750    65.0310    25.8380    24.1050    22.0000    23.5710     2.2670    -1.8190 
  138.5000    68.5840    24.6190    23.2170    22.2720    23.7470     2.2000    -1.6240 
  138.6250    70.4720    23.6960    22.3260    23.3890    23.7830     2.1480    -1.4740 
  138.7500    70.5350    23.1680    21.6900    23.3240    23.7720     2.1200    -1.3980 
  138.8750    70.9630    22.9230    21.3120    21.0790    23.7510     2.1120    -1.4130 
  139.0000    71.8450    22.8470    21.1450    18.9040    23.7120     2.1130    -1.4530 
  139.1250    70.9590    22.9160    21.1920    18.6960    23.6810     2.1160    -1.4140 
  139.2500    69.7700    23.1170    21.3980    19.5190    23.6920     2.1160    -1.3370 
  139.3750    69.5760    23.4330    21.7260    19.8420    23.7260     2.1130    -1.2450 
  139.5000    69.3920    23.8060    22.1170    20.3900    23.7340     2.1100    -1.1780 
  139.6250    68.5610    24.1650    22.5130    21.0780    23.7030     2.1100    -1.1150 
  139.7500    68.4290    24.5000    22.9040    21.5690    23.6740     2.1160    -0.9950 
  139.8750    68.4360    24.8610    23.3160    21.6720    23.6620     2.1310    -0.8420 
  140.0000    67.0450    25.2850    23.7640    22.5300    23.6750     2.1490    -0.7390 
  140.1250    64.2910    25.7130    24.1780    23.1610    23.7770     2.1610    -0.7080 
  140.2500    63.0550    25.9970    24.4290    24.4220    23.9060     2.1620    -0.6810 
  140.3750    63.7810    26.0260    24.4260    25.0670    23.9890     2.1500    -0.6620 
  140.5000    64.4410    25.8130    24.1920    23.3340    24.0260     2.1290    -0.6290 
  140.6250    64.4360    25.5580    23.9140    19.9970    24.0430     2.1070    -0.6060 
  140.7500    64.3650    25.5370    23.8480    17.8830    24.0150     2.0900    -0.6160 
  140.8750    64.8810    25.8460    24.0960    17.4250    23.9410     2.0830    -0.6000 
  141.0000    65.0040    26.3070    24.5330    18.6080    23.8410     2.0870    -0.5250 
  141.1250    63.8280    26.3920    24.7270    21.5330    23.8000     2.1030    -0.4610 
  141.2500    62.0630    25.7590    24.3350    24.2430    23.8430     2.1210    -0.4640 
  141.3750    62.4520    24.4650    23.3460    24.3660    23.9680     2.1360    -0.4850 
  141.5000    66.3090    22.9450    22.0830    19.3440    24.0520     2.1390    -0.4820 
  141.6250    68.2050    21.8970    21.1110    13.1260    23.9620     2.1280    -0.4810 
  141.7500    65.9700    21.6650    20.7720    11.1640    23.7100     2.1090    -0.5250 
  141.8750    62.7630    22.2720    21.1640    15.8130    23.4490     2.0890    -0.6200 
  142.0000    61.6050    23.4580    22.1550    22.6180    23.2820     2.0740    -0.7260 
  142.1250    61.9380    24.7210    23.4010    23.5660    23.1820     2.0730    -0.8320 
  142.2500    62.8950    25.5590    24.4070    21.1750    23.0960     2.0860    -0.9280 
  142.3750    64.1640    25.7760    24.9020    20.4580    23.1440     2.1050    -1.0190 
  142.5000    65.0130    25.4600    24.8640    21.8040    23.3470     2.1240    -1.1230 
  142.6250    64.8540    24.8820    24.4660    22.7130    23.5920     2.1320    -1.2270 
  142.7500    65.7260    24.3480    24.0250    21.9980    23.7460     2.1280    -1.3210 
  142.8750    66.8030    23.9520    23.6660    21.1160    23.7670     2.1170    -1.4390 
  143.0000    66.1540    23.6990    23.4270    21.5710    23.7050     2.1080    -1.5750 
  143.1250    64.2620    23.5860    23.3200    22.4130    23.5950     2.1080    -1.6720 
  143.2500    64.2750    23.5680    23.2980    22.4600    23.5380     2.1180    -1.7180 
  143.3750    65.8130    23.6090    23.3310    21.9370    23.5270     2.1310    -1.7640 
  143.5000    66.6590    23.6750    23.3890    21.4800    23.5370     2.1430    -1.8680 
  143.6250    66.4620    23.7420    23.4400    21.1340    23.5570     2.1480    -1.9840 
  143.7500    65.7560    23.7800    23.4450    21.1670    23.5980     2.1460    -2.0570 
  143.8750    64.2010    23.7330    23.3500    21.3470    23.6570     2.1390    -2.0980 
  144.0000    63.3820    23.5250    23.0970    21.4550    23.7070     2.1300    -2.1610 
  144.1250    65.6950    23.0590    22.6250    21.3890    23.6960     2.1200    -2.2750 
  144.2500    68.4590    22.3940    21.9970    20.4830    23.6620     2.1110    -2.4290 
  144.3750    70.1550    21.6400    21.3070    19.2350    23.6140     2.1050    -2.5700 
  144.5000    70.8280    20.9660    20.6790    18.3140    23.5800     2.1010    -2.6310 
  144.6250    70.6000    20.5950    20.2760    17.8430    23.6110     2.1000    -2.6410 
  144.7500    69.4690    20.5730    20.1520    17.4220    23.6870     2.1000    -2.6730 
  144.8750    68.6660    20.8700    20.3290    17.6020    23.7420     2.1030    -2.7100 
  145.0000    68.2690    21.3880    20.7770    18.9210    23.7630     2.1090    -2.7040 
  145.1250    66.9030    22.0030    21.4350    20.5390    23.7640     2.1170    -2.6320 
  145.2500    65.5390    22.6090    22.1610    20.9870    23.7490     2.1240    -2.5050 
  145.3750    66.1400    23.1780    22.8770    21.0450    23.7200     2.1290    -2.3930 
  145.5000    67.0690    23.7120    23.5340    22.1600    23.7190     2.1310    -2.3680 
  145.6250    65.8520    24.1940    24.0860    23.2250    23.7440     2.1270    -2.4060 
  145.7500    64.7260    24.5880    24.5220    23.8560    23.7590     2.1210    -2.4480 
  145.8750    64.8580    24.8220    24.7940    24.1710    23.7620     2.1150    -2.5160 
