~V
VERS. 2.00: Ver 2.00
~W
STRT.M 50.0000:
STOP.M 307.0000:
STEP.M 0.1250:
NULL. -999.2500:
UWI. F10044:
~C
DEPT.M :
GR.API :
RML.OHMM :
RI. :
RXO.OHMM :
CALI.CM :
DEN.GM/CC :
SP.MV :
~A
# ...
  117.5000    74.0750     7.4740     6.6500    13.7850    23.4800     2.2230   -11.9320 
  117.6250    70.8220     7.4440     6.7200    12.6230    23.4760     2.2270   -12.1920 
  117.7500    68.5730     7.4000     6.7530    10.8340    23.4760     2.2350   -12.4420 
  117.8750    66.8790     7.4050     6.7880     9.8110    23.4750     2.2430   -12.6560 
  118.0000    64.9540     7.4930     6.8580     9.7770    23.4720     2.2500   -12.8230 
  118.1250    62.7090     7.6720     6.9880    10.1630    23.4630     2.2530   -12.9460 
  118.2500    60.4420     7.8830     7.1520    10.4640    23.4470     2.2520   -13.0160 
  118.3750    59.8050     8.0730     7.3140    10.6790    23.4230     2.2480   -13.0130 
  118.5000    59.8260     8.2010     7.4340    10.7160    23.3960     2.2430   -12.9520 
  118.6250    58.7870     8.2320     7.4740    10.4960    23.3710     2.2390   -12.9120 
  118.7500    57.3120     8.1830     7.4420    10.2010    23.3490     2.2380   -12.8450 
  118.8750    56.8680     8.0710     7.3520     9.9500    23.3340     2.2390   -12.7090 
  119.0000    60.0320     7.9200     7.2270     9.8320    23.3240     2.2410   -12.5790 
  119.1250    64.2600     7.7690     7.0960     9.8460    23.3130     2.2440   -12.5340 
  119.2500    65.7030     7.6600     6.9890     9.9130    23.2960     2.2460   -12.4390 
  119.3750    67.6610     7.6180     6.9270     9.8890    23.2780     2.2480   -12.3580 
  119.5000    73.5070     7.6450     6.9140     9.8050    23.2670     2.2500   -12.3840 
  119.6250    78.5500     7.7090     6.9390     9.7990    23.2630     2.2510   -12.4080 
  119.7500    77.1490     7.7430     6.9560     9.7810    23.2570     2.2510   -12.3780 
  119.8750    71.5780     7.6940     6.9290     9.6380    23.2470     2.2520   -12.3930 
  120.0000    66.6720     7.5430     6.8390     9.3610    23.2320     2.2510   -12.4450 
  120.1250    65.0390     7.3170     6.6890     8.8720    23.2140     2.2480   -12.4270 
  120.2500    66.3490     7.1070     6.5310     8.3360    23.2030     2.2430   -12.4150 
  120.3750    68.7650     6.9860     6.4110     7.9970    23.2010     2.2360   -12.4530 
  120.5000    69.2750     6.9880     6.3600     7.9570    23.2090     2.2300   -12.5060 
  120.6250    67.1020     7.1020     6.3920     8.0970    23.2300     2.2250   -12.5760 
  120.7500    64.0480     7.2340     6.4650     8.3350    23.2670     2.2220   -12.7010 
  120.8750    60.5630     7.3080     6.5360     8.6070    23.3200     2.2200   -12.8910 
  121.0000    58.8880     7.2870     6.5700     8.7730    23.3750     2.2220   -13.1590 
  121.1250    62.1560     7.1800     6.5510     8.6670    23.4180     2.2280   -13.4990 
  121.2500    67.2630     7.0680     6.5120     8.4290    23.4480     2.2330   -13.9190 
  121.3750    69.0560     7.0110     6.4890     8.1810    23.4620     2.2350   -14.4070 
  121.5000    68.4100     7.0440     6.5130     8.1180    23.4660     2.2280   -14.9350 
  121.6250    69.7850     7.1730     6.6040     8.4210    23.4650     2.2110   -15.4890 
  121.7500    71.2050     7.3370     6.7310     8.7450    23.4590     2.1910   -16.0740 
  121.8750    69.0410     7.4890     6.8640     8.7780    23.4450     2.1720   -16.6350 
  122.0000    63.8790     7.5930     6.9740     8.6590    23.4210     2.1620   -17.0710 
  122.1250    60.4640     7.6370     7.0390     8.5780    23.3850     2.1650   -17.4300 
  122.2500    59.1170     7.6500     7.0680     8.6220    23.3470     2.1780   -17.7610 
  122.3750    58.9720     7.6570     7.0770     8.7290    23.3200     2.1960   -17.9690 
  122.5000    59.6360     7.6740     7.0810     8.8570    23.3100     2.2130   -18.0420 
  122.6250    62.3170     7.6970     7.0960     8.9240    23.3170     2.2210   -18.1300 
  122.7500    67.5660     7.7170     7.1230     8.8800    23.3490     2.2220   -18.2100 
  122.8750    72.6360     7.7270     7.1570     8.7640    23.4020     2.2170   -18.2300 
  123.0000    72.2620     7.7240     7.1880     8.6540    23.4320     2.2090   -18.2920 
  123.1250    65.2160     7.7020     7.2010     8.5740    23.4240     2.2010   -18.4190 
  123.2500    58.5970     7.6630     7.1930     8.4620    23.3930     2.1940   -18.4690 
  123.3750    56.2410     7.6120     7.1660     8.2750    23.3520     2.1870   -18.4830 
  123.5000    57.2060     7.5540     7.1230     8.0100    23.2970     2.1790   -18.5360 
  123.6250    58.7740     7.4920     7.0680     7.7710    23.2200     2.1720   -18.5090 
  123.7500    61.1230     7.4190     7.0050     7.6050    23.1380     2.1670   -18.3780 
  123.8750    63.7280     7.3230     6.9370     7.4980    23.0660     2.1670   -18.2010 
  124.0000    63.9850     7.2020     6.8630     7.4080    23.0130     2.1680   -17.9930 
  124.1250    60.8870     7.0760     6.7930     7.3420    22.9930     2.1710   -17.7090 
  124.2500    58.8320     7.0000     6.7510     7.3450    22.9880     2.1730   -17.3770 
  124.3750    60.6330     7.0260     6.7680     7.3350    22.9880     2.1760   -17.0070 
  124.5000    62.7290     7.1940     6.8780     7.3240    22.9940     2.1840   -16.5950 
  124.6250    59.9370     7.5160     7.1070     7.3750    23.0080     2.1960   -16.1330 
  124.7500    56.0920     7.9070     7.4050     7.4490    23.0260     2.2080   -15.6520 
  124.8750    55.3160     8.2780     7.7100     7.5130    23.0370     2.2170   -15.1760 
  125.0000    57.2430     8.5400     7.9470     7.5730    23.0240     2.2190   -14.7030 
  125.1250    58.6080     8.5920     8.0270     7.5440    22.9560     2.2140   -14.2170 
  125.2500    59.7810     8.4500     7.9480     7.5420    22.8570     2.2050   -13.7600 
  125.3750    61.3610     8.1450     7.7300     7.5010    22.7630     2.1960   -13.3680 
  125.5000    63.7520     7.7300     7.4130     7.3620    22.7020     2.1860   -13.0000 
  125.6250    67.1080     7.2650     7.0460     7.2200    22.6720     2.1780   -12.6070 
  125.7500    68.3950     6.8330     6.6920     7.1230    22.6540     2.1730   -12.2440 
  125.8750    66.9560     6.5250     6.4220     7.1070    22.6450     2.1750   -11.8800 
  126.0000    66.9270     6.4720     6.3390     7.1990    22.6450     2.1880   -11.4320 
  126.1250    70.2430     6.8900     6.6380     7.6360    22.6700     2.2220   -10.9500 
  126.2500    72.4550     7.7480     7.3270     8.9050    22.7420     2.2760   -10.4830 
  126.3750    71.0640     8.8830     8.3120    11.6740    22.8760     2.3430    -9.9380 
  126.5000    68.8440     9.9550     9.3290    15.3420    23.0570     2.4070    -9.2830 
  126.6250    66.8450    10.4150     9.8900    18.6110    23.2040     2.4410    -8.6810 
  126.7500    64.6450    10.0700     9.7350    19.4650    23.2330     2.4360    -8.1420 
  126.8750    66.8110     9.0250     8.8840    15.2450    23.1280     2.3990    -7.6220 
  127.0000    75.7710     7.6820     7.6670     8.8810    22.9560     2.3480    -7.1780 
  127.1250    86.0610     6.5850     6.5640     6.3520    22.8370     2.3000    -6.8890 
  127.2500    90.1040     5.9430     5.8120     5.8130    22.7840     2.2640    -6.6890 
  127.3750    88.8700     5.7050     5.4190     5.9350    22.7790     2.2430    -6.5440 
  127.5000    86.3010     5.6930     5.2850     6.1540    22.8160     2.2380    -6.4450 
  127.6250    83.6110     5.6980     5.2740     6.2160    22.8970     2.2500    -6.3710 
  127.7500    81.2560     5.5970     5.2410     6.0010    22.9970     2.2710    -6.2560 
  127.8750    80.6830     5.3950     5.1420     5.6300    23.0980     2.2950    -6.1230 
  128.0000    82.2760     5.1680     5.0010     5.3410    23.2140     2.3140    -6.0120 
  128.1250    85.0110     5.0320     4.8920     5.2850    23.3530     2.3190    -5.8910 
  128.2500    86.4520     5.0350     4.8750     5.3400    23.5050     2.3100    -5.7460 
  128.3750    84.3930     5.1760     4.9690     5.4750    23.6500     2.2890    -5.6660 
  128.5000    79.8370     5.4080     5.1510     5.7390    23.7700     2.2650    -5.7190 
  128.6250    75.8180     5.6360     5.3530     6.1670    23.8520     2.2490    -5.8210 
