~V
VERS. 2.00: Ver 2.00
~W
STRT.M 60.0000:
STOP.M 217.0000:
STEP.M 0.1250:
NULL. -999.2500:
UWI. F10010:
~C
DEPT.M :
DEN.GM/CC :
GR.API :
RML.OHMM :
RI. :
RXO.OHMM :
CALI.CM :
SP.MV :
~A
# ...
  161.2500     2.2980    70.1540    30.7390    28.2360    30.8600    21.5340   -33.3640 
  161.3750     2.2740    69.7250    31.4910    28.9460    33.2470    21.5720   -33.2460 
  161.5000     2.2550    67.7490    32.1140    29.6240    34.6080    21.6270   -33.1650 
  161.6250     2.2490    65.5060    32.4370    30.0850    32.8400    21.6730   -33.0730 
  161.7500     2.2500    63.3960    32.5020    30.2710    30.5960    21.7520   -32.9840 
  161.8750     2.2550    61.0800    32.3850    30.2440    30.7960    21.9980   -32.9040 
  162.0000     2.2620    59.7650    32.1580    30.1020    33.0540    22.5880   -32.8460 
  162.1250     2.2720    61.0630    31.8540    29.9050    34.3260    23.3540   -32.8150 
  162.2500     2.2850    62.8780    31.5360    29.7150    33.4300    23.8580   -32.7780 
  162.3750     2.3020    63.7770    31.2830    29.5600    31.6410    23.9920   -32.7230 
  162.5000     2.3280    64.2660    31.1760    29.4890    30.3010    23.9930   -32.6620 
  162.6250     2.3660    63.5790    31.2870    29.5790    30.9660    23.8380   -32.6090 
  162.7500     2.4040    60.2220    31.4960    29.7660    33.5940    23.7110   -32.5690 
  162.8750     2.4220    56.3610    31.5780    29.9080    35.6140    23.5650   -32.5340 
  163.0000     2.4060    55.0600    31.2780    29.7780    34.8750    23.5070   -32.4650 
  163.1250     2.3550    56.5820    30.4250    29.1720    31.6260    23.5710   -32.3500 
  163.2500     2.2980    59.6430    29.3000    28.3090    28.1310    23.6650   -32.2540 
  163.3750     2.2560    63.7580    28.2230    27.4450    26.2580    23.6260   -32.2030 
  163.5000     2.2340    67.0960    27.4760    26.8140    26.7900    23.3970   -32.1460 
  163.6250     2.2270    66.9110    27.2600    26.5960    29.0540    22.8870   -32.0800 
  163.7500     2.2230    63.9510    27.4050    26.6720    30.5350    22.2710   -32.0720 
  163.8750     2.2200    60.3060    27.7100    26.9080    30.1790    21.8900   -32.0780 
  164.0000     2.2190    57.7230    27.9500    27.1080    28.9580    21.9780   -32.0780 
  164.1250     2.2230    57.2520    27.8480    27.0240    28.0570    22.3110   -32.1400 
  164.2500     2.2300    59.2100    27.3320    26.5980    28.1340    22.4900   -32.2820 
  164.3750     2.2390    62.0260    26.4410    25.8410    27.9800    22.5120   -32.4140 
  164.5000     2.2450    63.9840    25.3450    24.8780    25.7500    22.5320   -32.5220 
  164.6250     2.2500    64.3130    24.3360    23.9450    22.2130    22.5880   -32.6870 
  164.7500     2.2560    64.1880    23.6590    23.2640    20.3530    22.4570   -32.8120 
  164.8750     2.2650    64.2690    23.4330    22.9820    21.1750    21.9730   -32.9040 
  165.0000     2.2780    64.5780    23.6120    23.1040    24.1330    21.3330   -33.0280 
  165.1250     2.2900    64.6660    23.9680    23.4690    27.3410    20.7190   -33.1420 
  165.2500     2.2960    64.9830    24.1470    23.7420    28.3480    20.4050   -33.2070 
  165.3750     2.2950    66.1130    23.9600    23.6830    26.1790    20.3200   -33.2400 
  165.5000     2.2860    68.1360    23.4050    23.2240    22.9190    20.5750   -33.2770 
  165.6250     2.2730    69.7190    22.6710    22.5150    21.6280    21.0880   -33.2990 
  165.7500     2.2610    68.1680    22.0750    21.8850    22.3050    21.5590   -33.3250 
  165.8750     2.2540    64.9620    21.7890    21.5510    22.7350    21.8270   -33.3460 
  166.0000     2.2550    64.1910    21.8610    21.5880    21.9490    21.9430   -33.3730 
  166.1250     2.2610    66.4090    22.2860    22.0090    22.1440    21.9860   -33.4030 
  166.2500     2.2640    67.7540    22.9250    22.6690    23.7020    21.9980   -33.4000 
  166.3750     2.2580    67.1250    23.6930    23.4590    25.3610    22.0640   -33.4280 
  166.5000     2.2450    66.6650    24.5170    24.3200    26.2210    22.2220   -33.5060 
  166.6250     2.2330    66.3110    25.3230    25.2140    27.0830    22.4690   -33.5390 
  166.7500     2.2280    63.6140    26.0150    26.0220    27.7540    22.7840   -33.5690 
  166.8750     2.2290    59.7020    26.4620    26.6140    28.0150    23.0260   -33.6500 
  167.0000     2.2310    57.3980    26.5410    26.8350    28.1390    23.0060   -33.7550 
  167.1250     2.2290    60.0820    26.1310    26.5100    27.3770    22.7120   -33.8340 
  167.2500     2.2250    65.2810    25.3870    25.7690    25.5910    22.5210   -33.9560 
  167.3750     2.2290    69.7020    24.5090    24.7930    23.2420    22.4770   -34.1370 
  167.5000     2.2470    70.5100    23.7780    23.8840    21.5720    22.4970   -34.3150 
  167.6250     2.2770    68.2810    23.5750    23.4310    22.0980    22.4470   -34.5010 
  167.7500     2.3020    65.4300    24.0120    23.5780    24.0040    22.2630   -34.7050 
  167.8750     2.3060    65.2610    25.1090    24.3770    26.3710    21.9440   -34.9180 
  168.0000     2.2850    67.6880    26.7630    25.7320    29.3820    21.7560   -35.1260 
  168.1250     2.2500    69.2460    28.7430    27.4720    34.0010    22.1060   -35.3370 
  168.2500     2.2170    68.1920    30.6240    29.2040    37.4370    22.8080   -35.5340 
  168.3750     2.1950    66.2240    32.1270    30.6340    37.5130    23.4450   -35.7030 
  168.5000     2.1870    64.4170    33.1350    31.6450    36.1630    23.9320   -35.8380 
  168.6250     2.1930    61.6350    33.6800    32.2160    35.2330    24.1230   -35.9400 
  168.7500     2.2070    60.4150    34.0220    32.5710    34.8190    24.2310   -36.0120 
  168.8750     2.2270    62.4870    34.3260    32.8810    35.5200    24.2540   -36.0420 
  169.0000     2.2430    65.4150    34.6570    33.2460    36.3630    24.1770   -36.0080 
  169.1250     2.2470    64.6810    34.8380    33.6920    35.4270    23.9300   -35.9280 
  169.2500     2.2390    61.8230    35.0650    34.1650    34.2680    23.4580   -35.8640 
  169.3750     2.2260    61.8380    35.5040    34.6860    34.8600    22.7140   -35.7580 
  169.5000     2.2180    64.6630    36.0090    35.2910    36.8270    22.1920   -35.6100 
  169.6250     2.2210    65.7040    36.7020    35.9300    38.6470    22.2540   -35.4980 
  169.7500     2.2310    64.0230    37.8250    36.5330    40.5680    22.7650   -35.4420 
  169.8750     2.2400    62.6600    38.4200    37.0820    41.4830    23.4240   -35.3890 
  170.0000     2.2400    63.1880    39.2130    37.7130    39.5760    24.0200   -35.3400 
  170.1250     2.2270    64.2560    40.8340    38.9530    38.3240    24.1330   -35.3900 
  170.2500     2.2120    64.7640    43.7940    41.3200    42.6190    24.0930   -35.4400 
  170.3750     2.2020    63.4030    48.5390    45.3250    54.0060    24.0240   -35.4720 
  170.5000     2.2010    59.0770    55.1770    51.1690    71.5700    24.0030   -35.5650 
  170.6250     2.2060    54.4530    63.3560    58.5850    88.5240    23.9980   -35.6820 
  170.7500     2.2070    53.3510    71.5050    66.0640    94.3880    23.9680   -35.7290 
  170.8750     2.2020    55.9560    78.1370    72.1490    87.1830    23.9970   -35.7710 
  171.0000     2.1940    59.9250    82.3350    75.9480    75.0950    23.9530   -35.8630 
  171.1250     2.1920    62.5730    84.2260    77.4970    69.2380    23.8830   -35.8620 
  171.2500     2.2030    61.8860    85.5470    78.3910    69.9870    23.7840   -35.8070 
  171.3750     2.2230    59.2690    87.3420    79.7440    74.7710    23.9110   -35.7790 
  171.5000     2.2440    57.2210    90.0800    82.1670    81.1910    24.1450   -35.7520 
  171.6250     2.2480    57.2860    93.7950    86.0080    89.7210    24.3600   -35.6730 
  171.7500     2.2340    57.3090    97.7630    90.7650   102.9740    24.4160   -35.5920 
  171.8750     2.2160    55.7040   101.3320    95.8270   120.5210    24.4230   -35.5020 
  172.0000     2.2180    52.9160   104.0570   100.4840   132.0370    24.4270   -35.4020 
  172.1250     2.2760    52.0230   105.2270   103.4270   116.6440    24.4110   -35.3070 
  172.2500     2.3860    54.4800   103.7890   103.3010    93.1420    24.2900   -35.1940 
  172.3750     2.5270    58.0060    97.4210    97.9740    76.0470    24.0440   -35.0580 
