~V
VERS. 2.00: Ver 2.00
~W
STRT.M 55.0000:
STOP.M 292.0000:
STEP.M 0.1250:
NULL. -999.2500:
UWI. F10078:
~C
DEPT.M :
GR.API :
RML.OHMM :
RI. :
RXO.OHMM :
CALI.CM :
DEN.GM/CC :
SP.MV :
~A
# ...
   66.2500    54.3110     8.2340     7.7770     7.7890    24.2700     2.1300   -32.3700 
   66.3750    55.4000     8.1240     7.7130     7.7130    24.1110     2.1390   -31.9520 
   66.5000    58.3490     8.0620     7.6770     7.6090    23.9440     2.1590   -31.4510 
   66.6250    62.0750     8.0880     7.6910     7.4940    23.8040     2.1800   -30.8520 
   66.7500    63.4210     8.1760     7.7330     7.4050    23.7880     2.1950   -30.1910 
   66.8750    61.9060     8.2560     7.7560     7.4050    23.8200     2.2010   -29.4980 
   67.0000    60.2570     8.2260     7.6840     7.3580    23.8420     2.2010   -28.7470 
   67.1250    62.4760     7.9410     7.4080     7.1490    23.8590     2.2040   -27.9310 
   67.2500    68.9110     7.4070     6.9270     6.6220    23.8910     2.2170   -27.1180 
   67.3750    77.5840     6.6960     6.2910     5.8790    23.9390     2.2400   -26.3590 
   67.5000    87.8670     5.9580     5.6140     5.1300    24.0140     2.2680   -25.7570 
   67.6250    98.8460     5.4230     5.0730     4.6560    24.1050     2.2910   -25.3830 
   67.7500   104.3650     5.2170     4.7780     4.5020    24.1670     2.3000   -25.2380 
   67.8750    99.9470     5.3930     4.7860     4.6850    24.1790     2.2910   -25.3260 
   68.0000    88.8260     5.9200     5.0970     5.3240    24.1620     2.2670   -25.6840 
   68.1250    79.3040     6.7010     5.6730     6.4420    24.1320     2.2350   -26.2820 
   68.2500    73.2710     7.5050     6.3400     7.6510    24.1110     2.2060   -26.9740 
   68.3750    68.3400     8.1620     6.9520     8.5130    24.0900     2.1870   -27.6850 
   68.5000    64.6160     8.5690     7.3920     8.8260    24.0630     2.1800   -28.3320 
   68.6250    64.3660     8.6720     7.5780     8.8250    24.0500     2.1840   -28.9060 
   68.7500    64.7690     8.5990     7.5940     8.7870    24.0580     2.1910   -29.3270 
   68.8750    63.7590     8.4350     7.5240     8.7960    24.1030     2.1950   -29.5750 
   69.0000    63.4810     8.2420     7.4390     8.9520    24.1680     2.1970   -29.7000 
   69.1250    64.8030     8.1010     7.3840     9.2910    24.2300     2.1960   -29.7320 
   69.2500    64.0600     8.0460     7.3620     9.2040    24.2590     2.1930   -29.7390 
   69.3750    61.9850     8.0890     7.3630     8.8160    24.2560     2.1900   -29.7520 
   69.5000    63.9260     8.1880     7.3720     8.3570    24.2210     2.1880   -29.7420 
   69.6250    68.9630     8.2660     7.3690     8.0930    24.1370     2.1900   -29.5960 
   69.7500    71.0200     8.2860     7.3380     8.1780    23.9540     2.1950   -29.4040 
   69.8750    70.2340     8.2390     7.2700     8.3760    23.6850     2.2030   -29.2390 
   70.0000    70.2210     8.1210     7.1620     8.5590    23.5480     2.2080   -29.0280 
   70.1250    71.6300     7.9310     7.0150     8.6770    23.5550     2.2070   -28.8310 
   70.2500    71.9060     7.7160     6.8570     8.7720    23.5500     2.2030   -28.6280 
   70.3750    71.9080     7.5360     6.7260     8.7340    23.5230     2.2030   -28.4070 
   70.5000    71.6280     7.4680     6.6690     8.7190    23.5040     2.2090   -28.1860 
   70.6250    69.9160     7.6240     6.7650     8.9270    23.5110     2.2180   -28.0210 
   70.7500    67.3410     8.0010     7.0180     9.7590    23.5650     2.2200   -27.9170 
   70.8750    66.3250     8.5430     7.4040    11.9050    23.6590     2.2090   -27.7860 
   71.0000    67.4400     9.1200     7.8430    15.5710    23.7900     2.1880   -27.6730 
   71.1250    68.6210     9.5130     8.1840    19.9190    23.9110     2.1620   -27.5410 
   71.2500    69.6240     9.5940     8.3110    23.0150    23.9470     2.1410   -27.4540 
   71.3750    69.9640     9.3330     8.1770    21.9360    23.9260     2.1280   -27.3940 
   71.5000    68.6330     8.8170     7.8230    16.4300    23.8600     2.1260   -27.3010 
   71.6250    66.4680     8.2280     7.3690    11.6000    23.7530     2.1360   -27.1960 
   71.7500    67.0730     7.7810     6.9830     9.4470    23.6390     2.1560   -27.0350 
   71.8750    70.3270     7.5970     6.7700     8.7110    23.5630     2.1790   -26.8980 
   72.0000    72.0030     7.7250     6.7860     8.4270    23.5220     2.1960   -26.7390 
   72.1250    69.8900     8.1690     7.0600     8.3310    23.4980     2.1970   -26.6020 
   72.2500    67.1270     8.7610     7.4790     8.2540    23.4980     2.1840   -26.4800 
   72.3750    67.5450     9.3470     7.9360     8.2300    23.5700     2.1650   -26.3670 
   72.5000    71.6650     9.7770     8.3110     8.2420    23.7030     2.1520   -26.3430 
   72.6250    75.3820     9.9060     8.4780     8.2840    23.8270     2.1530   -26.3580 
   72.7500    76.1000     9.7860     8.4490     8.4430    23.8110     2.1630   -26.4560 
   72.8750    75.1560     9.5100     8.2750     8.6750    23.7150     2.1760   -26.5720 
   73.0000    75.1420     9.1970     8.0400     8.8870    23.6620     2.1840   -26.7460 
   73.1250    74.1170     8.9480     7.8220     9.0990    23.6380     2.1850   -26.9580 
   73.2500    69.5730     8.7770     7.6520     9.3340    23.6070     2.1800   -27.1540 
   73.3750    64.8740     8.6630     7.5240     9.5600    23.5710     2.1740   -27.3650 
   73.5000    64.6730     8.5780     7.4280     9.6530    23.5500     2.1680   -27.5270 
   73.6250    68.3310     8.5180     7.3610     9.5280    23.5430     2.1670   -27.6930 
   73.7500    72.1660     8.4990     7.3310     9.3400    23.5360     2.1680   -27.8170 
   73.8750    73.3450     8.5480     7.3550     9.2230    23.5260     2.1720   -27.9400 
   74.0000    69.6640     8.6700     7.4380     9.2470    23.5120     2.1750   -28.0270 
   74.1250    62.7320     8.8330     7.5590     9.4530    23.4950     2.1740   -28.0640 
   74.2500    59.2270     8.9560     7.6650     9.7130    23.5000     2.1710   -28.0850 
   74.3750    61.0670     8.9730     7.7060     9.9070    23.5210     2.1680   -28.0880 
   74.5000    64.0570     8.8480     7.6500     9.8170    23.5380     2.1660   -28.0820 
   74.6250    65.4630     8.5910     7.4900     9.3020    23.5480     2.1660   -28.0520 
   74.7500    66.9310     8.3030     7.2880     8.6840    23.5630     2.1650   -28.0120 
   74.8750    68.4860     8.0640     7.1000     8.3640    23.5930     2.1600   -27.9310 
   75.0000    68.9610     7.9220     6.9660     8.4270    23.6440     2.1500   -27.8140 
   75.1250    67.8700     7.8950     6.9120     8.6250    23.7080     2.1390   -27.6660 
   75.2500    67.3960     7.9280     6.9110     8.8170    23.7610     2.1320   -27.5240 
   75.3750    66.4880     7.9760     6.9350     8.8900    23.7360     2.1310   -27.3310 
   75.5000    63.4170     8.0070     6.9610     8.6410    23.6220     2.1360   -27.1000 
   75.6250    60.2230     8.0010     6.9710     8.3760    23.5300     2.1440   -26.8190 
   75.7500    61.8160     7.9620     6.9630     8.3290    23.4780     2.1490   -26.5080 
   75.8750    67.1540     7.8920     6.9360     8.4460    23.4580     2.1510   -26.1780 
   76.0000    69.8010     7.7940     6.8910     8.5750    23.4610     2.1510   -25.8300 
   76.1250    67.9780     7.6840     6.8350     8.5510    23.4690     2.1530   -25.4530 
   76.2500    65.8080     7.5890     6.7830     8.4000    23.4760     2.1580   -25.0370 
   76.3750    64.9760     7.5280     6.7440     8.2000    23.4870     2.1660   -24.6470 
   76.5000    65.3880     7.5030     6.7210     8.0280    23.4980     2.1740   -24.2490 
   76.6250    66.1120     7.4850     6.6970     8.0210    23.4880     2.1800   -23.7820 
   76.7500    68.5780     7.4390     6.6480     8.0310    23.4830     2.1830   -23.2330 
   76.8750    73.7470     7.3500     6.5650     7.8940    23.4910     2.1870   -22.5880 
   77.0000    81.3150     7.2290     6.4510     7.5550    23.5130     2.1940   -21.9300 
   77.1250    87.8240     7.1020     6.3250     7.2980    23.5410     2.2060   -21.3320 
   77.2500    88.9300     6.9890     6.2070     7.2610    23.5490     2.2210   -20.7820 
   77.3750    86.1580     6.8900     6.1040     7.5200    23.5430     2.2360   -20.2610 
