~V
VERS. 2.00: Ver 2.00
~W
STRT.M 50.0000:
STOP.M 280.0000:
STEP.M 0.1250:
NULL. -999.2500:
UWI. F10023:
~C
DEPT.M :
SP.MV :
DEN.GM/CC :
GR.API :
CALI.CM :
RXO.OHMM :
RI. :
RML.OHMM :
~A
# ...
  106.2500   -22.4570     2.1590   105.9100    23.0710     6.3100     5.9830     7.4660 
  106.3750   -22.3950     2.1570   102.9990    23.0090     6.2850     5.9890     7.4210 
  106.5000   -22.3570     2.1760   106.1050    22.8280     6.2030     5.8560     7.2370 
  106.6250   -22.2250     2.2130   112.0040    22.5260     6.0570     5.6610     7.0280 
  106.7500   -22.0790     2.2520   113.1700    22.3480     5.9320     5.5460     6.9460 
  106.8750   -21.9600     2.2850   109.8540    22.2910     5.8850     5.5910     7.0590 
  107.0000   -21.7650     2.3130   108.5070    22.2760     6.1480     5.8060     7.3420 
  107.1250   -21.5010     2.3320   107.5770    22.1950     7.0820     6.1420     7.6770 
  107.2500   -21.3500     2.3300   101.6530    22.0330     8.3370     6.4590     7.8960 
  107.3750   -21.2260     2.3100    94.6820    21.8940     8.5350     6.6530     7.9230 
  107.5000   -21.1000     2.2850    92.7770    21.8950     7.3630     6.6930     7.7950 
  107.6250   -21.1010     2.2740    95.7050    22.0230     6.5750     6.6150     7.6330 
  107.7500   -21.0850     2.2700    99.0340    22.1930     6.4390     6.5110     7.5260 
  107.8750   -21.0310     2.2650   101.4200    22.3570     6.4550     6.4030     7.4620 
  108.0000   -21.0630     2.2560   102.4830    22.5130     6.2410     6.2600     7.3620 
  108.1250   -21.2230     2.2460   101.7410    22.7290     5.8550     5.9790     7.0700 
  108.2500   -21.3590     2.2430   101.5170    22.8510     5.5970     5.5370     6.5690 
  108.3750   -21.6050     2.2500   103.3420    22.7380     5.4180     5.0270     6.0010 
  108.5000   -21.9600     2.2700   108.4360    22.5320     5.2200     4.6430     5.6290 
  108.6250   -22.3670     2.3030   113.3520    22.6350     5.1690     4.6670     5.8090 
  108.7500   -22.9510     2.3480   114.4530    22.9840     6.1420     5.2110     6.6490 
  108.8750   -23.7090     2.3990   109.0330    23.4130    10.5180     6.3940     8.2260 
  109.0000   -24.5040     2.4330    97.7670    23.7700    20.7840     8.2520    10.4480 
  109.1250   -25.3680     2.4110    86.0550    23.8280    29.3140    10.4380    12.6200 
  109.2500   -26.3060     2.3420    77.8670    23.6880    26.8470    11.9270    13.5860 
  109.3750   -27.1980     2.2550    73.8610    23.4870    17.6510    12.1230    13.0210 
  109.5000   -28.0600     2.1810    72.2410    23.3360    11.5020    11.3770    11.7140 
  109.6250   -28.9020     2.1340    71.3030    23.3220    10.3650    10.5200    10.7010 
  109.7500   -29.5730     2.1070    69.9630    23.5680    10.6190    10.0420    10.2860 
  109.8750   -30.1160     2.0930    68.7550    23.9320    11.0720    10.0030    10.3700 
  110.0000   -30.5670     2.0850    69.6830    24.2550    11.4270    10.2730    10.7170 
  110.1250   -30.8100     2.0750    71.9660    24.4030    11.6080    10.6220    11.0510 
  110.2500   -30.9850     2.0620    72.1610    24.4720    11.6510    10.8500    11.2330 
  110.3750   -31.1510     2.0450    70.4950    24.4930    11.5480    10.9160    11.2700 
  110.5000   -31.2140     2.0300    69.1220    24.4400    11.3500    10.8640    11.2240 
  110.6250   -31.1360     2.0310    69.3980    24.3160    11.3460    10.7660    11.1610 
  110.7500   -31.0800     2.0450    70.4680    24.2660    11.4670    10.6850    11.1260 
  110.8750   -30.9680     2.0660    70.6280    24.2370    11.5260    10.6340    11.1220 
  111.0000   -30.8290     2.0840    70.2340    24.2190    11.4620    10.5960    11.1350 
  111.1250   -30.7590     2.0930    69.5900    24.2130    11.4450    10.5410    11.1380 
  111.2500   -30.6530     2.0910    69.8190    24.2120    11.4390    10.4560    11.1160 
  111.3750   -30.4860     2.0790    71.0370    24.1910    11.4730    10.3400    11.0590 
  111.5000   -30.3720     2.0670    72.5300    24.1380    11.4900    10.2010    10.9690 
  111.6250   -30.2610     2.0650    74.2680    24.0810    11.3850    10.0620    10.8640 
  111.7500   -30.1220     2.0690    74.5890    24.1040    11.1830     9.9480    10.7760 
  111.8750   -30.0700     2.0710    71.9140    24.1560    10.9780     9.8780    10.7330 
  112.0000   -30.0790     2.0650    69.0190    24.1140    10.8770     9.8620    10.7450 
  112.1250   -30.0360     2.0570    70.1230    23.9680    10.9590     9.9020    10.8040 
  112.2500   -29.9880     2.0590    72.1590    24.0460    11.1920     9.9700    10.8780 
  112.3750   -29.9020     2.0710    70.9950    24.6880    11.4570    10.0520    10.9470 
  112.5000   -29.7190     2.0850    67.8560    25.4590    11.6560    10.1370    11.0100 
  112.6250   -29.5510     2.0910    67.3330    25.4730    11.7160    10.2140    11.0720 
  112.7500   -29.3110     2.0890    70.0070    24.9590    11.6360    10.2690    11.1140 
  112.8750   -28.9230     2.0860    72.5570    24.4260    11.4860    10.2530    11.0740 
  113.0000   -28.3830     2.0880    73.0760    24.1800    11.3290    10.0900    10.8590 
  113.1250   -27.7870     2.1000    72.5000    24.1360    11.1440     9.6660    10.3530 
  113.2500   -27.0870     2.1230    74.1870    24.1070    10.8950     9.0220     9.6200 
  113.3750   -26.3960     2.1600    78.1520    24.0620    10.5930     8.2410     8.7800 
  113.5000   -25.8210     2.2080    83.3970    24.0480     9.7900     7.4550     7.9910 
  113.6250   -25.2890     2.2420    91.6030    24.0740     8.1240     6.8450     7.4510 
  113.7500   -24.8700     2.2510    99.7510    24.0700     6.8330     6.4920     7.2150 
  113.8750   -24.6420     2.2430   102.4100    24.0500     6.6640     6.4370     7.3090 
  114.0000   -24.6200     2.2300    98.9070    24.0130     7.2420     6.6820     7.7100 
  114.1250   -24.6940     2.2100    93.5350    23.9510     8.2480     7.2080     8.3500 
  114.2500   -24.9790     2.1770    88.8540    23.8510     9.2060     7.8440     9.0100 
  114.3750   -25.3290     2.1360    84.9080    23.7540     9.8290     8.4190     9.4930 
  114.5000   -25.5770     2.1040    83.0780    23.6700    10.0190     8.7630     9.6570 
  114.6250   -25.8210     2.1030    84.3340    23.6820     9.8810     8.7340     9.4430 
  114.7500   -26.0770     2.1220    85.3300    23.7970     9.5980     8.4550     9.0490 
  114.8750   -26.2280     2.1440    86.8280    23.9270     9.0550     8.0810     8.6510 
  115.0000   -26.3280     2.1500    91.5810    23.9670     8.4150     7.7640     8.3910 
  115.1250   -26.4850     2.1400    95.9130    23.9240     8.1520     7.6420     8.3800 
  115.2500   -26.5290     2.1290    93.0720    23.8220     8.4630     7.7220     8.5780 
  115.3750   -26.5410     2.1230    86.2110    23.6680     9.1570     7.9760     8.9270 
  115.5000   -26.6260     2.1240    82.2850    23.5310     9.9910     8.3490     9.3400 
  115.6250   -26.6360     2.1280    81.8530    23.6370    10.4960     8.7710     9.7360 
  115.7500   -26.5500     2.1290    78.4610    23.7890    10.6680     9.1950    10.1250 
  115.8750   -26.4420     2.1190    74.8230    23.8160    10.6060     9.6380    10.5680 
  116.0000   -26.2120     2.1030    76.7120    23.7630    10.4620    10.1110    11.0680 
  116.1250   -25.7540     2.1150    80.1890    23.5910    10.4360    10.5030    11.4400 
  116.2500   -25.2750     2.1720    79.9170    23.2860    10.7520    10.6100    11.4180 
  116.3750   -24.7740     2.2470    78.2150    23.0270    11.3820    10.2530    10.8360 
  116.5000   -24.2050     2.2950    79.9110    22.9720    11.0680     9.4190     9.7770 
  116.6250   -23.6630     2.2870    84.2570    23.0650     9.1430     8.3220     8.5850 
  116.7500   -23.1500     2.2580    87.7490    23.2150     7.0210     7.3140     7.6180 
  116.8750   -22.6220     2.2370    90.4800    23.3250     6.0470     6.5600     6.9920 
  117.0000   -22.1800     2.2270    91.6090    23.3120     5.9780     6.1030     6.6850 
  117.1250   -21.9280     2.2180    92.6510    23.2210     6.0680     5.9340     6.6190 
  117.2500   -21.6640     2.2130    95.4480    23.1420     5.9550     5.8980     6.6120 
  117.3750   -21.4420     2.2220    98.4860    23.0790     5.7320     5.8850     6.5680 
