~V
VERS. 2.00: Ver 2.00
~W
STRT.M 56.0000:
STOP.M 261.0000:
STEP.M 0.1250:
NULL. -999.2500:
UWI. F10028:
~C
DEPT.M :
GR.API :
RML.OHMM :
RI. :
RXO.OHMM :
CALI.CM :
DEN.GM/CC :
SP.MV :
~A
# ...
  213.5000    68.3750    12.4860    11.4780    11.3290    24.2930     2.3710    -0.2280 
  213.6250    68.5290    12.3420    11.5010    12.1830    24.2750     2.3850    -0.2700 
  213.7500    68.2230    11.8760    11.1990    12.5150    24.2520     2.3910    -0.3120 
  213.8750    69.0940    11.2380    10.6890    11.5940    24.2230     2.3870    -0.3710 
  214.0000    70.7540    10.6280    10.1500    10.2760    24.1480     2.3760    -0.4640 
  214.1250    71.0400    10.3120     9.8110     9.8530    24.0020     2.3680    -0.5510 
  214.2500    69.7050    10.4050     9.7880    10.0520    23.8370     2.3660    -0.6120 
  214.3750    66.6080    10.9540    10.1420    10.3350    23.7340     2.3640    -0.6570 
  214.5000    63.4720    11.9010    10.8630    11.1100    23.7720     2.3590    -0.6830 
  214.6250    62.8910    13.1000    11.8750    12.4160    23.9710     2.3470    -0.6810 
  214.7500    63.2990    14.2600    12.9210    14.1430    24.1580     2.3330    -0.6740 
  214.8750    63.2100    15.1840    13.7990    15.3270    24.2300     2.3180    -0.6760 
  215.0000    62.9250    15.7780    14.3810    15.5610    24.2350     2.2990    -0.6830 
  215.1250    64.0560    16.0590    14.6410    15.3820    24.2110     2.2730    -0.6870 
  215.2500    65.1260    16.2450    14.7670    15.1570    24.1390     2.2470    -0.7300 
  215.3750    65.1300    16.4830    14.9010    15.1260    24.0050     2.2330    -0.8500 
  215.5000    64.7350    16.8660    15.1410    15.7870    23.8030     2.2390    -1.0760 
  215.6250    64.7210    17.4550    15.5510    17.1560    23.6240     2.2640    -1.4060 
  215.7500    64.5980    18.1960    16.0950    18.6990    23.5060     2.2890    -1.7690 
  215.8750    64.3780    19.0480    16.7370    19.3000    23.4730     2.3010    -2.1240 
  216.0000    65.2470    19.9870    17.4510    19.0310    23.4990     2.2960    -2.4570 
  216.1250    67.6920    21.0440    18.2530    19.7120    23.6020     2.2790    -2.8070 
  216.2500    68.8560    22.2050    19.1410    20.7680    23.7390     2.2650    -3.1250 
  216.3750    67.4480    23.4160    20.0900    21.8530    23.8240     2.2620    -3.3550 
  216.5000    65.2780    24.5670    21.0400    22.6000    23.8300     2.2710    -3.4790 
  216.6250    62.5400    25.4730    21.8740    24.0860    23.7600     2.2890    -3.4930 
  216.7500    58.6180    26.0850    22.5310    25.0970    23.6430     2.3050    -3.4310 
  216.8750    56.1270    26.4300    23.0020    24.5980    23.4350     2.3140    -3.3230 
  217.0000    58.3030    26.6030    23.3250    23.2420    23.3160     2.3120    -3.1590 
  217.1250    61.0100    26.6960    23.5430    23.0800    23.4000     2.3040    -2.9100 
  217.2500    59.7240    26.7650    23.7040    24.1750    23.5330     2.2950    -2.6230 
  217.3750    57.2940    26.7960    23.8080    25.3540    23.7030     2.2900    -2.3390 
  217.5000    57.5420    26.7360    23.8160    26.0690    24.0190     2.2910    -2.0640 
  217.6250    60.9730    26.4530    23.6230    25.9950    24.4210     2.2980    -1.8140 
  217.7500    64.2880    25.9020    23.1890    26.0350    24.6800     2.3070    -1.5840 
  217.8750    65.9110    25.0950    22.5160    25.9050    24.7950     2.3120    -1.3750 
  218.0000    65.3880    24.1240    21.6720    25.0650    24.8450     2.3100    -1.1990 
  218.1250    62.1370    23.1180    20.7640    23.8250    24.8770     2.3010    -1.0630 
  218.2500    59.2970    22.1920    19.9050    22.3920    24.8950     2.2920    -0.9550 
  218.3750    58.5840    21.4130    19.1600    21.7870    24.9090     2.2890    -0.8970 
  218.5000    59.2970    20.8300    18.5760    21.6370    24.9190     2.2900    -0.9020 
  218.6250    60.1500    20.5150    18.2180    21.4590    24.9270     2.2890    -0.9390 
  218.7500    60.9610    20.4530    18.0780    20.8510    24.9400     2.2840    -1.0340 
  218.8750    61.3270    20.6620    18.1880    20.4690    24.9420     2.2820    -1.1610 
  219.0000    60.8160    21.1580    18.5900    20.6320    24.9070     2.2910    -1.3120 
  219.1250    59.6430    22.0360    19.4080    22.6970    24.8670     2.3190    -1.4720 
  219.2500    58.6870    23.3590    20.6830    24.8130    24.8720     2.3520    -1.6320 
  219.3750    57.5210    25.3160    22.5580    26.6080    24.8210     2.3770    -1.8040 
  219.5000    57.6610    28.1080    25.1840    29.8180    24.7330     2.3850    -1.9850 
  219.6250    59.3670    31.9150    28.7350    34.7230    24.6430     2.3810    -2.2450 
  219.7500    58.4630    36.0930    32.7120    39.5030    24.5200     2.3870    -2.5830 
  219.8750    54.4880    39.3390    36.0580    43.9730    24.4020     2.4200    -2.9930 
  220.0000    52.4700    39.6520    36.9650    47.7700    24.2960     2.4830    -3.4450 
  220.1250    54.1060    34.9910    33.1960    43.1210    24.0720     2.5610    -3.8870 
  220.2500    54.5120    27.5190    26.4740    32.0020    23.6890     2.6210    -4.2510 
  220.3750    55.0810    19.8480    19.3470    23.2930    23.2960     2.6410    -4.4340 
  220.5000    58.7790    13.7370    13.6060    16.5100    23.0070     2.6180    -4.4170 
  220.6250    61.5320     9.9560     9.9690    13.1440    22.8010     2.5600    -4.1950 
  220.7500    58.5000     7.7780     7.7530    11.7550    22.6420     2.4970    -3.8300 
  220.8750    53.1740     6.6900     6.5210    11.4540    22.5380     2.4470    -3.3510 
  221.0000    49.3390     6.2440     5.9300    11.4110    22.4910     2.4190    -2.8050 
  221.1250    46.4390     6.1280     5.7620    11.6030    22.4640     2.4170    -2.2650 
  221.2500    46.2340     6.1090     5.7830    11.4550    22.4490     2.4320    -1.8370 
  221.3750    50.1650     6.1820     5.9360    11.7130    22.4650     2.4590    -1.5850 
  221.5000    55.5020     6.4460     6.2570    11.4700    22.5430     2.4890    -1.5020 
  221.6250    60.6200     7.0700     6.8670    11.0690    22.7090     2.5090    -1.5450 
  221.7500    67.3850     7.9940     7.7540    11.1540    22.9560     2.5110    -1.6120 
  221.8750    76.4620     9.0380     8.8210    12.0740    23.3140     2.4980    -1.6710 
  222.0000    85.4390     9.9160     9.8370    12.4380    23.8250     2.4760    -1.6990 
  222.1250    91.9350    10.2790    10.4410    12.0070    24.3620     2.4520    -1.6620 
  222.2500    94.6820    10.1770    10.5870    11.1700    24.7130     2.4300    -1.5750 
  222.3750    93.4940     9.8150    10.4090    10.5740    24.8210     2.4100    -1.4550 
  222.5000    91.3410     9.4440    10.1200    10.2600    24.8170     2.3950    -1.3280 
  222.6250    92.1160     9.2340     9.8730    10.3870    24.8100     2.3900    -1.1680 
  222.7500    94.6140     9.1450     9.6760    10.3210    24.8120     2.3930    -0.9860 
  222.8750    96.5900     9.0960     9.4790     9.8720    24.8140     2.4000    -0.7950 
  223.0000    95.0750     9.0350     9.2480     9.4810    24.8170     2.4030    -0.6100 
  223.1250    91.8710     8.9710     9.0020     9.3170    24.8230     2.3980    -0.4990 
  223.2500    90.2630     8.9460     8.7950     9.3100    24.8360     2.3900    -0.4270 
  223.3750    90.2840     8.9820     8.6610     9.0630    24.8340     2.3860    -0.3640 
  223.5000    90.1610     9.0490     8.5900     8.9620    24.8040     2.3900    -0.3120 
  223.6250    88.6240     9.0500     8.5140     9.6530    24.7670     2.3970    -0.3130 
  223.7500    87.0460     8.9660     8.3930    10.5720    24.7550     2.4030    -0.3600 
  223.8750    85.4680     8.9500     8.3220    10.7550    24.7650     2.4090    -0.4310 
  224.0000    84.6650     9.3460     8.5280    10.4460    24.7770     2.4250    -0.5140 
  224.1250    84.3510    10.8950     9.5160    10.5130    24.7710     2.4570    -0.5900 
  224.2500    79.8520    14.0880    11.7220    12.8270    24.7480     2.4900    -0.7110 
  224.3750    71.0980    21.1110    15.7540    21.0680    24.7300     2.5000    -0.8950 
  224.5000    62.7550    29.7800    22.0360    49.9660    24.7370     2.4730    -1.1320 
  224.6250    60.8550    38.8390    29.9420    86.6660    24.8090     2.4100    -1.4030 
