~V
VERS. 2.00: Ver 2.00
~W
STRT.M 55.0000:
STOP.M 293.0000:
STEP.M 0.1250:
NULL. -999.2500:
UWI. F10038:
~C
DEPT.M :
SP.MV :
DEN.GM/CC :
GR.API :
RML.OHMM :
RI. :
RXO.OHMM :
CALI.CM :
~A
# ...
   66.2500   -22.2930     2.2100    71.4260     9.1260     7.5810     8.2550    23.3450 
   66.3750   -21.7470     2.2090    74.3110     8.8500     7.3750     7.8870    23.3580 
   66.5000   -21.1370     2.2220    75.1800     8.4640     7.0740     7.4670    23.5820 
   66.6250   -20.5310     2.2500    78.0340     8.0020     6.7020     7.1170    23.8100 
   66.7500   -20.0230     2.2810    83.6300     7.5330     6.3190     6.7010    23.9740 
   66.8750   -19.6930     2.3050    88.2130     7.1190     5.9720     6.3640    24.0700 
   67.0000   -19.6050     2.3130    86.0430     6.8270     5.7150     6.2240    24.2130 
   67.1250   -19.8630     2.3070    80.2190     6.7940     5.6550     6.3130    24.3780 
   67.2500   -20.4350     2.2970    78.5830     7.0970     5.8530     6.6490    24.5120 
   67.3750   -21.3230     2.2910    79.1240     7.8290     6.3810     7.3300    24.5450 
   67.5000   -22.4790     2.2880    75.6030     9.0330     7.2710     8.4350    24.4520 
   67.6250   -23.8020     2.2830    68.2330    10.6570     8.5020     9.8610    24.2810 
   67.7500   -25.1770     2.2710    62.5390    12.3130     9.8110    11.1730    24.1510 
   67.8750   -26.5430     2.2510    60.0730    13.5690    10.9090    11.7690    24.1240 
   68.0000   -27.8320     2.2290    59.2410    14.0390    11.5190    11.4910    24.1230 
   68.1250   -28.9360     2.2120    58.8850    13.4920    11.4130    11.2400    24.0920 
   68.2500   -29.8370     2.2020    58.7520    12.4150    10.8270    11.0450    24.1230 
   68.3750   -30.5290     2.1970    59.1290    11.2420    10.0160    10.7560    24.2920 
   68.5000   -31.0060     2.1930    60.4870    10.2820     9.2230    10.3960    24.4900 
   68.6250   -31.3130     2.1900    60.6610     9.7170     8.6340    10.0960    24.5940 
   68.7500   -31.4790     2.1910    60.0000     9.4790     8.2710     9.9030    24.6250 
   68.8750   -31.4900     2.1980    60.1060     9.5030     8.1220     9.8260    24.6080 
   69.0000   -31.3790     2.2110    60.3530     9.6990     8.1420     9.8550    24.5550 
   69.1250   -31.1850     2.2240    61.1080     9.9600     8.2710    10.1080    24.4800 
   69.2500   -30.9330     2.2300    62.0770    10.1690     8.4100    10.5730    24.3920 
   69.3750   -30.6490     2.2240    62.7920    10.2630     8.4980    11.0800    24.3110 
   69.5000   -30.3410     2.2090    61.4010    10.2160     8.4970    11.5200    24.2680 
   69.6250   -29.9980     2.1940    59.0360    10.0270     8.3860    11.6490    24.2520 
   69.7500   -29.6700     2.1850    60.7480     9.7840     8.2150    11.3080    24.2310 
   69.8750   -29.3970     2.1850    64.9700     9.5600     8.0300    10.7580    24.1900 
   70.0000   -29.1750     2.1890    67.1590     9.4120     7.8750    10.4040    24.1390 
   70.1250   -29.0000     2.1920    64.4670     9.3750     7.7860    10.2360    24.1080 
   70.2500   -28.8640     2.1920    60.6060     9.4080     7.7520    10.0130    24.0990 
   70.3750   -28.7560     2.1870    57.9570     9.4660     7.7520     9.7910    24.1030 
   70.5000   -28.6870     2.1790    56.4210     9.5070     7.7620     9.6100    24.1140 
   70.6250   -28.6890     2.1710    57.6400     9.4950     7.7570     9.4830    24.1330 
   70.7500   -28.7300     2.1650    59.9920     9.4410     7.7320     9.3650    24.1440 
   70.8750   -28.7620     2.1640    61.3580     9.3600     7.6930     9.2920    24.1140 
   71.0000   -28.7730     2.1670    61.1740     9.2730     7.6490     9.1630    24.0600 
   71.1250   -28.7680     2.1750    59.6700     9.2020     7.6100     9.0950    24.0370 
   71.2500   -28.7330     2.1830    59.9100     9.1570     7.5830     9.1650    24.0910 
   71.3750   -28.6520     2.1900    61.8900     9.1430     7.5700     9.2590    24.1690 
   71.5000   -28.5040     2.1950    62.5700     9.1670     7.5750     9.2980    24.2840 
   71.6250   -28.2280     2.1980    60.9200     9.2340     7.6050     9.3560    24.4440 
   71.7500   -27.8080     2.2000    59.6460     9.3220     7.6540     9.3970    24.5680 
   71.8750   -27.2610     2.1990    59.2790     9.3920     7.7020     9.4100    24.6110 
   72.0000   -26.5510     2.1940    57.4880     9.3870     7.7130     9.4280    24.6110 
   72.1250   -25.5670     2.1840    54.2860     9.2280     7.6290     9.3580    24.6190 
   72.2500   -24.3570     2.1760    53.7460     8.9270     7.4390     9.2230    24.6520 
   72.3750   -22.9460     2.1810    57.9200     8.5320     7.1590     8.8900    24.7030 
   72.5000   -21.4060     2.2050    68.0100     8.1210     6.8320     8.3040    24.7720 
   72.6250   -19.8850     2.2450    81.0920     7.7950     6.5280     7.6540    24.8150 
   72.7500   -18.5010     2.2850    89.2010     7.5940     6.2960     7.0600    24.7990 
   72.8750   -17.3040     2.3090    90.9660     7.5150     6.1560     6.8050    24.7470 
   73.0000   -16.3400     2.3110    89.2550     7.5270     6.1030     6.8660    24.7190 
   73.1250   -15.6980     2.2960    88.4000     7.5780     6.1200     6.9660    24.6530 
   73.2500   -15.3180     2.2820    88.7780     7.6120     6.1600     7.2410    24.6150 
   73.3750   -15.1850     2.2780    89.0020     7.6000     6.1910     7.4560    24.5790 
   73.5000   -15.2480     2.2820    89.4760     7.5390     6.1930     7.3600    24.5770 
   73.6250   -15.4140     2.2860    89.9170     7.4410     6.1540     7.1410    24.6150 
   73.7500   -15.6080     2.2840    89.4880     7.3450     6.0970     7.0320    24.6480 
   73.8750   -15.8110     2.2770    88.0920     7.3050     6.0560     7.0910    24.6550 
   74.0000   -16.0410     2.2720    88.2370     7.3780     6.0760     7.1050    24.6740 
   74.1250   -16.3310     2.2780    90.3800     7.6210     6.2100     7.3060    24.6830 
   74.2500   -16.7250     2.2900    90.4760     7.9570     6.4260     7.4000    24.6360 
   74.3750   -17.2420     2.3000    87.3170     8.2630     6.6570     7.5010    24.5080 
   74.5000   -17.8480     2.2990    84.2670     8.3860     6.8070     7.9570    24.3980 
   74.6250   -18.4770     2.2860    81.6330     8.1770     6.7750     8.5680    24.3070 
   74.7500   -19.0750     2.2710    79.0290     7.7870     6.6230     8.8490    24.2800 
   74.8750   -19.6450     2.2670    77.2160     7.5160     6.5190     8.6330    24.3490 
   75.0000   -20.2100     2.2860    77.2570     7.7160     6.6950     8.2430    24.3880 
   75.1250   -20.7880     2.3360    77.9800     8.7270     7.4260     9.2350    24.3530 
   75.2500   -21.3480     2.4030    75.4940    10.3270     8.6130    12.2810    24.3510 
   75.3750   -21.8810     2.4640    69.5120    12.0880     9.9960    16.2500    24.3820 
   75.5000   -22.4260     2.4890    63.9630    13.3680    11.1480    19.9100    24.4240 
   75.6250   -23.0250     2.4500    62.3270    13.3430    11.4800    20.8600    24.4220 
   75.7500   -23.6400     2.3700    61.2800    12.2600    10.9890    16.0510    24.4060 
   75.8750   -24.2090     2.2840    59.3210    10.8730    10.0140    11.2780    24.3450 
   76.0000   -24.6600     2.2230    59.3380     9.8680     9.0430     9.2170    24.2920 
   76.1250   -24.9510     2.2150    60.8590     9.5170     8.4530     8.8650    24.2230 
   76.2500   -25.1170     2.2440    60.8840     9.5370     8.2040     8.9430    24.0640 
   76.3750   -25.1650     2.2850    60.9440     9.6800     8.1520     9.1390    23.8150 
   76.5000   -25.1170     2.3080    63.1840     9.7290     8.1350     9.2580    23.5520 
   76.6250   -24.9980     2.2940    67.0570     9.5570     8.0240     9.2730    23.3200 
   76.7500   -24.8700     2.2600    70.0210     9.2820     7.8360     9.2320    23.1010 
   76.8750   -24.7920     2.2310    70.8480     9.0450     7.6470     9.1820    22.8820 
   77.0000   -24.7940     2.2210    70.3510     8.9420     7.5350     9.2190    22.7430 
   77.1250   -24.8860     2.2310    70.3040     9.0070     7.5590     9.3480    22.7070 
   77.2500   -25.0690     2.2480    70.8900     9.1640     7.6780     9.3890    22.7180 
   77.3750   -25.3250     2.2610    70.4920     9.3470     7.8410     9.4130    22.7520 
