~V
VERS. 2.00: Ver 2.00
~W
STRT.M 50.0000:
STOP.M 250.0000:
STEP.M 0.1250:
NULL. -999.2500:
UWI. F10033:
~C
DEPT.M :
SP.MV :
GR.API :
RML.OHMM :
RI. :
RXO.OHMM :
CALI.CM :
DEN.GM/CC :
~A
# ...
  185.0000   -11.9820    55.3940    42.7180    39.2900    56.3850    25.4540     2.2220 
  185.1250   -12.2550    55.2020    45.8140    42.5310    60.7840    25.4200     2.2350 
  185.2500   -12.5070    55.6650    47.3460    44.4080    58.4290    25.4180     2.2450 
  185.3750   -12.7370    56.1640    47.3810    44.8270    57.5270    25.4340     2.2540 
  185.5000   -12.9430    57.0180    46.3800    44.1250    57.6780    25.4450     2.2600 
  185.6250   -13.1180    56.4450    44.8190    42.7360    54.2220    25.4750     2.2590 
  185.7500   -13.2570    54.7000    43.0870    41.1150    49.0180    25.5030     2.2500 
  185.8750   -13.3370    54.2120    41.2920    39.4070    45.0900    25.5560     2.2370 
  186.0000   -13.3320    56.0070    39.5580    37.7480    43.8150    25.6130     2.2270 
  186.1250   -13.2880    57.4300    38.1920    36.4260    42.9810    25.6050     2.2270 
  186.2500   -13.2840    57.4110    37.4450    35.6720    42.2630    25.5760     2.2350 
  186.3750   -13.3130    58.6200    37.5650    35.7110    41.6540    25.5570     2.2460 
  186.5000   -13.3320    61.8300    38.7180    36.7020    41.8120    25.5350     2.2610 
  186.6250   -13.3110    62.4640    41.0390    38.8120    45.0070    25.4980     2.2780 
  186.7500   -13.2620    58.7490    43.9900    41.5990    51.2070    25.4620     2.2960 
  186.8750   -13.2550    54.2940    46.8690    44.4620    56.5210    25.4370     2.3080 
  187.0000   -13.3320    53.6250    48.7020    46.5090    58.5340    25.4250     2.3070 
  187.1250   -13.3860    56.7180    48.2220    46.4910    59.2500    25.4290     2.2920 
  187.2500   -13.3540    59.3700    45.6800    44.4900    56.6350    25.4380     2.2760 
  187.3750   -13.2760    59.7420    41.8160    41.1050    51.7400    25.4560     2.2700 
  187.5000   -13.1980    58.0030    37.5740    37.2110    43.5150    25.4670     2.2800 
  187.6250   -13.0760    55.6800    33.8270    33.6730    35.2940    25.4430     2.3030 
  187.7500   -12.9290    55.0090    30.9010    30.8740    32.7880    25.4180     2.3250 
  187.8750   -12.7360    57.2130    28.8440    28.8950    32.2340    25.4210     2.3350 
  188.0000   -12.5100    61.9390    27.5350    27.6370    30.5960    25.4370     2.3280 
  188.1250   -12.3410    63.1660    26.7160    26.8880    29.5470    25.4490     2.3040 
  188.2500   -12.2210    59.2310    25.8520    26.1400    30.3590    25.4510     2.2740 
  188.3750   -12.0460    55.2680    24.6060    25.0480    30.5060    25.4360     2.2470 
  188.5000   -11.7870    55.6920    22.9230    23.5270    29.1280    25.4280     2.2310 
  188.6250   -11.5250    58.1700    21.0770    21.8120    26.1620    25.4500     2.2290 
  188.7500   -11.2790    58.8020    19.5210    20.3140    22.2860    25.4830     2.2350 
  188.8750   -11.0830    59.5540    18.5680    19.3030    20.3450    25.4980     2.2430 
  189.0000   -10.9430    61.5420    18.3930    18.9400    21.4420    25.5000     2.2510 
  189.1250   -10.8200    61.7970    19.1200    19.3760    24.1600    25.4920     2.2620 
  189.2500   -10.6710    60.5510    20.4420    20.4000    25.5990    25.4820     2.2800 
  189.3750   -10.5310    60.2030    22.0860    21.8030    25.8810    25.4850     2.3090 
  189.5000   -10.4160    60.0890    23.7030    23.2670    27.2220    25.4870     2.3450 
  189.6250   -10.3820    58.2530    24.8300    24.3250    30.3690    25.4740     2.3740 
  189.7500   -10.4040    56.2630    25.3370    24.7870    31.5080    25.4590     2.3890 
  189.8750   -10.3640    55.7200    25.3030    24.7000    30.2850    25.4740     2.3840 
  190.0000   -10.2210    55.8460    24.9900    24.3020    28.1510    25.4930     2.3640 
  190.1250   -10.0320    56.1470    24.8160    23.9620    25.6950    25.5000     2.3310 
  190.2500    -9.8930    57.7270    25.1140    23.9910    25.3340    25.5010     2.2960 
  190.3750    -9.8340    58.0280    26.0170    24.5330    27.5960    25.5000     2.2730 
  190.5000    -9.8050    55.7710    27.4420    25.5580    30.2430    25.5100     2.2750 
  190.6250    -9.7700    53.9430    29.1570    26.9180    32.6820    25.5140     2.3100 
  190.7500    -9.8050    54.0200    30.8330    28.3330    34.6520    25.5050     2.3540 
  190.8750    -9.9680    54.6700    32.2340    29.6030    34.9900    25.4580     2.3850 
  191.0000   -10.2160    55.6590    33.1060    30.4920    33.7970    25.4880     2.3870 
  191.1250   -10.4850    56.6810    32.9760    30.5420    33.5270    25.5300     2.3630 
  191.2500   -10.7350    55.5180    31.7080    29.5590    34.4350    25.5390     2.3360 
  191.3750   -10.9600    53.3020    29.2880    27.4710    34.0070    25.5080     2.3190 
  191.5000   -11.1990    54.8510    26.0380    24.5420    29.8630    25.4690     2.3130 
  191.6250   -11.4030    59.8170    22.5790    21.3510    23.5290    25.4400     2.3130 
  191.7500   -11.4790    62.4320    19.5310    18.5060    19.2530    25.4310     2.3150 
  191.8750   -11.4060    62.3920    17.1660    16.2650    17.1020    25.4300     2.3210 
  192.0000   -11.2430    61.8080    15.5500    14.6910    15.4530    25.4310     2.3290 
  192.1250   -11.0330    62.4940    14.7060    13.8240    14.4600    25.4310     2.3380 
  192.2500   -10.8150    63.5940    14.3600    13.4430    14.4420    25.4310     2.3430 
  192.3750   -10.5890    64.1910    14.3830    13.4350    15.0030    25.4310     2.3450 
  192.5000   -10.3660    63.0980    14.6840    13.7070    15.3410    25.4310     2.3430 
  192.6250   -10.1250    61.0840    15.2210    14.1990    15.7220    25.4310     2.3390 
  192.7500    -9.8850    61.4510    15.8390    14.7560    16.0970    25.4310     2.3350 
  192.8750    -9.7200    63.3430    16.3760    15.2220    16.7150    25.4310     2.3310 
  193.0000    -9.6440    63.5480    16.6660    15.4370    17.2950    25.4310     2.3280 
  193.1250    -9.5780    61.7450    16.5360    15.2360    17.4870    25.4280     2.3280 
  193.2500    -9.4740    60.9030    16.0820    14.7240    16.9460    25.4140     2.3340 
  193.3750    -9.3910    60.7170    15.4790    14.0680    15.6680    25.3910     2.3430 
  193.5000    -9.3660    60.5350    14.9830    13.4920    14.4040    25.3790     2.3510 
  193.6250    -9.3910    63.0490    14.9450    13.2900    14.6170    25.3870     2.3500 
  193.7500    -9.3960    66.0090    15.5060    13.5900    15.4120    25.4090     2.3410 
  193.8750    -9.3640    66.0730    16.7380    14.4950    16.4310    25.4250     2.3260 
  194.0000    -9.2380    63.4140    18.5710    16.0210    18.0290    25.4250     2.3100 
  194.1250    -8.9960    62.0110    20.7960    18.0860    21.7270    25.4170     2.2980 
  194.2500    -8.6940    61.3370    23.0950    20.3500    27.2610    25.4050     2.2930 
  194.3750    -8.4490    59.7890    25.4220    22.6520    32.2890    25.3860     2.2930 
  194.5000    -8.6100    59.3050    27.7890    24.9210    32.8640    25.3550     2.2960 
  194.6250   -10.0390    62.1130    29.7310    26.7850    30.0070    25.3330     2.3100 
  194.7500   -12.1120    63.8600    30.2620    27.4610    29.4000    25.3030     2.3430 
  194.8750   -13.1820    61.3630    28.3830    26.0210    35.6890    25.2870     2.4010 
  195.0000   -13.8200    56.2360    23.9850    22.2500    46.1770    25.2680     2.4750 
  195.1250   -14.4240    52.4150    18.2920    17.2210    40.3740    25.2330     2.5370 
  195.2500   -14.9670    50.1330    13.2290    12.7150    21.6630    25.2080     2.5630 
  195.3750   -15.3310    48.2410     9.5420     9.3690    10.7910    25.2030     2.5470 
  195.5000   -15.2310    47.3450     7.2540     7.1750     6.8360    25.2370     2.5000 
  195.6250   -13.8790    48.7160     6.1700     5.9880     6.0040    25.3110     2.4460 
  195.7500   -11.9120    51.1270     5.6980     5.3730     5.6890    25.3670     2.4040 
  195.8750   -10.9670    52.7460     5.5460     5.1310     5.3550    25.3750     2.3760 
  196.0000   -10.5600    52.7550     5.5550     5.1300     5.1500    25.3510     2.3600 
  196.1250   -10.4280    53.8650     5.7480     5.3520     5.3410    25.3000     2.3550 
