~V
VERS. 2.00: Ver 2.00
~W
STRT.M 50.0000:
STOP.M 274.0000:
STEP.M 0.1250:
NULL. -999.2500:
UWI. F10029:
~C
DEPT.M :
DEN.GM/CC :
SP.MV :
GR.API :
CALI.CM :
RXO.OHMM :
RI. :
RML.OHMM :
~A
# ...
  117.5000     2.2490   -17.8670   104.8410    22.5320     4.7640     4.9540     6.1350 
  117.6250     2.2660   -17.9420   107.4700    22.7540     4.6900     4.7800     5.9490 
  117.7500     2.2790   -18.1230   108.4940    22.8490     4.7450     4.8160     5.9870 
  117.8750     2.2790   -18.4140   108.7310    22.8460     5.0590     5.0280     6.2140 
  118.0000     2.2500   -18.7210   106.3670    22.7860     5.7340     5.3430     6.5520 
  118.1250     2.2000   -19.0430   101.7010    22.6890     6.2880     5.6650     6.8960 
  118.2500     2.1560   -19.3670   101.3470    22.6470     6.3350     5.9210     7.1700 
  118.3750     2.1370   -19.6650   107.5900    22.5930     6.2220     6.0910     7.3530 
  118.5000     2.1480   -19.9410   111.3900    22.4580     6.7650     6.2010     7.4710 
  118.6250     2.1900   -20.2230   106.1490    22.1980     7.4800     6.2890     7.5650 
  118.7500     2.2390   -20.4900   102.1720    22.0680     7.8310     6.3780     7.6600 
  118.8750     2.2700   -20.6880   101.4810    22.0160     7.7170     6.4620     7.7500 
  119.0000     2.2630   -20.8380    98.3920    21.9730     7.7400     6.5320     7.8250 
  119.1250     2.2230   -20.9980    92.5420    21.9050     8.1630     6.5890     7.8860 
  119.2500     2.1800   -21.1240    88.6670    21.8960     8.2830     6.6430     7.9440 
  119.3750     2.1540   -21.2550    86.9100    21.9160     8.0940     6.6990     8.0040 
  119.5000     2.1460   -21.3560    86.3530    21.9920     7.9720     6.7520     8.0600 
  119.6250     2.1460   -21.4280    89.4500    22.1140     7.9650     6.7820     8.0930 
  119.7500     2.1440   -21.4230    93.3700    22.2370     8.0210     6.7930     8.1040 
  119.8750     2.1370   -21.3680    95.8610    22.2690     8.0620     6.8060     8.1190 
  120.0000     2.1270   -21.3260    95.6670    22.2070     8.0480     6.8480     8.1640 
  120.1250     2.1190   -21.2130    93.5890    22.1520     8.0590     6.9320     8.2540 
  120.2500     2.1190   -21.0420    92.4230    22.1010     8.2100     7.0300     8.3590 
  120.3750     2.1290   -20.8210    95.3020    22.0030     8.5910     7.1070     8.4410 
  120.5000     2.1460   -20.5510    99.8810    21.8270     8.9840     7.1280     8.4640 
  120.6250     2.1630   -20.2370    99.0620    21.6490     9.1720     7.0670     8.3980 
  120.7500     2.1780   -19.8280    95.6710    21.6240     9.0900     6.9530     8.2760 
  120.8750     2.1970   -19.3830    94.8430    21.7930     8.9550     6.8220     8.1350 
  121.0000     2.2220   -18.9410    95.6170    22.0630     8.8690     6.7050     8.0100 
  121.1250     2.2510   -18.5590    96.9960    22.3100     8.4560     6.6280     7.9280 
  121.2500     2.2720   -18.2300    98.5460    22.3870     7.6240     6.5860     7.8830 
  121.3750     2.2720   -17.9190   101.1960    22.3160     6.9210     6.5570     7.8520 
  121.5000     2.2520   -17.7020   101.7860    22.2690     6.5970     6.5070     7.7980 
  121.6250     2.2300   -17.5820   105.1220    22.2350     6.2530     6.4150     7.7000 
  121.7500     2.2280   -17.5710   113.6630    22.1400     5.8070     6.3140     7.5920 
  121.8750     2.2460   -17.6790   118.3730    22.0690     5.5410     6.2580     7.5310 
  122.0000     2.2660   -17.8360   114.1050    22.0580     5.4140     6.3060     7.5830 
  122.1250     2.2640   -17.9840   107.6480    21.9760     5.4970     6.5330     7.8260 
  122.2500     2.2400   -18.1720   106.1260    21.6940     5.8740     6.8930     8.2120 
  122.3750     2.2110   -18.4100   109.2860    21.3000     6.4440     7.2870     8.6340 
  122.5000     2.1910   -18.5870   110.7420    21.0600     6.9990     7.5640     8.9310 
  122.6250     2.1870   -18.6350   107.0630    21.0010     7.2160     7.5280     8.8920 
  122.7500     2.1960   -18.6660   101.2120    21.0150     6.9780     7.1780     8.5170 
  122.8750     2.2190   -18.6600    99.2650    21.0710     6.4480     6.6160     7.9150 
  123.0000     2.2460   -18.6600   100.3010    21.2150     6.2220     6.1240     7.3880 
  123.1250     2.2650   -18.7320   111.4550    21.2980     6.0070     5.7440     6.9810 
  123.2500     2.2740   -18.8430   121.8720    21.3770     6.1630     5.7390     6.9760 
  123.3750     2.2830   -19.0730   127.1460    21.5130     6.5800     6.2460     7.5180 
  123.5000     2.3040   -19.4770   121.6330    21.6990     7.7160     7.3650     8.7170 
  123.6250     2.3410   -20.0460   104.9780    21.9080    11.6150     9.1690    10.6500 
  123.7500     2.3660   -20.7250    89.5210    22.0620    16.4610    11.1790    12.8030 
  123.8750     2.3490   -21.4810    82.1090    22.0320    18.7460    12.6730    14.4030 
  124.0000     2.2780   -22.2160    81.2740    21.8030    17.1580    13.0100    14.7650 
  124.1250     2.1790   -22.8720    80.1800    21.6060    13.9050    12.1410    13.8330 
  124.2500     2.1000   -23.5000    76.2930    21.5800    11.9470    10.9500    12.5570 
  124.3750     2.0570   -23.9780    75.8070    21.7490    10.7910     9.9380    11.4740 
  124.5000     2.0450   -24.2660    81.2530    22.0530    10.2350     9.3010    10.7920 
  124.6250     2.0500   -24.4520    84.0800    22.2740    10.1790     9.0690    10.5430 
  124.7500     2.0520   -24.4730    80.5900    22.1910    10.4070     9.0650    10.5380 
  124.8750     2.0450   -24.3890    77.4060    22.0660    10.8290     9.1810    10.6630 
  125.0000     2.0330   -24.2600    78.6820    21.9820    11.2160     9.3450    10.8380 
  125.1250     2.0280   -24.0050    80.3680    21.9750    11.3200     9.5240    11.0300 
  125.2500     2.0370   -23.6590    79.2340    22.1690    11.3730     9.7220    11.2420 
  125.3750     2.0550   -23.2530    76.5900    22.4500    11.4280     9.9490    11.4850 
  125.5000     2.0740   -22.7530    74.1350    22.5410    11.5980    10.1960    11.7500 
  125.6250     2.0870   -22.1770    77.9530    22.4890    11.8100    10.4140    11.9830 
  125.7500     2.0910   -21.5450    87.8680    22.5430    11.7920    10.5200    12.0970 
  125.8750     2.0850   -20.8040    95.3360    22.5560    11.3970    10.4150    11.9850 
  126.0000     2.0730   -19.9960    92.1260    22.4600    10.6920    10.0070    11.5470 
  126.1250     2.0780   -19.2240    83.7870    22.3880     9.7910     9.2200    10.7050 
  126.2500     2.1090   -18.4800    82.6370    22.5240     8.7370     8.2190     9.6320 
  126.3750     2.1580   -17.8000    92.7600    22.6320     7.5510     7.1800     8.5190 
  126.5000     2.2070   -17.2630   109.6040    22.6660     6.4010     6.2780     7.5530 
  126.6250     2.2380   -16.8390   122.3020    22.6810     5.5960     5.6840     6.9170 
  126.7500     2.2550   -16.5950   124.9070    22.6710     5.2190     5.3990     6.6120 
  126.8750     2.2620   -16.5070   120.6960    22.5050     5.2370     5.4120     6.6250 
  127.0000     2.2600   -16.5250   116.4110    22.0990     5.5270     5.6750     6.9070 
  127.1250     2.2490   -16.6700   112.0090    21.6260     5.8920     6.1160     7.3790 
  127.2500     2.2350   -16.8090   105.4920    21.4070     6.1440     6.5750     7.8710 
  127.3750     2.2220   -16.9290   101.2500    21.3810     6.2520     6.9500     8.2730 
  127.5000     2.2110   -17.0370   101.5750    21.4030     6.2880     7.1890     8.5280 
  127.6250     2.2020   -17.1460   103.5850    21.3960     6.3530     7.2810     8.6280 
  127.7500     2.2060   -17.1930   106.9370    21.3880     6.4700     7.2960     8.6440 
  127.8750     2.2260   -17.1810   116.2040    21.4470     6.5870     7.2690     8.6140 
  128.0000     2.2460   -17.2080   125.8910    21.6280     6.6250     7.2140     8.5560 
  128.1250     2.2420   -17.2390   122.4600    21.7710     6.5450     7.1340     8.4700 
  128.2500     2.2170   -17.3330   110.8410    21.8980     6.4320     7.0480     8.3780 
  128.3750     2.1890   -17.5050   101.2170    21.9960     6.3470     6.9750     8.3000 
  128.5000     2.1720   -17.7080    98.1050    22.0590     6.3110     6.9280     8.2490 
  128.6250     2.1680   -17.8900    97.5700    21.9660     6.3340     6.9200     8.2400 
