~V
VERS. 2.00: Ver 2.00
~W
STRT.M 60.0000:
STOP.M 217.0000:
STEP.M 0.1250:
NULL. -999.2500:
UWI. F10010:
~C
DEPT.M :
DEN.GM/CC :
GR.API :
RML.OHMM :
RI. :
RXO.OHMM :
CALI.CM :
SP.MV :
~A
# ...
  172.5000     2.6600    59.4470    83.5710    84.9270    67.3060    23.8950   -34.8760 
  172.6250     2.7310    57.6590    63.2850    63.7190    52.9920    23.9520   -34.6470 
  172.7500     2.7210    55.1430    44.2730    42.1000    38.9520    24.0560   -34.4330 
  172.8750     2.6340    54.7840    26.6860    25.4950    25.3260    24.1410   -34.2510 
  173.0000     2.4960    57.6590    15.3650    14.9960    13.3390    24.1560   -34.0570 
  173.1250     2.3550    60.8270     9.5930     9.5860     6.9940    24.1380   -33.9270 
  173.2500     2.2530    62.0960     6.6890     6.6920     4.6240    24.1100   -33.9250 
  173.3750     2.2090    61.0330     5.4610     5.3080     4.6040    24.0900   -34.0010 
  173.5000     2.2220    59.2840     5.1860     4.8750     5.3970    24.0720   -34.1230 
  173.6250     2.2760    61.9530     5.5560     5.1890     6.1360    24.0800   -34.3530 
  173.7500     2.3420    67.8040     6.7870     5.9670     7.1370    24.0960   -34.6650 
  173.8750     2.3980    72.9310     8.0860     7.0310     8.1950    24.1380   -35.0010 
  174.0000     2.4330    74.8740     8.5340     8.1570     8.8310    24.2160   -35.3360 
  174.1250     2.4420    74.8740     9.1650     9.0610     8.8360    24.2430   -35.6760 
  174.2500     2.4380    74.9900     9.9530     9.6050     8.8450    24.2390   -35.9920 
  174.3750     2.4280    75.1190    10.1690     9.7830     8.8870    24.2180   -36.2710 
  174.5000     2.4170    77.5220     9.8880     9.6720     8.8820    24.1970   -36.5130 
  174.6250     2.4070    83.0510     9.4230     9.3570     8.8990    24.1650   -36.7320 
  174.7500     2.4010    89.7630     8.9060     8.9570     8.9140    24.1180   -36.9370 
  174.8750     2.3980    96.8200     8.5350     8.5100     8.8630    24.1010   -37.1130 
  175.0000     2.3990   101.0770     8.4410     8.0820     8.6890    24.0690   -37.2750 
  175.1250     2.3970   102.0520     8.3800     7.7890     8.4550    23.8020   -37.4390 
  175.2500     2.3930   102.5530     8.5690     7.7380     8.3760    23.4550   -37.6310 
  175.3750     2.3880   103.2880     9.1630     8.0660     8.7500    23.2770   -37.8320 
  175.5000     2.3900   102.0620    10.4070     8.8950    10.2200    23.2560   -38.0360 
  175.6250     2.4050    96.9660    12.4980    10.4820    14.5520    23.2520   -38.2720 
  175.7500     2.4280    91.1040    15.3480    12.8140    21.2490    23.2030   -38.4900 
  175.8750     2.4500    86.8610    18.7600    15.8290    27.0280    23.2270   -38.6670 
  176.0000     2.4590    84.7270    22.2850    19.2190    31.0470    23.4460   -38.8470 
  176.1250     2.4430    82.9800    25.1770    22.2650    36.4420    23.6790   -39.0370 
  176.2500     2.4080    79.9250    27.1180    24.4450    39.6470    23.8850   -39.1670 
  176.3750     2.3630    76.3970    28.2420    25.7240    35.7010    24.0320   -39.2500 
  176.5000     2.3190    72.9850    29.0730    26.5020    30.9610    24.1100   -39.3640 
  176.6250     2.2930    70.6130    30.3170    27.4050    32.2330    24.0810   -39.4360 
  176.7500     2.2860    70.4980    32.2030    28.7780    37.1610    23.9230   -39.4640 
  176.8750     2.2970    70.6470    34.5420    30.6020    43.0180    23.6450   -39.5340 
  177.0000     2.3190    68.6600    36.8100    32.5130    48.3690    23.3800   -39.6250 
  177.1250     2.3430    66.2710    38.1270    33.8050    51.4020    23.4260   -39.6390 
  177.2500     2.3590    67.0820    38.2850    34.1840    47.9350    23.7030   -39.6280 
  177.3750     2.3600    69.8520    37.6520    33.8420    40.1750    23.9770   -39.6540 
  177.5000     2.3460    71.0870    36.9020    33.3250    34.6770    24.1010   -39.6610 
  177.6250     2.3190    69.8800    36.6960    33.2010    35.6630    24.1050   -39.6350 
  177.7500     2.2910    68.7540    37.2370    33.6830    42.8690    24.0840   -39.6330 
  177.8750     2.2690    68.7220    38.5890    34.8670    52.6700    24.0730   -39.6310 
  178.0000     2.2600    69.5700    40.6810    36.7150    54.1110    24.0540   -39.6110 
  178.1250     2.2680    69.8660    43.4240    39.1940    49.4880    23.9880   -39.5970 
  178.2500     2.2870    69.4270    46.4830    42.0380    55.1130    23.9000   -39.5890 
  178.3750     2.3090    68.5100    49.4920    45.0050    71.5720    23.9000   -39.5670 
  178.5000     2.3220    66.6640    51.9270    47.6780    79.2760    24.0330   -39.5180 
  178.6250     2.3130    63.6450    53.1060    49.3690    68.7280    24.0750   -39.4720 
  178.7500     2.2880    59.6310    53.0520    49.8940    62.1110    24.0890   -39.4100 
  178.8750     2.2630    56.6380    51.9450    49.2750    58.4670    24.1240   -39.2940 
  179.0000     2.2540    56.8820    50.2430    47.8940    54.8580    24.1760   -39.1320 
  179.1250     2.2680    59.8390    48.5610    46.4180    53.1840    24.1920   -38.9760 
  179.2500     2.2870    61.6010    47.1310    45.2290    51.6320    24.1870   -38.8350 
  179.3750     2.2990    61.7940    45.6880    44.1280    48.5850    24.1830   -38.6670 
  179.5000     2.2990    63.7820    43.7350    42.6120    46.6450    24.0490   -38.4780 
  179.6250     2.2950    69.3310    40.5830    39.9470    46.7860    23.7070   -38.3130 
  179.7500     2.2980    74.5360    36.3460    36.1630    42.7960    23.2640   -38.1540 
  179.8750     2.3060    77.9320    31.5670    31.7410    33.5650    23.0900   -37.9720 
  180.0000     2.3140    80.1530    27.0980    27.4780    25.0820    23.3820   -37.7810 
  180.1250     2.3170    82.3830    23.9120    24.2910    21.3200    23.8660   -37.6050 
  180.2500     2.3150    84.5000    22.0720    22.2900    19.8970    24.0970   -37.4140 
  180.3750     2.3100    85.6200    21.3280    21.3150    19.6870    24.1820   -37.2000 
  180.5000     2.3050    85.7460    21.1660    20.9780    22.2090    24.2650   -37.0290 
  180.6250     2.3050    84.3850    20.9630    20.7500    27.3590    24.3390   -36.8870 
  180.7500     2.3120    82.9260    20.4300    20.2900    27.0410    24.3050   -36.7290 
  180.8750     2.3220    84.0720    19.7310    19.6530    20.1070    24.2040   -36.6040 
  181.0000     2.3260    88.1470    19.2530    19.1400    14.9340    24.1430   -36.5390 
  181.1250     2.3190    89.2700    19.4800    19.1950    18.2350    24.1340   -36.5370 
  181.2500     2.3050    84.0330    20.4760    19.9600    28.4900    24.1230   -36.5690 
  181.3750     2.2950    76.0880    22.2390    21.5040    35.8300    24.0990   -36.6240 
  181.5000     2.2940    71.9180    24.6930    23.8030    30.4570    24.0880   -36.6780 
  181.6250     2.3000    71.6200    27.7810    26.7960    25.7070    24.1130   -36.7470 
  181.7500     2.3050    69.8320    31.1670    30.0780    31.6320    24.1630   -36.8460 
  181.8750     2.2980    66.8410    34.4920    33.2650    50.0050    24.1930   -36.9440 
  182.0000     2.2740    63.9760    37.2470    35.8940    68.3330    24.2080   -37.0550 
  182.1250     2.2340    64.1910    38.6810    37.2750    52.6600    24.2420   -37.1360 
  182.2500     2.2080    66.3040    38.7930    37.3370    33.1410    24.2720   -37.1710 
  182.3750     2.2220    68.6920    37.8210    36.2400    27.4410    24.1810   -37.2330 
  182.5000     2.2880    69.6070    36.1390    34.3580    32.8970    23.9190   -37.3410 
  182.6250     2.3870    67.6260    33.9210    31.9620    45.4940    23.6790   -37.4020 
  182.7500     2.4670    65.6060    31.3830    29.3790    47.6130    23.6540   -37.4590 
  182.8750     2.4960    66.3020    28.8340    26.9080    35.0830    23.8590   -37.5950 
  183.0000     2.4730    69.6980    26.7690    24.9240    24.3280    24.0430   -37.7430 
  183.1250     2.4250    73.8890    25.7190    23.8250    20.8870    24.1180   -37.8720 
  183.2500     2.3910    76.3130    25.3840    23.3570    21.7160    24.1610   -38.0560 
  183.3750     2.3770    75.9470    25.1460    23.0500    25.7010    24.1710   -38.2590 
  183.5000     2.3710    75.3800    24.2140    22.2140    29.2400    24.1260   -38.4010 
  183.6250     2.3550    79.6580    21.9000    20.2040    25.6520    24.0280   -38.5410 
