~V
VERS. 2.00: Ver 2.00
~W
STRT.M 60.0000:
STOP.M 242.0000:
STEP.M 0.1250:
NULL. -999.2500:
UWI. F10022:
~C
DEPT.M :
GR.API :
RML.OHMM :
RI. :
RXO.OHMM :
CALI.CM :
DEN.GM/CC :
SP.MV :
~A
# ...
  150.0000    68.3360    14.4960    13.6260    12.7220    23.3410     2.2540    -7.0230 
  150.1250    68.1300    13.9990    13.1240    12.2190    23.2320     2.2450    -7.1030 
  150.2500    69.6440    13.4700    12.5130    11.6700    23.1210     2.2390    -7.2690 
  150.3750    73.8530    13.2160    12.0520    11.4130    23.0150     2.2430    -7.4300 
  150.5000    78.3840    13.5850    12.0510    11.7490    22.8850     2.2680    -7.5630 
  150.6250    78.7680    15.0940    12.9740    14.6150    22.8480     2.3230    -7.7760 
  150.7500    75.5900    17.8120    14.9730    20.4200    22.9980     2.3970    -7.9860 
  150.8750    69.0920    21.7670    18.2040    28.6910    23.3350     2.4780    -8.1500 
  151.0000    61.8670    26.7480    22.6300    37.9100    23.7310     2.5490    -8.3290 
  151.1250    56.9440    32.2080    27.9400    44.4400    23.8980     2.6000    -8.5480 
  151.2500    53.4880    37.1730    33.1590    46.7110    23.9380     2.6360    -8.7270 
  151.3750    49.9740    40.8200    37.3740    49.9080    23.9380     2.6570    -8.8690 
  151.5000    47.5970    42.5810    39.8630    57.6060    23.9400     2.6620    -9.0270 
  151.6250    48.9260    42.1230    40.1200    61.0470    23.9190     2.6430    -9.1610 
  151.7500    50.9940    40.3790    38.9530    56.7570    23.8490     2.6080    -9.2210 
  151.8750    52.3480    38.1690    37.0830    45.1840    23.7590     2.5690    -9.2580 
  152.0000    53.5420    36.2190    35.1790    36.4730    23.7180     2.5370    -9.3100 
  152.1250    53.4930    35.0170    33.7620    34.5680    23.8030     2.5180    -9.2840 
  152.2500    51.7900    34.2850    32.7890    35.5790    23.9340     2.5090    -9.2170 
  152.3750    50.1000    33.5880    32.0040    36.1350    23.9810     2.5040    -9.1870 
  152.5000    50.9240    32.5570    31.1200    35.5260    23.9310     2.4990    -9.1180 
  152.6250    53.8690    31.1630    30.0370    33.3980    23.8120     2.4940    -9.0130 
  152.7500    54.2810    29.9780    29.0920    30.3280    23.6730     2.4930    -8.9450 
  152.8750    51.0440    29.6120    28.7530    28.8580    23.6140     2.5020    -8.8540 
  153.0000    48.5840    30.4390    29.3840    29.3910    23.6350     2.5250    -8.6990 
  153.1250    49.8000    32.4650    31.1310    32.6180    23.7000     2.5610    -8.5790 
  153.2500    50.7670    34.7890    33.3090    36.9830    23.7800     2.5970    -8.4720 
  153.3750    50.4990    36.5210    35.1370    41.9710    23.8010     2.6200    -8.3410 
  153.5000    50.4370    36.9040    35.8340    44.4540    23.7310     2.6200    -8.2620 
  153.6250    51.3550    35.4100    34.7190    41.8720    23.6750     2.5920    -8.1680 
  153.7500    52.4960    32.7750    32.3680    35.8780    23.6400     2.5510    -8.0840 
  153.8750    55.3790    29.7720    29.5000    29.7270    23.5710     2.5090    -8.0720 
  154.0000    58.5640    27.1040    26.8190    25.2260    23.3980     2.4750    -8.0760 
  154.1250    58.9510    25.3540    24.9200    21.7340    23.1670     2.4570    -8.0990 
  154.2500    57.7290    24.5280    23.8810    19.4980    22.8970     2.4510    -8.1470 
  154.3750    55.8760    24.5810    23.7120    18.6670    22.7760     2.4580    -8.1770 
  154.5000    53.0910    25.3770    24.3280    19.2180    22.8180     2.4760    -8.1880 
  154.6250    50.3490    26.7540    25.6240    20.8930    22.6710     2.5030    -8.2040 
  154.7500    49.4330    28.3120    27.2060    23.2830    22.3180     2.5320    -8.1590 
  154.8750    48.5810    29.7430    28.7620    25.8860    22.1290     2.5610    -8.0960 
  155.0000    47.8040    30.7720    29.9990    28.2040    22.2550     2.5850    -8.0690 
  155.1250    50.3020    31.1100    30.5870    29.1040    22.5390     2.6020    -7.9840 
  155.2500    53.0490    30.8100    30.5100    28.6500    22.8230     2.6090    -7.8990 
  155.3750    52.1710    29.9220    29.7740    28.3550    22.9710     2.6050    -7.8280 
  155.5000    48.1690    28.5550    28.4690    28.3300    22.9870     2.5850    -7.7600 
  155.6250    46.4950    26.8590    26.7560    27.7710    22.9170     2.5510    -7.7120 
  155.7500    48.1100    25.1430    24.9950    26.1080    22.8560     2.5150    -7.6820 
  155.8750    51.3910    23.6590    23.4620    23.4170    22.8450     2.4900    -7.6430 
  156.0000    54.1110    22.6280    22.3740    21.5260    22.9260     2.4840    -7.5610 
  156.1250    54.4430    22.2610    21.9340    22.0640    23.1700     2.5030    -7.5040 
  156.2500    52.7820    22.4150    22.0160    23.9860    23.5070     2.5330    -7.3980 
  156.3750    50.1830    22.9300    22.4870    26.0670    23.7860     2.5640    -7.2870 
  156.5000    47.7150    23.5930    23.1560    27.1060    23.9140     2.5880    -7.2040 
  156.6250    46.3900    24.1550    23.7870    27.3530    23.9350     2.6020    -7.0860 
  156.7500    46.0120    24.4960    24.2240    27.1900    23.9330     2.6080    -6.9850 
  156.8750    45.8610    24.6280    24.4430    27.3720    23.9130     2.6090    -6.9080 
  157.0000    46.0060    24.6640    24.5180    27.1510    23.8620     2.6040    -6.8400 
  157.1250    47.4320    24.7960    24.5990    25.7520    23.7920     2.6000    -6.8130 
  157.2500    48.6210    25.1610    24.8340    24.1790    23.6690     2.6030    -6.8290 
  157.3750    48.8530    25.8040    25.2920    23.4420    23.3910     2.6160    -6.8450 
  157.5000    48.6790    26.6560    25.9450    23.6950    22.9150     2.6370    -6.8670 
  157.6250    49.0700    27.4970    26.6370    24.7780    22.6490     2.6560    -6.9370 
  157.7500    50.0000    28.0630    27.1290    25.7420    22.5370     2.6660    -7.0210 
  157.8750    50.2240    28.1920    27.2600    25.9940    22.4970     2.6640    -7.0690 
  158.0000    48.9910    27.8720    26.9880    25.6760    22.4390     2.6530    -7.1020 
  158.1250    47.4080    27.2610    26.4090    24.0150    22.4120     2.6390    -7.1150 
  158.2500    46.8610    26.7120    25.8200    22.3320    22.4370     2.6280    -7.1090 
  158.3750    45.7050    26.4540    25.4300    21.6950    22.5020     2.6210    -7.0990 
  158.5000    42.9810    26.5850    25.3580    21.7380    22.5660     2.6180    -7.0680 
  158.6250    42.8170    27.0990    25.6500    22.2670    22.5830     2.6190    -6.9800 
  158.7500    45.8630    27.7430    26.1200    23.3510    22.5650     2.6250    -6.8800 
  158.8750    49.0730    28.2800    26.5660    24.6230    22.5410     2.6350    -6.8170 
  159.0000    50.5160    28.4930    26.7660    25.6450    22.5910     2.6470    -6.7590 
  159.1250    50.5150    28.1620    26.4780    26.1970    22.8830     2.6550    -6.7110 
  159.2500    48.8960    27.3450    25.7340    26.6100    23.3250     2.6590    -6.6810 
  159.3750    47.1310    26.1170    24.6140    26.6060    23.7180     2.6590    -6.6700 
  159.5000    47.7480    24.6220    23.2790    25.7280    23.9190     2.6580    -6.6400 
  159.6250    50.3430    23.0720    21.9510    24.8050    23.9320     2.6540    -6.6070 
  159.7500    50.9990    21.6770    20.8010    24.0330    23.8980     2.6460    -6.6170 
  159.8750    50.8180    20.5470    19.8840    23.3000    23.8820     2.6350    -6.6040 
  160.0000    52.1340    19.7060    19.1720    22.5410    23.9300     2.6250    -6.5870 
  160.1250    52.8090    19.1290    18.5870    22.4730    23.9540     2.6210    -6.5760 
  160.2500    51.5690    18.6870    18.0310    22.1310    23.9430     2.6240    -6.5340 
  160.3750    49.5840    18.3570    17.5050    21.2150    23.9220     2.6310    -6.4960 
  160.5000    48.9320    18.1850    17.0900    19.6400    23.9000     2.6410    -6.5110 
  160.6250    50.9540    18.3220    16.9700    18.4530    23.8970     2.6530    -6.5460 
  160.7500    53.9790    18.7970    17.2110    18.6410    23.9010     2.6630    -6.5700 
  160.8750    55.4200    19.5720    17.8150    19.7900    23.8740     2.6690    -6.6260 
  161.0000    53.9390    20.5050    18.6860    21.2260    23.7460     2.6680    -6.6960 
  161.1250    51.0130    21.3570    19.6310    22.4870    23.4670     2.6550    -6.7790 
