~V
VERS. 2.00: Ver 2.00
~W
STRT.M 59.0000:
STOP.M 275.0000:
STEP.M 0.1250:
NULL. -999.2500:
UWI. F10021:
~C
DEPT.M :
GR.API :
RML.OHMM :
RI. :
RXO.OHMM :
CALI.CM :
DEN.GM/CC :
SP.MV :
~A
# ...
  216.5000    48.4130    43.8280    43.0220    33.6090    23.2550     2.2990   -16.0130 
  216.6250    48.1800    44.0280    43.2420    33.7040    23.2090     2.3390   -15.9910 
  216.7500    48.9090    44.0370    43.2700    34.3270    23.1960     2.3570   -16.0040 
  216.8750    49.6510    43.6650    42.9370    34.7370    23.1460     2.3460   -15.9880 
  217.0000    49.2390    42.8300    42.1610    34.4120    23.0420     2.3120   -15.9820 
  217.1250    48.3770    41.5880    40.9680    32.7890    22.9050     2.2710   -16.0150 
  217.2500    48.8030    40.2870    39.6680    31.4720    22.8200     2.2350   -16.0240 
  217.3750    50.1360    39.2300    38.5460    31.4770    22.8440     2.2110   -16.0260 
  217.5000    51.2990    38.6730    37.8550    32.7460    22.9540     2.1980   -16.0450 
  217.6250    53.3450    38.8570    37.8630    34.4390    23.0660     2.1950   -16.0370 
  217.7500    54.8220    39.6230    38.4800    36.5030    23.1710     2.1980   -16.0360 
  217.8750    54.5680    40.7690    39.5570    39.2170    23.2700     2.2040   -16.0730 
  218.0000    52.6300    41.9880    40.8250    41.9650    23.3500     2.2120   -16.1080 
  218.1250    50.8670    42.8470    41.8590    43.8360    23.4230     2.2160   -16.1380 
  218.2500    50.4150    43.0980    42.3380    44.4760    23.5210     2.2160   -16.1690 
  218.3750    49.4550    42.6520    42.1030    43.5060    23.6590     2.2130   -16.2030 
  218.5000    47.2000    41.5880    41.1830    41.7260    23.8460     2.2100   -16.2530 
  218.6250    45.8670    40.0920    39.7290    39.7080    24.0480     2.2080   -16.2710 
  218.7500    47.0190    38.5190    38.1220    37.9350    24.2180     2.2090   -16.2590 
  218.8750    49.7120    37.0820    36.5940    36.5600    24.2910     2.2130   -16.2430 
  219.0000    51.9790    35.9170    35.3070    35.5200    24.2810     2.2190   -16.2160 
  219.1250    52.8130    35.1460    34.4100    34.5130    24.2330     2.2220   -16.1590 
  219.2500    51.6630    34.7180    33.8740    33.4950    24.1300     2.2170   -16.1200 
  219.3750    49.5260    34.6040    33.6820    32.8790    23.9010     2.2040   -16.0770 
  219.5000    48.5520    34.7570    33.7820    32.7170    23.4690     2.1940   -15.9940 
  219.6250    51.1760    35.1340    34.1110    32.8660    22.8270     2.2040   -15.9450 
  219.7500    54.4120    35.6000    34.5060    32.9700    22.1810     2.2320   -15.9170 
  219.8750    55.7640    36.0510    34.8510    33.1590    21.8550     2.2670   -15.8570 
  220.0000    54.0380    36.3890    35.0530    33.4610    22.1220     2.2910   -15.7850 
  220.1250    51.8230    36.5290    35.0480    33.5200    22.7990     2.2900   -15.7480 
  220.2500    51.1960    36.5400    34.9310    33.3400    23.3790     2.2750   -15.6810 
  220.3750    52.2460    36.5610    34.8440    32.8870    23.6050     2.2590   -15.6110 
  220.5000    53.6570    36.7870    34.9690    32.2990    23.5880     2.2540   -15.5830 
  220.6250    54.3050    37.4730    35.5360    32.0710    23.5190     2.2650   -15.5330 
  220.7500    53.4250    38.5990    36.5190    32.7170    23.4550     2.2880   -15.4770 
  220.8750    51.8140    40.0270    37.7970    34.0530    23.3970     2.3170   -15.4500 
  221.0000    50.9680    41.4910    39.1340    35.6120    23.3600     2.3450   -15.4450 
  221.1250    51.7020    42.5940    40.1670    36.8880    23.3530     2.3640   -15.4570 
  221.2500    52.5070    43.1360    40.6940    37.6130    23.3820     2.3730   -15.4950 
  221.3750    53.8530    43.0670    40.6460    37.9640    23.4320     2.3730   -15.5160 
  221.5000    55.5690    42.5030    40.1150    38.5240    23.5090     2.3700   -15.5350 
  221.6250    54.5550    41.6990    39.3160    39.2710    23.5980     2.3690   -15.5990 
  221.7500    50.8050    41.0360    38.6030    39.5620    23.6460     2.3670   -15.6540 
  221.8750    47.7870    40.7820    38.2390    39.3660    23.6060     2.3580   -15.7130 
  222.0000    48.2090    41.1280    38.4310    39.5040    23.4600     2.3400   -15.7830 
  222.1250    49.2530    42.2360    39.3930    40.2790    23.3400     2.3130   -15.7950 
  222.2500    48.2350    43.8170    40.9060    42.4680    23.4250     2.2870   -15.8180 
  222.3750    47.2350    45.4620    42.6110    46.2550    23.7400     2.2710   -15.8810 
  222.5000    47.7170    46.5670    43.9260    49.1920    24.1040     2.2670   -15.9090 
  222.6250    49.2980    46.1890    43.8950    50.2030    24.3240     2.2760   -15.9350 
  222.7500    51.6320    44.1370    42.2230    49.5900    24.4170     2.2910   -15.9810 
  222.8750    53.3580    40.6680    39.0860    47.2980    24.4350     2.3090   -15.9870 
  223.0000    53.2320    36.5960    35.2410    42.9190    24.3970     2.3300   -15.9800 
  223.1250    52.9180    33.1070    31.7920    36.2310    24.2810     2.3550   -15.9910 
  223.2500    54.5310    30.7570    29.2850    29.0580    24.0900     2.3790   -15.9470 
  223.3750    56.2210    29.4890    27.7020    24.6080    23.8000     2.3950   -15.8550 
  223.5000    56.1860    28.7890    26.6690    24.2130    23.4030     2.4000   -15.7760 
  223.6250    55.8930    27.8650    25.5920    25.4120    22.9580     2.4020   -15.6510 
  223.7500    56.0760    26.2330    24.0460    23.1900    22.5360     2.4090   -15.4610 
  223.8750    56.3190    23.9250    22.0240    18.2460    22.2280     2.4240   -15.2780 
  224.0000    56.5340    21.3230    19.8540    14.0210    22.0840     2.4430   -15.0890 
  224.1250    55.2960    19.2350    18.1270    12.7520    22.1030     2.4570   -14.8910 
  224.2500    53.5940    18.1280    17.1500    13.0650    22.2500     2.4590   -14.7350 
  224.3750    54.2040    18.1490    16.9900    14.6910    22.5220     2.4480   -14.5930 
  224.5000    56.8080    18.8770    17.5200    17.0770    22.8800     2.4290   -14.4510 
  224.6250    57.4900    19.9800    18.5080    19.5200    23.2190     2.4050   -14.3640 
  224.7500    56.3680    21.0280    19.5390    21.1100    23.4820     2.3840   -14.3180 
  224.8750    55.7860    21.7800    20.3510    21.6990    23.6150     2.3690   -14.3010 
  225.0000    55.3330    22.1280    20.7880    22.0100    23.6760     2.3620   -14.3050 
  225.1250    54.2910    22.0580    20.7830    22.1480    23.6910     2.3620   -14.3180 
  225.2500    54.5480    21.7750    20.5160    21.9220    23.7010     2.3660   -14.3440 
  225.3750    57.2150    21.4220    20.1170    21.0280    23.6980     2.3720   -14.4170 
  225.5000    60.6420    21.1060    19.6850    20.1610    23.6700     2.3790   -14.5290 
  225.6250    60.9440    20.9230    19.3120    20.0630    23.6140     2.3860   -14.6430 
  225.7500    59.1230    20.9060    19.0540    20.3620    23.5540     2.3900   -14.8210 
  225.8750    58.7310    21.0950    18.9630    20.8300    23.5150     2.3890   -15.0330 
  226.0000    60.8140    21.5370    19.0920    21.4060    23.5220     2.3830   -15.2640 
  226.1250    63.2210    22.3470    19.5560    22.1910    23.6000     2.3730   -15.5770 
  226.2500    62.8850    23.5270    20.3790    23.1610    23.6440     2.3650   -15.9490 
  226.3750    59.3660    25.0860    21.6060    24.5060    23.6460     2.3590   -16.3320 
  226.5000    54.2770    26.9780    23.2410    26.2540    23.6580     2.3530   -16.7530 
  226.6250    52.5840    29.1120    25.2750    28.9280    23.7300     2.3480   -17.2600 
  226.7500    54.8080    31.3030    27.5280    32.5970    23.8570     2.3410   -17.7630 
  226.8750    58.5160    33.4960    29.9090    36.8940    24.0310     2.3340   -18.2920 
  227.0000    60.3250    35.7770    32.4150    40.6780    24.2110     2.3230   -18.8980 
  227.1250    59.1480    38.3980    35.1630    42.6440    24.2920     2.3080   -19.4950 
  227.2500    56.5170    41.2700    38.0310    43.8340    24.2530     2.2940   -20.0830 
  227.3750    53.4350    43.8530    40.5290    44.6440    24.0960     2.2940   -20.7000 
  227.5000    51.5090    45.1020    41.7130    44.7200    23.8380     2.3220   -21.2660 
  227.6250    51.4780    43.1270    39.8850    43.0650    23.4630     2.3950   -21.7170 
