~V
VERS. 2.00: Ver 2.00
~W
STRT.M 50.0000:
STOP.M 250.0000:
STEP.M 0.1250:
NULL. -999.2500:
UWI. F10033:
~C
DEPT.M :
SP.MV :
GR.API :
RML.OHMM :
RI. :
RXO.OHMM :
CALI.CM :
DEN.GM/CC :
~A
# ...
  140.0000    -8.1550    50.0830    49.9460    46.9180    51.7420    25.3020     2.5590 
  140.1250    -8.1540    49.1160    48.9920    46.3380    44.4910    25.2890     2.5660 
  140.2500    -8.1410    49.1230    46.7970    44.6240    39.2010    25.3190     2.5570 
  140.3750    -8.1040    51.0110    44.1800    42.4200    36.2690    25.3630     2.5360 
  140.5000    -8.0330    54.1180    42.0410    40.5060    34.9270    25.3870     2.5110 
  140.6250    -7.9540    56.3580    41.2640    39.6950    33.9610    25.4000     2.4940 
  140.7500    -7.9050    56.7790    41.8840    40.1080    36.8060    25.4210     2.4930 
  140.8750    -7.8810    55.5590    43.7640    41.6920    44.1160    25.4450     2.5090 
  141.0000    -7.8720    52.9820    46.4930    44.1460    51.6820    25.4660     2.5380 
  141.1250    -7.8660    50.2450    49.2500    46.8130    54.6870    25.4820     2.5730 
  141.2500    -7.8360    49.5720    51.0460    48.7740    58.7210    25.4730     2.6040 
  141.3750    -7.8090    51.5100    51.2830    49.4240    61.6080    25.4560     2.6200 
  141.5000    -7.8000    54.0260    49.9030    48.6040    58.7830    25.4380     2.6160 
  141.6250    -7.8180    53.8500    47.2910    46.5290    48.7110    25.3490     2.5860 
  141.7500    -7.8630    52.0690    44.4040    44.0330    49.5630    25.1470     2.5450 
  141.8750    -7.9380    50.9140    41.7490    41.5990    56.7020    24.9080     2.5050 
  142.0000    -7.9940    51.3640    39.5590    39.4990    52.5340    24.7200     2.4750 
  142.1250    -8.0090    53.8130    37.9700    37.9320    40.1860    24.6380     2.4600 
  142.2500    -8.0330    56.7490    36.9090    36.8870    34.7090    24.6140     2.4540 
  142.3750    -8.0610    59.1700    36.3790    36.3850    33.0330    24.6160     2.4540 
  142.5000    -8.0830    59.8030    36.3280    36.3760    31.5390    24.6520     2.4640 
  142.6250    -8.0760    57.1760    36.5910    36.7060    32.2800    24.8060     2.4860 
  142.7500    -8.0330    54.3560    36.7180    36.9350    37.1500    25.0400     2.5080 
  142.8750    -7.9810    54.0240    36.3160    36.6680    42.0490    25.1950     2.5160 
  143.0000    -7.9720    55.7080    35.2450    35.7300    36.5840    25.1790     2.5010 
  143.1250    -8.0490    54.9910    33.7680    34.3090    31.8900    25.0990     2.4670 
  143.2500    -8.1690    53.0940    32.4540    32.9370    29.2950    25.0260     2.4410 
  143.3750    -8.3050    53.4220    31.5700    31.8790    29.0450    24.8940     2.4420 
  143.5000    -8.4330    55.1400    31.0980    31.1660    28.6170    24.6980     2.4710 
  143.6250    -8.5420    54.1730    30.8040    30.6590    28.4050    24.5840     2.5080 
  143.7500    -8.6270    52.7340    30.4550    30.1790    28.4290    24.5350     2.5280 
  143.8750    -8.6370    53.8830    30.1540    29.7970    26.9650    24.4830     2.5250 
  144.0000    -8.5440    55.8090    30.3220    29.8210    25.2900    24.3960     2.5090 
  144.1250    -8.3440    55.3490    31.7340    30.8880    27.3500    24.3320     2.4990 
  144.2500    -8.1160    54.0160    34.4750    33.1510    35.0650    24.3580     2.5090 
  144.3750    -7.8720    53.6560    38.1710    36.4200    45.7140    24.5340     2.5350 
  144.5000    -7.6160    53.2230    41.9010    39.9880    54.0900    24.8790     2.5660 
  144.6250    -7.3720    50.8360    44.1880    42.5320    61.2970    25.2290     2.5850 
  144.7500    -7.1580    48.8810    44.6280    43.4360    65.3130    25.3540     2.5890 
  144.8750    -6.9780    48.3000    43.7880    43.0010    56.8620    25.4060     2.5840 
  145.0000    -6.8830    48.0310    42.8440    42.1850    47.2750    25.4710     2.5820 
  145.1250    -6.9110    47.2240    42.8120    41.9440    44.8780    25.5000     2.5930 
  145.2500    -6.9690    47.7580    43.3180    42.1570    48.4580    25.4970     2.6120 
  145.3750    -7.0360    49.3660    43.3430    42.0310    51.6050    25.4570     2.6260 
  145.5000    -7.1270    49.2540    41.8020    40.6140    53.9780    25.3850     2.6260 
  145.6250    -7.2520    45.7500    38.1180    37.3230    49.2850    25.2380     2.6020 
  145.7500    -7.3830    43.5790    33.6590    33.2980    37.4470    25.1070     2.5660 
  145.8750    -7.5300    45.6940    29.7780    29.7070    27.1290    25.0230     2.5320 
  146.0000    -7.6770    50.1100    27.3180    27.2920    23.4960    24.9880     2.5110 
  146.1250    -7.7770    52.1300    26.6370    26.4240    25.0960    24.9690     2.5130 
  146.2500    -7.8250    50.8690    27.0550    26.6100    29.9030    24.9470     2.5290 
  146.3750    -7.8680    48.3500    28.0140    27.4360    32.1670    24.9420     2.5490 
  146.5000    -7.9110    45.8260    29.0040    28.4480    30.4110    24.9680     2.5670 
  146.6250    -7.9120    44.5470    29.7050    29.2680    26.7520    25.0350     2.5760 
  146.7500    -7.9000    45.2110    30.1510    29.8180    27.9380    25.0800     2.5800 
  146.8750    -7.9290    46.7620    30.3280    30.0560    30.9750    25.0500     2.5800 
  147.0000    -7.9880    47.7690    30.0760    29.8470    34.3250    24.9400     2.5780 
  147.1250    -8.0510    48.4380    29.0680    28.9090    37.3150    24.8460     2.5720 
  147.2500    -8.1580    49.4620    27.4570    27.3970    34.0220    24.7810     2.5640 
  147.3750    -8.2810    49.9570    25.6440    25.6700    29.0640    24.7520     2.5540 
  147.5000    -8.3660    49.3610    24.2050    24.2190    22.5570    24.7040     2.5470 
  147.6250    -8.4240    48.8100    23.7420    23.5620    21.3040    24.7030     2.5500 
  147.7500    -8.4910    48.9110    24.1340    23.6520    23.0690    24.8130     2.5610 
  147.8750    -8.5410    49.9930    25.0370    24.2690    25.9260    24.9370     2.5700 
  148.0000    -8.5990    50.3980    25.9320    25.0080    27.7570    24.9870     2.5650 
  148.1250    -8.6850    49.9780    26.1920    25.3030    26.5350    24.9700     2.5410 
  148.2500    -8.7350    50.5290    25.7590    24.9850    23.5670    24.9310     2.5080 
  148.3750    -8.7350    51.4690    24.9130    24.2300    21.1110    24.8850     2.4800 
  148.5000    -8.7270    51.3810    24.0880    23.3990    19.1830    24.8270     2.4670 
  148.6250    -8.7400    51.0270    23.7250    22.8870    18.6140    24.7610     2.4750 
  148.7500    -8.7440    52.1980    23.9250    22.8350    18.7630    24.6670     2.4970 
  148.8750    -8.7270    53.4860    24.6540    23.2590    19.6440    24.5770     2.5280 
  149.0000    -8.6660    52.2220    25.6820    24.0180    21.2850    24.5230     2.5640 
  149.1250    -8.5770    49.8620    26.5600    24.7750    22.9900    24.5310     2.5980 
  149.2500    -8.4990    48.8140    26.9550    25.2130    25.3250    24.5380     2.6240 
  149.3750    -8.4420    48.7980    26.8260    25.2490    27.9760    24.5420     2.6370 
  149.5000    -8.4220    48.7180    26.4210    25.0310    27.5610    24.5730     2.6360 
  149.6250    -8.4340    48.9050    26.3080    24.9550    22.8720    24.7020     2.6280 
  149.7500    -8.4270    51.3410    26.9030    25.3620    22.2960    24.8580     2.6240 
  149.8750    -8.3830    54.9290    28.2520    26.3360    26.3420    24.9610     2.6280 
  150.0000    -8.3050    57.0950    29.9820    27.6470    30.1440    25.0540     2.6390 
  150.1250    -8.2130    56.0760    31.2000    28.6120    32.2230    25.1670     2.6480 
  150.2500    -8.1130    53.6720    31.1210    28.5270    32.6610    25.2030     2.6510 
  150.3750    -8.0180    52.7150    29.4610    27.0840    30.5330    25.1140     2.6460 
  150.5000    -7.9330    54.1430    26.6760    24.6420    25.9860    24.9380     2.6360 
  150.6250    -7.8620    57.3200    23.8290    22.1180    21.5290    24.8150     2.6200 
  150.7500    -7.8190    59.4500    21.8260    20.2780    18.1860    24.7120     2.6030 
  150.8750    -7.7970    58.8370    21.0430    19.4210    16.5160    24.6400     2.5900 
  151.0000    -7.8000    56.6810    21.5950    19.6450    16.8390    24.5760     2.5870 
  151.1250    -7.8110    55.0840    23.5720    21.1110    20.1400    24.5540     2.6000 
