~V
VERS. 2.00: Ver 2.00
~W
STRT.M 50.0000:
STOP.M 216.0000:
STEP.M 0.1250:
NULL. -999.2500:
UWI. F10015:
~C
DEPT.M :
GR.API :
RML.OHMM :
RI. :
RXO.OHMM :
CALI.CM :
DEN.GM/CC :
SP.MV :
~A
# ...
  173.7500    59.5370    29.2090    27.1990    21.4560    23.2810     2.2860   -11.5350 
  173.8750    60.0080    29.0720    27.0830    22.1600    23.4540     2.2840   -11.6300 
  174.0000    61.1260    28.4310    26.5990    23.2440    23.6690     2.2770   -11.7020 
  174.1250    60.8110    27.2060    25.6330    23.9360    24.0260     2.2690   -11.7140 
  174.2500    59.9780    26.0700    24.7060    23.0500    24.3410     2.2610   -11.6770 
  174.3750    59.8450    25.4630    24.1640    21.6570    24.5320     2.2520   -11.6190 
  174.5000    60.3530    25.5360    24.1510    21.5740    24.6110     2.2430   -11.5240 
  174.6250    60.7310    26.2480    24.6760    23.5520    24.6310     2.2380   -11.3680 
  174.7500    60.0520    27.4630    25.6790    25.4710    24.6350     2.2400   -11.1570 
  174.8750    59.2420    28.5480    26.6620    25.9840    24.6510     2.2470   -10.8670 
  175.0000    58.6040    28.9930    27.1350    27.2220    24.6760     2.2520   -10.5810 
  175.1250    57.8080    28.9000    27.1260    27.3780    24.6920     2.2530   -10.2960 
  175.2500    56.7820    28.5070    26.7890    26.4160    24.6990     2.2510   -10.0040 
  175.3750    55.5640    28.1250    26.3700    25.3330    24.6990     2.2520    -9.6950 
  175.5000    54.1660    28.0670    26.1590    25.4370    24.6990     2.2600    -9.3610 
  175.6250    54.4570    28.7320    26.5160    27.0780    24.6990     2.2730    -9.0960 
  175.7500    56.3200    29.7980    27.2240    28.5420    24.6990     2.2830    -8.8990 
  175.8750    57.8680    31.1420    28.1950    29.1040    24.6990     2.2860    -8.7540 
  176.0000    58.8310    32.5800    29.2720    29.8720    24.6990     2.2820    -8.6610 
  176.1250    59.7410    33.9150    30.2810    31.8220    24.6990     2.2750    -8.6220 
  176.2500    61.1110    34.9860    31.0820    33.8260    24.6990     2.2670    -8.6330 
  176.3750    60.2740    35.7340    31.6290    33.1860    24.6990     2.2610    -8.7710 
  176.5000    56.7840    36.2900    32.0420    32.9430    24.6990     2.2570    -8.9170 
  176.6250    54.3020    36.8030    32.4520    33.7240    24.6990     2.2580    -9.0760 
  176.7500    54.9500    37.4170    33.0050    34.7020    24.6990     2.2640    -9.2420 
  176.8750    58.2270    38.2660    33.8340    35.4650    24.6990     2.2750    -9.4290 
  177.0000    59.9210    39.4660    35.0460    37.8970    24.6990     2.2860    -9.7030 
  177.1250    58.4650    41.8580    37.3830    41.8650    24.6560     2.2860   -10.0630 
  177.2500    58.3190    45.6810    40.9870    43.7860    24.5490     2.2720   -10.4760 
  177.3750    58.2370    51.5720    46.4190    45.9800    24.4360     2.2470   -10.9930 
  177.5000    57.0050    58.8130    53.0950    51.2890    24.3580     2.2240   -11.6240 
  177.6250    54.5820    64.8720    58.9040    62.2690    24.3310     2.2220   -12.3540 
  177.7500    53.2460    64.9470    59.8250    80.3770    24.3310     2.2700   -13.1730 
  177.8750    54.9460    54.4270    51.1650    80.9500    24.3310     2.3660   -13.9550 
  178.0000    56.9260    40.0530    38.1870    60.4850    24.3220     2.4610   -14.4520 
  178.1250    58.9420    26.8700    25.9250    38.3160    24.3010     2.5260   -14.6730 
  178.2500    60.6270    17.3950    16.9720    21.9300    24.2780     2.5420   -14.5880 
  178.3750    61.0220    11.9640    11.7550    12.0160    24.2660     2.5150   -14.2090 
  178.5000    58.0950     9.0600     8.8050     7.5240    24.2630     2.4730   -13.6620 
  178.6250    53.9020     8.3550     7.7950     7.0240    24.2630     2.4460   -12.9390 
  178.7500    53.2910     8.2310     7.4090     7.0790    24.2630     2.4280   -12.1260 
  178.8750    54.8800     8.2540     7.3430     7.1400    24.2630     2.4100   -11.2980 
  179.0000    56.7000     8.1430     7.3180     6.9870    24.2630     2.3910   -10.5570 
  179.1250    57.6140     7.8010     7.1620     6.6290    24.2660     2.3710    -9.9960 
  179.2500    58.7320     7.3330     6.8860     6.2170    24.2830     2.3570    -9.6670 
  179.3750    61.7170     7.1050     6.7440     5.9340    24.3410     2.3560    -9.5430 
  179.5000    68.1200     7.3090     6.9170     6.2600    24.4430     2.3630    -9.4430 
  179.6250    76.3530     7.8670     7.3860     7.3580    24.5630     2.3740    -9.3630 
  179.7500    82.8150     8.6740     8.1090     8.7110    24.6540     2.3870    -9.2870 
  179.8750    84.5930     9.5780     8.9800     9.6710    24.6840     2.3990    -9.2160 
  180.0000    82.1550    10.3590     9.7890    10.0160    24.6690     2.4130    -9.2090 
  180.1250    82.4660    10.6920    10.1760    10.0130    24.6130     2.4240    -9.2580 
  180.2500    85.4460    10.7720    10.2890    10.0180    24.5710     2.4290    -9.3410 
  180.3750    89.3520    10.7180    10.2370    10.0210    24.5520     2.4260    -9.4100 
  180.5000    93.0760    10.6470    10.1380     9.9750    24.5470     2.4170    -9.4690 
  180.6250    95.8100    10.6510    10.0850     9.8940    24.5460     2.4090    -9.5540 
  180.7500    96.7090    10.7690    10.1140     9.9430    24.5450     2.4040    -9.7060 
  180.8750    95.3740    10.9690    10.1950    10.0890    24.5450     2.4040    -9.8670 
  181.0000    94.2350    11.1800    10.2680    10.1690    24.5450     2.4030    -9.9310 
  181.1250    94.6930    11.3610    10.3020    10.1300    24.5450     2.4010    -9.9380 
  181.2500    97.2480    11.4740    10.2730     9.9900    24.5450     2.4000    -9.9070 
  181.3750   101.1920    11.5010    10.1680     9.8270    24.5450     2.3990    -9.8640 
  181.5000   104.2930    11.4500    10.0010     9.7640    24.5450     2.4000    -9.8550 
  181.6250   108.2070    11.2450     9.7240     9.6540    24.5450     2.4030    -9.7450 
  181.7500   113.0000    10.9420     9.3870     9.5800    24.5450     2.4050    -9.6420 
  181.8750   116.3250    10.6600     9.0840     9.6220    24.5450     2.4050    -9.5290 
  182.0000   116.5330    10.5810     8.9420     9.6830    24.5450     2.4030    -9.4620 
  182.1250   113.2460    10.9730     9.1390     9.8050    24.5450     2.4020    -9.4980 
  182.2500   107.9270    12.2110     9.9330    10.4860    24.5450     2.4050    -9.6240 
  182.3750    99.1230    14.5940    11.5900    13.5070    24.5450     2.4140    -9.8580 
  182.5000    87.9270    18.0980    14.2740    20.3390    24.5450     2.4240   -10.1560 
  182.6250    77.8590    22.2820    17.7470    26.5790    24.5450     2.4260   -10.5200 
  182.7500    71.3800    26.6800    21.7080    29.7980    24.5450     2.4170   -10.9260 
  182.8750    68.5630    30.8700    25.7970    30.2300    24.5450     2.3950   -11.3550 
  183.0000    65.7590    34.5580    29.5900    31.4550    24.5450     2.3670   -11.8260 
  183.1250    64.4370    37.6690    32.8100    35.5970    24.5450     2.3390   -12.2330 
  183.2500    64.4590    40.7420    35.8700    41.7600    24.5450     2.3150   -12.5990 
  183.3750    64.6750    43.8660    38.8520    45.1420    24.5450     2.2980   -12.8760 
  183.5000    64.0200    47.0190    41.7740    46.0980    24.5450     2.2880   -13.0850 
  183.6250    62.1480    50.1020    44.5880    46.9260    24.5450     2.2840   -13.2590 
  183.7500    60.0710    52.9700    47.1870    48.6700    24.5450     2.2800   -13.3780 
  183.8750    61.1880    56.0260    49.0620    52.4210    24.5450     2.2720   -13.4700 
  184.0000    63.3250    56.1700    49.2630    55.9070    24.5450     2.2620   -13.5700 
  184.1250    64.5560    54.0770    47.8100    57.3110    24.5450     2.2530   -13.6650 
  184.2500    65.4790    50.4610    45.0480    54.2600    24.5450     2.2490   -13.7540 
  184.3750    67.3670    46.3230    41.7390    46.1790    24.5450     2.2530   -13.8550 
  184.5000    70.3240    43.2150    39.1470    36.6480    24.5450     2.2580   -14.0040 
  184.6250    71.0040    44.0730    39.8080    38.4520    24.5450     2.2590   -14.1470 
  184.7500    68.9570    48.4540    43.6270    45.8200    24.5450     2.2540   -14.3270 
  184.8750    64.9140    57.5180    51.9120    56.2010    24.5450     2.2480   -14.5290 
