~V
VERS. 2.00: Ver 2.00
~W
STRT.M 55.0000:
STOP.M 297.0000:
STEP.M 0.1250:
NULL. -999.2500:
UWI. F10076:
~C
DEPT.M :
DEN.GM/CC :
SP.MV :
GR.API :
CALI.CM :
RXO.OHMM :
RI. :
RML.OHMM :
~A
# ...
  223.7500     2.3290    -2.3180    65.8510    23.9010     5.5730     6.5610     8.4190 
  223.8750     2.3270    -1.9660    58.5540    23.9080     5.4810     6.2640     8.1560 
  224.0000     2.3240    -1.6040    54.5100    23.9700     5.9530     6.0930     8.0000 
  224.1250     2.3110    -1.2830    55.2420    24.0100     6.2580     5.9470     7.8170 
  224.2500     2.3030    -1.0160    58.3010    23.9040     5.8490     5.7550     7.5610 
  224.3750     2.3170    -0.8450    61.3040    23.7020     5.0250     5.5240     7.2720 
  224.5000     2.3440    -0.7020    62.4700    23.5500     4.3860     5.3050     7.0240 
  224.6250     2.3570    -0.5640    60.1980    23.4460     4.2220     5.1700     6.9000 
  224.7500     2.3520    -0.4580    57.0210    23.3470     4.2540     5.1270     6.8920 
  224.8750     2.3400    -0.3970    53.3850    23.2620     4.3420     5.1590     6.9660 
  225.0000     2.3310    -0.3960    50.4530    23.1900     4.4440     5.2350     7.0840 
  225.1250     2.3280    -0.3280    50.2290    23.2050     4.5700     5.3330     7.2240 
  225.2500     2.3300    -0.3080    52.0260    23.3510     4.6840     5.4320     7.3680 
  225.3750     2.3320    -0.3110    54.5570    23.4870     4.7740     5.5230     7.5040 
  225.5000     2.3320    -0.3170    57.0810    23.4990     4.8090     5.5980     7.6180 
  225.6250     2.3320    -0.2870    60.3760    23.3500     4.7620     5.6490     7.6770 
  225.7500     2.3400    -0.2620    63.2090    23.1580     4.6430     5.6710     7.6740 
  225.8750     2.3550    -0.2200    64.1340    23.0040     4.4950     5.6600     7.6140 
  226.0000     2.3650    -0.1890    63.5560    22.9600     4.3720     5.6170     7.5230 
  226.1250     2.3580    -0.2010    62.9540    22.8880     4.3100     5.5590     7.4460 
  226.2500     2.3430    -0.1800    64.5240    22.8270     4.3110     5.5230     7.4310 
  226.3750     2.3350    -0.1810    68.8690    22.8610     4.3380     5.5350     7.5040 
  226.5000     2.3400    -0.1710    75.1620    23.0290     4.3990     5.6120     7.6570 
  226.6250     2.3560    -0.2440    82.3120    23.2020     4.5960     5.7530     7.8560 
  226.7500     2.3650    -0.3630    88.3340    23.2690     4.9310     5.9140     8.0360 
  226.8750     2.3530    -0.4820    91.6780    23.2120     5.2420     6.0460     8.1470 
  227.0000     2.3180    -0.6400    92.9810    23.1670     5.3560     6.1050     8.1650 
  227.1250     2.2800    -0.8840    94.6660    23.2900     5.2720     6.0650     8.0890 
  227.2500     2.2590    -1.0920    95.8140    23.5500     5.1840     5.9720     7.9670 
  227.3750     2.2550    -1.2490    94.7750    23.8260     5.1220     5.8620     7.8210 
  227.5000     2.2580    -1.4700    93.4390    24.0830     5.0840     5.7620     7.6660 
  227.6250     2.2590    -1.6580    96.8410    24.3650     5.0650     5.6810     7.5230 
  227.7500     2.2590    -1.8300   100.9840    24.5680     4.9890     5.6130     7.4150 
  227.8750     2.2650    -2.0570    99.5050    24.5570     4.8230     5.5640     7.3630 
  228.0000     2.2830    -2.2450    93.9810    24.3960     4.6910     5.5460     7.3750 
  228.1250     2.3030    -2.4000    93.6260    24.1600     4.8760     5.5730     7.4370 
  228.2500     2.3100    -2.5680    96.9020    24.0080     5.3560     5.6330     7.5080 
  228.3750     2.3040    -2.7500    97.5830    23.8400     5.7660     5.7210     7.5690 
  228.5000     2.2960    -2.9160    94.7760    23.6490     5.8770     5.8450     7.6380 
  228.6250     2.3000    -3.0990    92.0440    23.6430     6.0970     6.0620     7.8130 
  228.7500     2.3100    -3.3370    91.6880    23.7040     6.8080     6.4470     8.2220 
  228.8750     2.3110    -3.5750    93.0800    23.7310     8.1110     7.0970     8.9890 
  229.0000     2.2970    -3.8250    92.5380    23.7510     9.8650     8.0990    10.1950 
  229.1250     2.2810    -4.0110    86.6130    23.9150    12.7660     9.5470    11.8570 
  229.2500     2.2760    -4.2300    79.9920    24.2300    17.3940    11.2040    13.5880 
  229.3750     2.2830    -4.4500    77.9950    24.4970    21.1910    12.6160    14.8050 
  229.5000     2.2960    -4.6420    80.3480    24.5980    20.4060    13.2080    14.9370 
  229.6250     2.3070    -4.7880    85.1390    24.4760    17.1170    12.6150    13.8430 
  229.7500     2.3120    -4.8710    90.2750    24.3010    13.6650    11.4750    12.3930 
  229.8750     2.3140    -4.9030    92.9320    24.1770    10.8950    10.3700    11.2200 
  230.0000     2.3100    -4.9170    92.1930    24.1150     9.3360     9.7080    10.6930 
  230.1250     2.2890    -4.9580    90.1360    24.0690     9.4990     9.8080    11.0770 
  230.2500     2.2550    -4.9710    90.1330    24.0640    10.3620    10.6450    12.2550 
  230.3750     2.2240    -4.9580    91.6180    24.1720    10.7620    12.2670    14.2210 
  230.5000     2.2090    -4.9530    92.6510    24.3390    10.6090    14.7100    16.9610 
  230.6250     2.2090    -4.9620    89.8310    24.2750    11.7940    18.0040    20.4550 
  230.7500     2.2160    -4.9290    83.6870    24.1350    15.5540    21.7130    24.2620 
  230.8750     2.2250    -4.8720    77.8190    24.1150    23.2230    25.3700    27.8700 
  231.0000     2.2280    -4.8190    73.4640    24.1410    32.6600    28.3710    30.5880 
  231.1250     2.2200    -4.7750    71.1940    24.1590    36.2920    29.8350    31.4670 
  231.2500     2.2070    -4.7310    72.5240    24.2010    33.0750    29.7660    30.7430 
  231.3750     2.1980    -4.7050    76.2150    24.1910    27.0340    28.5300    29.0210 
  231.5000     2.1960    -4.6670    79.2900    24.1120    22.3910    26.7490    27.0430 
  231.6250     2.1990    -4.6650    79.6870    24.0280    21.4170    25.0570    25.4340 
  231.7500     2.2030    -4.7090    80.4650    24.0140    21.8640    23.7460    24.2900 
  231.8750     2.2050    -4.7580    81.3720    24.0500    21.5170    22.7810    23.4520 
  232.0000     2.2040    -4.8250    79.3670    24.0990    19.9420    21.9900    22.6840 
  232.1250     2.2020    -4.8850    76.1430    24.1230    18.2020    21.2230    21.8250 
  232.2500     2.1970    -4.9500    77.8200    24.1300    16.9120    20.4770    20.9560 
  232.3750     2.1850    -5.0570    83.4600    24.1280    16.1830    19.9020    20.2960 
  232.5000     2.1680    -5.1970    86.9490    24.1050    16.0610    19.7060    20.1000 
  232.6250     2.1550    -5.2950    84.9940    24.0420    16.7130    20.1620    20.6860 
  232.7500     2.1530    -5.4260    83.1690    23.9570    18.0200    21.2560    22.0180 
  232.8750     2.1530    -5.6120    83.3920    23.9110    20.4840    22.9680    24.0380 
  233.0000     2.1510    -5.7890    81.5390    24.0320    24.3700    25.1740    26.5400 
  233.1250     2.1430    -5.9320    74.6100    24.1840    28.2960    27.5550    29.0800 
  233.2500     2.1250    -6.0660    68.0070    24.2580    30.4110    29.6070    31.1260 
  233.3750     2.1020    -6.1500    66.3660    24.2380    30.5610    30.9930    32.3830 
  233.5000     2.0960    -6.2160    70.5650    24.2090    29.6480    31.6230    32.8440 
  233.6250     2.1370    -6.2970    76.7050    24.2190    28.5900    31.6410    32.7350 
  233.7500     2.2040    -6.3650    79.4110    24.2800    27.8290    31.4950    32.5240 
  233.8750     2.2600    -6.4110    78.3590    24.3770    27.3740    31.4140    32.4370 
  234.0000     2.2750    -6.4050    75.1570    24.4560    27.4280    31.4820    32.5470 
  234.1250     2.2510    -6.3900    72.6770    24.4630    28.3520    31.7130    32.8380 
  234.2500     2.2180    -6.4080    70.4750    24.4130    29.7140    32.0330    33.1700 
  234.3750     2.1880    -6.4310    68.1680    24.3200    29.7720    32.3500    33.4010 
  234.5000     2.1620    -6.4350    66.7860    24.2100    28.3090    32.5450    33.4080 
  234.6250     2.1390    -6.4030    65.4150    24.1770    27.2470    33.0850    32.4840 
  234.7500     2.1220    -6.3170    64.8410    24.2050    26.6130    32.5240    32.2040 
  234.8750     2.1120    -6.2110    66.0120    24.2560    25.7900    31.8210    31.7830 
