~V
VERS. 2.00: Ver 2.00
~W
STRT.M 56.0000:
STOP.M 269.0000:
STEP.M 0.1250:
NULL. -999.2500:
UWI. F10026:
~C
DEPT.M :
GR.API :
RML.OHMM :
RI. :
RXO.OHMM :
CALI.CM :
DEN.GM/CC :
SP.MV :
~A
   56.0000    67.9240     2.6420     1.2010     8.2100    23.8120     2.2050    -8.8320 
   56.1250    72.0450     5.1550     2.8720     8.4530    23.8860     2.1750   -12.1180 
   56.2500    76.6080     7.7370     5.0100     8.2000    24.0790     2.1630   -14.6400 
   56.3750    82.0250     8.3880     6.2260     7.5750    24.2540     2.1640   -16.3940 
   56.5000    86.9250     8.1180     6.6170     7.2670    24.3140     2.1730   -17.5070 
   56.6250    89.1390     7.9780     6.6770     7.1410    24.2840     2.1880   -18.1740 
   56.7500    89.1790     7.9450     6.6660     7.0390    24.2370     2.2060   -18.7090 
   56.8750    88.2290     7.9230     6.6210     6.8300    24.2140     2.2240   -19.2000 
   57.0000    88.6790     7.8800     6.5550     6.7410    24.2330     2.2370   -19.6870 
   57.1250    91.6890     7.7980     6.4740     6.3920    24.2640     2.2390   -20.2300 
   57.2500    93.1130     7.6990     6.3870     6.2820    24.2530     2.2320   -20.8130 
   57.3750    91.4450     7.6200     6.3080     6.4660    24.1890     2.2170   -21.4380 
   57.5000    89.6100     7.5890     6.2710     7.0040    24.1390     2.2020   -22.1290 
   57.6250    90.8620     7.6270     6.3600     6.9690    24.1260     2.2020   -22.8770 
   57.7500    94.9030     7.7680     6.6080     6.8380    24.1100     2.2290   -23.6590 
   57.8750    97.4900     8.1280     7.0190     7.0740    24.0540     2.2820   -24.4450 
   58.0000    94.5870     8.7870     7.5320     9.0770    23.9650     2.3430   -25.2310 
   58.1250    87.9050     9.3680     8.0050    12.3900    23.8860     2.3760   -26.0060 
   58.2500    83.2780     9.5380     8.2970    13.2150    23.7300     2.3630   -26.7630 
   58.3750    81.2480     9.2480     8.3580     9.9210    23.3900     2.3110   -27.4880 
   58.5000    78.0060     8.7140     8.2360     7.7400    22.9470     2.2430   -28.1620 
   58.6250    72.8960     8.2680     8.0380     7.2270    22.7270     2.1900   -28.7540 
   58.7500    69.7540     8.0840     7.8790     7.2510    22.7440     2.1590   -29.2360 
   58.8750    67.6860     8.1430     7.7880     7.3620    23.1360     2.1430   -29.6230 
   59.0000    66.1320     8.3090     7.7400     7.2980    23.8940     2.1290   -29.9270 
   59.1250    67.6560     8.4050     7.6840     7.2320    24.5080     2.1070   -30.1470 
   59.2500    72.1380     8.3710     7.6010     7.2220    24.5380     2.0800   -30.3060 
   59.3750    75.4520     8.2440     7.5080     7.2400    24.2740     2.0580   -30.4050 
   59.5000    74.1830     8.1030     7.4370     7.3050    24.0520     2.0500   -30.4650 
   59.6250    70.9510     8.0360     7.4230     7.6340    23.9220     2.0650   -30.4800 
   59.7500    69.8660     8.0480     7.4520     8.2840    23.8560     2.0940   -30.4960 
   59.8750    70.8180     8.1010     7.4910     8.8620    23.8760     2.1250   -30.4980 
   60.0000    70.9850     8.1390     7.5050     9.1800    23.9320     2.1440   -30.4780 
   60.1250    69.1920     8.1230     7.4780     9.1690    23.9190     2.1410   -30.4190 
   60.2500    67.2800     8.1040     7.4610     9.2200    23.8510     2.1240   -30.3410 
   60.3750    66.9370     8.1650     7.5240     9.3520    23.7350     2.1130   -30.2680 
   60.5000    68.5550     8.3830     7.7230     9.4040    23.6130     2.1310   -30.2110 
   60.6250    70.1770     8.7810     8.0760     9.9110    23.5910     2.1960   -30.1990 
   60.7500    71.1830     9.2200     8.4640    10.5870    23.6380     2.2810   -30.2200 
   60.8750    71.5550     9.5290     8.7470    11.0380    23.6990     2.3510   -30.3060 
   61.0000    72.7680     9.5590     8.7960    10.8530    23.6820     2.3760   -30.4500 
   61.1250    73.7700     9.2380     8.5350     9.6630    23.6360     2.3430   -30.6540 
   61.2500    72.2780     8.7540     8.1080     8.7740    23.5680     2.2860   -30.8870 
   61.3750    69.4240     8.2750     7.6620     8.2900    23.5600     2.2300   -31.1370 
   61.5000    66.8090     7.9270     7.3150     8.1560    23.6220     2.1890   -31.3850 
   61.6250    65.9010     7.7830     7.1470     8.0140    23.6850     2.1610   -31.5940 
   61.7500    65.4580     7.7810     7.1150     8.0540    23.5710     2.1380   -31.7640 
   61.8750    65.4890     7.8680     7.1690     8.2540    23.3710     2.1200   -31.8740 
   62.0000    66.2470     7.9960     7.2560     8.5310    23.1670     2.1120   -31.9410 
   62.1250    68.2390     8.1310     7.3310     8.8570    23.1230     2.1200   -31.9840 
   62.2500    70.0890     8.2420     7.3720     9.3020    23.1250     2.1370   -32.0150 
   62.3750    70.2720     8.3070     7.3710     9.5970    23.1020     2.1530   -32.0370 
   62.5000    68.8120     8.3190     7.3340     9.5370    23.0620     2.1580   -32.0520 
   62.6250    68.3650     8.2830     7.2790     9.4850    23.0180     2.1470   -32.0660 
   62.7500    71.1260     8.2260     7.2300     9.6820    22.9860     2.1310   -32.0800 
   62.8750    74.0660     8.1620     7.1980    10.0030    22.9800     2.1190   -32.1080 
   63.0000    73.5730     8.0980     7.1770    10.2800    23.0600     2.1180   -32.1330 
   63.1250    69.7770     8.0420     7.1430    10.3810    23.2720     2.1260   -32.1500 
   63.2500    68.2860     8.0010     7.0830    10.2900    23.4840     2.1350   -32.1700 
   63.3750    69.8300     7.9860     7.0020    10.0130    23.5600     2.1370   -32.1940 
   63.5000    71.8840     8.0030     6.9240     9.9390    23.5100     2.1330   -32.2190 
   63.6250    71.7660     8.0510     6.8880     9.8400    23.4860     2.1290   -32.2670 
   63.7500    69.5530     8.1100     6.9050     9.8810    23.5540     2.1320   -32.3570 
   63.8750    66.8290     8.1640     6.9660    10.1100    23.6990     2.1420   -32.4610 
   64.0000    65.1800     8.1970     7.0450    10.4770    23.9370     2.1540   -32.5680 
   64.1250    63.4280     8.2030     7.1080    10.7020    24.1790     2.1500   -32.6550 
   64.2500    61.1860     8.2140     7.1430    10.5860    24.3190     2.1230   -32.7180 
   64.3750    60.3410     8.2780     7.1680    10.2370    24.3370     2.0870   -32.7440 
   64.5000    60.7840     8.4270     7.2110     9.6950    24.3100     2.0700   -32.7460 
   64.6250    60.6680     8.6580     7.3000     9.4840    24.3050     2.1030   -32.7140 
   64.7500    60.9480     8.8830     7.4140    11.3540    24.2120     2.1740   -32.6430 
   64.8750    62.6850     9.0060     7.5080    16.6370    23.9490     2.2500   -32.5760 
   65.0000    64.9250     8.9570     7.5320    21.9680    23.6750     2.2980   -32.5400 
   65.1250    65.9600     8.7240     7.4440    14.3440    23.5930     2.2990   -32.5450 
   65.2500    66.6880     8.4420     7.2850    10.2820    23.6660     2.2770   -32.5740 
   65.3750    66.5080     8.2290     7.1110     8.9430    23.8350     2.2520   -32.6310 
   65.5000    64.9430     8.1610     6.9760     8.9040    24.0510     2.2300   -32.6930 
   65.6250    62.3520     8.2600     6.9270     9.2060    24.3300     2.2060   -32.7380 
   65.7500    61.6280     8.4220     6.9510     9.7980    24.4370     2.1810   -32.7670 
   65.8750    64.4580     8.5560     7.0200    10.1170    24.4920     2.1550   -32.7690 
   66.0000    68.7190     8.5960     7.0970    10.0430    24.6340     2.1310   -32.7430 
   66.1250    69.9340     8.5080     7.1440     9.7790    24.2570     2.1060   -32.6950 
   66.2500    68.8050     8.3440     7.1420     9.6020    24.0600     2.0790   -32.6340 
   66.3750    67.2260     8.1640     7.0880     9.4140    23.9920     2.0600   -32.5780 
   66.5000    67.0470     8.0250     6.9890     9.1320    23.9820     2.0600   -32.5370 
   66.6250    68.7480     7.9650     6.8650     8.6830    23.9110     2.0900   -32.5250 
   66.7500    69.6800     7.9510     6.7480     8.1240    23.7850     2.1340   -32.5280 
   66.8750    67.3810     7.9380     6.6560     7.6780    23.6730     2.1720   -32.5270 
   67.0000    63.4800     7.8920     6.5990     7.6510    23.6330     2.1840   -32.5010 
   67.1250    63.2990     7.8120     6.5780     8.0200    23.6960     2.1640   -32.4540 
