~V
VERS. 2.00: Ver 2.00
~W
STRT.M 56.0000:
STOP.M 261.0000:
STEP.M 0.1250:
NULL. -999.2500:
UWI. F10028:
~C
DEPT.M :
GR.API :
RML.OHMM :
RI. :
RXO.OHMM :
CALI.CM :
DEN.GM/CC :
SP.MV :
~A
# ...
  157.2500    86.4360     8.6970     8.4760     8.4130    24.1320     2.3160    -0.2530 
  157.3750    90.9510     8.0630     7.7120     8.3020    24.1560     2.3240    -0.3370 
  157.5000    92.5680     8.0460     7.5060     7.8120    24.2030     2.3340    -0.3960 
  157.6250    92.5070     8.4560     7.7710     7.7310    24.2550     2.3290    -0.4260 
  157.7500    89.5660     9.0770     8.3210     8.2470    24.3560     2.3090    -0.4330 
  157.8750    83.1740     9.8160     9.0750     9.3830    24.5190     2.2820    -0.4520 
  158.0000    76.5910    10.5700     9.9360    10.4780    24.6880     2.2600    -0.4640 
  158.1250    73.2150    11.1600    10.7360    11.4220    24.7870     2.2530    -0.4060 
  158.2500    72.1360    11.4630    11.2840    12.2140    24.8300     2.2560    -0.3230 
  158.3750    73.3860    11.4090    11.4360    12.1040    24.8280     2.2610    -0.2610 
  158.5000    77.4310    11.0100    11.1470    10.8920    24.7960     2.2600    -0.2110 
  158.6250    81.7210    10.3460    10.4680     9.9060    24.7870     2.2560    -0.1620 
  158.7500    84.8930     9.6290     9.6610     9.0300    24.8130     2.2550    -0.1010 
  158.8750    87.4900     9.0240     8.9130     8.2180    24.8230     2.2610     0.0140 
  159.0000    88.2700     8.6420     8.3470     7.8520    24.7900     2.2720     0.1480 
  159.1250    86.0220     8.5110     8.0120     7.5730    24.7480     2.2810     0.2130 
  159.2500    82.3270     8.4570     7.7860     7.7310    24.7010     2.2800     0.2210 
  159.3750    79.6350     8.3660     7.5970     8.5120    24.6150     2.2710     0.2260 
  159.5000    79.3960     8.2830     7.4790     9.0720    24.5600     2.2590     0.2720 
  159.6250    79.9780     8.5790     7.6700     8.7170    24.6420     2.2640     0.3790 
  159.7500    80.2670     9.7370     8.4480     8.3060    24.7140     2.2980     0.4800 
  159.8750    77.8690    12.3400    10.2490    10.9430    24.7240     2.3630     0.5130 
  160.0000    71.2550    16.9500    13.6600    20.3690    24.7060     2.4460     0.4910 
  160.1250    62.8700    24.2150    19.6010    45.1100    24.7150     2.5180     0.4740 
  160.2500    57.6300    32.6820    27.2030    56.9550    24.7180     2.5520     0.4350 
  160.3750    56.2190    39.3370    34.0710    53.1380    24.7200     2.5410     0.3530 
  160.5000    55.7790    40.8300    37.0330    50.6100    24.6840     2.4950     0.1990 
  160.6250    55.9170    36.8100    34.8730    42.7570    24.5700     2.4340    -0.0470 
  160.7500    57.1940    31.7530    31.0330    31.8460    24.3990     2.3840    -0.3180 
  160.8750    57.7030    27.8560    27.6020    24.9330    24.2750     2.3530    -0.5510 
  161.0000    56.2780    25.7690    25.4430    20.1350    24.1420     2.3460    -0.7280 
  161.1250    54.0860    25.7260    24.9790    23.5060    24.0560     2.3590    -0.8340 
  161.2500    54.3330    27.0890    25.8440    26.2350    23.9910     2.3830    -0.8340 
  161.3750    56.8310    29.2840    27.6710    27.5390    23.9630     2.4070    -0.7500 
  161.5000    58.1960    31.3540    29.7030    29.6210    23.9630     2.4200    -0.5760 
  161.6250    58.1140    31.5520    30.3140    30.7040    24.0240     2.4070    -0.3460 
  161.7500    58.8980    29.1510    28.4900    28.1980    24.1750     2.3720    -0.1410 
  161.8750    61.0950    24.6540    24.5130    22.5150    24.4180     2.3260    -0.0070 
  162.0000    64.7450    19.5770    19.8360    18.4940    24.6820     2.2860     0.0470 
  162.1250    70.3690    15.6290    16.0920    14.9750    24.8800     2.2710     0.0500 
  162.2500    74.7610    13.3030    13.7190    10.9590    24.9070     2.2790     0.0420 
  162.3750    74.5380    12.4980    12.6350     8.8050    24.8190     2.3030     0.0210 
  162.5000    71.6430    12.7670    12.5420    10.6290    24.7450     2.3280    -0.0710 
  162.6250    69.5930    13.5240    13.0880    17.0860    24.7260     2.3390    -0.2210 
  162.7500    68.3460    14.1820    13.7680    20.3980    24.7360     2.3400    -0.3650 
  162.8750    67.5000    14.6510    14.4160    18.1070    24.7480     2.3440    -0.4430 
  163.0000    67.5320    15.2400    15.1500    14.9830    24.7350     2.3720    -0.4580 
  163.1250    67.4690    16.6250    16.4250    17.1660    24.7160     2.4370    -0.4640 
  163.2500    64.3950    18.9810    18.4700    26.7730    24.6780     2.5160    -0.5200 
  163.3750    58.6540    22.0100    21.1940    36.9780    24.6090     2.5770    -0.6560 
  163.5000    53.7590    24.8530    23.9740    37.5120    24.5510     2.5960    -0.8570 
  163.6250    51.7290    26.0940    25.5000    31.3710    24.5340     2.5600    -1.1220 
  163.7500    51.5870    25.6080    25.3990    24.7010    24.5220     2.4990    -1.4240 
  163.8750    51.6060    24.1320    24.1970    21.3610    24.4420     2.4360    -1.7640 
  164.0000    51.9860    22.6390    22.7580    21.1170    24.3650     2.3890    -2.1200 
  164.1250    52.9250    21.7850    21.7400    21.1890    24.2910     2.3690    -2.4610 
  164.2500    52.9960    21.5010    21.2130    21.7050    24.2320     2.3720    -2.7350 
  164.3750    52.8180    21.6750    21.1360    20.6270    24.2090     2.3930    -2.8990 
  164.5000    54.3240    22.2610    21.4860    20.1060    24.2360     2.4240    -2.9230 
  164.6250    56.3020    23.3020    22.3000    20.6540    24.3520     2.4560    -2.8150 
  164.7500    55.1750    24.5810    23.3830    22.1640    24.5420     2.4820    -2.6200 
  164.8750    52.3160    25.7990    24.4880    24.2470    24.6850     2.4990    -2.3910 
  165.0000    52.3000    26.6290    25.3300    27.2200    24.7560     2.5070    -2.1650 
  165.1250    54.1380    26.7940    25.6500    30.4000    24.7550     2.5070    -1.9520 
  165.2500    54.2430    26.5310    25.5740    27.7270    24.7600     2.5030    -1.7470 
  165.3750    54.6190    26.1760    25.3270    23.5150    24.7930     2.5010    -1.5000 
  165.5000    56.8440    26.0450    25.1680    24.0600    24.8700     2.5040    -1.2050 
  165.6250    57.6740    26.2840    25.2660    28.2730    24.8470     2.5120    -0.8960 
  165.7500    55.4750    26.6440    25.4810    29.5970    24.7770     2.5180    -0.6350 
  165.8750    53.2150    26.8610    25.6160    28.1220    24.7300     2.5180    -0.4410 
  166.0000    52.3770    26.7780    25.5340    26.7160    24.7190     2.5090    -0.3060 
  166.1250    51.5820    26.4210    25.2320    24.3470    24.7280     2.4970    -0.1860 
  166.2500    49.7590    26.0610    24.9180    22.8510    24.7230     2.4940    -0.0590 
  166.3750    48.3100    25.8910    24.7590    23.5140    24.6500     2.5030     0.0420 
  166.5000    48.6060    25.9750    24.8280    27.0030    24.5140     2.5230     0.0870 
  166.6250    49.7950    26.2460    25.0900    30.7660    24.5020     2.5420     0.1010 
  166.7500    49.4040    26.5120    25.3770    31.9500    24.5560     2.5530     0.1200 
  166.8750    46.5220    26.6850    25.5920    29.9930    24.5940     2.5540     0.1700 
  167.0000    43.7680    26.7610    25.7070    29.0330    24.6050     2.5530     0.2380 
  167.1250    43.9730    26.8130    25.7650    28.5440    24.6180     2.5560     0.2930 
  167.2500    45.0100    26.9230    25.8510    27.8010    24.6280     2.5610     0.3340 
  167.3750    45.1650    27.0760    25.9800    27.7000    24.6740     2.5650     0.3620 
  167.5000    45.1490    27.1470    26.0650    28.5690    24.7250     2.5660     0.4120 
  167.6250    46.6820    26.9340    25.9170    29.4790    24.6800     2.5660     0.5010 
  167.7500    48.1390    26.4650    25.5240    28.6220    24.5850     2.5690     0.6090 
  167.8750    47.7050    25.8860    24.9860    27.3840    24.5550     2.5740     0.7380 
  168.0000    45.9990    25.4050    24.4760    27.0270    24.6040     2.5780     0.9290 
  168.1250    45.2030    25.2880    24.2190    25.6480    24.7100     2.5800     1.1750 
  168.2500    45.1670    25.6020    24.3000    25.8460    24.8290     2.5820     1.4150 
  168.3750    45.6300    26.2950    24.7140    27.7920    24.8870     2.5880     1.6080 
