~V
VERS. 2.00: Ver 2.00
~W
STRT.M 60.0000:
STOP.M 271.0000:
STEP.M 0.1250:
NULL. -999.2500:
UWI. F10035:
~C
DEPT.M :
GR.API :
RML.OHMM :
RI. :
RXO.OHMM :
CALI.CM :
DEN.GM/CC :
SP.MV :
~A
# ...
   82.5000    98.2370     5.1970     4.3350     4.6780    24.9600     2.2970    -1.1190 
   82.6250    93.9230     5.3930     4.4820     4.8100    24.9360     2.2930    -0.0930 
   82.7500    91.9860     5.7020     4.7140     5.0070    24.8680     2.2970     0.4900 
   82.8750    87.9370     6.1650     5.0460     5.3650    24.7930     2.3060     0.6520 
   83.0000    81.0390     6.7710     5.4810     5.9780    24.7070     2.3120     0.5020 
   83.1250    75.6730     7.3890     5.9640     6.4390    24.5910     2.3080     0.2310 
   83.2500    72.8500     7.8400     6.3750     6.8940    24.4560     2.2980    -0.0600 
   83.3750    72.1470     8.0250     6.6260     8.3840    24.2520     2.2870    -0.4100 
   83.5000    73.7870     7.9400     6.6760    10.9380    24.0020     2.2830    -0.8080 
   83.6250    76.0230     7.6670     6.5270     9.1260    23.9700     2.2970    -1.2280 
   83.7500    76.9240     7.4050     6.3100     7.0980    23.9960     2.3280    -1.6420 
   83.8750    77.4030     7.2800     6.1320     6.9640    23.9140     2.3660    -2.0120 
   84.0000    78.2870     7.3560     6.0700     7.5920    23.7350     2.3950    -2.3510 
   84.1250    77.1460     7.7110     6.1940     6.4550    23.5670     2.3920    -2.7910 
   84.2500    73.3350     8.2830     6.4740     6.3420    23.4390     2.3610    -3.3860 
   84.3750    68.1130     8.9140     6.8230     7.4100    23.3760     2.3150    -4.0620 
   84.5000    65.4380     9.3450     7.0950     8.8250    23.4070     2.2690    -4.7380 
   84.6250    66.4050     9.3170     7.1430     8.8180    23.4840     2.2350    -5.3210 
   84.7500    67.0810     9.0190     7.0530     8.1910    23.5210     2.2100    -5.7820 
   84.8750    66.4480     8.8280     7.0070     7.4550    23.5670     2.1990    -6.1610 
   85.0000    66.7430     9.1940     7.2300     6.9480    23.7100     2.2090    -6.4420 
   85.1250    67.5400    10.5850     8.0180     7.5040    23.8930     2.2560    -6.5800 
   85.2500    66.3120    12.7730     9.3510     9.4940    23.9680     2.3270    -6.6520 
   85.3750    64.3080    15.2060    11.0070    12.9470    24.0080     2.3970    -6.7150 
   85.5000    63.0460    16.9440    12.4200    16.9630    24.1090     2.4360    -6.9810 
   85.6250    60.3870    16.8320    12.7130    15.9570    24.1800     2.4200    -7.7180 
   85.7500    57.1330    15.3050    11.9670    13.2100    24.0950     2.3630    -8.7960 
   85.8750    56.9130    13.2950    10.7250    11.6060    23.9040     2.2880   -10.0450 
   86.0000    61.1750    11.6290     9.5410    11.0840    23.7290     2.2190   -11.3530 
   86.1250    64.3870    10.7670     8.7610    10.8250    23.5820     2.1720   -12.6690 
   86.2500    64.2860    10.5000     8.3420    10.6680    23.4980     2.1440   -13.8830 
   86.3750    63.5220    10.5930     8.1890    10.6500    23.5140     2.1310   -14.9590 
   86.5000    63.8040    10.7940     8.1780    10.9960    23.5850     2.1250   -15.7910 
   86.6250    63.7060    10.9110     8.1970    11.0230    23.6190     2.1260   -16.1460 
   86.7500    61.8300    10.9260     8.1830    10.8500    23.6260     2.1280   -16.1170 
   86.8750    60.5380    10.8920     8.1320    10.4750    23.6010     2.1310   -15.8780 
   87.0000    60.2040    10.8430     8.0550     9.9730    23.5230     2.1300   -15.5520 
   87.1250    60.9650    10.7340     7.9460    10.0060    23.4240     2.1250   -15.1420 
   87.2500    63.2260    10.5100     7.7860    10.2680    23.4190     2.1210   -14.6580 
   87.3750    65.5570    10.1520     7.5590    10.4840    23.4540     2.1250   -14.0840 
   87.5000    66.5710     9.7180     7.2770     9.9810    23.4220     2.1430   -13.3870 
   87.6250    66.3630     9.3530     7.0110     8.8820    23.3650     2.1740   -12.7330 
   87.7500    66.0010     9.1850     6.8540     8.0790    23.4550     2.2060   -12.3010 
   87.8750    63.9970     9.2750     6.8610     7.9270    23.6470     2.2240   -12.1200 
   88.0000    59.4330     9.6160     7.0450     8.5050    23.9170     2.2220   -12.2030 
   88.1250    54.8630    10.1250     7.3730    10.0450    24.2350     2.1980   -12.5670 
   88.2500    54.1170    10.5870     7.7120    11.2820    24.3940     2.1680   -13.1570 
   88.3750    56.5450    10.8340     7.9530    11.4430    24.4670     2.1380   -14.0020 
   88.5000    59.1270    10.7920     8.0210    10.8060    24.5160     2.1140   -15.0680 
   88.6250    58.8470    10.4870     7.8940    10.4870    24.3920     2.0970   -16.1670 
   88.7500    58.0660    10.1020     7.6710    10.4970    23.9880     2.0850   -17.1190 
   88.8750    58.7420     9.7590     7.4350    10.4470    23.5040     2.0790   -17.9100 
   89.0000    58.7550     9.5390     7.2550    10.0390    23.3560     2.0800   -18.5370 
   89.1250    56.6180     9.5100     7.1910     9.6400    23.6520     2.0890   -18.9930 
   89.2500    55.7610     9.6510     7.2360     9.4050    24.1740     2.1030   -19.2880 
   89.3750    57.2800     9.9290     7.3720     9.4610    24.6130     2.1160   -19.3620 
   89.5000    58.7770    10.2530     7.5530     9.8690    24.8780     2.1280   -19.2850 
   89.6250    58.8980    10.4770     7.7070    10.3660    25.0180     2.1370   -19.2310 
   89.7500    59.2220    10.5290     7.7810    10.7400    25.1480     2.1450   -19.2910 
   89.8750    58.7080    10.4110     7.7630    11.3040    25.2380     2.1520   -19.4090 
   90.0000    56.0430    10.1800     7.6760    11.9870    25.2800     2.1540   -19.5180 
   90.1250    54.2630     9.9120     7.5590    12.5260    25.3020     2.1480   -19.5190 
   90.2500    54.8250     9.6810     7.4600    11.7130    25.3580     2.1340   -19.4700 
   90.3750    55.8710     9.5580     7.4170    10.9940    25.3940     2.1150   -19.4160 
   90.5000    55.3270     9.6440     7.4820    10.6260    25.3500     2.1010   -19.2970 
   90.6250    53.5160    10.0350     7.7110    10.3980    25.2200     2.1010   -18.9680 
   90.7500    52.2950    10.5630     8.0230    10.2170    25.1080     2.1130   -18.2950 
   90.8750    52.2920    10.9430     8.2630    10.2060    25.0370     2.1340   -17.2050 
   91.0000    53.8760    10.8350     8.2230    10.1090    24.8840     2.1580   -15.6840 
   91.1250    58.6650     9.9300     7.6750     8.9900    24.6400     2.1820   -13.7650 
   91.2500    67.1310     8.5680     6.7920     6.9410    24.5770     2.2070   -11.6190 
   91.3750    77.7860     7.2030     5.8380     5.5570    24.7360     2.2350    -9.3700 
   91.5000    86.6070     6.2120     5.0540     5.0150    24.8800     2.2640    -7.1660 
   91.6250    88.7460     5.8290     4.6130     4.6810    24.9030     2.2860    -5.1430 
   91.7500    86.6260     5.9060     4.4740     4.6890    24.8840     2.2960    -3.4520 
   91.8750    82.7390     6.2740     4.5780     5.3460    24.8480     2.2950    -2.2050 
   92.0000    79.5560     6.7070     4.8210     6.0210    24.8140     2.2900    -1.4420 
   92.1250    78.3750     6.9790     5.0770     6.2360    24.8090     2.2880    -1.2010 
   92.2500    78.7240     7.0830     5.2800     6.1760    24.7820     2.2890    -1.3010 
   92.3750    79.7690     7.1440     5.4620     6.0970    24.6680     2.2820    -1.7340 
   92.5000    80.4170     7.3300     5.6900     6.3480    24.4420     2.2600    -2.4710 
   92.6250    78.7890     7.7830     6.0480     6.9060    24.2120     2.2260    -3.4550 
   92.7500    74.2630     8.4200     6.5150     7.3860    24.0660     2.2030    -4.5040 
   92.8750    68.6520     9.0830     7.0100     7.6950    23.9920     2.2040    -5.4780 
   93.0000    65.6150     9.5930     7.4130     7.8830    23.9170     2.2240    -6.3590 
   93.1250    65.3500     9.8050     7.5900     7.6230    23.8390     2.2390    -7.2530 
   93.2500    66.4040     9.7920     7.5620     7.4220    23.7810     2.2310    -8.1860 
   93.3750    67.8030     9.5950     7.3550     7.6390    23.7600     2.2000    -8.9850 
   93.5000    68.0550     9.1880     6.9740     8.2820    23.7770     2.1680    -9.4450 
   93.6250    68.0230     8.4530     6.3900     8.5360    23.8500     2.1580    -9.3850 
