~V
VERS. 2.00: Ver 2.00
~W
STRT.M 56.0000:
STOP.M 312.0000:
STEP.M 0.1250:
NULL. -999.2500:
UWI. F10077:
~C
DEPT.M :
GR.API :
RML.OHMM :
RI. :
RXO.OHMM :
CALI.CM :
DEN.GM/CC :
SP.MV :
~A
# ...
   67.2500    73.2850    11.8630     9.8330    11.8200    23.4810     2.0400   -26.2780 
   67.3750    72.4190    11.9200     9.8180    12.1600    23.5700     2.0390   -26.3420 
   67.5000    70.6850    12.0920     9.8970    12.4750    23.6240     2.0490   -26.3750 
   67.6250    68.5840    12.3050    10.0330    12.8690    23.6910     2.0650   -26.4310 
   67.7500    67.8190    12.4770    10.1630    13.6950    23.7450     2.0760   -26.5340 
   67.8750    68.2720    12.6010    10.2710    14.3030    23.7810     2.0800   -26.6740 
   68.0000    69.5960    12.7330    10.3800    14.5230    23.7890     2.0800   -26.8200 
   68.1250    70.2820    12.9630    10.5430    13.9430    23.7650     2.0830   -26.9380 
   68.2500    70.0670    13.2860    10.7610    13.6290    23.7440     2.0950   -27.0280 
   68.3750    69.2330    13.6190    10.9890    13.9980    23.7290     2.1190   -27.1020 
   68.5000    69.0640    13.8100    11.1320    15.3090    23.7390     2.1470   -27.1490 
   68.6250    68.9200    13.6490    11.0430    16.3610    23.7480     2.1640   -27.1820 
   68.7500    67.2150    13.1530    10.7160    15.4370    23.7500     2.1600   -27.1930 
   68.8750    66.2030    12.4410    10.2200    14.1840    23.7480     2.1330   -27.1590 
   69.0000    67.4830    11.7050     9.6760    13.4660    23.7460     2.0950   -27.1440 
   69.1250    70.2310    11.1850     9.2450    12.9410    23.7410     2.0650   -27.2080 
   69.2500    71.0090    10.9890     9.0170    12.9640    23.7240     2.0520   -27.2730 
   69.3750    69.2870    11.1280     9.0200    13.1880    23.7010     2.0580   -27.3000 
   69.5000    66.9880    11.5060     9.2170    12.9700    23.6860     2.0750   -27.2700 
   69.6250    65.0580    11.9190     9.4940    12.0350    23.6800     2.0950   -27.1490 
   69.7500    62.0410    12.1240     9.6700    11.4150    23.6660     2.1080   -27.0370 
   69.8750    57.6530    11.9630     9.6110    11.1230    23.6300     2.1090   -27.0150 
   70.0000    56.2780    11.4170     9.2690    11.0320    23.5920     2.1030   -27.0780 
   70.1250    59.5900    10.6160     8.7040    11.0950    23.5890     2.0940   -27.1810 
   70.2500    60.7230     9.8360     8.1080    11.3900    23.6020     2.0920   -27.3390 
   70.3750    57.5000     9.2440     7.5990    11.8590    23.6070     2.0980   -27.5670 
   70.5000    55.6860     8.9150     7.2470    12.1830    23.6300     2.1130   -27.8520 
   70.6250    59.5430     8.8540     7.0800    12.0790    23.6640     2.1320   -28.1910 
   70.7500    61.7090     8.9080     7.0230    11.8230    23.6780     2.1500   -28.5500 
   70.8750    58.4230     8.9730     7.0110    11.7380    23.6800     2.1620   -28.9370 
   71.0000    55.1650     8.9800     6.9960    12.0940    23.6870     2.1670   -29.3240 
   71.1250    57.8280     8.9130     6.9480    12.1400    23.7290     2.1660   -29.6730 
   71.2500    61.4750     8.8190     6.8810    11.3940    23.8190     2.1620   -30.0190 
   71.3750    62.2080     8.7450     6.8160    10.8960    23.9250     2.1590   -30.3900 
   71.5000    61.3750     8.7280     6.7740    11.0030    23.9910     2.1570   -30.8080 
   71.6250    60.3030     8.7840     6.7700    12.9720    24.0510     2.1510   -31.2330 
   71.7500    57.8040     8.8790     6.7900    16.3300    24.0810     2.1410   -31.5960 
   71.8750    54.7750     8.9710     6.8100    15.2300    24.0010     2.1320   -31.8310 
   72.0000    53.4880     9.0240     6.8080    12.3250    23.8240     2.1280   -31.9230 
   72.1250    53.9740     9.0090     6.7650    10.7030    23.6960     2.1360   -31.8750 
   72.2500    55.6060     8.9370     6.6880    10.5550    23.6180     2.1520   -31.7060 
   72.3750    57.9980     8.8180     6.5850    10.3890    23.5710     2.1700   -31.4300 
   72.5000    59.8490     8.6590     6.4670    10.1140    23.5530     2.1820   -31.0710 
   72.6250    59.7420     8.5010     6.3610     9.8200    23.5410     2.1800   -30.6610 
   72.7500    58.5120     8.4400     6.3230     9.6840    23.5070     2.1680   -30.2090 
   72.8750    57.4390     8.5800     6.4190     9.7760    23.4590     2.1550   -29.7120 
   73.0000    57.2780     8.9760     6.6890    10.1340    23.4260     2.1560   -29.2310 
   73.1250    57.3470     9.6160     7.1470    10.3220    23.4220     2.1830   -28.8090 
   73.2500    56.9290    10.3030     7.6760    10.5290    23.4640     2.2220   -28.4650 
   73.3750    56.0840    10.8190     8.1280    10.7380    23.5620     2.2520   -28.2020 
   73.5000    54.9900    10.9480     8.3250    10.7790    23.6550     2.2560   -27.9350 
   73.6250    53.8850    10.5140     8.0910    10.8830    23.7080     2.2300   -27.5320 
   73.7500    55.2230     9.7180     7.5440    10.8560    23.7270     2.2000   -26.9350 
   73.8750    59.8370     8.7850     6.8420    10.6760    23.6920     2.1880   -26.1030 
   74.0000    65.9870     7.9410     6.1550     9.9480    23.6070     2.2040   -24.9630 
   74.1250    69.9900     7.3870     5.6330     8.4900    23.5980     2.2450   -23.5100 
   74.2500    72.2810     7.1190     5.2990     6.9840    23.6960     2.2920   -21.8890 
   74.3750    73.7820     7.0930     5.1470     6.3070    23.8190     2.3280   -20.1870 
   74.5000    74.4620     7.2280     5.1410     6.4820    23.8120     2.3430   -18.5300 
   74.6250    74.7740     7.4100     5.2310     6.7520    23.6180     2.3350   -17.0980 
   74.7500    75.4470     7.5200     5.3290     6.7020    23.4120     2.3140   -15.9510 
   74.8750    76.1960     7.5320     5.3990     6.6780    23.3800     2.2900   -15.1710 
   75.0000    75.3490     7.5170     5.4580     6.8860    23.5280     2.2700   -14.7790 
   75.1250    72.2600     7.6260     5.5760     7.0240    23.8730     2.2610   -14.8050 
   75.2500    69.0610     7.9100     5.7920     7.0350    24.1830     2.2600   -15.1710 
   75.3750    66.3510     8.3050     6.0830     7.7300    24.1850     2.2620   -15.7650 
   75.5000    63.7520     8.6530     6.3690     8.7280    23.9750     2.2610   -16.4210 
   75.6250    61.6270     8.7240     6.5040     8.9010    23.8280     2.2500   -16.9570 
   75.7500    61.3120     8.4980     6.4420     8.8180    23.8070     2.2320   -17.2780 
   75.8750    63.3240     8.0980     6.2320     8.1180    23.8610     2.2140   -17.4140 
   76.0000    66.1890     7.7510     5.9960     7.3040    23.8380     2.1980   -17.4980 
   76.1250    67.0380     7.7290     5.8930     7.5130    23.6550     2.1860   -17.5690 
   76.2500    66.3320     8.0460     5.9700     8.1600    23.4450     2.1780   -17.5580 
   76.3750    65.0850     8.5690     6.1860     9.2180    23.2960     2.1780   -17.4440 
   76.5000    63.1670     9.0300     6.4160    10.0290    23.1710     2.1880   -17.2670 
   76.6250    61.2620     9.0490     6.4320    10.1100    23.1240     2.2100   -17.0720 
   76.7500    61.4860     8.5990     6.1710     9.1920    23.1600     2.2330   -16.9100 
   76.8750    65.5170     7.8850     5.7260     7.8810    23.2790     2.2480   -16.7730 
   77.0000    72.7370     7.2250     5.2730     6.2930    23.4310     2.2500   -16.6410 
   77.1250    77.8590     6.9400     4.9960     5.9640    23.5690     2.2420   -16.5910 
   77.2500    76.6350     7.0540     4.9430     6.4390    23.6010     2.2300   -16.6760 
   77.3750    71.6070     7.4830     5.1040     7.7910    23.4750     2.2190   -16.9300 
   77.5000    67.2390     8.0440     5.4190     9.4160    23.2470     2.2080   -17.3270 
   77.6250    65.2300     8.4660     5.7670    10.0910    23.1010     2.1930   -17.8550 
   77.7500    63.3020     8.6260     6.0310    10.1820    23.0880     2.1720   -18.4890 
   77.8750    60.7440     8.6210     6.2050    10.1290    23.1850     2.1500   -19.1730 
   78.0000    57.6510     8.7360     6.3970    10.1040    23.3850     2.1320   -19.7770 
   78.1250    54.2520     9.3570     6.8060    10.1670    23.5780     2.1330   -20.0790 
   78.2500    54.3020    10.4640     7.4800    10.9420    23.6540     2.1670   -19.9810 
   78.3750    58.2360    11.7680     8.3200    14.2160    23.6690     2.2430   -19.4240 
