~V
VERS. 2.00: Ver 2.00
~W
STRT.M 50.0000:
STOP.M 325.0000:
STEP.M 0.1250:
NULL. -999.2500:
UWI. F10039:
~C
DEPT.M :
GR.API :
RML.OHMM :
RI. :
RXO.OHMM :
CALI.CM :
DEN.GM/CC :
SP.MV :
~A
# ...
  140.0000    80.7050     7.8420     7.0800     7.1730    23.5450     2.2660   -28.8740 
  140.1250    76.7850     7.4360     6.4800     8.3990    23.3890     2.2550   -29.2080 
  140.2500    75.3410     7.8020     6.4220     8.9200    23.2870     2.2680   -29.4200 
  140.3750    74.3930     8.6120     6.8120     8.9080    23.2020     2.3000   -29.4810 
  140.5000    73.2930     9.5030     7.4850     8.8900    23.1460     2.3380   -29.3620 
  140.6250    74.0730    10.0670     8.1580    10.4160    23.1450     2.3610   -29.0600 
  140.7500    78.0250    10.1610     8.5290    12.3570    23.1790     2.3580   -28.6360 
  140.8750    85.1880     9.8090     8.4500    11.0430    23.2570     2.3370   -28.1480 
  141.0000    91.8440     9.1600     7.9480     7.6170    23.3720     2.3110   -27.6360 
  141.1250    93.6220     8.4130     7.2050     6.3700    23.3290     2.2940   -27.1870 
  141.2500    92.1350     7.7630     6.5150     6.3820    23.0200     2.2850   -26.8180 
  141.3750    91.6200     7.3000     6.0370     6.6930    22.6720     2.2790   -26.5360 
  141.5000    93.9370     7.0550     5.8240     6.5620    22.4830     2.2770   -26.3420 
  141.6250    97.8910     7.0430     5.8570     6.3010    22.4250     2.2860   -26.2430 
  141.7500    99.1280     7.1830     5.9990     6.5140    22.3630     2.3080   -26.2050 
  141.8750    98.2030     7.4200     6.1820     6.7730    22.3180     2.3350   -26.2040 
  142.0000    97.0480     7.6960     6.3810     7.0390    22.2980     2.3540   -26.2330 
  142.1250    95.2470     7.9220     6.5940     8.0340    22.3720     2.3510   -26.2790 
  142.2500    91.9680     8.0200     6.7950     8.9830    22.5120     2.3310   -26.3490 
  142.3750    90.0610     7.9460     6.9240     8.0750    22.6030     2.3060   -26.4330 
  142.5000    91.4580     7.7210     6.9130     6.9230    22.6250     2.2900   -26.5320 
  142.6250    94.5260     7.4210     6.7120     6.4040    22.6850     2.2870   -26.6410 
  142.7500    98.0480     7.1430     6.3990     6.5020    22.8190     2.2910   -26.7340 
  142.8750   100.8260     6.9250     6.0670     6.7480    22.9940     2.2980   -26.8040 
  143.0000   100.2950     6.7740     5.8110     6.8300    23.2110     2.3060   -26.8620 
  143.1250    96.4710     6.7000     5.7180     6.4940    23.3840     2.3120   -26.8850 
  143.2500    94.1090     6.6970     5.7630     6.1550    23.4370     2.3150   -26.8990 
  143.3750    95.3230     6.7660     5.8930     6.1210    23.3620     2.3140   -26.9220 
  143.5000    97.3310     6.8850     6.0350     6.1370    23.2470     2.3110   -26.9600 
  143.6250    99.5490     7.0010     6.1080     6.4230    23.1860     2.3100   -27.0200 
  143.7500   102.2530     7.0570     6.0940     6.7580    23.1600     2.3130   -27.1010 
  143.8750   102.2370     7.0340     6.0090     7.1950    23.1610     2.3180   -27.1910 
  144.0000    97.9070     6.9530     5.9030     7.3350    23.1450     2.3290   -27.2600 
  144.1250    93.3460     6.8970     5.8600     7.5190    23.1280     2.3520   -27.3150 
  144.2500    94.1180     6.9590     5.9270     6.8460    23.1160     2.3870   -27.3610 
  144.3750    96.9890     7.1930     6.1230     6.5800    23.1280     2.4260   -27.4020 
  144.5000    96.2840     7.6000     6.4310     7.0350    23.2080     2.4530   -27.4620 
  144.6250    93.6540     8.1220     6.8050     9.0000    23.4080     2.4470   -27.5460 
  144.7500    93.4460     8.5950     7.1520    11.2190    23.6120     2.4140   -27.6690 
  144.8750    95.4380     8.8760     7.3930    10.5790    23.6390     2.3680   -27.8660 
  145.0000    97.6920     8.8830     7.4760     8.8040    23.4190     2.3250   -28.1460 
  145.1250    98.7720     8.6060     7.3710     7.8780    23.1080     2.3000   -28.4940 
  145.2500    98.0640     8.2190     7.1580     7.5130    22.8550     2.2860   -28.8360 
  145.3750    95.8580     7.8540     6.9030     7.1780    22.6830     2.2790   -29.1460 
  145.5000    92.6770     7.6070     6.6720     7.0690    22.5770     2.2730   -29.4280 
  145.6250    92.0100     7.5400     6.5320     7.0180    22.4800     2.2690   -29.6770 
  145.7500    94.0750     7.6000     6.4980     6.9010    22.3400     2.2660   -29.8740 
  145.8750    95.5650     7.7340     6.5670     6.7440    22.2180     2.2650   -29.9840 
  146.0000    94.5250     7.8870     6.7110     6.6440    22.2040     2.2630   -30.0140 
  146.1250    91.6970     8.0010     6.8720     6.6350    22.2400     2.2570   -29.9760 
  146.2500    88.4290     8.0570     6.9780     6.7250    22.3050     2.2470   -29.9320 
  146.3750    84.5790     8.0640     6.9830     6.8380    22.3990     2.2340   -29.8930 
  146.5000    81.8380     8.0340     6.8660     6.9780    22.5000     2.2230   -29.8320 
  146.6250    81.8560     7.9670     6.6320     7.2160    22.6060     2.2180   -29.7490 
  146.7500    82.2740     7.8720     6.3610     7.4190    22.7560     2.2280   -29.6640 
  146.8750    83.3430     7.7990     6.1430     7.5710    22.9680     2.2570   -29.5830 
  147.0000    84.3790     7.8710     6.0990     7.6150    23.1700     2.3110   -29.4960 
  147.1250    83.4340     8.3810     6.4490     7.8810    23.3000     2.3900   -29.3850 
  147.2500    81.3970     9.4960     7.2940     9.0660    23.3930     2.4810   -29.2370 
  147.3750    78.3180    11.2780     8.6980    11.3680    23.4870     2.5680   -29.0890 
  147.5000    74.4210    13.5150    10.5550    14.3680    23.6170     2.6320   -28.9660 
  147.6250    71.3220    15.4920    12.4020    16.2440    23.7610     2.6450   -28.9030 
  147.7500    69.5440    16.4050    13.5430    15.9330    23.8250     2.6060   -28.8960 
  147.8750    68.7560    15.8790    13.5420    13.0590    23.7020     2.5280   -28.9200 
  148.0000    70.0740    14.1770    12.4460    10.3440    23.4960     2.4340   -28.9720 
  148.1250    74.8810    12.0520    10.7360     9.2540    23.3370     2.3550   -29.0750 
  148.2500    77.6660    10.2740     9.1250     8.9320    23.2260     2.3030   -29.2020 
  148.3750    75.7370     9.0880     7.9330     8.7430    23.0770     2.2750   -29.2820 
  148.5000    72.0250     8.4670     7.2610     8.6400    22.9030     2.2620   -29.2600 
  148.6250    71.1510     8.2880     7.1110     8.7610    22.8690     2.2600   -29.0690 
  148.7500    73.4350     8.2770     7.2240     8.9590    22.9300     2.2650   -28.7260 
  148.8750    77.2500     8.2790     7.4000     8.7570    23.0710     2.2750   -28.2410 
  149.0000    80.4660     8.1980     7.4640     8.0530    23.2110     2.2850   -27.6240 
  149.1250    83.3470     7.9810     7.2890     7.2270    23.4170     2.2880   -26.8940 
  149.2500    85.6570     7.6710     6.9280     6.4940    23.6970     2.2870   -26.1320 
  149.3750    87.1170     7.3040     6.4640     6.1510    23.9830     2.2910   -25.4080 
  149.5000    88.6970     6.9190     5.9850     6.0420    24.2200     2.3090   -24.7620 
  149.6250    92.2250     6.5480     5.5720     5.9600    24.3260     2.3390   -24.2410 
  149.7500    95.6850     6.1990     5.2390     5.7390    24.3480     2.3650   -23.8290 
  149.8750    99.2750     5.8790     4.9830     5.5220    24.3370     2.3750   -23.5540 
  150.0000   103.6380     5.6190     4.8020     5.5350    24.3190     2.3700   -23.4200 
  150.1250   104.9990     5.5720     4.7720     5.4320    24.2700     2.3720   -23.4020 
  150.2500    99.1870     5.9370     5.0120     5.6620    24.1440     2.4040   -23.4170 
  150.3750    89.7100     6.9630     5.7120     6.6020    23.9510     2.4680   -23.4140 
  150.5000    81.9100     8.8120     7.0510     9.3700    23.7860     2.5470   -23.3900 
  150.6250    78.0710    11.3760     9.1100    15.7320    23.8950     2.6030   -23.3370 
  150.7500    79.6050    13.6940    11.2470    24.3050    24.0090     2.6140   -23.2650 
  150.8750    86.3940    14.6750    12.5670    24.4050    24.0550     2.5820   -23.1750 
  151.0000    95.9910    13.7000    12.3660    15.5800    24.0790     2.5240   -23.0670 
  151.1250   104.6690    11.1350    10.6190     7.9370    24.1550     2.4690   -22.9570 
