~V
VERS. 2.00: Ver 2.00
~W
STRT.M 56.0000:
STOP.M 269.0000:
STEP.M 0.1250:
NULL. -999.2500:
UWI. F10026:
~C
DEPT.M :
GR.API :
RML.OHMM :
RI. :
RXO.OHMM :
CALI.CM :
DEN.GM/CC :
SP.MV :
~A
# ...
  146.0000    62.9800    23.9420    23.4690    23.7490    24.2430     2.1500   -20.6920 
  146.1250    61.8940    24.3980    24.0490    23.8600    24.3950     2.1190   -20.6330 
  146.2500    60.4350    25.2510    25.0330    24.9370    24.7140     2.1120   -20.5990 
  146.3750    58.6940    26.4780    26.3800    26.3210    24.8890     2.1500   -20.5840 
  146.5000    56.7090    27.8770    27.8860    26.3540    24.8510     2.2270   -20.5860 
  146.6250    55.3510    29.0250    29.1390    25.9000    24.5620     2.3000   -20.6440 
  146.7500    55.1160    29.5870    29.8140    25.7250    24.4850     2.3260   -20.7320 
  146.8750    55.3480    29.4290    29.7680    26.6370    24.6380     2.2960   -20.8430 
  147.0000    56.4240    28.6380    29.0680    27.1580    24.7800     2.2330   -20.9570 
  147.1250    59.5530    27.4370    27.8890    26.9850    24.7580     2.1740   -21.0610 
  147.2500    63.9930    26.1790    26.5710    26.8520    24.7110     2.1390   -21.1370 
  147.3750    66.9990    25.0420    25.2970    26.7070    24.6720     2.1260   -21.1760 
  147.5000    66.4130    24.1100    24.1800    25.4010    24.6420     2.1290   -21.1760 
  147.6250    65.3600    23.4400    23.3190    23.3290    24.6190     2.1390   -21.1220 
  147.7500    65.9200    23.0020    22.7200    22.3510    24.6250     2.1480   -21.0710 
  147.8750    65.5030    22.8170    22.4260    23.0180    24.6270     2.1490   -21.0290 
  148.0000    63.0380    22.9300    22.4860    23.4550    24.5870     2.1440   -20.9790 
  148.1250    62.5380    23.4680    23.0100    22.9850    24.4850     2.1370   -20.9130 
  148.2500    64.2610    24.4260    23.9410    23.9460    24.4260     2.1350   -20.8870 
  148.3750    63.9170    25.7580    25.2150    25.5250    24.4240     2.1390   -20.9330 
  148.5000    60.7290    27.2680    26.6510    26.7710    24.4690     2.1490   -21.0320 
  148.6250    59.4370    28.5080    27.8650    29.2270    24.5260     2.1590   -21.1810 
  148.7500    61.5110    29.0960    28.5170    29.7830    24.4840     2.1660   -21.3030 
  148.8750    63.6620    28.8830    28.4540    28.6040    24.3750     2.1660   -21.3930 
  149.0000    63.9810    28.0250    27.7900    26.4670    24.3050     2.1620   -21.4950 
  149.1250    63.1360    26.9190    26.8520    25.2760    24.3040     2.1580   -21.6610 
  149.2500    62.2690    26.0100    26.0480    25.6500    24.3160     2.1590   -21.8510 
  149.3750    62.5300    25.4650    25.5420    28.2130    24.3040     2.1610   -22.0510 
  149.5000    63.7980    25.2610    25.3300    30.0040    24.3340     2.1600   -22.2620 
  149.6250    64.6840    25.2610    25.2850    28.3110    24.3840     2.1520   -22.4800 
  149.7500    65.1550    25.2420    25.2050    26.4760    24.4050     2.1420   -22.7250 
  149.8750    65.2980    25.0810    24.9740    25.9000    24.4070     2.1370   -22.9980 
  150.0000    65.2940    24.7080    24.5340    25.7280    24.3700     2.1450   -23.3170 
  150.1250    64.5710    24.0560    23.8350    25.5040    24.3200     2.1620   -23.6740 
  150.2500    65.1920    23.1860    22.9390    24.2560    24.2460     2.1810   -24.0030 
  150.3750    67.1700    22.1750    21.9110    22.8470    24.2070     2.1950   -24.2770 
  150.5000    68.7080    21.1580    20.8590    20.5970    24.1750     2.2020   -24.5120 
  150.6250    68.2990    20.3420    19.9600    17.5290    24.1090     2.2030   -24.6940 
  150.7500    65.9750    19.8070    19.3100    16.5180    24.0370     2.2010   -24.8860 
  150.8750    63.9140    19.5330    18.9350    16.9660    23.9890     2.1940   -25.1010 
  151.0000    65.3090    19.4110    18.7970    17.7200    23.9470     2.1830   -25.2980 
  151.1250    69.7800    19.2990    18.8250    17.7560    23.9050     2.1690   -25.4270 
  151.2500    73.1400    19.1290    18.9070    17.2310    23.8120     2.1570   -25.5200 
  151.3750    74.0890    18.9590    19.0190    16.7920    23.7060     2.1460   -25.5890 
  151.5000    73.0780    18.8870    19.1740    16.7950    23.6360     2.1380   -25.6620 
  151.6250    71.0130    18.9440    19.3580    17.2500    23.6260     2.1300   -25.7780 
  151.7500    70.0600    18.9090    19.4030    17.8900    23.6750     2.1260   -25.8940 
  151.8750    72.8120    18.4630    19.0420    18.2980    23.7560     2.1310   -25.9770 
  152.0000    80.4480    17.3430    18.0270    18.6160    23.8170     2.1500   -26.0210 
  152.1250    89.6730    15.4450    16.2200    17.7440    23.7950     2.1820   -26.0240 
  152.2500    95.5440    13.2230    14.0370    14.3120    23.7290     2.2160   -26.0050 
  152.3750    96.6830    11.0950    11.8640    10.4100    23.7200     2.2430   -25.9770 
  152.5000    95.0670     9.3690    10.0020     8.5710    23.8010     2.2580   -25.9340 
  152.6250    93.9330     8.2400     8.6500     8.1330    23.8730     2.2660   -25.8470 
  152.7500    94.4920     7.5360     7.6970     7.4990    23.9040     2.2760   -25.6950 
  152.8750    97.2200     7.1110     7.0470     6.8980    23.9640     2.2940   -25.4890 
  153.0000   100.8100     6.8410     6.6190     6.4490    24.0800     2.3170   -25.2310 
  153.1250   100.6920     6.7210     6.4250     6.2320    24.1350     2.3370   -24.9040 
  153.2500    96.2000     6.8270     6.4840     6.2740    24.1380     2.3430   -24.5470 
  153.3750    87.3980     7.3040     6.8770     6.6460    24.1100     2.3310   -24.1660 
  153.5000    77.1230     8.2760     7.6900     7.5460    24.0660     2.3010   -23.7580 
  153.6250    71.6320     9.8580     9.0490     9.8510    23.9970     2.2630   -23.3220 
  153.7500    70.8560    11.8220    10.8210    13.0120    23.9550     2.2260   -22.8330 
  153.8750    71.3160    13.9130    12.8250    15.6830    24.0050     2.2000   -22.3170 
  154.0000    69.4860    15.8600    14.8040    16.9850    24.1520     2.1830   -21.8280 
  154.1250    66.3990    17.4740    16.5080    17.4690    24.2800     2.1730   -21.4450 
  154.2500    63.5610    18.9210    18.0010    18.6190    24.3560     2.1630   -21.1350 
  154.3750    59.3000    20.4620    19.4920    21.3210    24.3960     2.1500   -20.8840 
  154.5000    54.7230    22.3400    21.2180    25.5670    24.4590     2.1350   -20.7100 
  154.6250    53.3420    24.7320    23.3830    30.1940    24.5990     2.1230   -20.6640 
  154.7500    55.4240    27.4090    25.8500    35.4430    24.7610     2.1150   -20.8040 
  154.8750    57.7710    29.9980    28.3350    39.0520    24.8510     2.1130   -21.1130 
  155.0000    57.3650    31.9350    30.3600    38.9100    24.8110     2.1150   -21.5390 
  155.1250    56.3560    32.2600    31.0300    38.0550    24.6980     2.1190   -22.0650 
  155.2500    58.0750    30.7220    29.9680    37.1600    24.6260     2.1200   -22.6760 
  155.3750    63.5790    27.4210    27.1340    37.4300    24.5830     2.1180   -23.3470 
  155.5000    70.8380    22.9830    23.0380    37.6120    24.5000     2.1150   -24.0460 
  155.6250    77.6340    18.4140    18.6200    32.9420    24.3160     2.1230   -24.7290 
  155.7500    84.6830    14.5480    14.7730    22.6550    24.1700     2.1480   -25.3360 
  155.8750    91.4080    11.6920    11.8340    12.6340    24.1920     2.1910   -25.8470 
  156.0000    96.3220     9.8430     9.8290     7.1770    24.2750     2.2470   -26.2720 
  156.1250    98.2890     8.9280     8.7100     6.3210    24.2590     2.3060   -26.5740 
  156.2500    96.9410     8.5250     8.0990     6.4580    24.1820     2.3500   -26.7840 
  156.3750    93.9330     8.3630     7.7660     7.0640    24.1060     2.3700   -26.9530 
  156.5000    92.9420     8.2100     7.5150     8.2250    24.0730     2.3670   -27.0820 
  156.6250    96.4930     7.9040     7.2190     7.9610    24.0710     2.3500   -27.1580 
  156.7500    99.2250     7.5120     6.9030     7.5660    24.0930     2.3330   -27.1980 
  156.8750    98.1400     7.2370     6.7000     7.3540    24.1450     2.3200   -27.2320 
  157.0000    95.6540     7.3630     6.8040     7.0930    24.2060     2.3040   -27.2890 
  157.1250    93.1210     8.3100     7.5300     6.5550    24.2130     2.2820   -27.4010 
