~V
VERS. 2.00: Ver 2.00
~W
STRT.M 60.0000:
STOP.M 262.0000:
STEP.M 0.1250:
NULL. -999.2500:
UWI. F10018:
~C
DEPT.M :
GR.API :
RML.OHMM :
RI. :
RXO.OHMM :
CALI.CM :
DEN.GM/CC :
SP.MV :
~A
# ...
  116.2500    78.7240    12.1600    10.0630    12.3330    24.4210     2.3910    -5.3310 
  116.3750    80.9850    11.3600     9.4930    10.0050    24.4850     2.3670    -5.3400 
  116.5000    84.2610    10.0040     8.4040     8.1580    24.6910     2.3360    -5.3540 
  116.6250    88.4960     8.6760     7.2550     7.0450    24.7790     2.3140    -5.2960 
  116.7500    92.5240     7.7100     6.3440     6.9260    24.7890     2.3050    -5.2000 
  116.8750    94.9130     7.1980     5.7700     6.8460    24.7800     2.3090    -5.0980 
  117.0000    95.0660     7.1430     5.5620     6.7990    24.7780     2.3240    -4.9930 
  117.1250    92.7960     7.5890     5.7770     6.6130    24.7840     2.3420    -4.9030 
  117.2500    88.9540     8.4070     6.3210     7.2430    24.7820     2.3500    -4.8420 
  117.3750    83.0800     9.4780     7.1220     9.4440    24.7560     2.3380    -4.8630 
  117.5000    75.9930    10.5810     8.0350    13.9070    24.7390     2.3050    -4.9980 
  117.6250    69.1600    11.3530     8.7850    15.0170    24.7090     2.2630    -5.2500 
  117.7500    65.6640    11.6540     9.2000    11.7190    24.6010     2.2310    -5.5560 
  117.8750    66.0720    11.5550     9.2810     9.6770    24.4480     2.2160    -5.8890 
  118.0000    68.1570    11.2700     9.1620     9.5180    24.4250     2.2130    -6.2780 
  118.1250    68.0310    11.0470     9.0130    10.5980    24.6020     2.2130    -6.7500 
  118.2500    65.2930    10.9910     8.9450    11.0920    24.8300     2.2070    -7.2130 
  118.3750    61.5740    11.0750     8.9660    10.8440    24.9070     2.1900    -7.6080 
  118.5000    58.9450    11.2370     9.0480    10.6850    24.8950     2.1600    -7.9290 
  118.6250    58.1420    11.4570     9.1870    11.0060    24.7930     2.1190    -8.1680 
  118.7500    58.3600    11.7280     9.3840    11.3830    24.6380     2.0890    -8.3740 
  118.8750    60.7910    12.0330     9.6360    11.7130    24.6080     2.0910    -8.6250 
  119.0000    64.4180    12.3220     9.9090    12.1360    24.7610     2.1340    -8.9330 
  119.1250    65.2460    12.5030    10.1320    12.2510    24.8060     2.2000    -9.1930 
  119.2500    63.5050    12.5450    10.2590    12.2660    24.8030     2.2510    -9.3880 
  119.3750    61.7620    12.4790    10.2820    11.8810    25.0100     2.2630    -9.5310 
  119.5000    61.2710    12.3820    10.2390    11.6840    25.2290     2.2390    -9.6250 
  119.6250    60.7810    12.3380    10.1930    12.0500    25.2710     2.1980    -9.7190 
  119.7500    59.7600    12.3570    10.1840    12.6040    25.2240     2.1670    -9.8130 
  119.8750    58.8240    12.4070    10.2190    12.9890    25.1870     2.1510    -9.8810 
  120.0000    58.2080    12.4360    10.2790    13.0690    25.1830     2.1470    -9.8870 
  120.1250    56.9580    12.3850    10.3300    13.2990    25.1800     2.1500    -9.8230 
  120.2500    53.7550    12.2520    10.3470    13.2330    25.2040     2.1530    -9.7540 
  120.3750    50.4060    12.0640    10.3340    12.8330    25.2700     2.1550    -9.6880 
  120.5000    50.2460    11.9090    10.3310    12.6800    25.3620     2.1530    -9.5810 
  120.6250    52.9740    12.0130    10.4830    12.8930    25.3690     2.1470    -9.3970 
  120.7500    55.5350    12.4850    10.8910    13.0650    25.2380     2.1470    -9.1430 
  120.8750    56.3370    13.2570    11.5570    12.9990    25.1150     2.1600    -8.8120 
  121.0000    55.8460    14.0140    12.2890    13.6800    25.0720     2.1910    -8.4290 
  121.1250    56.7690    14.0860    12.5600    18.6890    24.9800     2.2350    -8.0010 
  121.2500    62.7120    13.1740    12.0010    30.0450    24.8040     2.2760    -7.4350 
  121.3750    72.7330    11.4470    10.6480    30.4270    24.5610     2.3050    -6.7320 
  121.5000    83.2160     9.4620     8.9400    15.2760    24.4010     2.3190    -5.9960 
  121.6250    91.6950     7.8450     7.4170     8.5540    24.3340     2.3270    -5.2810 
  121.7500    97.3890     6.7550     6.2780     6.5490    24.3220     2.3340    -4.6150 
  121.8750    97.8260     6.1140     5.5130     6.0660    24.3650     2.3400    -3.9820 
  122.0000    94.4850     5.7480     5.0290     5.8740    24.4620     2.3410    -3.3470 
  122.1250    91.1240     5.5180     4.7550     5.5840    24.6170     2.3370    -2.8040 
  122.2500    90.3030     5.4230     4.6480     5.5000    24.7070     2.3390    -2.4670 
  122.3750    92.1420     5.6240     4.7860     5.4140    24.6930     2.3520    -2.3220 
  122.5000    94.4300     6.3300     5.3010     5.6250    24.5050     2.3730    -2.2790 
  122.6250    90.8640     7.8740     6.4770     7.2480    24.1240     2.3840    -2.2420 
  122.7500    79.6040    10.2410     8.4080    12.1070    23.8540     2.3700    -2.1250 
  122.8750    66.7650    13.2870    11.1210    20.5640    23.9690     2.3300    -1.9680 
  123.0000    58.2110    16.5440    14.3150    24.5930    24.3400     2.2720    -1.8340 
  123.1250    54.9100    19.1100    17.1370    23.8830    24.6290     2.2090    -1.6710 
  123.2500    53.5040    20.5560    18.9330    26.5920    24.7320     2.1530    -1.4580 
  123.3750    52.6600    21.0220    19.6740    32.7690    24.8480     2.1080    -1.2120 
  123.5000    52.1470    21.0020    19.7660    28.2040    25.0170     2.0750    -0.9440 
  123.6250    52.7570    20.9720    19.6550    25.8680    25.1300     2.0580    -0.7130 
  123.7500    53.9260    21.1040    19.6000    25.3620    25.0920     2.0550    -0.5760 
  123.8750    55.3370    21.4160    19.6550    25.7440    24.9830     2.0620    -0.4980 
  124.0000    56.0180    21.9880    19.8970    25.7110    24.9080     2.0740    -0.4250 
  124.1250    55.7470    22.9420    20.4500    25.0160    24.8690     2.0890    -0.3700 
  124.2500    55.4050    23.9550    21.1000    24.1940    24.8480     2.1140    -0.3680 
  124.3750    54.5320    24.3810    21.3540    23.5070    24.8330     2.1570    -0.4470 
  124.5000    52.9520    23.4820    20.6020    23.8530    24.8200     2.2190    -0.6570 
  124.6250    53.8480    20.7740    18.3870    27.4570    24.7220     2.2850    -0.9960 
  124.7500    60.0570    17.2440    15.4480    25.5760    24.5830     2.3320    -1.3570 
  124.8750    68.7030    13.8840    12.5700    15.2250    24.4470     2.3470    -1.7320 
  125.0000    74.2090    11.3650    10.2940     9.9500    24.4050     2.3310    -2.1400 
  125.1250    76.3660     9.9770     8.8770     8.7860    24.4660     2.3010    -2.5630 
  125.2500    76.6040     9.3180     8.0620     9.1290    24.5620     2.2800    -2.9510 
  125.3750    73.9170     9.0630     7.6570     9.3020    24.6460     2.2720    -3.2460 
  125.5000    70.7790     8.9250     7.4730     9.5960    24.7200     2.2750    -3.4010 
  125.6250    74.4130     8.7960     7.4160     9.1980    24.7720     2.2860    -3.4490 
  125.7500    81.9240     8.7900     7.4840     8.0930    24.7900     2.3060    -3.4950 
  125.8750    85.0500     9.0150     7.7200     7.6510    24.7660     2.3380    -3.5440 
  126.0000    81.1800     9.4360     8.1020     9.0650    24.7050     2.3800    -3.5990 
  126.1250    76.0540     9.8540     8.5050    13.4440    24.5560     2.4210    -3.6040 
  126.2500    73.8520    10.0360     8.7460    17.8640    24.3520     2.4490    -3.5440 
  126.3750    75.5120     9.9000     8.7270    13.4710    24.0700     2.4580    -3.4850 
  126.5000    80.7030     9.5710     8.5010     8.8240    23.7150     2.4490    -3.4400 
  126.6250    84.5490     9.2930     8.2320     8.1570    23.2990     2.4250    -3.3470 
  126.7500    82.0900     9.1680     8.0380     9.3100    22.9970     2.3920    -3.1910 
  126.8750    76.1750     9.1380     7.9210     9.7190    23.0200     2.3540    -3.0350 
  127.0000    72.3550     9.0810     7.8270     9.2000    23.2890     2.3190    -2.8770 
  127.1250    74.1310     8.8590     7.6630     8.2740    23.7140     2.3000    -2.7320 
  127.2500    79.0570     8.5150     7.4140     7.5920    24.0470     2.3000    -2.6370 
  127.3750    84.4310     8.1760     7.1450     6.9920    24.2270     2.3140    -2.5530 
