~V
VERS. 2.00: Ver 2.00
~W
STRT.M 60.0000:
STOP.M 217.0000:
STEP.M 0.1250:
NULL. -999.2500:
UWI. F10010:
~C
DEPT.M :
DEN.GM/CC :
GR.API :
RML.OHMM :
RI. :
RXO.OHMM :
CALI.CM :
SP.MV :
~A
# ...
  195.0000     2.3830    43.2270     5.1590     4.6920     5.0130    23.5900   -29.0450 
  195.1250     2.3690    43.6750     5.1160     4.6090     4.7880    23.6150   -28.8980 
  195.2500     2.3540    43.2280     5.0970     4.5420     4.6320    23.6210   -28.8100 
  195.3750     2.3400    40.4500     5.0760     4.4780     4.5530    23.5890   -28.7850 
  195.5000     2.3290    36.6850     5.0390     4.4230     4.5010    23.5160   -28.7390 
  195.6250     2.3250    34.7070     4.9910     4.3910     4.4780    23.4710   -28.7290 
  195.7500     2.3260    34.4030     4.9490     4.3720     4.5070    23.4690   -28.7810 
  195.8750     2.3310    33.5540     4.9200     4.3690     4.5450    23.4950   -28.8320 
  196.0000     2.3370    31.9340     4.8990     4.3680     4.5530    23.5310   -28.8600 
  196.1250     2.3410    32.2790     4.8810     4.3580     4.5470    23.5420   -28.8970 
  196.2500     2.3420    35.8130     4.8770     4.3550     4.5680    23.5490   -28.9500 
  196.3750     2.3390    39.2720     4.8940     4.3570     4.6230    23.5570   -28.9490 
  196.5000     2.3340    39.5710     4.9300     4.3640     4.6850    23.6190   -28.9560 
  196.6250     2.3310    36.6140     4.8940     4.3790     4.7040    23.6640   -28.9940 
  196.7500     2.3330    33.5260     4.8760     4.3900     4.6610    23.6710   -28.9770 
  196.8750     2.3370    32.2450     4.8700     4.3970     4.6040    23.6490   -28.9090 
  197.0000     2.3400    33.1890     4.8740     4.3940     4.5780    23.6380   -28.8570 
  197.1250     2.3390    34.4050     4.8710     4.3720     4.5790    23.6560   -28.8380 
  197.2500     2.3350    35.0040     4.8410     4.3440     4.5780    23.6840   -28.8010 
  197.3750     2.3320    36.1360     4.7860     4.3090     4.5240    23.6900   -28.7690 
  197.5000     2.3330    37.4700     4.7350     4.2840     4.4080    23.6760   -28.7520 
  197.6250     2.3370    36.9950     4.7200     4.2760     4.3380    23.6590   -28.7300 
  197.7500     2.3380    35.0140     4.7340     4.2700     4.3760    23.6690   -28.7180 
  197.8750     2.3340    33.0580     4.7340     4.2730     4.4500    23.7030   -28.7100 
  198.0000     2.3250    32.1910     4.7310     4.2750     4.4860    23.7220   -28.7260 
  198.1250     2.3200    32.9420     4.7440     4.2680     4.4800    23.7090   -28.7600 
  198.2500     2.3200    34.9530     4.7220     4.2530     4.4560    23.6860   -28.7840 
  198.3750     2.3250    36.1220     4.7380     4.2230     4.4260    23.6760   -28.8490 
  198.5000     2.3300    36.2380     4.7700     4.1900     4.4140    23.6730   -28.9260 
  198.6250     2.3330    36.5900     4.7340     4.1540     4.4180    23.6760   -28.9660 
  198.7500     2.3340    36.9350     4.7070     4.1130     4.3670    23.6860   -29.0420 
  198.8750     2.3340    36.3440     4.6930     4.0720     4.2570    23.7070   -29.1960 
  199.0000     2.3290    35.6410     4.7150     4.0340     4.1470    23.7230   -29.3280 
  199.1250     2.3210    37.1380     4.8000     4.0300     4.1050    23.7540   -29.4050 
  199.2500     2.3130    38.7810     4.9300     4.0650     4.1690    23.8340   -29.5350 
  199.3750     2.3100    39.0570     5.0710     4.1270     4.3200    23.9510   -29.6690 
  199.5000     2.3090    39.2410     5.1780     4.2020     4.4470    24.0380   -29.7660 
  199.6250     2.3080    41.0900     5.2180     4.2590     4.4180    24.0930   -29.8590 
  199.7500     2.3020    43.0170     5.2110     4.2990     4.2720    24.1450   -29.9490 
  199.8750     2.2940    43.4140     5.1790     4.3250     4.1320    24.1720   -30.0110 
  200.0000     2.2910    42.0740     5.1480     4.3380     4.0870    24.1780   -30.0640 
  200.1250     2.2970    40.5570     5.1420     4.3630     4.1180    24.1780   -30.1060 
  200.2500     2.3090    41.0230     5.1600     4.4020     4.1570    24.1770   -30.1300 
  200.3750     2.3190    42.1460     5.1920     4.4520     4.1930    24.1760   -30.1320 
  200.5000     2.3240    41.5640     5.2300     4.5050     4.2630    24.1860   -30.1120 
  200.6250     2.3190    39.1500     5.2650     4.5280     4.3700    24.2130   -30.0790 
  200.7500     2.3070    37.9490     5.2890     4.5230     4.4180    24.2320   -30.0380 
  200.8750     2.2910    38.9770     5.2950     4.4900     4.3480    24.2380   -29.9780 
  201.0000     2.2740    40.3770     5.2730     4.4410     4.1750    24.2320   -29.9090 
  201.1250     2.2640    41.1540     5.2050     4.3830     4.0330    24.1960   -29.8690 
  201.2500     2.2600    41.4620     5.1070     4.3140     4.0360    24.1240   -29.8080 
  201.3750     2.2630    40.9450     5.0000     4.2440     4.1690    24.0490   -29.7190 
  201.5000     2.2720    38.9410     4.8970     4.1760     4.3340    23.9930   -29.6510 
  201.6250     2.2830    36.6540     4.8150     4.1160     4.4010    23.9750   -29.6340 
  201.7500     2.2930    36.5950     4.7520     4.0710     4.3650    23.9700   -29.5990 
  201.8750     2.2970    38.1430     4.7040     4.0330     4.3040    23.9720   -29.5540 
  202.0000     2.2950    39.4390     4.6700     3.9990     4.2830    23.9820   -29.5340 
  202.1250     2.2910    40.0630     4.6560     3.9690     4.3230    24.0020   -29.5020 
  202.2500     2.2930    40.4910     4.6620     3.9600     4.3660    24.0100   -29.4810 
  202.3750     2.3030    40.6330     4.6840     3.9850     4.3840    23.9920   -29.5120 
  202.5000     2.3200    39.4510     4.7190     4.0320     4.3780    23.9700   -29.5450 
  202.6250     2.3340    36.7880     4.7500     4.0820     4.3700    23.9620   -29.5320 
  202.7500     2.3400    34.9660     4.7670     4.1100     4.3830    23.9620   -29.5470 
  202.8750     2.3380    34.7100     4.7710     4.1140     4.4070    23.9620   -29.5670 
  203.0000     2.3330    34.8920     4.7670     4.1070     4.4210    23.9620   -29.5440 
  203.1250     2.3280    34.3340     4.7520     4.1050     4.4060    23.9620   -29.5390 
  203.2500     2.3240    34.1800     4.7340     4.1150     4.3940    23.9640   -29.5280 
  203.3750     2.3210    34.5860     4.7110     4.1230     4.4020    23.9720   -29.4620 
  203.5000     2.3150    35.1480     4.6780     4.1200     4.4010    23.9860   -29.3650 
  203.6250     2.3050    36.0440     4.6440     4.1030     4.3420    23.9850   -29.2890 
  203.7500     2.2910    36.6290     4.6190     4.0730     4.2690    23.9670   -29.1910 
  203.8750     2.2770    35.7740     4.6050     4.0390     4.2350    23.9560   -29.0610 
  204.0000     2.2620    34.4820     4.6110     4.0110     4.2190    23.9580   -28.9670 
  204.1250     2.2500    34.7940     4.6530     4.0060     4.1900    23.9650   -28.8650 
  204.2500     2.2450    35.6060     4.7080     4.0270     4.1900    23.9650   -28.7170 
  204.3750     2.2470    35.5340     4.7540     4.0680     4.2620    23.9490   -28.6050 
  204.5000     2.2560    34.8050     4.7900     4.1270     4.3790    23.9190   -28.5510 
  204.6250     2.2710    34.0910     4.8270     4.1880     4.4350    23.8740   -28.5080 
  204.7500     2.2880    33.7870     4.8750     4.2410     4.3860    23.8380   -28.4860 
  204.8750     2.3050    34.6240     4.9260     4.2840     4.2810    23.8250   -28.4970 
  205.0000     2.3190    36.1960     4.9560     4.3190     4.2170    23.8230   -28.5440 
  205.1250     2.3260    35.8500     4.9350     4.3540     4.2430    23.8410   -28.6240 
  205.2500     2.3280    33.6450     4.8940     4.3930     4.2840    23.8880   -28.7320 
  205.3750     2.3300    31.9430     4.8780     4.4470     4.2950    23.9480   -28.8590 
  205.5000     2.3400    31.7350     4.9140     4.5200     4.2870    23.9820   -28.9940 
  205.6250     2.3650    32.2770     5.0070     4.6130     4.3580    23.9590   -29.1160 
  205.7500     2.4000    32.9940     5.1160     4.7200     4.5420    23.9060   -29.2500 
  205.8750     2.4400    33.0760     5.2210     4.8340     4.7820    23.8460   -29.3930 
  206.0000     2.4780    32.8970     5.3140     4.9500     5.0220    23.7720   -29.4930 
  206.1250     2.5110    33.8340     5.4090     5.0550     5.3240    23.7080   -29.6110 
