~V
VERS. 2.00: Ver 2.00
~W
STRT.M 50.0000:
STOP.M 286.0000:
STEP.M 0.1250:
NULL. -999.2500:
UWI. F10036:
~C
DEPT.M :
GR.API :
RML.OHMM :
RI. :
RXO.OHMM :
CALI.CM :
DEN.GM/CC :
SP.MV :
~A
# ...
   95.0000    81.1690     6.4810     5.3570     6.5290    23.2970     2.2060   -15.0520 
   95.1250    78.1270     6.7020     5.5400     6.7720    23.2710     2.1990   -15.3170 
   95.2500    75.8560     7.2000     5.8620     7.0550    23.2710     2.2140   -15.7100 
   95.3750    73.3470     8.0600     6.4060     7.5130    23.2780     2.2580   -16.2030 
   95.5000    71.0110     9.2600     7.2300     8.8230    23.2860     2.3280   -16.6350 
   95.6250    68.5020    10.6090     8.3160    11.4360    23.2540     2.4040   -17.0620 
   95.7500    66.5900    11.6940     9.3710    14.6440    23.2420     2.4490   -17.5190 
   95.8750    64.9230    12.1560    10.0450    14.4990    23.2890     2.4400   -17.9930 
   96.0000    63.2350    11.8460    10.0840    13.1990    23.4620     2.3800   -18.5190 
   96.1250    62.7990    10.9070     9.4720    11.1190    23.5890     2.2920   -19.0580 
   96.2500    62.6760     9.8800     8.6430     9.2130    23.5790     2.2180   -19.6350 
   96.3750    61.6460     9.0870     7.8870     8.2240    23.4520     2.1710   -20.1820 
   96.5000    62.8350     8.6710     7.3670     7.7990    23.2170     2.1480   -20.7920 
   96.6250    69.6430     8.6790     7.1760     7.5820    23.1180     2.1360   -21.3690 
   96.7500    77.0410     8.9540     7.2250     7.5630    23.2640     2.1230   -21.7840 
   96.8750    79.4970     9.3760     7.4360     7.6610    23.4240     2.1120   -21.9810 
   97.0000    76.2460     9.8050     7.7100     7.6310    23.3440     2.1110   -22.0210 
   97.1250    71.1210    10.0760     7.9470     7.6230    23.2050     2.1230   -21.9760 
   97.2500    67.5560    10.1190     8.0970     7.7880    23.2060     2.1430   -21.8940 
   97.3750    67.1630     9.9060     8.1400     8.1960    23.2810     2.1640   -21.8240 
   97.5000    69.0020     9.4910     8.0780     8.8530    23.3190     2.1810   -21.7080 
   97.6250    68.3550     9.0020     7.9180     8.9350    23.3040     2.1900   -21.4950 
   97.7500    65.2700     8.5880     7.7110     8.4950    23.2800     2.1920   -21.2880 
   97.8750    62.8710     8.3160     7.4980     7.8650    23.2720     2.1860   -21.1330 
   98.0000    63.9930     8.1960     7.3220     7.4110    23.2780     2.1750   -21.0300 
   98.1250    66.5660     8.2130     7.2320     7.7900    23.3110     2.1600   -21.0170 
   98.2500    65.6620     8.3260     7.2400     8.2400    23.3420     2.1450   -21.0070 
   98.3750    62.9340     8.5470     7.3640     8.6370    23.2680     2.1360   -20.9660 
   98.5000    62.2850     8.8820     7.5980     8.7440    23.0530     2.1410   -20.8440 
   98.6250    66.4790     9.2490     7.8760     8.6550    22.8350     2.1680   -20.5990 
   98.7500    70.1340     9.4680     8.0540     8.5380    22.6860     2.2150   -20.2090 
   98.8750    70.3990     9.3850     8.0070     8.6360    22.6170     2.2660   -19.6370 
   99.0000    71.4920     8.9270     7.6740     8.7170    22.5910     2.3070   -18.9080 
   99.1250    78.5140     8.1670     7.0910     7.5470    22.5670     2.3190   -18.0180 
   99.2500    86.4640     7.4080     6.4660     6.2000    22.5850     2.3100   -17.0750 
   99.3750    90.5410     6.8450     5.9400     5.7150    22.6500     2.2900   -16.1460 
   99.5000    93.4450     6.5730     5.5860     5.6430    22.7180     2.2720   -15.3360 
   99.6250    96.8370     6.5910     5.4400     5.5480    22.7610     2.2630   -14.7310 
   99.7500    98.5150     6.6980     5.4250     5.4970    22.8560     2.2600   -14.3360 
   99.8750    96.9470     6.7510     5.4720     5.7150    23.0930     2.2610   -14.2620 
  100.0000    92.6120     6.6890     5.5180     6.3310    23.4790     2.2600   -14.3910 
  100.1250    86.5400     6.5490     5.5380     6.4550    23.8930     2.2570   -14.6590 
  100.2500    81.9040     6.4510     5.5610     6.4110    24.1360     2.2500   -15.0050 
  100.3750    81.8180     6.5060     5.6440     6.3370    24.1780     2.2430   -15.4690 
  100.5000    83.5920     6.8140     5.8630     6.7560    24.1130     2.2340   -16.0030 
  100.6250    81.8680     7.4570     6.3110     7.5010    24.0640     2.2220   -16.5420 
  100.7500    76.4210     8.2950     6.9350     8.7830    24.0540     2.2060   -17.1420 
  100.8750    70.2260     9.1260     7.6030    11.6140    24.0660     2.1860   -17.6420 
  101.0000    67.8020     9.6560     8.0950    19.4990    24.0680     2.1640   -18.0550 
  101.1250    69.4810     9.5490     8.1150    28.3160    23.9980     2.1500   -18.3500 
  101.2500    72.6520     8.9740     7.7170    21.0880    23.8390     2.1470   -18.4350 
  101.3750    76.1270     8.2300     7.0980    10.8230    23.5990     2.1550   -18.2640 
  101.5000    79.3870     7.6060     6.4800     6.7810    23.2920     2.1690   -17.9280 
  101.6250    82.1600     7.2770     6.0390     6.1520    22.9820     2.1850   -17.4990 
  101.7500    84.0800     7.1470     5.7790     6.3270    22.7750     2.1990   -16.9770 
  101.8750    85.5250     7.0870     5.6580     6.4410    22.7200     2.2120   -16.3850 
  102.0000    86.7120     7.0050     5.6210     6.1840    22.7330     2.2210   -15.7940 
  102.1250    87.4630     6.9550     5.6560     5.8930    22.7440     2.2200   -15.3590 
  102.2500    86.7470     7.0700     5.7830     5.8730    22.7440     2.2100   -15.1330 
  102.3750    83.7260     7.4030     6.0320     6.2540    22.7380     2.1960   -15.1460 
  102.5000    80.3640     7.8720     6.3740     7.0460    22.7440     2.1870   -15.2490 
  102.6250    79.1420     8.2420     6.6890     7.7050    22.9010     2.1960   -15.4130 
  102.7500    78.6670     8.3110     6.8420     7.7390    23.2640     2.2160   -15.4690 
  102.8750    79.9470     8.0410     6.7780     7.1880    23.7460     2.2410   -15.4430 
  103.0000    83.5400     7.5680     6.5500     6.3080    24.1270     2.2620   -15.2660 
  103.1250    88.6210     7.1090     6.2660     5.9240    24.2540     2.2730   -14.9650 
  103.2500    92.5910     6.7810     6.0150     5.8550    24.2420     2.2800   -14.6260 
  103.3750    93.5760     6.5710     5.8060     6.1800    24.1620     2.2890   -14.2260 
  103.5000    93.0540     6.3910     5.6050     6.6660    24.0690     2.3070   -13.7990 
  103.6250    95.5970     6.1270     5.3670     6.5200    24.0500     2.3310   -13.2890 
  103.7500   101.0680     5.8090     5.1150     5.8420    24.0930     2.3550   -12.8460 
  103.8750   104.7430     5.5720     4.9300     5.2160    24.1050     2.3780   -12.5240 
  104.0000   104.9590     5.5560     4.8990     4.9980    24.0150     2.4020   -12.3900 
  104.1250   102.7310     5.8800     5.0940     5.1270    23.8670     2.4260   -12.3420 
  104.2500    97.0870     6.4100     5.4450     5.8470    23.7600     2.4420   -12.3120 
  104.3750    88.6840     6.9390     5.8410     7.0920    23.7230     2.4410   -12.2950 
  104.5000    84.0760     7.2370     6.1300     8.3720    23.7190     2.4170   -12.2920 
  104.6250    85.5110     7.1460     6.1670     7.0110    23.7190     2.3760   -12.3920 
  104.7500    85.8560     6.8590     6.0380     6.2280    23.7190     2.3350   -12.6190 
  104.8750    83.9940     6.5900     5.8670     6.1030    23.7190     2.3030   -12.9470 
  105.0000    83.1410     6.4970     5.7630     6.4960    23.7260     2.2830   -13.3410 
  105.1250    83.6550     6.6120     5.7860     6.8650    23.7740     2.2710   -13.7080 
  105.2500    81.9420     6.7790     5.8830     6.7480    23.8510     2.2640   -14.0340 
  105.3750    78.4810     6.8940     5.9900     6.8320    23.8720     2.2600   -14.2910 
  105.5000    76.2610     6.9180     6.0620     6.8980    23.8020     2.2600   -14.5180 
  105.6250    77.3130     6.8710     6.0900     6.6710    23.7540     2.2630   -14.6430 
  105.7500    80.9250     6.8100     6.1010     6.3610    23.6580     2.2640   -14.7040 
  105.8750    83.9250     6.7380     6.1030     6.6090    23.4240     2.2650   -14.7820 
  106.0000    83.3630     6.6270     6.0790     6.9660    23.1830     2.2670   -14.7620 
  106.1250    81.7270     6.4810     6.0100     6.6600    23.0810     2.2750   -14.6650 
