~V
VERS. 2.00: Ver 2.00
~W
STRT.M 50.0000:
STOP.M 286.0000:
STEP.M 0.1250:
NULL. -999.2500:
UWI. F10036:
~C
DEPT.M :
GR.API :
RML.OHMM :
RI. :
RXO.OHMM :
CALI.CM :
DEN.GM/CC :
SP.MV :
~A
   50.0000    51.4080    60.3490     1.7780     2.8570    25.4660     2.2430   165.8150 
   50.1250    53.0680    58.8300     1.7600     2.1770    25.4270     2.2830   169.5510 
   50.2500    53.4340    57.5680     1.7600     1.4130    25.3010     2.3160   173.8400 
   50.3750    52.2660    56.6730     1.7790     0.9830    25.0720     2.3460   178.2690 
   50.5000    50.9830    56.1570     1.8090     0.8880    24.8310     2.3780   182.5670 
   50.6250    52.4980    55.8990     1.8350     0.9760    24.5870     2.4000   186.4500 
   50.7500    56.8670    55.6410     1.8490     1.0710    24.3790     2.3990   189.6380 
   50.8750    60.1750    55.2540     1.8460     1.0930    24.3200     2.3620   191.9600 
   51.0000    59.2800    54.6800     1.8270     1.0170    24.4570     2.2920   193.1890 
   51.1250    57.5380    53.9230     1.7920     0.9350    24.7850     2.2070   193.0370 
   51.2500    59.3250    53.0630     1.7530     0.9540    25.1370     2.1330   191.9540 
   51.3750    62.0950    52.1190     1.7230     0.9380    25.3940     2.0850   190.3540 
   51.5000    61.9310    51.1640     1.7090     0.8230    25.5040     2.0680   188.5510 
   51.6250    57.1990    50.4020     1.7110     0.9470    25.5270     2.0820   186.6890 
   51.7500    51.8720    50.0520     1.7270     1.3960    25.5280     2.1090   185.0920 
   51.8750    49.0410    50.2320     1.7580     1.5150    25.4870     2.1420   183.9730 
   52.0000    49.0310    50.8440     1.8090     1.0570    25.3470     2.1710   183.6220 
   52.1250    49.4130    51.5180     1.8720     0.7640    25.0620     2.1920   184.1600 
   52.2500    49.2620    51.7060     1.9250     0.6700    24.8150     2.2050   185.2050 
   52.3750    50.1360    51.0710     1.9430     0.6170    24.7330     2.2100   186.5720 
   52.5000    52.3580    49.6260     1.9180     0.6190    24.8900     2.2060   188.0170 
   52.6250    53.7480    47.7280     1.8660     0.7680    25.1450     2.1900   189.0800 
   52.7500    54.2870    45.9270     1.8170     0.9620    25.2620     2.1650   189.4990 
   52.8750    55.6350    44.4130     1.7870     1.0590    25.2980     2.1370   189.2040 
   53.0000    56.2320    43.1920     1.7760     1.0210    25.2840     2.1150   187.9240 
   53.1250    53.3770    42.1640     1.7770     0.9240    25.2430     2.1080   185.1400 
   53.2500    49.8330    41.1240     1.7780     0.8780    25.1920     2.1200   181.1370 
   53.3750    47.4690    39.9670     1.7770     0.8600    25.1600     2.1540   175.9830 
   53.5000    45.6810    38.6600     1.7730     0.8280    25.1330     2.2080   169.8050 
   53.6250    43.8220    37.2120     1.7680     0.7450    25.0690     2.2770   163.3320 
   53.7500    42.0870    35.7280     1.7600     0.6710    24.9700     2.3470   157.0950 
   53.8750    40.7650    34.2880     1.7480     0.6530    24.8650     2.4060   151.2090 
   54.0000    41.3630    32.9370     1.7300     0.6630    24.7100     2.4500   145.9500 
   54.1250    44.7780    31.6990     1.7080     0.6270    24.4430     2.4740   141.7180 
   54.2500    47.5430    30.5540     1.6890     0.6210    24.2250     2.4860   138.2970 
   54.3750    48.9270    29.5090     1.6840     0.7290    24.0230     2.4900   135.5930 
   54.5000    51.1210    28.5380     1.7000     0.9790    23.8300     2.4860   133.6640 
   54.6250    52.6320    27.5930     1.7290     1.2970    23.6700     2.4680   132.3590 
   54.7500    51.2660    26.6340     1.7500     1.4360    23.5220     2.4360   131.3700 
   54.8750    48.7580    25.6670     1.7540     1.4650    23.4050     2.3910   130.4250 
   55.0000    47.2160    24.7730     1.7440     1.4320    23.3560     2.3370   129.1990 
   55.1250    47.0190    24.1030     1.7380     1.3470    23.4020     2.2830   127.8090 
   55.2500    48.3300    23.6830     1.7440     1.1150    23.5400     2.2400   126.5320 
   55.3750    51.3510    23.4980     1.7520     0.7850    23.7420     2.2130   125.4030 
   55.5000    53.4460    23.5020     1.7500     0.5600    23.9360     2.1990   124.3520 
   55.6250    53.9840    23.7360     1.7280     0.5050    24.0040     2.1880   123.1240 
   55.7500    54.8680    24.1590     1.6860     0.5270    23.9600     2.1720   121.6230 
   55.8750    55.3920    24.3290     1.6070     0.5410    23.8030     2.1510   119.7880 
   56.0000    53.3360    22.8090     1.4440     0.5490    23.5880     2.1360   117.6260 
   56.1250    51.0060    17.4290     1.1180     0.5580    23.4240     2.1500   115.0660 
   56.2500    50.8370    10.6830     0.7290     0.5480    23.4060     2.1940   112.2910 
   56.3750    50.9350     5.4640     0.4070     0.5230    23.4910     2.2600   109.3990 
   56.5000    49.4870     2.4620     0.2100     0.5030    23.6370     2.3260   106.2430 
   56.6250    48.7360     1.2650     0.1320     0.5200    23.7690     2.3550   102.3430 
   56.7500    51.3310     1.0380     0.1340     0.7290    23.8910     2.3350    96.8910 
   56.8750    56.6580     1.6110     0.2310     1.4700    23.9610     2.2770    89.3120 
   57.0000    61.8870     3.0370     0.4830     3.5970    23.9870     2.2110    79.8150 
   57.1250    63.5480     5.6510     1.0730     6.3640    23.9580     2.1750    68.9200 
   57.2500    62.0250     9.0040     2.0950     9.0810    23.8260     2.1720    57.3320 
   57.3750    61.7210    11.7220     3.4770    11.4790    23.6370     2.1890    45.3480 
   57.5000    64.1080    12.2390     4.8440     9.4260    23.4780     2.2030    33.2950 
   57.6250    66.5980    10.9840     5.7540     7.9770    23.4630     2.2000    21.8630 
   57.7500    67.7420     9.9180     6.3050     7.2820    23.5880     2.1890    11.9100 
   57.8750    68.5950     9.5460     6.6730     7.3710    23.7730     2.1780     4.1670 
   58.0000    67.4040     9.7200     6.9610     7.4930    23.9590     2.1710    -1.4430 
   58.1250    62.8450    10.1440     7.2010     7.5210    24.1320     2.1660    -5.4110 
   58.2500    58.8500    10.5250     7.4020     7.6230    24.3100     2.1620    -8.5920 
   58.3750    58.2280    10.7690     7.5520     7.6680    24.4260     2.1610   -11.2180 
   58.5000    59.9090    10.8970     7.6470     7.7010    24.4510     2.1640   -13.4460 
   58.6250    62.0580    10.9870     7.6910     7.7080    24.3820     2.1700   -15.3760 
   58.7500    63.7360    11.0820     7.7040     7.7000    24.2860     2.1720   -17.0410 
   58.8750    64.1300    11.1660     7.6970     7.7240    24.2180     2.1680   -18.5130 
   59.0000    62.5470    11.2140     7.6790     7.7940    24.2140     2.1590   -19.7480 
   59.1250    60.5450    11.2120     7.6670     7.7620    24.2720     2.1520   -20.7040 
   59.2500    60.3960    11.1960     7.6760     7.6660    24.3350     2.1450   -21.4620 
   59.3750    62.1840    11.2020     7.7180     7.6000    24.3590     2.1360   -22.0630 
   59.5000    64.1390    11.2490     7.7950     7.5630    24.3200     2.1180   -22.5080 
   59.6250    63.4740    11.3340     7.8960     7.5270    24.1200     2.0930   -22.8140 
   59.7500    61.2300    11.3910     7.9720     7.4100    23.8150     2.0740   -23.0100 
   59.8750    60.1550    11.3040     7.9590     7.2040    23.6420     2.0700   -23.0450 
   60.0000    61.2350    10.9500     7.8010     7.0530    23.6990     2.0850   -22.9490 
   60.1250    65.7800    10.2270     7.4530     7.1400    23.8830     2.1230   -22.7010 
   60.2500    73.3730     9.3220     6.9940     7.1590    24.0240     2.1730   -22.2820 
   60.3750    82.5590     8.4800     6.5220     6.8230    24.0430     2.2260   -21.7500 
   60.5000    90.9200     7.9300     6.1450     6.0440    23.9990     2.2730   -21.1810 
   60.6250    93.1710     7.8460     5.9860     5.6460    23.9650     2.2950   -20.6820 
   60.7500    89.3340     8.1070     6.0480     5.6660    23.9350     2.2880   -20.3310 
   60.8750    82.6910     8.5560     6.3040     6.0510    23.8350     2.2550   -20.1500 
   61.0000    78.9920     8.9980     6.6670     6.7420    23.5980     2.2100   -20.1250 
   61.1250    79.1240     9.1950     6.9730     7.0780    23.3080     2.1750   -20.1800 
