~V
VERS. 2.00: Ver 2.00
~W
STRT.M 55.0000:
STOP.M 292.0000:
STEP.M 0.1250:
NULL. -999.2500:
UWI. F10078:
~C
DEPT.M :
GR.API :
RML.OHMM :
RI. :
RXO.OHMM :
CALI.CM :
DEN.GM/CC :
SP.MV :
~A
# ...
  111.2500    68.7660     6.4220     5.6600     6.8840    23.0240     2.1950   -11.3220 
  111.3750    68.6800     6.5980     5.7620     6.9100    23.0170     2.1950   -11.2530 
  111.5000    66.2090     6.8600     5.9410     7.0610    22.9970     2.1960   -11.2490 
  111.6250    62.6980     7.1600     6.1730     7.3730    22.9410     2.1960   -11.3370 
  111.7500    59.1050     7.4140     6.3900     7.6290    22.8320     2.1960   -11.4780 
  111.8750    56.2940     7.5630     6.5380     7.6660    22.6730     2.1950   -11.5950 
  112.0000    56.2840     7.5760     6.5830     7.4620    22.5050     2.1950   -11.6880 
  112.1250    60.0140     7.4520     6.5110     7.3020    22.4010     2.1950   -11.7800 
  112.2500    64.8680     7.2770     6.3770     7.3480    22.3800     2.1970   -11.8710 
  112.3750    69.8070     7.1240     6.2330     7.5290    22.4270     2.1990   -11.9630 
  112.5000    73.1660     7.0520     6.1260     7.7270    22.3710     2.2030   -12.0730 
  112.6250    71.5070     7.1140     6.1080     7.8640    22.1420     2.2070   -12.1750 
  112.7500    67.4620     7.2910     6.1840     7.9830    21.8890     2.2110   -12.2680 
  112.8750    64.6000     7.5630     6.3510     8.2250    21.7750     2.2150   -12.3930 
  113.0000    62.5940     7.9000     6.5880     8.6510    21.7810     2.2170   -12.5300 
  113.1250    60.8330     8.2520     6.8560     9.2010    21.8150     2.2170   -12.6750 
  113.2500    59.5440     8.5570     7.0970     9.6120    21.8030     2.2170   -12.8080 
  113.3750    59.5500     8.7660     7.2690     9.8140    21.7580     2.2170   -12.8910 
  113.5000    60.3980     8.8490     7.3490     9.8440    21.7280     2.2180   -12.9270 
  113.6250    62.7810     8.7880     7.3260     9.7330    21.7490     2.2220   -12.9700 
  113.7500    65.8190     8.6350     7.2430     9.4960    21.7840     2.2270   -13.0310 
  113.8750    69.1350     8.4360     7.1310     9.1970    21.8030     2.2320   -13.0830 
  114.0000    73.3240     8.2440     7.0210     8.9400    21.7960     2.2310   -13.1100 
  114.1250    75.4330     8.1220     6.9450     8.8250    21.7780     2.2230   -13.1210 
  114.2500    70.2300     8.0920     6.9170     8.7980    21.8780     2.2090   -13.1560 
  114.3750    61.3880     8.1480     6.9360     8.7560    22.2330     2.1920   -13.2050 
  114.5000    57.0940     8.2520     6.9860     8.7670    22.6500     2.1710   -13.1770 
  114.6250    59.3970     8.3170     7.0150     8.9470    22.8790     2.1450   -13.0100 
  114.7500    60.8050     8.2640     6.9720     9.1810    23.0010     2.1180   -12.7590 
  114.8750    60.1960     8.0580     6.8310     9.2420    23.1620     2.0980   -12.4450 
  115.0000    60.3070     7.7200     6.5990     8.9860    23.4160     2.0900   -12.0790 
  115.1250    60.8040     7.3430     6.3280     8.4690    23.6310     2.1020   -11.6490 
  115.2500    61.1660     7.0520     6.1000     7.9060    23.7250     2.1250   -11.2210 
  115.3750    62.2710     6.9140     5.9730     7.7120    23.7500     2.1510   -10.8310 
  115.5000    63.9790     6.9310     5.9630     8.0930    23.7630     2.1730   -10.5040 
  115.6250    66.7690     7.0500     6.0600     8.3490    23.7970     2.1860   -10.3240 
  115.7500    68.8590     7.1750     6.1930     8.5820    23.8600     2.1940   -10.2390 
  115.8750    71.1150     7.2600     6.3160     8.7780    23.9460     2.1990   -10.2040 
  116.0000    72.4200     7.3100     6.4090     8.7510    24.0190     2.2040   -10.1810 
  116.1250    70.7330     7.3820     6.4950     8.5210    24.0590     2.2060   -10.1960 
  116.2500    67.7980     7.5280     6.6210     8.4130    24.0870     2.2060   -10.1810 
  116.3750    65.3170     7.7470     6.8110     8.5530    24.1000     2.2020   -10.0780 
  116.5000    65.2880     7.9990     7.0410     8.8320    24.1010     2.1940    -9.8450 
  116.6250    66.2360     8.1370     7.2020     9.0540    24.0900     2.1840    -9.3720 
  116.7500    65.9140     8.0480     7.1690     8.9890    24.0720     2.1760    -8.7280 
  116.8750    67.3820     7.6110     6.8600     8.5550    24.0570     2.1750    -7.9560 
  117.0000    73.4780     6.8570     6.2840     7.6420    24.0550     2.1860    -7.0800 
  117.1250    85.0730     6.0410     5.5570     6.2080    24.0760     2.2130    -6.0820 
  117.2500    96.1180     5.3680     4.8830     4.8180    24.1130     2.2470    -5.0720 
  117.3750   100.8660     4.8770     4.3820     3.9880    24.1490     2.2820    -4.1490 
  117.5000    98.9220     4.6190     4.1010     3.8440    24.1570     2.3100    -3.4120 
  117.6250    92.8720     4.6400     4.0460     4.0860    24.1400     2.3260    -2.8350 
  117.7500    88.2560     4.7610     4.1160     4.3210    24.1180     2.3340    -2.3800 
  117.8750    88.3150     4.8830     4.2390     4.4450    24.1090     2.3400    -2.0900 
  118.0000    91.5170     4.9500     4.3590     4.4710    24.1080     2.3430    -1.9780 
  118.1250    95.0070     4.9650     4.4410     4.4620    24.1060     2.3440    -1.9670 
  118.2500    99.5910     5.0030     4.4980     4.4790    24.1020     2.3410    -1.9900 
  118.3750   104.6350     5.0630     4.5510     4.5550    24.0930     2.3330    -2.0360 
  118.5000   107.4520     5.1440     4.6150     4.6710    24.0790     2.3220    -2.0810 
  118.6250   105.6090     5.2030     4.6970     4.8220    24.0510     2.3080    -2.2000 
  118.7500   101.8520     5.2750     4.7900     4.9800    24.0270     2.2980    -2.3350 
  118.8750    98.9110     5.3860     4.8870     5.1150    24.0340     2.2930    -2.4640 
  119.0000    98.4180     5.5120     4.9800     5.2280    24.0600     2.2940    -2.6180 
  119.1250    99.9650     5.6310     5.0630     5.3010    24.0880     2.2970    -2.8430 
  119.2500    98.9260     5.7310     5.1290     5.3320    24.0970     2.2990    -3.0700 
  119.3750    93.4350     5.8030     5.1740     5.3010    24.0960     2.2930    -3.2840 
  119.5000    88.0360     5.8420     5.1950     5.2600    24.0810     2.2800    -3.5100 
  119.6250    86.4130     5.8520     5.2000     5.2630    24.0400     2.2630    -3.7860 
  119.7500    86.8790     5.8610     5.2060     5.3230    23.9690     2.2480    -4.1020 
  119.8750    87.5660     5.8870     5.2270     5.4980    23.8630     2.2370    -4.4170 
  120.0000    87.0490     5.9380     5.2660     5.7810    23.7040     2.2320    -4.7180 
  120.1250    83.0370     6.0090     5.3120     6.0710    23.5430     2.2300    -5.0550 
  120.2500    77.7750     6.0660     5.3390     6.2940    23.4710     2.2250    -5.4170 
  120.3750    74.6830     6.1180     5.3400     6.5040    23.4550     2.2160    -5.7240 
  120.5000    74.1770     6.1930     5.3460     6.7490    23.4130     2.2030    -5.9570 
  120.6250    72.9560     6.5130     5.5060     7.2340    23.3200     2.1920    -6.1230 
  120.7500    72.0280     7.3050     6.0180     8.3630    23.2350     2.1970    -6.2990 
  120.8750    71.5770     8.8700     7.0970    10.9430    23.1950     2.2300    -6.5200 
  121.0000    68.5130    11.2340     8.8480    15.5550    23.2290     2.3000    -6.7500 
  121.1250    63.9720    14.0460    11.1560    22.1900    23.4710     2.4030    -6.9520 
  121.2500    64.0050    16.4080    13.3580    28.6300    23.7540     2.5030    -7.2080 
  121.3750    67.2430    17.5060    14.7480    31.4730    23.8730     2.5670    -7.6160 
  121.5000    67.8190    16.8890    14.7770    29.8550    23.8810     2.5680    -8.1360 
  121.6250    64.4110    14.7080    13.3160    24.3400    23.8790     2.5010    -8.6610 
  121.7500    61.7470    12.2270    11.3520    17.4660    23.8810     2.4080    -9.1830 
  121.8750    61.9730    10.2570     9.5980    12.0250    23.8840     2.3160    -9.7050 
  122.0000    65.2860     9.1140     8.3950     9.5360    23.8820     2.2420   -10.1990 
  122.1250    69.0750     8.7820     7.8350     8.8680    23.8350     2.1960   -10.6380 
  122.2500    70.2820     8.8260     7.6510     8.9190    23.7780     2.1690   -11.0050 
  122.3750    70.0230     8.9730     7.6580     9.3570    23.7520     2.1570   -11.2520 
