~V
VERS. 2.00: Ver 2.00
~W
STRT.M 64.0000:
STOP.M 260.0000:
STEP.M 0.1250:
NULL. -999.2500:
UWI. F10016:
~C
DEPT.M :
GR.API :
RML.OHMM :
RI. :
RXO.OHMM :
CALI.CM :
DEN.GM/CC :
SP.MV :
~A
# ...
   75.2500    64.8960    10.1410     9.1660    11.6890    25.4380     2.1500   -30.4670 
   75.3750    64.7560    10.2150     9.2430    11.2820    25.7400     2.1410   -30.2750 
   75.5000    64.6620    10.3220     9.3530    11.1190    25.7940     2.1330   -30.0060 
   75.6250    64.8540    10.4110     9.4670    11.0460    25.7910     2.1260   -29.6210 
   75.7500    65.7020    10.4470     9.5420    11.0790    25.8180     2.1170   -29.1150 
   75.8750    66.2170    10.4140     9.5340    11.4090    25.8000     2.1100   -28.4660 
   76.0000    67.4380    10.3100     9.4250    11.3220    25.6050     2.1050   -27.6560 
   76.1250    70.9720    10.1600     9.2580    10.6560    25.2820     2.1060   -26.6790 
   76.2500    75.4310    10.0280     9.1370    10.2210    25.1000     2.1180   -25.6080 
   76.3750    79.2720     9.9490     9.1160    10.0270    25.0750     2.1450   -24.4630 
   76.5000    80.7740     9.9120     9.1720     9.5570    25.0440     2.1880   -23.2970 
   76.6250    83.2320     9.8350     9.1960     9.3610    24.7380     2.2400   -22.1840 
   76.7500    88.9730     9.6420     9.0840     9.5550    24.2630     2.2820   -21.1760 
   76.8750    96.4690     9.3050     8.7920     8.8370    23.8310     2.3000   -20.3660 
   77.0000   101.6450     8.8630     8.3430     7.8260    23.7580     2.2880   -19.7750 
   77.1250   101.2140     8.4190     7.8210     7.6480    23.9700     2.2530   -19.3470 
   77.2500   100.1530     8.0680     7.3450     8.1120    24.0890     2.2210   -19.0430 
   77.3750   101.5560     7.8400     6.9810     8.0430    24.1190     2.2050   -18.8860 
   77.5000   103.6680     7.7270     6.7550     7.2940    24.0890     2.2120   -18.8600 
   77.6250   103.5420     7.7050     6.6850     7.0480    24.0320     2.2330   -18.9450 
   77.7500   102.7790     7.7250     6.7250     7.2280    23.9950     2.2550   -19.1160 
   77.8750   102.2520     7.7630     6.8510     7.5200    23.9790     2.2750   -19.3370 
   78.0000   101.0640     7.8060     7.0310     7.9330    23.9530     2.2900   -19.5860 
   78.1250    98.6730     7.8490     7.2150     8.2490    23.9450     2.2980   -19.9430 
   78.2500    96.1340     7.8970     7.3470     7.8900    23.9820     2.2920   -20.4220 
   78.3750    92.7610     7.9780     7.4140     8.0630    24.0270     2.2710   -21.0240 
   78.5000    87.3240     8.1290     7.4590     8.9200    24.1360     2.2370   -21.7220 
   78.6250    80.7500     8.3770     7.5710     9.4270    24.3250     2.2010   -22.4230 
   78.7500    75.4280     8.6690     7.7750     9.5380    24.4360     2.1730   -23.0700 
   78.8750    72.9820     8.9430     8.0180     9.6160    24.5540     2.1530   -23.6670 
   79.0000    72.7290     9.1400     8.2070     9.7040    24.7240     2.1360   -24.2180 
   79.1250    71.0960     9.2220     8.2520     9.5880    24.8310     2.1170   -24.6420 
   79.2500    68.4810     9.2350     8.2040     9.5350    24.8660     2.0980   -24.8950 
   79.3750    67.7600     9.2260     8.1580     9.5830    24.8360     2.0860   -24.9700 
   79.5000    69.0950     9.2330     8.1950     9.5930    24.7260     2.0850   -24.8890 
   79.6250    69.7300     9.2850     8.3340     9.5230    24.6180     2.0950   -24.7690 
   79.7500    69.7230     9.3840     8.4920     9.5800    24.5680     2.1080   -24.6140 
   79.8750    69.7850     9.5280     8.6090     9.8030    24.6220     2.1190   -24.3340 
   80.0000    70.9360     9.6940     8.6720    10.1830    24.6890     2.1270   -23.9910 
   80.1250    74.3330     9.8220     8.7050    10.2890    24.7110     2.1350   -23.6310 
   80.2500    77.4620     9.8540     8.7250    10.2050    24.6710     2.1450   -23.2980 
   80.3750    76.7180     9.7600     8.7010     9.9720    24.6100     2.1530   -22.9610 
   80.5000    73.0420     9.5660     8.5960     9.9080    24.5880     2.1560   -22.5810 
   80.6250    72.0010     9.3840     8.4440     9.7570    24.6630     2.1490   -22.1320 
   80.7500    73.8520     9.3640     8.3880     9.6460    24.7940     2.1430   -21.6070 
   80.8750    76.0040     9.5860     8.5500     9.6880    24.9400     2.1520   -21.0590 
   81.0000    76.5700    10.0200     8.9410    10.1800    24.9280     2.1890   -20.4870 
   81.1250    75.4320    10.4870     9.3980    11.3540    24.5400     2.2520   -19.8520 
   81.2500    76.7100    10.7280     9.6470    13.8760    24.0600     2.3120   -19.1620 
   81.3750    82.9860    10.5840     9.5300    12.9710    23.7280     2.3450   -18.4680 
   81.5000    90.4220    10.0550     9.0650     9.5700    23.5750     2.3370   -17.8070 
   81.6250    91.7850     9.2970     8.4300     8.2960    23.4820     2.2970   -17.1660 
   81.7500    89.2900     8.5660     7.8520     7.8070    23.4380     2.2540   -16.6140 
   81.8750    88.8650     7.9560     7.3930     7.5030    23.4530     2.2290   -16.1300 
   82.0000    93.5610     7.4570     7.0080     7.1570    23.5350     2.2260   -15.6950 
   82.1250   102.2870     7.0230     6.6270     6.8230    23.6310     2.2420   -15.3440 
   82.2500   111.3060     6.6530     6.2520     6.3350    23.6710     2.2680   -15.0690 
   82.3750   116.6450     6.4300     5.9730     5.9200    23.6630     2.3020   -14.8450 
   82.5000   115.4550     6.4460     5.9010     6.0710    23.6690     2.3460   -14.6570 
   82.6250   108.6050     6.7520     6.1210     7.4190    23.7220     2.3880   -14.5330 
   82.7500   102.7400     7.1730     6.4910     9.1070    23.7610     2.4130   -14.4310 
   82.8750   100.3630     7.5150     6.8330     9.1200    23.8210     2.4090   -14.3430 
   83.0000    98.8170     7.6250     6.9970     7.7520    23.9800     2.3790   -14.2780 
   83.1250    95.3620     7.4750     6.9370     7.1110    24.2200     2.3380   -14.2520 
   83.2500    93.0030     7.2840     6.8240     7.0120    24.3400     2.3070   -14.2420 
   83.3750    94.1200     7.2400     6.7960     7.0390    24.3500     2.2910   -14.2490 
   83.5000    94.6060     7.4350     6.9140     7.5690    24.3390     2.2850   -14.2840 
   83.6250    90.0640     7.8340     7.1480     9.0110    24.3340     2.2800   -14.2570 
   83.7500    84.7580     8.2150     7.3720     9.7740    24.3170     2.2700   -14.1830 
   83.8750    84.0070     8.4020     7.5060     9.0280    24.2920     2.2600   -14.1510 
   84.0000    88.2480     8.3140     7.5180     8.1840    24.2840     2.2540   -14.1250 
   84.1250    93.1420     7.9700     7.4110     7.9760    24.3200     2.2560   -14.0520 
   84.2500    94.7270     7.5530     7.2410     7.4910    24.3420     2.2650   -13.9480 
   84.3750    93.3740     7.1910     7.0380     7.1280    24.3430     2.2750   -13.8350 
   84.5000    93.9810     6.9640     6.8300     7.1530    24.3310     2.2810   -13.7340 
   84.6250    99.0540     6.9320     6.6550     7.1340    24.3380     2.2800   -13.7190 
   84.7500   103.0610     7.0690     6.5640     7.3010    24.3410     2.2760   -13.7490 
   84.8750   102.7650     7.3550     6.6070     7.5210    24.3300     2.2710   -13.7480 
   85.0000    99.4940     7.7320     6.8070     7.5830    24.2840     2.2670   -13.7580 
   85.1250    95.3360     8.0710     7.1190     8.2390    24.2120     2.2630   -13.8270 
   85.2500    92.2960     8.2400     7.3910     9.6500    24.1440     2.2620   -13.9320 
   85.3750    91.7490     8.1740     7.5040    10.0370    24.1220     2.2680   -14.0650 
   85.5000    94.1560     7.9060     7.4190     8.5920    24.1560     2.2810   -14.1850 
   85.6250    98.1970     7.5750     7.2090     7.2270    24.2140     2.2930   -14.2510 
   85.7500   102.2360     7.3600     7.0350     7.1460    24.2300     2.2960   -14.3130 
   85.8750   104.4610     7.3440     6.9810     7.6440    24.2210     2.2870   -14.4120 
   86.0000   102.0430     7.5240     7.0720     8.2120    24.2040     2.2710   -14.5210 
   86.1250    94.0500     7.8370     7.2980     8.7360    24.2370     2.2600   -14.6460 
   86.2500    87.1340     8.1550     7.5950     8.7820    24.2950     2.2530   -14.7680 
   86.3750    85.8440     8.4240     7.9240     8.6130    24.3530     2.2480   -14.8480 
