~V
VERS. 2.00: Ver 2.00
~W
STRT.M 64.0000:
STOP.M 260.0000:
STEP.M 0.1250:
NULL. -999.2500:
UWI. F10016:
~C
DEPT.M :
GR.API :
RML.OHMM :
RI. :
RXO.OHMM :
CALI.CM :
DEN.GM/CC :
SP.MV :
~A
# ...
  131.5000    64.2170    29.9980    30.6980    28.9720    25.9460     2.0730   -11.9030 
  131.6250    64.1110    30.2050    31.0610    27.7350    25.2640     2.1050   -11.9440 
  131.7500    62.4270    30.6380    31.6610    30.4430    24.9250     2.1240   -11.9360 
  131.8750    62.2890    31.4640    32.3860    33.8030    25.1230     2.1250   -11.9110 
  132.0000    65.0120    32.7540    33.0460    33.5820    25.6000     2.1200   -11.9400 
  132.1250    66.8490    34.4250    33.3690    30.0680    25.7210     2.1210   -11.9440 
  132.2500    65.9350    34.7990    33.2480    28.2000    25.3070     2.1300   -11.9900 
  132.3750    65.6510    34.0820    32.6400    31.7170    24.8690     2.1360   -12.0680 
  132.5000    68.1800    32.6910    31.5910    34.7430    24.7420     2.1360   -12.1670 
  132.6250    69.5100    31.0930    30.2260    31.3330    24.7460     2.1330   -12.3170 
  132.7500    67.6660    29.6850    28.8200    25.7030    24.6370     2.1400   -12.4730 
  132.8750    65.6430    28.6230    27.5440    23.7410    24.5240     2.1630   -12.6660 
  133.0000    63.5950    27.8560    26.4800    24.5320    24.5350     2.1970   -12.8530 
  133.1250    59.5710    27.1850    25.6470    29.2750    24.6530     2.2230   -13.0590 
  133.2500    56.5840    26.4430    24.9730    33.1490    24.7360     2.2220   -13.2870 
  133.3750    58.2350    25.7180    24.4960    31.2140    24.6990     2.1870   -13.4830 
  133.5000    63.1870    25.3010    24.3470    26.0710    24.5320     2.1280   -13.6970 
  133.6250    65.2000    25.6640    24.7830    23.5770    24.4160     2.0810   -13.8710 
  133.7500    63.5710    26.7880    25.7520    25.0060    24.4640     2.0770   -14.0570 
  133.8750    60.3600    28.3540    27.0390    28.1440    24.5730     2.1150   -14.2300 
  134.0000    59.6440    29.6900    28.1670    31.4670    24.5890     2.1730   -14.4060 
  134.1250    62.3750    29.7560    28.3050    30.7700    24.4320     2.2110   -14.6140 
  134.2500    65.2010    28.3610    27.2110    25.6840    24.4240     2.2180   -14.7820 
  134.3750    67.5990    25.8960    25.1230    22.5420    24.4840     2.2020   -14.9730 
  134.5000    71.6340    23.1540    22.6600    19.0480    24.6030     2.1820   -15.1460 
  134.6250    76.4410    21.0200    20.5800    16.2080    24.6090     2.1670   -15.3680 
  134.7500    76.7920    19.7600    19.2330    16.3010    24.5750     2.1550   -15.5870 
  134.8750    72.9540    19.3030    18.6700    16.8710    24.5840     2.1450   -15.8280 
  135.0000    69.7110    19.3770    18.7140    17.3480    24.5580     2.1410   -16.0820 
  135.1250    69.3750    19.6110    19.0000    18.0470    24.5240     2.1440   -16.2760 
  135.2500    69.9880    19.6060    19.0400    18.7140    24.5350     2.1510   -16.4730 
  135.3750    72.6080    19.1430    18.5610    19.1260    24.5590     2.1610   -16.6250 
  135.5000    77.5340    18.2040    17.5360    18.4800    24.5290     2.1780   -16.7610 
  135.6250    79.8520    17.0060    16.2140    15.3570    24.3790     2.2030   -16.8040 
  135.7500    76.6140    15.9420    15.0330    12.1980    24.1190     2.2240   -16.7920 
  135.8750    71.7930    15.1980    14.2030    11.1050    23.7890     2.2290   -16.6750 
  136.0000    70.7310    14.7760    13.7450    12.3090    23.4540     2.2150   -16.4690 
  136.1250    72.6390    14.5820    13.5740    15.3120    23.4000     2.1940   -16.2180 
  136.2500    73.8550    14.4980    13.5090    15.9510    23.6190     2.1810   -15.9180 
  136.3750    74.9880    14.5910    13.5340    13.0680    23.9370     2.1820   -15.6270 
  136.5000    76.8730    15.0630    13.7700    12.5770    24.0330     2.1910   -15.2930 
  136.6250    75.0630    16.2980    14.5640    18.0530    24.2210     2.1970   -14.9820 
  136.7500    68.1230    18.3180    16.0850    24.3560    24.4970     2.1940   -14.6740 
  136.8750    60.2310    20.9920    18.3780    27.1130    24.7470     2.1850   -14.3800 
  137.0000    55.7970    23.9540    21.2120    28.2800    24.9410     2.1720   -14.1350 
  137.1250    55.7650    26.5880    23.9830    28.4070    25.3410     2.1550   -13.9140 
  137.2500    57.1830    28.5380    26.1190    27.2250    25.6330     2.1330   -13.6990 
  137.3750    58.6520    29.8010    27.4810    25.7970    25.6920     2.1110   -13.5070 
  137.5000    59.9440    30.6180    28.2810    23.8440    25.4840     2.0930   -13.3430 
  137.6250    61.2420    31.2080    28.7800    26.3710    25.1100     2.0860   -13.1920 
  137.7500    61.7570    31.6240    29.1100    30.9980    25.0160     2.0900   -13.1060 
  137.8750    61.5350    31.7280    29.2020    32.5020    25.3980     2.1010   -13.0790 
  138.0000    62.0170    31.4060    29.0180    29.7750    25.7930     2.1190   -13.0760 
  138.1250    63.0630    30.6720    28.6410    27.3680    25.6590     2.1400   -13.0980 
  138.2500    63.4270    29.8960    28.3340    26.7510    25.2990     2.1600   -13.2020 
  138.3750    63.8680    29.4730    28.3360    25.6720    25.0180     2.1700   -13.3470 
  138.5000    64.8150    29.7920    28.8820    24.4870    24.9110     2.1670   -13.5420 
  138.6250    64.2530    31.2860    30.3280    25.4940    24.9910     2.1480   -13.8330 
  138.7500    62.2600    33.6400    32.5570    29.3970    25.2660     2.1190   -14.1920 
  138.8750    61.2950    36.1360    35.0840    35.8640    25.5990     2.0820   -14.6250 
  139.0000    62.8630    37.5140    36.7850    39.8960    25.7660     2.0450   -15.1540 
  139.1250    66.6990    35.8960    35.6830    38.8950    25.6900     2.0230   -15.8160 
  139.2500    71.5710    31.3700    31.5800    33.2280    25.4000     2.0280   -16.5040 
  139.3750    78.0680    25.0200    25.4610    22.5740    24.9220     2.0670   -17.2250 
  139.5000    86.8000    18.4990    19.0100    12.0330    24.3180     2.1310   -17.9640 
  139.6250    94.8250    13.3830    13.8270     7.8780    23.9940     2.2000   -18.5960 
  139.7500    99.2780     9.9160    10.1790     6.5480    23.9570     2.2550   -19.1360 
  139.8750   100.8050     7.9730     7.9310     6.3390    24.0540     2.2960   -19.5400 
  140.0000   100.8170     7.3400     6.8590     6.4510    24.1670     2.3330   -19.7600 
  140.1250    97.9810     8.0860     7.0010     8.1300    24.1730     2.3730   -19.8210 
  140.2500    93.0150     9.9920     8.2140    14.1210    24.0500     2.4070   -19.7390 
  140.3750    87.9010    13.0020    10.6060    25.7460    23.9110     2.4180   -19.5010 
  140.5000    82.6220    16.8530    14.1760    32.4900    23.8930     2.3940   -19.1810 
  140.6250    76.5780    20.8550    18.5760    30.3390    24.0730     2.3330   -18.8190 
  140.7500    71.7580    24.0660    22.6770    29.0160    24.3700     2.2630   -18.4470 
  140.8750    69.4820    25.9500    25.5600    29.2520    24.5610     2.2060   -18.0930 
  141.0000    68.5130    26.5450    26.8620    29.5610    24.6150     2.1750   -17.7670 
  141.1250    68.6130    26.3570    26.8030    29.4610    24.6030     2.1690   -17.4900 
  141.2500    69.5110    26.1720    26.2960    28.9530    24.5760     2.1720   -17.2520 
  141.3750    70.5890    26.2990    25.7990    28.3720    24.5740     2.1750   -17.0650 
  141.5000    71.3000    26.7730    25.5220    28.0980    24.5900     2.1770   -16.9020 
  141.6250    71.7020    27.4680    25.5330    28.1510    24.6140     2.1760   -16.7700 
  141.7500    71.5700    28.1390    25.6920    28.4660    24.6160     2.1740   -16.6680 
  141.8750    70.7700    28.6180    25.8650    28.9230    24.6160     2.1710   -16.5840 
  142.0000    69.9130    28.8010    25.9280    28.5030    24.6090     2.1650   -16.5250 
  142.1250    70.1270    28.6320    25.7690    27.1900    24.5660     2.1550   -16.4610 
  142.2500    72.1890    28.2710    25.4250    26.5220    24.5060     2.1420   -16.3980 
  142.3750    75.1140    27.8860    24.9800    26.5130    24.4890     2.1300   -16.3430 
  142.5000    76.5540    27.6410    24.5650    26.1800    24.4850     2.1240   -16.2890 
  142.6250    74.6590    27.6850    24.3780    25.5520    24.4930     2.1300   -16.2220 
