~V
VERS. 2.00: Ver 2.00
~W
STRT.M 56.0000:
STOP.M 261.0000:
STEP.M 0.1250:
NULL. -999.2500:
UWI. F10028:
~C
DEPT.M :
GR.API :
RML.OHMM :
RI. :
RXO.OHMM :
CALI.CM :
DEN.GM/CC :
SP.MV :
~A
# ...
  247.2500    32.5600     5.6230     4.7870     6.9120    24.4470     2.4260    -2.6400 
  247.3750    28.5410     5.6360     4.8100     6.9570    24.4560     2.4270    -2.6650 
  247.5000    26.9210     5.7260     4.8980     6.1470    24.4740     2.4180    -2.7490 
  247.6250    28.0270     5.9200     5.0640     5.0870    24.4800     2.4060    -2.8580 
  247.7500    30.0010     6.1810     5.2850     4.8600    24.5280     2.3980    -2.9850 
  247.8750    33.7880     6.4410     5.5190     5.1380    24.5750     2.3920    -3.1320 
  248.0000    39.6940     6.5990     5.6940     5.6510    24.5700     2.3850    -3.3440 
  248.1250    43.5380     6.5140     5.6930     6.4440    24.4630     2.3740    -3.6140 
  248.2500    44.3190     6.2070     5.5050     6.2190    24.3630     2.3610    -3.8830 
  248.3750    43.9270     5.7720     5.1840     5.3880    24.3270     2.3520    -4.1060 
  248.5000    43.6610     5.3420     4.8270     4.7710    24.3030     2.3490    -4.3100 
  248.6250    42.3190     5.0490     4.5420     4.4950    24.2480     2.3520    -4.5660 
  248.7500    39.9270     4.9110     4.3660     4.5190    24.1450     2.3550    -4.8830 
  248.8750    37.9530     4.9010     4.2950     4.8420    24.0390     2.3560    -5.2250 
  249.0000    37.2470     4.9620     4.2980     4.9520    23.9920     2.3570    -5.5060 
  249.1250    37.4730     5.0280     4.3310     4.7300    24.0200     2.3600    -5.6870 
  249.2500    37.4730     5.0500     4.3510     4.5850    24.0950     2.3680    -5.7980 
  249.3750    37.4730     5.0200     4.3420     4.5520    24.1690     2.3770    -5.8840 
  249.5000    37.4730     4.9530     4.3080     4.5840    24.2020     2.3840    -5.9220 
  249.6250    37.4730     4.8740     4.2620     4.6090    24.2170     2.3850    -5.8940 
  249.7500    37.4730     4.8070     4.2180     4.5270    24.2130     2.3820    -5.7730 
  249.8750    37.4730     4.7570     4.1810     4.3990    24.2120     2.3790    -5.5720 
  250.0000    37.4730     4.7200     4.1550     4.3730    24.2100     2.3790    -5.3770 
  250.1250    37.4730     4.6980     4.1450     4.4450    24.2180     2.3840    -5.2550 
  250.2500    37.4730     4.6940     4.1450     4.5360    24.2400     2.3930    -5.1750 
  250.3750    37.4730     4.7160     4.1550     4.7160    24.2830     2.4030    -5.0860 
  250.5000    37.4730     4.7710     4.1790     4.8910    24.3340     2.4150    -5.0230 
  250.6250    37.4730     4.8750     4.2350     5.1900    24.3550     2.4240    -4.9350 
  250.7500    37.4730     5.0200     4.3350     5.3680    24.3620     2.4280    -4.8630 
  250.8750    37.4730     5.2090     4.4810     5.4890    24.3640     2.4240    -4.9090 
  251.0000    37.4730     5.4320     4.6650     5.8910    24.3700     2.4110    -5.0290 
  251.1250    37.4730     5.6620     4.8600     6.2250    24.3840     2.3920    -5.1210 
  251.2500    37.4730     5.8540     5.0240     6.3700    24.3830     2.3750    -5.1970 
  251.3750    37.4730     5.9690     5.1250     6.3240    24.3420     2.3650    -5.2900 
  251.5000    37.4730     5.9820     5.1420     6.1310    24.2740     2.3630    -5.3540 
  251.6250    37.4730     5.8780     5.0630     5.9510    24.2550     2.3690    -5.4010 
  251.7500    37.4730     5.7210     4.9360     6.1990    24.2120     2.3790    -5.4050 
  251.8750    37.4730     5.5700     4.8110     5.6810    24.1670     2.3900    -5.3120 
  252.0000    37.4730     5.4840     4.7340     5.3040    24.1650     2.3990    -5.1690 
  252.1250    37.4730     5.5290     4.7560     5.3740    24.2060     2.4030    -5.0740 
  252.2500    37.4730     5.6910     4.8670     5.9340    24.2050     2.4030    -5.0200 
  252.3750    37.4730     5.9200     5.0390     6.2230    24.1920     2.3980    -4.9710 
  252.5000    37.4730     6.1260     5.2100     6.1350    24.1900     2.3880    -4.9280 
  252.6250    37.4730     6.1760     5.2840     5.9420    24.1880     2.3710    -4.8950 
  252.7500    37.4730     6.0480     5.2290     6.4290    24.1690     2.3500    -4.9220 
  252.8750    37.4730     5.8000     5.0720     7.4060    24.1640     2.3300    -4.9780 
  253.0000    37.4730     5.5460     4.8860     8.2190    24.1960     2.3170    -5.0120 
  253.1250    37.4730     5.4140     4.7640     6.6810    24.2560     2.3190    -4.9920 
  253.2500    37.4730     5.4230     4.7430     7.3040    24.3440     2.3300    -4.9050 
  253.3750    37.4730     5.5510     4.8210     9.2450    24.4760     2.3440    -4.8100 
  253.5000    37.4730     5.7330     4.9620     9.5330    24.6180     2.3520    -4.7420 
  253.6250    37.4730     5.8700     5.0960     6.9940    24.6520     2.3490    -4.6760 
  253.7500    37.4730     5.9010     5.1590     6.3250    24.6080     2.3360    -4.5800 
  253.8750    37.4730     5.8150     5.1260     6.7470    24.5990     2.3210    -4.4530 
  254.0000    37.4730     5.6370     5.0020     6.3940    24.6090     2.3100    -4.3720 
  254.1250    37.4730     5.4070     4.8130     5.4720    24.6260     2.3110    -4.3300 
  254.2500    37.4730     5.1750     4.6100     4.6920    24.6250     2.3240    -4.3770 
  254.3750    37.4730     4.9640     4.4210     4.3680    24.6630     2.3410    -4.4670 
  254.5000    37.4730     4.7930     4.2690     4.3450    24.6960     2.3570    -4.5910 
  254.6250    37.4730     4.6860     4.1750     4.3110    24.6260     2.3670    -4.7770 
  254.7500    37.4730     4.6320     4.1260     4.3400    24.4030     2.3730    -5.0150 
  254.8750    37.4730     4.6150     4.1080     4.4510    24.2270     2.3790    -5.3190 
  255.0000    37.4730     4.6160     4.1030     4.5020    24.1000     2.3860    -5.6020 
  255.1250    37.4730     4.6160     4.1030     4.4040    24.0510     2.3880    -5.8510 
  255.2500    37.4730     4.6160     4.1030     4.3200    24.1150     2.3840    -6.0960 
  255.3750    37.4730     4.6160     4.1030     4.3570    24.2320     2.3770    -6.3650 
  255.5000    37.4730     4.6160     4.1030     4.4650    24.2840     2.3700    -6.6070 
  255.6250    37.4730     4.6160     4.1030     4.4450    24.3200     2.3630    -6.8690 
  255.7500    37.4730     4.6160     4.1030     4.3790    24.3580     2.3540    -7.1430 
  255.8750    37.4730     4.6160     4.1030     4.3880    24.3390     2.3420    -7.3750 
  256.0000    37.4730     4.6160     4.1030     4.7230    24.2400     2.3290    -7.6400 
  256.1250    37.4730     4.6160     4.1030     5.1550    24.1370     2.3230    -7.9640 
  256.2500    37.4730     4.6160     4.1030     5.3740    24.1000     2.3260    -8.2630 
  256.3750    37.4730     4.6160     4.1030     5.1020    24.1420     2.3370    -8.4740 
  256.5000    37.4730     4.6160     4.1030     4.8800    24.1940     2.3500    -8.6730 
  256.6250    37.4730     4.6160     4.1030     4.9530    24.2260     2.3560    -8.7910 
  256.7500    37.4730     4.6160     4.1030     5.0110    24.2430     2.3530    -8.7350 
  256.8750    37.4730     4.6160     4.1030     4.9450    24.1960     2.3420    -8.4180 
  257.0000    37.4730     4.6160     4.1030     4.8720    24.0020     2.3270    -7.7750 
  257.1250    37.4730     4.6160     4.1030     4.9030    23.7920     2.3070    -6.9900 
  257.2500    37.4730     4.6160     4.1030     5.0700    23.5790     2.2840    -6.1660 
  257.3750    37.4730     4.6160     4.1030     5.3970    23.2370     2.2580    -5.3210 
  257.5000    37.4730     4.6160     4.1030     6.0690    22.7170     2.2300    -4.4560 
  257.6250    37.4730     4.6160     4.1030     6.6890    21.7800     2.2020    -3.6530 
  257.7500    37.4730     4.6160     4.1030     6.7550    20.5350     2.1750    -3.0070 
  257.8750    37.4730     4.6160     4.1030     6.3770    18.8110     2.1490    -2.6060 
  258.0000    37.4730     4.6160     4.1030     6.0060    17.0290     2.1280    -2.4740 
  258.1250    37.4730     4.6160     4.1030     5.8930    15.7210     2.1150    -2.3910 
  258.2500    37.4730     4.6160     4.1030     5.8930    14.9970     2.1080    -2.3050 
  258.3750    37.4730     4.6160     4.1030     5.9890    14.5750     2.1040    -2.2700 
