~V
VERS. 2.00: Ver 2.00
~W
STRT.M 57.0000:
STOP.M 296.0000:
STEP.M 0.1250:
NULL. -999.2500:
UWI. F10043:
~C
DEPT.M :
GR.API :
RML.OHMM :
RI. :
RXO.OHMM :
CALI.CM :
DEN.GM/CC :
SP.MV :
~A
# ...
  180.7500    68.6220    18.4690    17.7420    14.4650    22.3480     2.4870   -15.8260 
  180.8750    67.8450    17.5490    17.0390    14.2980    22.3350     2.5040   -15.7440 
  181.0000    67.3830    15.7740    15.5350    13.9690    22.2990     2.5220   -15.6310 
  181.1250    67.4090    13.3900    13.4480    12.6000    22.3000     2.5260   -15.5300 
  181.2500    67.6070    11.0330    11.3200     9.8650    22.4390     2.5080   -15.4020 
  181.3750    67.2940     9.0870     9.4730     7.3740    22.6590     2.4700   -15.2690 
  181.5000    67.3840     7.7210     8.0820     6.3340    22.7630     2.4180   -15.1730 
  181.6250    68.2180     6.9870     7.2560     6.4730    22.8070     2.3670   -15.0880 
  181.7500    69.0190     6.6500     6.8220     6.7260    23.0780     2.3270   -15.0270 
  181.8750    68.8540     6.5630     6.6550     6.4540    23.5150     2.2990   -14.9660 
  182.0000    66.6950     6.5940     6.6430     5.8850    23.8550     2.2750   -14.9110 
  182.1250    61.8410     6.6620     6.7310     5.6630    24.1730     2.2490   -14.8830 
  182.2500    57.8210     6.7320     6.8560     5.7040    24.1480     2.2240   -14.8710 
  182.3750    55.6820     6.7990     6.9630     5.6750    23.9380     2.2160   -14.8730 
  182.5000    54.1320     6.8520     7.0040     5.4900    23.8720     2.2380   -14.8990 
  182.6250    50.7130     6.8740     6.9730     5.4750    24.2350     2.2920   -14.9150 
  182.7500    47.6460     6.8800     6.9290     5.6740    25.2300     2.3530   -14.9410 
  182.8750    46.0390     6.8880     6.8940     6.0030    26.3980     2.3960   -14.9810 
  183.0000    44.8700     6.9040     6.8620     6.1770    27.2380     2.4050   -15.0700 
  183.1250    43.2840     6.9150     6.8310     6.1990    27.6770     2.3760   -15.1260 
  183.2500    41.6440     6.9070     6.8280     6.0910    27.7030     2.3340   -15.2190 
  183.3750    40.2690     6.8800     6.8560     5.9210    27.4210     2.3020   -15.3080 
  183.5000    39.3900     6.8520     6.8710     5.8750    27.0380     2.2940   -15.3500 
  183.6250    38.5540     6.8490     6.8080     6.0030    26.5170     2.3160   -15.4330 
  183.7500    38.0930     6.8690     6.6990     6.2990    25.9720     2.3480   -15.5180 
  183.8750    38.1360     6.9030     6.6190     6.4010    25.7420     2.3700   -15.6170 
  184.0000    39.4920     6.9340     6.6060     6.2300    25.6670     2.3680   -15.6860 
  184.1250    41.7680     6.9470     6.6190     6.2210    25.9590     2.3460   -15.7900 
  184.2500    43.1760     6.9320     6.5900     6.4240    25.8290     2.3310   -15.8630 
  184.3750    42.5850     6.8990     6.5180     6.5110    25.3230     2.3400   -15.9450 
  184.5000    41.4140     6.8870     6.4540     6.5130    25.0070     2.3680   -16.0520 
  184.6250    41.6330     6.9710     6.4810     6.4810    25.4410     2.3810   -16.1350 
  184.7500    42.8400     7.1780     6.6230     6.5470    25.8980     2.3520   -16.1960 
  184.8750    45.2410     7.4860     6.8740     6.8140    25.5590     2.2810   -16.2380 
  185.0000    49.4360     7.8140     7.1810     7.4000    24.5480     2.2050   -16.2720 
  185.1250    54.0260     8.0040     7.4120     8.1250    23.4450     2.1790   -16.2720 
  185.2500    55.7570     7.9860     7.4460     7.8100    22.8740     2.2130   -16.2660 
  185.3750    53.8600     7.7920     7.2680     7.0040    22.8320     2.2810   -16.2410 
  185.5000    50.6360     7.5380     6.9940     6.2640    23.1420     2.3410   -16.2050 
  185.6250    48.8620     7.3830     6.8310     5.9890    23.5870     2.3580   -16.1510 
  185.7500    47.9440     7.3820     6.8450     6.0020    23.9410     2.3490   -16.1040 
  185.8750    45.6890     7.4980     6.9670     6.3170    24.2330     2.3420   -16.0520 
  186.0000    42.7380     7.6210     7.0530     6.7780    24.5970     2.3600   -15.9970 
  186.1250    42.1890     7.6030     6.9700     7.0590    25.0560     2.4030   -15.9650 
  186.2500    44.9880     7.4170     6.7620     6.8490    25.6710     2.4430   -15.9330 
  186.3750    48.1870     7.1020     6.5070     6.4870    26.5650     2.4560   -15.8870 
  186.5000    49.0470     6.7450     6.2580     6.0000    27.3280     2.4330   -15.8260 
  186.6250    48.9720     6.4470     6.0410     5.8640    27.2200     2.3830   -15.7960 
  186.7500    52.9420     6.2710     5.8940     5.8570    26.8210     2.3230   -15.7680 
  186.8750    61.1610     6.2800     5.8780     5.7950    26.6720     2.2600   -15.7500 
  187.0000    69.0100     6.5250     6.0480     5.6040    26.6100     2.1910   -15.7290 
  187.1250    72.5130     7.0510     6.4400     5.8430    26.3890     2.1190   -15.7170 
  187.2500    76.3580     7.7220     6.9420     6.5790    25.6610     2.0690   -15.7170 
  187.3750    81.8180     8.3720     7.4480     7.8370    25.0890     2.0650   -15.7300 
  187.5000    84.0730     8.8120     7.8630     9.4240    24.8230     2.1180   -15.7530 
  187.6250    79.5890     8.8750     8.0730     9.6860    24.7530     2.2110   -15.7550 
  187.7500    75.3540     8.6780     8.0520     9.0210    24.7670     2.2990   -15.7620 
  187.8750    75.9890     8.3770     7.8140     8.3390    24.7970     2.3600   -15.7610 
  188.0000    79.4570     8.1040     7.4560     8.0540    24.8460     2.3910   -15.7780 
  188.1250    80.2990     7.9400     7.1510     7.8790    24.9440     2.4030   -15.7810 
  188.2500    77.8920     7.8670     7.0080     7.5500    25.0170     2.4100   -15.8020 
  188.3750    75.8200     7.8660     7.0200     7.1750    25.0260     2.4160   -15.8420 
  188.5000    77.2220     7.9290     7.1090     6.9420    24.9550     2.4210   -15.9180 
  188.6250    79.9910     8.0650     7.2120     7.4200    24.8470     2.4260   -16.0230 
  188.7500    80.3240     8.2440     7.3400     7.8810    24.7700     2.4280   -16.1530 
  188.8750    79.7140     8.4220     7.5140     8.1940    24.7340     2.4260   -16.3010 
  189.0000    79.8110     8.5490     7.7010     8.4090    24.7310     2.4160   -16.4490 
  189.1250    80.0140     8.5940     7.8140     8.4550    24.6570     2.3980   -16.6020 
  189.2500    80.4080     8.6060     7.8520     8.3000    24.4920     2.3770   -16.7510 
  189.3750    80.7030     8.6550     7.9030     8.2120    24.2230     2.3600   -16.9010 
  189.5000    79.4840     8.8110     8.0790     8.3430    23.9240     2.3510   -17.0410 
  189.6250    78.4470     9.1240     8.4270     8.8240    23.7960     2.3550   -17.1980 
  189.7500    80.6250     9.5310     8.8260     9.6790    23.8780     2.3630   -17.3370 
  189.8750    83.4580     9.9470     9.1660    10.3110    24.1050     2.3690   -17.4580 
  190.0000    83.4580    10.2680     9.3980    10.6000    24.2840     2.3710   -17.5540 
  190.1250    81.8310    10.3870     9.5070    10.4920    24.1460     2.3730   -17.6330 
  190.2500    83.8500    10.3330     9.5200    10.2240    23.9050     2.3810   -17.6940 
  190.3750    89.5030    10.1630     9.4560     9.8830    23.7270     2.3940   -17.7410 
  190.5000    93.0560     9.9510     9.3690     9.6750    23.6600     2.4100   -17.7730 
  190.6250    92.4360     9.7660     9.3370     9.7820    23.6510     2.4220   -17.7700 
  190.7500    91.5390     9.6250     9.3670     9.8330    23.6510     2.4270   -17.7580 
  190.8750    90.2070     9.5160     9.4010     9.5530    23.6510     2.4270   -17.7370 
  191.0000    87.1780     9.4240     9.3670     9.5800    23.6510     2.4250   -17.7310 
  191.1250    85.2020     9.3480     9.2560    10.2810    23.6510     2.4240   -17.7440 
  191.2500    87.4330     9.2930     9.1800    10.8600    23.6510     2.4250   -17.7790 
  191.3750    90.2140     9.2730     9.2130    10.2540    23.6170     2.4250   -17.8100 
  191.5000    89.7220     9.2880     9.3210     9.0960    23.4760     2.4260   -17.8220 
  191.6250    86.6810     9.3150     9.3780     8.3700    23.1340     2.4270   -17.8130 
  191.7500    82.1320     9.3150     9.3230     7.9730    22.8410     2.4260   -17.7950 
  191.8750    79.2900     9.2530     9.1840     7.8160    22.7620     2.4220   -17.7760 
