~V
VERS. 2.00: Ver 2.00
~W
STRT.M 60.0000:
STOP.M 271.0000:
STEP.M 0.1250:
NULL. -999.2500:
UWI. F10035:
~C
DEPT.M :
GR.API :
RML.OHMM :
RI. :
RXO.OHMM :
CALI.CM :
DEN.GM/CC :
SP.MV :
~A
# ...
  240.0000    54.3080   171.3200   161.9750   176.2490    24.7150     2.2060   -11.6460 
  240.1250    52.8860   188.4720   180.2090   193.8160    24.7240     2.2120   -11.4650 
  240.2500    50.8060   212.5870   205.8580   199.1730    24.7320     2.2090   -11.2490 
  240.3750    51.3230   244.4180   239.8260   214.0880    24.7430     2.1970   -11.1080 
  240.5000    53.5640   280.6980   279.5620   250.6630    24.7550     2.1830   -10.8750 
  240.6250    53.7630   298.6850   306.7830   333.3970    24.7480     2.1780   -10.5530 
  240.7500    51.6230   270.2240   294.6960   387.8250    24.7160     2.1880   -10.3450 
  240.8750    51.1200   200.2470   236.2600   393.3930    24.6950     2.2120   -10.1110 
  241.0000    55.4930   126.7900   158.6740   311.9930    24.7260     2.2460    -9.7260 
  241.1250    64.1440    78.3310    98.2000   136.5090    24.7810     2.2830    -9.3810 
  241.2500    71.9400    49.6740    60.6930    56.1350    24.7950     2.3160    -9.1760 
  241.3750    76.8360    34.0080    40.4440    30.1810    24.7760     2.3410    -9.0250 
  241.5000    80.1370    26.4400    30.9130    22.6830    24.7480     2.3540    -9.0200 
  241.6250    81.4410    24.9260    28.5820    20.9830    24.7210     2.3540    -9.2930 
  241.7500    77.4480    27.5120    30.7960    22.1990    24.6980     2.3500    -9.7200 
  241.8750    68.0770    34.1940    37.7940    29.0310    24.6880     2.3490   -10.2960 
  242.0000    58.9890    45.2620    50.2330    49.1930    24.6870     2.3530   -10.9580 
  242.1250    55.4470    61.0820    68.3090    84.6080    24.6870     2.3510   -11.7020 
  242.2500    56.0460    78.6660    87.7010   103.1660    24.6870     2.3380   -12.5380 
  242.3750    59.1150    94.1380   103.7280    98.8620    24.6870     2.3250   -13.3870 
  242.5000    61.8150   104.3570   113.4130    94.1450    24.6830     2.3300   -14.1410 
  242.6250    59.8740   109.0290   116.7970   105.6920    24.6530     2.3650   -14.6800 
  242.7500    55.9750   112.0800   117.9900   109.4470    24.5760     2.4050   -14.9870 
  242.8750    55.0620   115.5280   119.0700   122.0670    24.4980     2.4210   -15.0740 
  243.0000    56.8270   119.9480   120.7500   139.9040    24.5750     2.3910   -15.1100 
  243.1250    55.0110   125.4640   123.3140   118.7610    24.6830     2.3200   -15.0330 
  243.2500    51.6170   131.9190   126.8910   107.3610    24.7170     2.2460   -14.6970 
  243.3750    52.6290   138.9860   131.4200   125.4970    24.7100     2.1920   -14.2350 
  243.5000    57.3120   145.7180   136.2410   153.0960    24.7190     2.1650   -13.7460 
  243.6250    59.6600   150.2560   139.8930   161.5660    24.7290     2.1600   -13.1220 
  243.7500    57.7990   151.5110   141.2160   154.7460    24.7650     2.1650   -12.4780 
  243.8750    53.8970   148.9690   139.5140   145.6970    24.7930     2.1730   -11.8690 
  244.0000    50.8230   143.2990   135.0120   140.5880    24.7940     2.1840   -11.2160 
  244.1250    50.0960   136.1600   128.8520   136.0730    24.7580     2.2030   -10.6000 
  244.2500    51.4400   129.4220   122.7620   130.5090    24.7220     2.2250   -10.1090 
  244.3750    53.4770   123.7850   117.4880   120.3040    24.6960     2.2440    -9.6010 
  244.5000    54.9630   119.4350   113.3090   109.7170    24.6870     2.2530    -9.0920 
  244.6250    56.0250   116.4610   110.3780   112.7150    24.6870     2.2460    -8.7390 
  244.7500    57.0650   114.7490   108.5930   124.7240    24.6840     2.2370    -8.3360 
  244.8750    58.6430   114.9150   108.4930   128.0050    24.6660     2.2450    -7.8560 
  245.0000    59.8820   117.9410   110.9740   123.7280    24.6270     2.2900    -7.4110 
  245.1250    58.8460   124.9640   116.9860   124.7980    24.6090     2.3820    -6.9610 
  245.2500    56.2140   133.4300   124.2430   144.5180    24.6160     2.4930    -6.4310 
  245.3750    53.5180   136.2650   127.4360   187.1840    24.5900     2.5920    -5.9180 
  245.5000    50.7650   122.6430   118.3610   244.1390    24.5340     2.6560    -5.4440 
  245.6250    47.2080    90.7630    92.3140   222.1920    24.4420     2.6730    -4.8620 
  245.7500    43.2190    59.6180    62.9290   126.9130    24.3600     2.6690    -4.3010 
  245.8750    39.2580    37.7990    40.1350    50.8510    24.3010     2.6630    -3.8610 
  246.0000    34.6120    22.4160    26.1420    19.4110    24.2830     2.6690    -3.4520 
  246.1250    28.8780    17.1180    19.5530    13.5280    24.3120     2.6880    -3.0780 
  246.2500    23.7910    14.8480    16.5190    23.6020    24.4330     2.7010    -2.8300 
  246.3750    21.2710    14.1290    15.3270    53.0770    24.5160     2.6930    -2.6580 
  246.5000    22.5440    13.7810    14.7530    79.0290    24.5350     2.6560    -2.5670 
  246.6250    27.7380    12.7950    13.7820    54.1270    24.4980     2.5920    -2.5930 
  246.7500    35.0900    11.1020    12.1850    27.5920    24.4220     2.5210    -2.6890 
  246.8750    42.4680     9.1840    10.3480    14.1040    24.2820     2.4580    -2.8120 
  247.0000    46.4680     7.5770     8.7380     8.9740    24.0990     2.4090    -2.8840 
  247.1250    46.4460     6.5920     7.6400     7.9230    24.0100     2.3710    -2.8510 
  247.2500    46.3370     6.0250     6.9170     7.7710    23.9970     2.3400    -2.6650 
  247.3750    47.5180     5.6880     6.4330     7.4030    24.0470     2.3140    -2.3590 
  247.5000    48.5050     5.4330     6.0630     6.7280    24.1310     2.2960    -1.9740 
  247.6250    48.0640     5.1830     5.7370     5.8780    24.1860     2.2930    -1.5840 
  247.7500    47.6300     4.9480     5.4460     5.2770    24.1630     2.3010    -1.2270 
  247.8750    47.0170     4.7670     5.2140     4.9900    24.1610     2.3170    -0.9500 
  248.0000    44.1020     4.6850     5.0730     4.7490    24.2620     2.3360    -0.8560 
  248.1250    38.7910     4.7750     5.0840     4.6750    24.3530     2.3520    -0.9310 
  248.2500    35.4540     5.0450     5.2520     4.7580    24.4260     2.3620    -1.2240 
  248.3750    37.7770     5.4780     5.5690     5.3170    24.5000     2.3680    -1.7630 
  248.5000    44.9660     5.9940     5.9760     6.7690    24.5540     2.3720    -2.3930 
  248.6250    53.0660     6.4180     6.3310     8.9730    24.5770     2.3730    -3.0540 
  248.7500    58.3080     6.6170     6.5060     9.0890    24.5750     2.3710    -3.7000 
  248.8750    58.7430     6.5940     6.4830     7.9920    24.5540     2.3620    -4.2650 
  249.0000    55.7620     6.4940     6.3650     6.6700    24.5280     2.3450    -4.8270 
  249.1250    54.6790     6.5630     6.3410     5.8830    24.5450     2.3230    -5.4480 
  249.2500    59.3600     6.9070     6.5100     5.9950    24.5770     2.3060    -6.0030 
  249.3750    69.0570     7.4790     6.8670     7.1760    24.5960     2.2990    -6.4320 
  249.5000    78.5960     8.0880     7.2920     8.5550    24.5830     2.3060    -6.7360 
  249.6250    81.4270     8.4150     7.5470     9.6570    24.5910     2.3240    -6.9540 
  249.7500    77.8610     8.3610     7.5190     9.7410    24.6110     2.3450    -7.0500 
  249.8750    72.0750     8.0420     7.2660     8.9360    24.6430     2.3610    -7.0780 
  250.0000    67.6310     7.7080     6.9570     7.4760    24.6400     2.3700    -7.0410 
  250.1250    64.6790     7.6230     6.7840     7.5000    24.6350     2.3720    -6.8900 
  250.2500    63.8250     7.7790     6.7820     8.4100    24.6300     2.3750    -6.6970 
  250.3750    64.3590     8.0430     6.8980     9.1790    24.6030     2.3810    -6.4230 
  250.5000    64.5560     8.2330     7.0220     9.4070    24.5820     2.3880    -6.1430 
  250.6250    64.1750     8.1710     7.0170     9.1720    24.6330     2.3870    -5.7760 
  250.7500    64.4790     7.9180     6.8710     8.7070    24.6690     2.3750    -5.4940 
  250.8750    65.0730     7.6300     6.6700     8.0900    24.6660     2.3570    -5.3030 
  251.0000    64.6500     7.4940     6.5440     7.9900    24.6730     2.3420    -5.0370 
  251.1250    64.0390     7.6700     6.6350     7.6340    24.6730     2.3440    -4.7380 
