~V
VERS. 2.00: Ver 2.00
~W
STRT.M 55.0000:
STOP.M 310.0000:
STEP.M 0.1250:
NULL. -999.2500:
UWI. F10049:
~C
DEPT.M :
GR.API :
RML.OHMM :
RI. :
RXO.OHMM :
CALI.CM :
DEN.GM/CC :
SP.MV :
~A
# ...
  156.2500    84.3690     6.0700     5.5380     5.4160    24.9880     2.3090    -4.7340 
  156.3750    80.2750     6.2980     5.9660     6.1310    24.6560     2.2830    -4.8660 
  156.5000    75.1500     6.6530     6.4210     6.8350    24.2650     2.2530    -5.3680 
  156.6250    72.1620     7.1960     6.8630     7.1780    23.9670     2.2280    -6.2710 
  156.7500    71.8690     7.8580     7.2960     7.6100    23.7690     2.2060    -7.4460 
  156.8750    71.8430     8.5400     7.7410     8.2830    23.7210     2.1850    -8.8630 
  157.0000    70.8020     9.1390     8.2090     8.9550    23.8540     2.1650   -10.4370 
  157.1250    69.2860     9.5550     8.6710     9.3850    24.1610     2.1520   -11.9430 
  157.2500    67.7240     9.8210     9.0710     9.7330    24.4800     2.1530   -13.3170 
  157.3750    67.0530     9.9910     9.3720    10.1780    24.7140     2.1660   -14.5560 
  157.5000    67.9370    10.1200     9.5480    10.7170    24.8460     2.1840   -15.6540 
  157.6250    68.2430    10.2200     9.5710    11.2030    24.8670     2.1960   -16.5370 
  157.7500    66.0690    10.2700     9.4790    11.0300    24.8210     2.1970   -17.1740 
  157.8750    64.2140    10.2420     9.3070    10.7210    24.7970     2.1870   -17.5910 
  158.0000    66.1000    10.1450     9.1110    10.5910    24.7920     2.1710   -17.8430 
  158.1250    69.4170    10.0400     8.9730    10.8760    24.7940     2.1570   -18.0040 
  158.2500    69.8880     9.9890     8.9490    11.0040    24.8090     2.1490   -18.0740 
  158.3750    67.5460    10.0070     9.0570    11.2470    24.8320     2.1510   -18.1140 
  158.5000    64.7000    10.0730     9.2730    11.6710    24.8370     2.1630   -18.2120 
  158.6250    64.1190    10.1730     9.5410    11.8330    24.8130     2.1800   -18.4100 
  158.7500    64.7470    10.3020     9.7740    12.2120    24.8030     2.1900   -18.7390 
  158.8750    65.7210    10.4550     9.9020    12.9650    24.8210     2.1890   -19.1130 
  159.0000    66.6900    10.5840     9.8860    14.0550    24.8750     2.1780   -19.4200 
  159.1250    67.1910    10.5720     9.7230    12.5920    24.9120     2.1630   -19.6070 
  159.2500    66.3370    10.3710     9.4970    11.7110    24.9240     2.1520   -19.6620 
  159.3750    65.7010    10.0160     9.2670    11.2880    24.9290     2.1470   -19.6020 
  159.5000    67.6320     9.6080     9.0630    11.0000    24.9530     2.1450   -19.4540 
  159.6250    70.7930     9.2820     8.9070    10.6530    25.0020     2.1430   -19.3550 
  159.7500    71.4070     9.0840     8.8090    10.6340    25.0520     2.1380   -19.3090 
  159.8750    69.2720     9.0080     8.7920    10.8670    25.1040     2.1340   -19.3500 
  160.0000    66.3310     9.0390     8.8710    11.3180    25.1540     2.1350   -19.5140 
  160.1250    64.5080     9.2040     9.0460    11.5730    25.2090     2.1450   -19.8570 
  160.2500    64.4470     9.4810     9.2510    11.7020    25.3170     2.1570   -20.3500 
  160.3750    65.2120     9.8180     9.4250    11.8040    25.4720     2.1650   -20.8940 
  160.5000    64.5870    10.1140     9.5290    11.7260    25.5940     2.1600   -21.4340 
  160.6250    63.8750    10.2420     9.5450    11.6330    25.6670     2.1380   -21.8190 
  160.7500    65.3010    10.2060     9.5050    11.0620    25.7330     2.1100   -22.0990 
  160.8750    67.2130    10.0730     9.4370    10.4120    25.6970     2.0870   -22.2330 
  161.0000    67.3040     9.9330     9.3710    10.6070    25.4470     2.0820   -22.1460 
  161.1250    67.0420     9.8610     9.3300    10.8160    24.9980     2.0950   -21.8120 
  161.2500    68.6020     9.8550     9.3120    11.0310    24.7200     2.1160   -21.3870 
  161.3750    70.8550     9.8900     9.3170    11.4340    24.6280     2.1320   -21.0130 
  161.5000    71.3740     9.9340     9.3390    11.9650    24.6520     2.1410   -20.7230 
  161.6250    69.1890     9.9370     9.3430    11.8300    24.7240     2.1440   -20.4390 
  161.7500    66.5140     9.8770     9.2990    11.6950    24.7480     2.1490   -20.0550 
  161.8750    64.8480     9.7890     9.2320    11.8180    24.7410     2.1600   -19.5750 
  162.0000    62.9200     9.7780     9.2540    12.2290    24.7190     2.1750   -19.0850 
  162.1250    60.0200    10.0040     9.5510    12.0810    24.6560     2.1960   -18.6520 
  162.2500    58.5970    10.4320    10.1120    12.0190    24.5230     2.2240   -18.1140 
  162.3750    60.0300    10.8850    10.7840    12.1550    24.3640     2.2620   -17.2300 
  162.5000    64.1180    11.0850    11.2670    13.8640    24.2350     2.3080   -15.9020 
  162.6250    71.5220    10.6510    11.1070    15.5260    24.3020     2.3520   -14.2460 
  162.7500    80.5130     9.7710    10.2890    13.5370    24.4850     2.3810   -12.5150 
  162.8750    86.8210     8.8340     9.0670     9.9150    24.7040     2.3880   -10.8350 
  163.0000    89.1200     8.0860     7.8140     8.4260    24.8480     2.3720    -9.2150 
  163.1250    92.2770     7.5140     6.8910     8.5470    24.8660     2.3390    -7.6610 
  163.2500    94.4500     7.0930     6.3930     7.0340    24.8630     2.3030    -6.2440 
  163.3750    90.6910     6.9850     6.3300     6.2040    24.9450     2.2750    -5.1700 
  163.5000    82.5270     7.2450     6.6310     6.4340    25.0760     2.2600    -4.6030 
  163.6250    79.1610     7.7090     7.1450     7.8870    25.1150     2.2590    -4.5520 
  163.7500    81.3050     8.1250     7.6050     9.6000    25.0670     2.2620    -4.7910 
  163.8750    83.3920     8.3350     7.8300     9.4580    24.9960     2.2660    -5.1050 
  164.0000    85.0300     8.2810     7.7460     8.1170    24.9410     2.2690    -5.3750 
  164.1250    88.7810     8.0110     7.4290     6.8410    24.9240     2.2710    -5.5040 
  164.2500    92.7770     7.7040     7.0980     6.3750    24.9220     2.2740    -5.5230 
  164.3750    93.3540     7.4640     6.8620     6.0930    24.9180     2.2780    -5.4860 
  164.5000    90.4210     7.3220     6.7410     6.1560    24.8790     2.2840    -5.3950 
  164.6250    88.1770     7.2570     6.6950     6.5610    24.8310     2.2930    -5.1280 
  164.7500    89.3100     7.2110     6.6570     7.0130    24.8590     2.3030    -4.7200 
  164.8750    92.2280     7.1590     6.6050     7.6000    24.9810     2.3120    -4.3380 
  165.0000    93.3770     7.0990     6.5420     6.7740    25.1030     2.3180    -4.0930 
  165.1250    90.8040     7.0420     6.4850     6.4940    25.1430     2.3220    -4.0520 
  165.2500    86.5240     6.9920     6.4380     7.0630    25.1410     2.3250    -4.1560 
  165.3750    84.7380     6.9460     6.3990     8.0680    25.1640     2.3220    -4.3010 
  165.5000    86.3630     6.8940     6.3510     7.1840    25.2080     2.3100    -4.4220 
  165.6250    86.4160     6.8370     6.2880     6.5450    25.2580     2.2850    -4.7190 
  165.7500    83.5970     6.8070     6.2410     6.4800    25.2500     2.2580    -5.1630 
  165.8750    80.6320     6.8670     6.2770     6.8260    25.1330     2.2320    -5.7390 
  166.0000    80.6340     7.1370     6.4820     7.2820    24.9090     2.2060    -6.4960 
  166.1250    80.7450     7.7500     6.9470     7.3050    24.6790     2.1700    -7.4930 
  166.2500    77.6280     8.5190     7.6040     8.2400    24.5690     2.1290    -8.6340 
  166.3750    74.6500     9.1830     8.3170    11.0640    24.6230     2.0980    -9.7660 
  166.5000    74.3290     9.5400     8.8900    16.7000    24.7350     2.0900   -10.7800 
  166.6250    75.9610     9.5130     9.0930    16.7580    24.7120     2.1100   -11.5820 
  166.7500    75.3260     9.2630     8.9550    11.6380    24.5420     2.1370   -12.3340 
  166.8750    73.6860     8.9200     8.5970     9.0740    24.3650     2.1540   -13.0050 
  167.0000    74.7280     8.5950     8.1690     9.0580    24.3960     2.1580   -13.4050 
  167.1250    78.8640     8.3420     7.7700     9.3080    24.5910     2.1620   -13.1780 
  167.2500    83.4580     8.1190     7.3990     8.5000    24.7580     2.1780   -12.3610 
  167.3750    87.7220     7.8660     7.0170     7.2030    24.8250     2.2050   -11.2360 
