~V
VERS. 2.00: Ver 2.00
~W
STRT.M 55.0000:
STOP.M 279.0000:
STEP.M 0.1250:
NULL. -999.2500:
UWI. F10072:
~C
DEPT.M :
GR.API :
RML.OHMM :
RI. :
RXO.OHMM :
CALI.CM :
DEN.GM/CC :
SP.MV :
~A
# ...
  156.2500    79.3540     9.6600     9.6400     9.5470    25.1870     2.1850    -8.0870 
  156.3750    87.2000     8.7410     8.8160     7.4830    24.8950     2.2100    -8.0080 
  156.5000    89.3310     8.0700     8.0570     6.2440    24.3130     2.2380    -7.9860 
  156.6250    86.5390     7.6990     7.4830     6.4610    23.8330     2.2600    -7.9820 
  156.7500    84.5400     7.4540     7.0600     7.6120    23.6950     2.2720    -7.9990 
  156.8750    85.8120     7.2070     6.7290     9.1310    23.6970     2.2780    -8.0110 
  157.0000    89.5950     6.8940     6.4290     8.0970    23.8180     2.2840    -8.0060 
  157.1250    91.4120     6.5370     6.1230     6.7350    23.9600     2.2980    -8.0230 
  157.2500    90.8280     6.2230     5.8380     5.8700    24.0530     2.3180    -8.0430 
  157.3750    89.2300     6.0160     5.6080     5.6190    24.0970     2.3350    -8.0580 
  157.5000    88.3040     5.9290     5.4440     5.5310    24.0770     2.3430    -8.1000 
  157.6250    89.4450     5.9310     5.3310     5.3200    23.9370     2.3440    -8.1820 
  157.7500    90.1080     5.9410     5.2350     5.1610    23.7730     2.3470    -8.2910 
  157.8750    89.2540     5.9160     5.1510     5.2800    23.7400     2.3570    -8.4310 
  158.0000    88.0150     5.8470     5.0940     5.5320    23.9090     2.3700    -8.5970 
  158.1250    89.1540     5.7680     5.0870     5.6860    24.1890     2.3770    -8.7650 
  158.2500    90.8340     5.7550     5.1370     5.7760    24.4650     2.3730    -8.9360 
  158.3750    91.1050     5.8700     5.2630     5.9690    24.6290     2.3560    -9.1070 
  158.5000    90.4960     6.1460     5.4810     6.3710    24.7270     2.3280    -9.2750 
  158.6250    90.3590     6.5610     5.8000     6.7720    24.7370     2.2950    -9.4760 
  158.7500    89.2790     6.9860     6.1430     7.0320    24.5720     2.2620    -9.6840 
  158.8750    86.5240     7.3260     6.4360     7.1850    24.2470     2.2380    -9.9030 
  159.0000    82.8830     7.5370     6.6310     7.3270    24.0660     2.2260   -10.1610 
  159.1250    81.3510     7.6430     6.7140     7.4180    24.0940     2.2240   -10.3510 
  159.2500    83.0460     7.7280     6.7460     7.4410    24.1400     2.2260   -10.4770 
  159.3750    84.4510     7.8190     6.7650     7.5140    24.1260     2.2280   -10.5520 
  159.5000    82.2750     7.8950     6.7960     7.5750    24.1060     2.2270   -10.5510 
  159.6250    80.3620     7.9120     6.8500     7.3350    23.8870     2.2250   -10.4900 
  159.7500    80.9930     7.8840     6.9150     7.1460    23.7420     2.2260   -10.3690 
  159.8750    81.7020     7.8450     6.9730     7.0560    23.6670     2.2310   -10.1780 
  160.0000    81.5910     7.8320     7.0060     6.9780    23.6700     2.2390    -9.9060 
  160.1250    81.1750     7.8630     7.0010     7.0350    23.7120     2.2470    -9.6540 
  160.2500    82.0440     7.9030     6.9720     7.0910    23.7810     2.2480    -9.4430 
  160.3750    84.2280     7.9160     6.9250     7.0650    23.8390     2.2460    -9.2610 
  160.5000    86.9400     7.8750     6.8700     7.0320    23.8550     2.2470    -9.1540 
  160.6250    87.6700     7.7800     6.8290     7.0820    23.8700     2.2570    -9.0470 
  160.7500    84.8990     7.6840     6.8260     7.1580    23.9360     2.2740    -8.9830 
  160.8750    81.5860     7.6400     6.8730     7.3780    24.0140     2.2900    -8.9490 
  161.0000    79.8510     7.6760     6.9520     7.8680    24.0550     2.2980    -8.9590 
  161.1250    81.5600     7.7730     7.0250     8.0220    24.0610     2.2920    -9.0130 
  161.2500    84.8240     7.8540     7.0630     7.9190    24.0500     2.2740    -9.0940 
  161.3750    86.2890     7.8650     7.0600     7.8390    23.9930     2.2500    -9.2350 
  161.5000    86.5390     7.7910     7.0120     7.9360    23.8470     2.2280    -9.4090 
  161.6250    86.0980     7.6600     6.9300     8.0170    23.6560     2.2120    -9.5790 
  161.7500    84.2000     7.5780     6.8690     8.0240    23.5130     2.2060    -9.6950 
  161.8750    81.2720     7.6780     6.9130     8.0270    23.4490     2.2080    -9.7900 
  162.0000    77.2530     8.1550     7.1900     8.1190    23.4470     2.2140    -9.8590 
  162.1250    74.1360     9.4890     7.9700     9.0750    23.4820     2.2160    -9.9450 
  162.2500    72.6360    12.0160     9.4640    11.2470    23.5040     2.2090    -9.9970 
  162.3750    71.9760    15.9810    12.0370    15.3110    23.5920     2.1920    -9.9830 
  162.5000    69.6930    21.1560    16.0750    22.5070    23.8270     2.1660    -9.8720 
  162.6250    65.5050    26.3850    21.7220    33.3780    24.2100     2.1360    -9.7330 
  162.7500    62.6030    29.7980    27.1290    46.8910    24.5740     2.1140    -9.6070 
  162.8750    61.1990    29.9080    29.4610    56.1720    24.7860     2.1070    -9.5270 
  163.0000    61.1220    26.4040    27.0060    55.8870    24.8180     2.1190    -9.4760 
  163.1250    66.1020    20.6630    21.2770    38.6140    24.7610     2.1500    -9.3760 
  163.2500    74.4870    15.3970    15.9030    21.4210    24.7080     2.1890    -9.2720 
  163.3750    82.7870    11.7900    12.1220    12.5140    24.6940     2.2250    -9.1930 
  163.5000    89.1070    10.0750    10.0080     9.6550    24.7030     2.2560    -9.1740 
  163.6250    91.8000    10.2690     9.5150     9.6000    24.6950     2.2920    -9.1780 
  163.7500    87.5610    11.7170    10.2560    11.0810    24.6570     2.3440    -9.1940 
  163.8750    76.8880    14.0150    12.1760    17.0700    24.6030     2.4150    -9.1710 
  164.0000    66.4450    16.6680    15.0740    27.1460    24.6330     2.4930    -9.1410 
  164.1250    62.9750    19.0190    18.2850    30.5720    24.6590     2.5560    -9.1560 
  164.2500    63.8020    20.6430    20.7570    26.5340    24.6640     2.5930    -9.1810 
  164.3750    64.7920    21.4270    21.9780    24.5810    24.6380     2.6040    -9.1760 
  164.5000    64.4390    21.5490    22.1120    23.0940    24.5980     2.5970    -9.1670 
  164.6250    62.8530    21.3100    21.6900    23.9900    24.6340     2.5840    -9.1860 
  164.7500    61.4920    21.0580    21.2470    22.8230    24.6500     2.5740    -9.2080 
  164.8750    60.8980    20.9290    20.9230    21.4060    24.5970     2.5680    -9.2400 
  165.0000    59.8130    20.9780    20.7630    21.7510    24.5600     2.5610    -9.2550 
  165.1250    58.4090    21.2320    20.8350    22.4320    24.5700     2.5470    -9.2450 
  165.2500    57.2070    21.5810    21.0880    22.3510    24.4260     2.5260    -9.2410 
  165.3750    56.8840    21.8990    21.4270    22.6720    24.2260     2.5050    -9.2430 
  165.5000    57.9350    22.0540    21.7030    23.9940    24.0090     2.4900    -9.2350 
  165.6250    59.6660    21.9370    21.7320    24.0780    23.8960     2.4890    -9.2460 
  165.7500    61.0140    21.6450    21.5300    24.0610    24.0280     2.4980    -9.2650 
  165.8750    60.7920    21.3190    21.1990    22.3880    24.4090     2.5100    -9.2580 
  166.0000    58.1770    21.1330    20.8950    21.2380    24.8210     2.5200    -9.2280 
  166.1250    55.7560    21.2780    20.8200    21.0580    24.9580     2.5250    -9.1780 
  166.2500    56.4380    21.7400    21.0440    21.4610    24.7580     2.5280    -9.1310 
  166.3750    58.2000    22.4420    21.5710    21.5800    24.3360     2.5310    -9.0890 
  166.5000    58.2860    23.2290    22.2990    22.8600    24.0820     2.5320    -9.0330 
  166.6250    59.3260    23.8640    23.0090    26.4430    24.0540     2.5310    -8.9430 
  166.7500    61.5560    24.1910    23.4680    29.3470    24.0330     2.5280    -8.8250 
  166.8750    61.8210    24.1570    23.5670    29.9880    24.0230     2.5250    -8.7180 
  167.0000    59.8890    23.8280    23.3220    27.1850    24.0090     2.5240    -8.6300 
  167.1250    59.0510    23.3430    22.8290    25.9830    24.0160     2.5270    -8.5750 
  167.2500    59.4150    22.8940    22.2900    24.2780    24.0360     2.5330    -8.5100 
  167.3750    58.9310    22.5820    21.8240    23.6550    24.0560     2.5380    -8.4690 
