~V
VERS. 2.00: Ver 2.00
~W
STRT.M 60.0000:
STOP.M 245.0000:
STEP.M 0.1250:
NULL. -999.2500:
UWI. F10050:
~C
DEPT.M :
SP.MV :
GR.API :
RML.OHMM :
RI. :
RXO.OHMM :
CALI.CM :
DEN.GM/CC :
~A
# ...
   93.7500   -26.8020    63.4030     8.4350     6.5170     7.7870    24.8890     2.1670 
   93.8750   -26.5470    63.1940     8.2300     6.4050     7.5910    25.0370     2.1570 
   94.0000   -26.2980    60.8160     8.1730     6.3850     7.4860    25.1590     2.1700 
   94.1250   -26.0310    58.5380     8.5090     6.6150     7.4470    25.3080     2.2200 
   94.2500   -25.6780    60.2430     9.2590     7.1430     7.4440    25.5080     2.2850 
   94.3750   -25.3120    64.1460    10.3290     7.9420     7.9250    25.7070     2.3320 
   94.5000   -24.9550    63.1050    11.4260     8.8410     9.4770    25.9450     2.3380 
   94.6250   -24.5430    58.1600    11.8490     9.3680    12.4720    26.2090     2.3060 
   94.7500   -24.1370    58.1750    11.1930     9.1550    13.5990    26.3440     2.2750 
   94.8750   -23.7580    64.9970     9.5920     8.1660    10.9160    25.9890     2.2700 
   95.0000   -23.4040    74.2980     7.6590     6.7460     7.1630    25.0000     2.2960 
   95.1250   -23.0860    84.2930     6.0760     5.3990     5.2530    24.0240     2.3340 
   95.2500   -22.8420    94.0680     5.0200     4.3870     4.6110    23.5730     2.3560 
   95.3750   -22.6850    99.5770     4.4510     3.7490     4.3710    23.4300     2.3570 
   95.5000   -22.5790    98.8370     4.2910     3.4530     4.3250    23.3550     2.3410 
   95.6250   -22.5730    95.6880     4.5650     3.5100     4.7280    23.2860     2.3230 
   95.7500   -22.6000    95.0870     5.2290     3.8690     5.4260    23.2620     2.3230 
   95.8750   -22.6460    96.3440     6.2950     4.5450     5.9560    23.2590     2.3550 
   96.0000   -22.7130    93.5120     7.6990     5.5270     6.6960    23.2640     2.4110 
   96.1250   -22.7970    83.8450     9.1900     6.7080     9.9380    23.2920     2.4560 
   96.2500   -22.8560    76.7180    10.2250     7.7240    15.5060    23.3320     2.4560 
   96.3750   -22.8880    77.1840    10.3140     8.1850    17.9940    23.2950     2.4150 
   96.5000   -22.9380    81.3600     9.3960     7.8980    13.3360    23.0990     2.3600 
   96.6250   -22.9460    82.7050     8.0100     7.0330     8.3370    22.8620     2.3240 
   96.7500   -22.9260    83.8030     6.8840     6.1240     6.6510    22.7370     2.3110 
   96.8750   -22.9560    86.7440     6.2440     5.4330     6.2200    22.8190     2.3120 
   97.0000   -23.0050    88.8380     6.0710     5.0420     6.0960    23.1080     2.3180 
   97.1250   -23.0180    89.0750     6.2530     4.9350     5.8200    23.3850     2.3270 
   97.2500   -23.0690    89.5020     6.5190     4.9560     5.7690    23.4960     2.3380 
   97.3750   -23.1280    89.4260     6.7060     5.0100     5.9170    23.5150     2.3490 
   97.5000   -23.1630    89.8660     6.7370     5.0400     6.1200    23.5150     2.3570 
   97.6250   -23.2600    93.2120     6.6330     5.0280     6.1030    23.5150     2.3580 
   97.7500   -23.3670    97.6040     6.5150     4.9940     5.9170    23.5150     2.3510 
   97.8750   -23.4550    98.7320     6.4620     4.9570     5.8890    23.5150     2.3370 
   98.0000   -23.5530    94.0190     6.5040     4.9330     5.9830    23.5130     2.3160 
   98.1250   -23.6760    85.7590     6.5960     4.9330     6.1420    23.5120     2.2830 
   98.2500   -23.7970    80.6340     6.6760     4.9670     6.3810    23.5140     2.2450 
   98.3750   -23.9170    81.4910     6.8000     5.0790     6.6480    23.5150     2.2190 
   98.5000   -24.0220    85.0550     7.1370     5.3580     7.0170    23.5150     2.2220 
   98.6250   -24.1110    83.1990     8.0440     6.0120     7.5660    23.5150     2.2840 
   98.7500   -24.2140    76.8360     9.7030     7.1800     8.8260    23.5150     2.3970 
   98.8750   -24.3270    70.7730    12.2480     9.0150    12.0900    23.5150     2.5380 
   99.0000   -24.4430    67.4460    15.5720    11.5350    19.1410    23.5120     2.6620 
   99.1250   -24.5480    66.1600    18.7770    14.2730    26.6770    23.4930     2.7010 
   99.2500   -24.6810    66.5420    20.1220    16.0090    29.6160    23.4420     2.6640 
   99.3750   -24.8270    70.0780    18.6770    15.8100    27.1420    23.3450     2.5700 
   99.5000   -24.9730    76.1530    15.4430    13.8800    20.7360    23.2080     2.4510 
   99.6250   -25.1090    80.4770    12.3610    11.3900    14.1410    23.0070     2.3420 
   99.7500   -25.2720    80.2040    10.2620     9.3460    10.0320    22.7740     2.2610 
   99.8750   -25.4120    76.3430     9.1000     7.9650     8.2280    22.5210     2.2130 
  100.0000   -25.4790    72.1990     8.6300     7.1870     7.7280    22.3540     2.1900 
  100.1250   -25.5600    70.6730     8.6330     6.9200     7.7510    22.2190     2.1780 
  100.2500   -25.6290    72.0300     8.7790     6.9040     7.7970    22.0530     2.1670 
  100.3750   -25.6380    74.8740     8.8950     6.9810     7.9100    22.0240     2.1570 
  100.5000   -25.6560    77.6640     8.9130     7.0340     8.0290    22.3330     2.1510 
  100.6250   -25.6910    78.4520     8.8680     7.0120     8.0250    22.6190     2.1520 
  100.7500   -25.6520    76.7140     8.8280     6.9490     7.9040    22.7280     2.1560 
  100.8750   -25.5960    74.9170     8.7850     6.8760     7.7110    22.7410     2.1610 
  101.0000   -25.5640    75.7740     8.6960     6.8040     7.6640    22.7410     2.1680 
  101.1250   -25.4920    78.9650     8.5050     6.7100     7.8330    22.7410     2.1810 
  101.2500   -25.3960    81.1730     8.2150     6.5560     7.9210    22.7410     2.2030 
  101.3750   -25.2860    83.3420     7.8600     6.3280     7.7780    22.7410     2.2300 
  101.5000   -25.1850    87.0730     7.5130     6.0520     7.2730    22.7410     2.2530 
  101.6250   -25.0560    89.4130     7.2840     5.8090     6.7720    22.7310     2.2580 
  101.7500   -24.9460    88.1040     7.2150     5.6740     6.6160    22.6930     2.2470 
  101.8750   -24.8780    83.9450     7.3170     5.6840     6.8000    22.6150     2.2290 
  102.0000   -24.8240    78.9270     7.5780     5.8400     7.4570    22.5320     2.2130 
  102.1250   -24.7550    73.9960     7.9510     6.1140     8.5070    22.4580     2.2050 
  102.2500   -24.6930    70.5490     8.3110     6.4030     9.2110    22.4500     2.2010 
  102.3750   -24.6530    70.6090     8.5420     6.6130     8.7270    22.4660     2.2000 
  102.5000   -24.5920    74.2080     8.5460     6.6650     8.2450    22.4840     2.2050 
  102.6250   -24.5500    78.4210     8.2520     6.4870     8.6880    22.5290     2.2230 
  102.7500   -24.5030    80.7460     7.7860     6.1480     8.5170    22.6420     2.2520 
  102.8750   -24.4000    81.5390     7.2870     5.7300     7.3320    22.8200     2.2830 
  103.0000   -24.3100    82.0060     6.8670     5.3250     6.1070    23.0410     2.3050 
  103.1250   -24.3150    82.2560     6.5970     5.0290     5.7030    23.1350     2.3090 
  103.2500   -24.3190    81.0120     6.4580     4.8640     5.7780    23.1630     2.2990 
  103.3750   -24.3190    81.5510     6.4320     4.8580     6.1370    23.1890     2.2840 
  103.5000   -24.3650    83.4220     6.4300     4.9250     6.1390    23.3030     2.2730 
  103.6250   -24.4130    80.4250     6.3360     4.9500     5.8910    23.5620     2.2760 
  103.7500   -24.4990    76.2870     6.1230     4.8960     5.7650    23.8090     2.2930 
  103.8750   -24.6660    74.4680     5.8140     4.7670     5.7440    23.9230     2.3180 
  104.0000   -24.8460    75.0320     5.4760     4.6020     5.6750    23.9470     2.3430 
  104.1250   -24.9770    77.2520     5.2170     4.4630     5.6160    23.9450     2.3540 
  104.2500   -25.1360    81.9870     5.1070     4.3930     5.4470    23.9270     2.3510 
  104.3750   -25.3400    86.1770     5.1840     4.4080     5.3620    23.8650     2.3410 
  104.5000   -25.5170    83.2030     5.4370     4.4980     5.5730    23.7560     2.3360 
  104.6250   -25.7200    73.3960     5.7880     4.6350     5.9750    23.7000     2.3400 
  104.7500   -25.9230    66.7300     6.0910     4.7650     6.2490    23.6840     2.3530 
  104.8750   -26.1020    67.5460     6.2630     4.8550     6.2910    23.6870     2.3670 
