~V
VERS. 2.00: Ver 2.00
~W
STRT.M 57.0000:
STOP.M 257.0000:
STEP.M 0.1250:
NULL. -999.2500:
UWI. F10004:
~C
DEPT.M :
GR.API :
RML.OHMM :
RI. :
RXO.OHMM :
CALI.CM :
DEN.GM/CC :
SP.MV :
~A
   57.0000    78.2430     3.7790     3.5720    14.2260    23.1870     2.4010    20.5320 
   57.1250    75.0320     8.5760     8.2660    23.0520    23.3610     2.4840    14.8330 
   57.2500    73.6470    12.3140    12.0650    25.4930    23.3630     2.5600    10.7780 
   57.3750    73.0820    14.6420    14.5090    20.5470    23.0680     2.6030     7.9100 
   57.5000    74.2330    15.5120    15.4540    15.0710    22.6660     2.5980     5.7180 
   57.6250    78.1520    14.8010    15.0370    13.3250    22.3990     2.5370     3.9420 
   57.7500    82.5450    14.4000    14.0740    12.9200    22.2970     2.4400     2.4320 
   57.8750    85.6850    14.1080    13.1510    12.3120    22.4240     2.3270     1.1230 
   58.0000    86.3200    13.8890    12.6380    11.8750    22.7000     2.2250     0.0060 
   58.1250    84.1090    13.8660    12.7660    12.6630    22.9270     2.1710    -0.8640 
   58.2500    79.2160    14.2620    13.4090    14.9310    22.9630     2.1640    -1.5750 
   58.3750    72.8420    15.3310    14.4440    18.3390    22.9860     2.1870    -2.1860 
   58.5000    67.4870    16.9650    15.6940    19.3580    23.2460     2.2090    -2.7100 
   58.6250    64.9430    18.6830    16.9200    18.2980    23.7040     2.2020    -3.1700 
   58.7500    63.4430    20.0280    17.9260    16.7050    23.8840     2.1690    -3.6110 
   58.8750    60.2230    20.9250    18.6380    15.5010    23.7530     2.1260    -4.0520 
   59.0000    56.1230    21.4700    19.0790    14.7440    23.4130     2.0910    -4.4500 
   59.1250    56.5930    21.8390    19.3090    14.8850    23.0820     2.0730    -4.8440 
   59.2500    59.9860    22.1760    19.4360    14.8740    22.8020     2.0650    -5.2530 
   59.3750    62.7560    22.4640    19.4860    14.8470    22.6120     2.0600    -5.6430 
   59.5000    62.9170    22.6320    19.4570    14.9480    22.4320     2.0540    -6.0430 
   59.6250    61.8310    22.5800    19.3250    15.1630    22.3130     2.0500    -6.4430 
   59.7500    60.5600    22.3320    19.1220    15.1610    22.2990     2.0530    -6.8550 
   59.8750    60.2990    21.9530    18.8970    15.4750    22.5160     2.0630    -7.2620 
   60.0000    62.1140    21.5520    18.7100    15.9350    22.9560     2.0810    -7.6790 
   60.1250    63.1670    21.2810    18.6360    16.8570    23.6130     2.1020    -8.0890 
   60.2500    62.2280    21.2260    18.6860    18.3890    24.3090     2.1190    -8.5330 
   60.3750    60.4800    21.4140    18.8560    19.8110    24.8000     2.1310    -9.0000 
   60.5000    59.4620    21.7890    19.1140    20.3540    25.0280     2.1360    -9.4910 
   60.6250    58.9990    22.2230    19.4030    20.1020    25.0530     2.1400   -10.0040 
   60.7500    57.9720    22.5970    19.6630    19.9550    25.0000     2.1420   -10.5230 
   60.8750    57.7670    22.8820    19.8590    19.5530    24.9300     2.1420   -11.0460 
   61.0000    58.9230    23.0790    19.9650    19.3050    24.8890     2.1400   -11.5790 
   61.1250    61.4840    23.1300    19.9180    19.1230    24.8940     2.1370   -12.1420 
   61.2500    64.1000    22.9540    19.6910    19.4510    24.9150     2.1390   -12.6930 
   61.3750    66.6430    22.4470    19.2400    19.6890    24.9660     2.1460   -13.2440 
   61.5000    69.2900    21.5590    18.5380    18.4030    25.0350     2.1590   -13.7700 
   61.6250    72.2420    20.3160    17.5770    16.1230    25.0020     2.1780   -14.2750 
   61.7500    74.4260    18.9560    16.5050    14.2030    24.7950     2.1960   -14.7770 
   61.8750    75.5780    17.6810    15.4660    13.6200    24.6270     2.2090   -15.2470 
   62.0000    75.6680    16.6810    14.6160    11.9510    24.5980     2.2050   -15.6930 
   62.1250    72.0860    16.2540    14.1940    11.7290    24.7030     2.1630   -16.1150 
   62.2500    67.2950    16.5500    14.3240    12.8980    24.8660     2.0890   -16.5230 
   62.3750    65.4160    17.7370    15.1610    14.8010    25.0740     2.0030   -16.9210 
   62.5000    66.7670    19.7960    16.7650    16.6670    25.1940     1.9520   -17.3220 
   62.6250    65.7770    22.2400    18.8990    21.4060    25.0510     1.9930   -17.7780 
   62.7500    62.7870    23.7190    20.5950    30.3790    24.5970     2.1140   -18.2470 
   62.8750    63.0420    22.8860    20.8210    31.3980    23.9560     2.2710   -18.7660 
   63.0000    68.6390    19.1780    19.0350    20.3550    23.3770     2.4010   -19.2880 
   63.1250    76.6100    14.7460    15.6290    11.1890    23.1150     2.4540   -19.8170 
   63.2500    83.6140    10.9560    12.1100     7.9450    23.0570     2.4470   -20.3370 
   63.3750    88.4000     8.3490     9.2900     6.6230    23.0720     2.4130   -20.7800 
   63.5000    91.0030     6.9050     7.4480     6.3100    23.0650     2.3760   -21.1430 
   63.6250    91.9240     6.5940     6.6510     6.9830    23.0390     2.3440   -21.3950 
   63.7500    89.0000     6.9000     6.5190     8.1790    23.0450     2.3140   -21.5580 
   63.8750    82.5960     7.4800     6.8080     8.6670    23.0830     2.2880   -21.6440 
   64.0000    77.5100     8.0360     7.2670     8.4340    23.1110     2.2720   -21.6920 
   64.1250    79.2690     8.3600     7.6780     8.4110    23.1200     2.2690   -21.6730 
   64.2500    82.3420     8.5180     7.9800     8.6300    23.1120     2.2720   -21.6040 
   64.3750    82.2000     8.6600     8.2380     9.2850    23.0950     2.2740   -21.5260 
   64.5000    79.6720     8.9410     8.5710    10.7280    23.0700     2.2710   -21.4180 
   64.6250    77.3250     9.4870     9.1010    11.6750    23.0370     2.2640   -21.2800 
   64.7500    74.6710    10.2350     9.8100    12.4870    22.9270     2.2540   -21.1370 
   64.8750    71.5210    11.1020    10.6370    12.9240    22.8200     2.2410   -20.9800 
   65.0000    69.6310    11.9910    11.4940    13.0900    22.8530     2.2240   -20.8130 
   65.1250    68.2510    12.8230    12.2960    12.8700    22.9880     2.1980   -20.6560 
   65.2500    66.8490    13.6040    13.0360    12.5680    23.0790     2.1690   -20.5200 
   65.3750    66.2060    14.3790    13.7480    12.2320    23.0880     2.1450   -20.4300 
   65.5000    65.7780    15.1780    14.4660    11.9020    23.0450     2.1330   -20.3980 
   65.6250    64.8460    15.9230    15.1530    12.0180    23.1530     2.1350   -20.4090 
   65.7500    65.3000    16.3970    15.6530    13.2860    23.3230     2.1410   -20.4470 
   65.8750    67.3410    16.3290    15.7260    15.2620    23.5760     2.1450   -20.5400 
   66.0000    70.1390    15.5230    15.1480    16.2570    23.8440     2.1490   -20.6970 
   66.1250    74.3420    13.9070    13.7700    14.6610    24.0340     2.1620   -20.9170 
   66.2500    78.4040    11.9120    11.9610    11.6100    24.2340     2.1880   -21.1640 
   66.3750    79.6000     9.9120    10.0800     9.0030    24.5650     2.2240   -21.4160 
   66.5000    78.3310     8.2220     8.4400     7.6820    24.4230     2.2640   -21.6740 
   66.6250    79.5970     7.1220     7.3140     6.8670    24.3870     2.3000   -21.9300 
   66.7500    83.4680     6.5720     6.6810     6.0170    24.3180     2.3250   -22.1590 
   66.8750    87.5110     6.5100     6.5000     5.8500    24.1710     2.3330   -22.3330 
   67.0000    89.3240     6.8140     6.6840     6.3450    23.8060     2.3250   -22.4430 
   67.1250    88.2820     7.3170     7.1180     7.2020    23.3610     2.3070   -22.5040 
   67.2500    88.2370     7.7800     7.5690     7.7990    23.0940     2.2980   -22.5710 
   67.3750    89.4200     8.0440     7.8660     7.4090    23.0140     2.3090   -22.6430 
   67.5000    89.1830     8.0350     7.9160     6.9330    23.0400     2.3430   -22.7120 
   67.6250    87.9730     7.7670     7.7070     6.7380    23.0860     2.3870   -22.7910 
   67.7500    89.9190     7.4190     7.3950     6.4980    23.1000     2.4200   -22.8920 
   67.8750    92.5790     7.1130     7.0890     6.2840    23.0830     2.4310   -23.0200 
   68.0000    91.5380     6.9140     6.8450     6.0320    23.1020     2.4240   -23.1510 
   68.1250    89.5920     6.8300     6.6720     5.9510    23.3040     2.4130   -23.2550 
