~V
VERS. 2.00: Ver 2.00
~W
STRT.M 64.0000:
STOP.M 287.0000:
STEP.M 0.1250:
NULL. -999.2500:
UWI. F10052:
~C
DEPT.M :
SP.MV :
DEN.GM/CC :
GR.API :
RML.OHMM :
RI. :
RXO.OHMM :
CALI.CM :
~A
# ...
  187.7500   -23.1560     2.4940    82.0800    12.5400     9.6220    12.5330    23.6800 
  187.8750   -23.1260     2.5230    74.1730    14.6020    10.7600    14.8900    23.6690 
  188.0000   -23.1170     2.5340    67.0910    16.3450    11.8040    14.8180    23.6560 
  188.1250   -23.1190     2.5280    63.3890    16.7480    12.1820    13.5110    23.6450 
  188.2500   -23.1200     2.5170    64.2320    15.9480    11.8780    12.5330    23.6400 
  188.3750   -23.1500     2.5060    65.8850    14.6770    11.2240    11.5880    23.6430 
  188.5000   -23.2030     2.4990    64.6750    13.6900    10.6500    10.8650    23.6500 
  188.6250   -23.2480     2.4950    62.2620    13.4080    10.4900    11.0010    23.6680 
  188.7500   -23.2800     2.4960    60.5540    13.6330    10.7080    11.6800    23.7010 
  188.8750   -23.3390     2.5020    59.9320    14.1830    11.2010    12.5730    23.7430 
  189.0000   -23.4050     2.5120    59.2040    14.8710    11.8040    13.5660    23.7890 
  189.1250   -23.4510     2.5220    56.4850    15.4230    12.2610    13.9070    23.8410 
  189.2500   -23.4700     2.5280    52.9740    15.6770    12.4310    13.2020    23.9120 
  189.3750   -23.4470     2.5300    50.7300    15.6720    12.3380    12.0620    24.0040 
  189.5000   -23.4120     2.5290    51.6910    15.6160    12.1410    11.7210    24.1100 
  189.6250   -23.4170     2.5300    55.3790    15.7880    12.0630    12.2550    24.2160 
  189.7500   -23.4580     2.5300    59.3000    16.2920    12.2340    12.9330    24.3150 
  189.8750   -23.4900     2.5230    61.0320    17.1000    12.6940    13.5990    24.4110 
  190.0000   -23.5290     2.5110    59.4400    18.0350    13.3800    14.3800    24.5020 
  190.1250   -23.5940     2.5020    55.5200    18.7820    14.1060    14.8190    24.5640 
  190.2500   -23.6720     2.5050    53.6870    19.1210    14.6280    15.2960    24.5930 
  190.3750   -23.7730     2.5180    56.4220    18.9870    14.7930    15.7370    24.6030 
  190.5000   -23.8890     2.5260    60.3450    18.4750    14.5800    15.7520    24.6100 
  190.6250   -23.9870     2.5130    63.4160    17.8160    14.1080    14.6410    24.6090 
  190.7500   -24.0540     2.4850    65.4150    17.3320    13.6730    13.6540    24.5900 
  190.8750   -24.0900     2.4560    66.1810    17.1860    13.4730    13.5710    24.5490 
  191.0000   -24.0980     2.4390    65.0510    17.4020    13.6020    13.8580    24.4930 
  191.1250   -24.0890     2.4430    62.5400    17.9310    14.0620    14.4740    24.4340 
  191.2500   -24.1040     2.4590    60.2760    18.5570    14.6310    15.0700    24.3830 
  191.3750   -24.1510     2.4800    58.9080    19.1190    15.1230    15.5460    24.3470 
  191.5000   -24.2080     2.4990    58.5520    19.4820    15.4260    15.7350    24.3220 
  191.6250   -24.2460     2.5090    60.9010    19.5950    15.5560    15.8720    24.3090 
  191.7500   -24.2790     2.5070    62.9630    19.6490    15.6880    15.3980    24.3030 
  191.8750   -24.3380     2.4980    61.1740    19.8190    15.9310    14.9910    24.3000 
  192.0000   -24.4410     2.4900    58.2860    20.1960    16.2890    15.1270    24.2950 
  192.1250   -24.5520     2.4940    58.9200    20.6190    16.6050    15.8180    24.2880 
  192.2500   -24.6210     2.5060    61.2160    20.6610    16.6310    16.2090    24.2790 
  192.3750   -24.6390     2.5130    61.4950    20.0160    16.1820    15.5520    24.2700 
  192.5000   -24.6430     2.5070    59.9940    18.7060    15.2440    13.8340    24.2630 
  192.6250   -24.6840     2.4850    58.7450    17.1340    14.0320    12.4900    24.2590 
  192.7500   -24.7650     2.4620    56.6750    15.8170    12.9380    11.7570    24.2590 
  192.8750   -24.8600     2.4480    56.4930    14.9880    12.1930    11.7630    24.2680 
  193.0000   -24.9420     2.4470    60.6670    14.7620    11.9200    11.9030    24.2910 
  193.1250   -25.0270     2.4610    65.7500    15.2900    12.2280    12.3110    24.3260 
  193.2500   -25.1380     2.4820    67.0090    16.3740    12.9500    13.0890    24.3680 
  193.3750   -25.2680     2.5060    64.9270    17.7310    13.8950    14.1560    24.4190 
  193.5000   -25.3890     2.5260    62.8320    18.9290    14.7920    15.3990    24.4850 
  193.6250   -25.4790     2.5370    62.4920    19.4620    15.2930    15.7280    24.5680 
  193.7500   -25.5420     2.5380    64.8130    19.3620    15.3330    15.3350    24.6500 
  193.8750   -25.5810     2.5280    68.6410    18.8790    14.9950    14.1050    24.7100 
  194.0000   -25.6030     2.5120    70.9210    18.3390    14.4770    13.4530    24.7380 
  194.1250   -25.6210     2.4960    70.4490    17.9740    14.0030    13.7320    24.7380 
  194.2500   -25.6400     2.4860    70.7480    17.7820    13.6830    14.0750    24.7120 
  194.3750   -25.6630     2.4860    70.5940    17.6890    13.5290    14.2380    24.6550 
  194.5000   -25.7010     2.4960    64.8770    17.5940    13.4910    13.8370    24.5700 
  194.6250   -25.7900     2.5160    56.0470    17.3550    13.4740    13.5010    24.4800 
  194.7500   -25.9180     2.5370    52.8120    16.9420    13.3850    13.1560    24.3910 
  194.8750   -26.0330     2.5530    55.0610    16.4090    13.1890    12.9630    24.2960 
  195.0000   -26.1290     2.5590    59.0140    15.8810    12.9100    12.5870    24.1910 
  195.1250   -26.2510     2.5600    62.7860    15.5580    12.6280    12.2660    24.0820 
  195.2500   -26.3920     2.5610    67.1520    15.5220    12.4570    11.8150    23.9900 
  195.3750   -26.5190     2.5590    69.0860    15.7800    12.4960    11.6140    23.9310 
  195.5000   -26.6180     2.5490    68.3860    16.2590    12.8020    12.1360    23.9090 
  195.6250   -26.6960     2.5290    68.1840    16.8540    13.3790    13.5730    23.9180 
  195.7500   -26.7740     2.5080    68.9640    17.4310    14.0440    14.5220    23.9360 
  195.8750   -26.8840     2.4940    69.6990    17.9050    14.6280    15.0440    23.9580 
  196.0000   -27.0280     2.4890    69.4910    18.2130    15.0050    15.5690    23.9850 
  196.1250   -27.1560     2.4930    68.4520    18.3180    15.1160    15.6050    24.0250 
  196.2500   -27.2660     2.4950    67.8400    18.3020    15.0880    15.4020    24.0730 
  196.3750   -27.3940     2.4930    69.4960    18.2380    15.0300    15.3400    24.1180 
  196.5000   -27.5470     2.4900    72.8570    18.1910    15.0090    15.9100    24.1500 
  196.6250   -27.6800     2.4900    72.8010    18.1740    15.0210    16.0060    24.1730 
  196.7500   -27.7700     2.4930    68.5080    18.1100    14.9890    15.1160    24.1970 
  196.8750   -27.8330     2.4940    64.7050    17.9040    14.8410    14.3020    24.2200 
  197.0000   -27.8770     2.4900    64.1930    17.4920    14.5410    13.8740    24.2380 
  197.1250   -27.9200     2.4780    65.9580    16.8550    14.1040    13.8630    24.2550 
  197.2500   -27.9750     2.4610    68.4400    16.1570    13.6410    13.1950    24.2850 
  197.3750   -28.0490     2.4410    70.4970    15.5910    13.2310    12.2480    24.3360 
  197.5000   -28.1470     2.4230    70.8470    15.3360    12.9400    11.6100    24.4190 
  197.6250   -28.2660     2.4100    70.6410    15.5250    12.8650    11.5760    24.5530 
  197.7500   -28.3880     2.4060    72.8950    15.9910    13.0280    12.0490    24.7470 
  197.8750   -28.5010     2.4090    75.6710    16.5530    13.4270    12.8020    25.0140 
  198.0000   -28.6230     2.4060    76.5820    17.0700    13.9940    13.8250    25.3570 
  198.1250   -28.7670     2.3870    78.1090    17.5270    14.6420    14.1680    25.7690 
  198.2500   -28.9200     2.3540    80.7200    18.0690    15.3180    14.0400    26.2010 
  198.3750   -29.0450     2.3190    80.0970    18.8200    16.0680    14.2010    26.6100 
  198.5000   -29.1240     2.2940    75.3170    19.8110    16.9510    15.0400    26.9540 
  198.6250   -29.1950     2.2910    71.7620    20.9420    17.9540    16.5180    27.1790 
  198.7500   -29.3080     2.3040    72.1230    21.9650    18.8910    17.7910    27.2960 
  198.8750   -29.4670     2.3250    72.1970    22.6700    19.5660    18.1510    27.3370 
