~V
VERS. 2.00: Ver 2.00
~W
STRT.M 64.0000:
STOP.M 220.0000:
STEP.M 0.1250:
NULL. -999.2500:
UWI. F10051:
~C
DEPT.M :
SP.MV :
GR.API :
RML.OHMM :
RI. :
RXO.OHMM :
CALI.CM :
DEN.GM/CC :
~A
# ...
  120.2500    -8.7710    96.0180     4.6770     4.0470     4.5760    24.2000     2.3060 
  120.3750    -8.7970    95.1380     4.7950     4.1530     4.6320    24.2000     2.3030 
  120.5000    -8.7890    92.6640     5.0080     4.3420     4.6930    24.1920     2.3040 
  120.6250    -8.7650    88.5400     5.3080     4.6030     4.8570    24.1650     2.3150 
  120.7500    -8.7310    84.8930     5.6170     4.8780     5.0960    24.1180     2.3340 
  120.8750    -8.6930    84.8160     5.8380     5.0950     5.3520    24.0640     2.3570 
  121.0000    -8.6120    87.2520     5.8700     5.1770     5.6040    24.0320     2.3760 
  121.1250    -8.4370    86.7000     5.6210     5.0420     5.5250    23.9760     2.3840 
  121.2500    -8.2210    84.8210     5.1810     4.7400     5.0340    23.8710     2.3800 
  121.3750    -7.9970    85.8770     4.6680     4.3500     4.3650    23.7630     2.3710 
  121.5000    -7.8060    89.0340     4.2150     3.9710     3.8890    23.7080     2.3640 
  121.6250    -7.6420    90.4550     3.9530     3.7140     3.7220    23.6500     2.3640 
  121.7500    -7.4580    92.0790     3.9010     3.6150     3.6790    23.5320     2.3680 
  121.8750    -7.2890    95.7630     4.0600     3.6920     3.7640    23.3980     2.3710 
  122.0000    -7.1780    96.9410     4.4120     3.9390     3.9960    23.3080     2.3660 
  122.1250    -7.1090    93.3270     4.9380     4.3500     4.3520    23.2700     2.3500 
  122.2500    -7.0710    90.7420     5.5370     4.8500     4.8920    23.3530     2.3280 
  122.3750    -7.0880    89.3800     6.1160     5.3690     5.5000    23.5660     2.3050 
  122.5000    -7.0980    87.1670     6.5750     5.8230     6.0750    23.7520     2.2880 
  122.6250    -7.0750    85.6650     6.7780     6.0870     6.5890    23.8280     2.2790 
  122.7500    -7.0620    87.5380     6.7410     6.1280     6.9920    23.8320     2.2770 
  122.8750    -7.0530    89.2940     6.5360     5.9580     7.2130    24.0140     2.2830 
  123.0000    -7.0370    87.2500     6.3640     5.6770     7.4080    24.1980     2.2980 
  123.1250    -7.0450    84.2440     6.5530     5.5400     7.3960    24.2790     2.3290 
  123.2500    -7.0800    84.8270     7.4370     5.8600     7.2810    24.2760     2.3720 
  123.3750    -7.0830    85.9350     9.3140     6.9090     8.6460    24.2720     2.4150 
  123.5000    -7.0500    81.9010    12.0990     8.7820    12.6690    24.2720     2.4400 
  123.6250    -7.0560    72.8580    15.2980    11.2500    18.7510    24.2840     2.4240 
  123.7500    -7.1290    66.4400    17.7100    13.4580    24.5980    24.2850     2.3800 
  123.8750    -7.2390    65.1760    18.3230    14.5660    27.4090    24.2330     2.3290 
  124.0000    -7.3730    67.4210    16.7940    14.0600    22.8840    24.1120     2.2920 
  124.1250    -7.5040    70.8390    13.9040    12.1830    13.9620    24.0100     2.2900 
  124.2500    -7.5960    75.4150    11.4350    10.2750     8.9210    23.9660     2.3160 
  124.3750    -7.7060    80.2480    10.1850     9.0700     7.9060    24.0590     2.3560 
  124.5000    -7.8980    82.1560    10.1840     8.7580     8.8380    24.2100     2.3920 
  124.6250    -8.0960    78.0090    11.0700     9.2340    10.8290    24.3000     2.4070 
  124.7500    -8.2490    72.9410    12.0570     9.9740    12.6940    24.3670     2.4020 
  124.8750    -8.3650    70.9080    12.6540    10.5930    13.3080    24.4810     2.3860 
  125.0000    -8.4470    71.5130    12.6540    10.8430    12.9530    24.5850     2.3700 
  125.1250    -8.5110    72.8290    12.2750    10.7470    12.1930    24.6120     2.3640 
  125.2500    -8.6000    74.3600    12.2000    10.7570    11.5030    24.5390     2.3640 
  125.3750    -8.6970    73.6400    12.9430    11.2930    11.1000    24.3910     2.3680 
  125.5000    -8.7650    67.6450    14.7170    12.6150    12.5840    24.2000     2.3750 
  125.6250    -8.8060    61.9950    17.3770    14.7650    15.8480    24.1110     2.3840 
  125.7500    -8.8230    62.4270    20.0940    17.1600    18.8060    24.0930     2.3900 
  125.8750    -8.8260    65.9810    22.1100    19.1760    19.8300    24.0910     2.3910 
  126.0000    -8.8260    68.1340    22.8800    20.2560    19.3310    24.0750     2.3850 
  126.1250    -8.8290    69.6560    22.3050    20.1060    18.2600    24.0010     2.3770 
  126.2500    -8.8500    71.7180    21.3920    19.4540    16.8180    23.8720     2.3700 
  126.3750    -8.8710    70.8240    20.9890    19.0090    15.5390    23.7320     2.3690 
  126.5000    -8.8500    66.7500    21.5900    19.2620    14.6840    23.6150     2.3800 
  126.6250    -8.8040    64.4910    23.3160    20.4480    15.9090    23.5180     2.4100 
  126.7500    -8.8070    65.3620    25.4780    22.1260    18.9170    23.4840     2.4550 
  126.8750    -8.8560    66.8270    27.3710    23.7760    22.1310    23.5510     2.5050 
  127.0000    -8.9290    68.1740    28.3440    24.8360    23.9610    23.7040     2.5420 
  127.1250    -9.0150    69.4780    27.9000    24.7870    23.7940    23.8720     2.5470 
  127.2500    -9.0580    69.2830    26.5780    23.9290    22.7790    23.9700     2.5270 
  127.3750    -9.0820    67.0070    25.0280    22.7420    20.7150    23.9370     2.4980 
  127.5000    -9.1310    63.9590    23.8480    21.7270    18.5870    23.8270     2.4710 
  127.6250    -9.1990    62.1290    23.4660    21.2940    18.0470    23.6690     2.4590 
  127.7500    -9.2560    61.4640    23.7320    21.3970    18.4490    23.5180     2.4600 
  127.8750    -9.2710    61.6980    24.4220    21.9000    19.2830    23.5090     2.4720 
  128.0000    -9.2470    62.6370    25.2340    22.5830    20.3350    23.7110     2.4880 
  128.1250    -9.2000    63.2090    25.8220    23.1670    21.6960    23.9070     2.5010 
  128.2500    -9.1980    64.3230    26.0610    23.4990    22.6280    23.9500     2.5070 
  128.3750    -9.2240    65.1800    26.0140    23.5900    22.9800    23.8800     2.5040 
  128.5000    -9.2350    64.4650    25.8850    23.5730    22.8960    23.8290     2.4910 
  128.6250    -9.2800    63.0330    25.9500    23.6600    22.4610    23.8270     2.4770 
  128.7500    -9.3230    62.9280    26.2910    23.9490    22.7360    23.7760     2.4710 
  128.8750    -9.3700    64.5780    26.8260    24.4020    23.4140    23.6130     2.4780 
  129.0000    -9.4360    66.2520    27.3660    24.8860    24.2140    23.4870     2.4970 
  129.1250    -9.5200    67.2590    27.6570    25.1970    24.9330    23.3900     2.5200 
  129.2500    -9.5820    69.2710    27.6320    25.2530    24.1190    23.2340     2.5370 
  129.3750    -9.5810    73.3470    27.3360    25.0680    22.2040    22.9570     2.5440 
  129.5000    -9.5890    76.1390    26.8870    24.7260    20.5320    22.8600     2.5380 
  129.6250    -9.5640    73.4630    26.4140    24.3360    20.1860    22.9850     2.5190 
  129.7500    -9.5090    70.6940    25.9840    23.9750    20.8310    23.1910     2.4900 
  129.8750    -9.4630    72.8870    25.5980    23.6540    21.6810    23.3370     2.4570 
  130.0000    -9.3990    78.3590    25.2390    23.3620    21.9800    23.3510     2.4290 
  130.1250    -9.3410    79.9370    24.9040    23.0930    21.6050    23.4000     2.4160 
  130.2500    -9.2930    77.9500    24.5810    22.8350    21.4350    23.6520     2.4210 
  130.3750    -9.2480    76.3800    24.2410    22.5700    21.7220    24.0020     2.4410 
  130.5000    -9.2100    76.9940    23.8460    22.2630    22.0980    24.0240     2.4690 
  130.6250    -9.2000    78.6260    23.3570    21.8740    22.1840    23.5790     2.4910 
  130.7500    -9.2010    79.5200    22.8090    21.4180    21.8550    23.1070     2.5020 
  130.8750    -9.1840    78.4520    22.2570    20.9300    20.6780    22.9400     2.5010 
  131.0000    -9.1550    75.5910    21.7530    20.4510    19.2250    22.9500     2.4930 
  131.1250    -9.1020    73.1740    21.3220    20.0060    18.3200    22.9790     2.4870 
  131.2500    -9.0550    73.1210    20.9080    19.5650    18.0050    23.0690     2.4860 
  131.3750    -9.0300    73.6480    20.4440    19.0830    17.7920    23.2440     2.4890 
