~V
VERS. 2.00: Ver 2.00
~W
STRT.M 60.0000:
STOP.M 271.0000:
STEP.M 0.1250:
NULL. -999.2500:
UWI. F10035:
~C
DEPT.M :
GR.API :
RML.OHMM :
RI. :
RXO.OHMM :
CALI.CM :
DEN.GM/CC :
SP.MV :
~A
# ...
  217.5000    65.4030    13.1410    13.1320    11.5810    24.5270     2.3510    -6.6400 
  217.6250    69.9020    12.6340    12.6240    11.3910    24.4110     2.3400    -6.4540 
  217.7500    71.3990    12.1780    12.1550    11.7630    24.3420     2.3250    -6.2900 
  217.8750    70.1510    11.8000    11.7480    12.1360    24.3210     2.3170    -6.2060 
  218.0000    69.1910    11.5160    11.4190    11.7400    24.1700     2.3190    -6.2570 
  218.1250    72.2060    11.3600    11.1980    10.4050    23.7160     2.3250    -6.3750 
  218.2500    74.7630    11.3310    11.0830    10.2110    23.2290     2.3260    -6.4660 
  218.3750    72.8420    11.4430    11.0890    10.6880    23.0520     2.3180    -6.4900 
  218.5000    68.8060    11.6990    11.2220    10.9220    23.2930     2.3070    -6.4900 
  218.6250    67.1730    12.0910    11.4860    10.7680    23.7780     2.3020    -6.5440 
  218.7500    67.3580    12.5160    11.8040    10.9940    24.1500     2.3040    -6.6310 
  218.8750    66.1400    12.8720    12.0870    12.4990    24.3900     2.3070    -6.6590 
  219.0000    64.1750    13.0870    12.2620    14.2010    24.5730     2.3090    -6.5560 
  219.1250    64.8480    13.1490    12.3000    15.3550    24.6170     2.3100    -6.3540 
  219.2500    65.8070    13.1840    12.2940    15.0250    24.5780     2.3140    -6.1220 
  219.3750    65.3010    13.3050    12.3390    12.7480    24.5080     2.3250    -5.9180 
  219.5000    65.3030    13.5800    12.4980     9.8090    24.4820     2.3390    -5.7550 
  219.6250    67.2210    14.0090    12.7960    10.0160    24.4380     2.3520    -5.6300 
  219.7500    68.7550    14.4700    13.1430    11.6310    24.3760     2.3560    -5.5210 
  219.8750    68.7870    14.8580    13.4500    12.4060    24.3900     2.3500    -5.4440 
  220.0000    68.8960    15.1050    13.6500    11.5790    24.4490     2.3350    -5.4320 
  220.1250    69.4870    15.2020    13.7130    10.8890    24.4880     2.3190    -5.4600 
  220.2500    69.6510    15.2410    13.7150    11.0420    24.5130     2.3070    -5.4700 
  220.3750    70.8140    15.2710    13.7080    11.5300    24.5470     2.3030    -5.4360 
  220.5000    71.9670    15.2980    13.7090    11.7870    24.5580     2.3100    -5.3540 
  220.6250    71.3870    15.3080    13.7110    11.3350    24.5100     2.3250    -5.2310 
  220.7500    70.0950    15.3250    13.7260    11.5250    24.4070     2.3460    -5.1000 
  220.8750    69.3140    15.4020    13.7970    11.8580    24.3220     2.3690    -4.9730 
  221.0000    67.7430    15.6170    13.9850    12.3700    24.4150     2.3920    -4.8100 
  221.1250    64.8400    16.0930    14.3930    13.8470    24.4780     2.4090    -4.6120 
  221.2500    64.4260    16.8290    15.0310    16.1060    24.4450     2.4130    -4.5020 
  221.3750    65.5990    17.7840    15.8830    19.3830    24.3810     2.4010    -4.4850 
  221.5000    64.7940    18.8490    16.8680    22.2180    24.3630     2.3800    -4.5220 
  221.6250    61.1710    19.8050    17.8060    22.3870    24.3540     2.3750    -4.6060 
  221.7500    57.8010    20.4400    18.4650    23.2700    24.3180     2.4000    -4.7500 
  221.8750    56.1770    20.6420    18.6890    23.8140    24.3050     2.4490    -4.9470 
  222.0000    55.1710    20.4740    18.4860    19.7890    24.2910     2.5030    -5.1740 
  222.1250    54.7790    20.1910    18.0430    17.7470    24.3060     2.5380    -5.4120 
  222.2500    55.4270    20.1340    17.6860    15.5730    24.4130     2.5560    -5.5990 
  222.3750    56.9600    20.4990    17.6040    15.5560    24.4790     2.5760    -5.7640 
  222.5000    56.6140    21.3140    17.8660    17.0100    24.4730     2.6050    -5.9460 
  222.6250    52.7780    22.3950    18.4190    19.1110    24.3980     2.6360    -6.1960 
  222.7500    51.3410    23.3390    19.0040    20.4610    24.2860     2.6440    -6.4990 
  222.8750    54.9730    23.9040    19.4470    19.9970    24.1280     2.6210    -6.8480 
  223.0000    58.8300    24.0900    19.7110    18.1500    23.9260     2.5700    -7.2680 
  223.1250    56.9890    24.1530    19.9380    17.7160    23.6560     2.5060    -7.7460 
  223.2500    53.8900    24.4180    20.3360    18.6260    23.4700     2.4460    -8.2160 
  223.3750    53.8270    25.0080    21.0150    19.8370    23.4270     2.3960    -8.6590 
  223.5000    56.1980    25.8700    21.9640    21.2490    23.5520     2.3550    -9.0620 
  223.6250    57.7530    26.8060    23.0460    22.9640    23.8640     2.3210    -9.3900 
  223.7500    58.4970    27.5790    24.0250    24.8040    24.2790     2.2960    -9.6040 
  223.8750    58.3650    28.0850    24.7650    26.5060    24.6640     2.2790    -9.6650 
  224.0000    58.1010    28.3310    25.2340    28.3060    24.8670     2.2710    -9.5770 
  224.1250    58.9450    28.3640    25.4500    29.4260    24.8820     2.2720    -9.4210 
  224.2500    60.3130    28.2710    25.5050    29.3660    24.8560     2.2760    -9.3260 
  224.3750    61.2450    28.0200    25.3920    28.9240    24.8330     2.2790    -9.2480 
  224.5000    62.3570    27.5120    25.0480    28.7740    24.8240     2.2810    -9.0740 
  224.6250    64.7130    26.5890    24.3410    28.4780    24.8230     2.2800    -8.7810 
  224.7500    66.6830    25.3420    23.3360    27.1610    24.8210     2.2790    -8.4490 
  224.8750    67.0080    23.9410    22.1650    24.9980    24.8180     2.2810    -8.1350 
  225.0000    65.7800    22.6320    21.0220    22.7170    24.8190     2.2820    -7.8660 
  225.1250    63.8790    21.7300    20.1700    21.0900    24.8180     2.2800    -7.5940 
  225.2500    61.9430    21.3280    19.7090    20.1680    24.8170     2.2720    -7.2560 
  225.3750    60.3150    21.4240    19.6610    20.2300    24.8130     2.2590    -6.8960 
  225.5000    60.6330    21.9260    19.9800    20.5580    24.7960     2.2450    -6.6100 
  225.6250    62.5100    22.6980    20.5860    21.6730    24.7670     2.2380    -6.3920 
  225.7500    61.8150    23.4920    21.2740    23.1400    24.7370     2.2370    -6.2180 
  225.8750    57.4940    24.1210    21.8850    24.4590    24.7360     2.2430    -6.0990 
  226.0000    54.1120    24.4430    22.2880    25.3730    24.7490     2.2540    -6.0360 
  226.1250    56.9070    24.3970    22.4230    26.1910    24.7590     2.2710    -6.0760 
  226.2500    61.6580    24.2660    22.4960    26.6320    24.7610     2.2840    -6.2240 
  226.3750    64.7600    24.4720    22.8200    25.9440    24.7610     2.2780    -6.4660 
  226.5000    65.0220    25.5660    23.8170    24.7840    24.7680     2.2400    -6.7650 
  226.6250    63.2090    28.4480    26.2480    27.1860    24.7920     2.1730    -7.1290 
  226.7500    62.0210    33.2240    30.3220    32.2030    24.8130     2.1260    -7.5580 
  226.8750    60.9660    39.3390    35.6670    40.5220    24.8150     2.1460    -8.0410 
  227.0000    59.6460    44.5110    40.3950    52.6180    24.7940     2.2600    -8.5420 
  227.1250    58.3330    43.5290    39.9780    58.9040    24.6770     2.4450    -8.9020 
  227.2500    57.4990    36.0210    33.7420    57.3000    24.4110     2.6130    -9.0440 
  227.3750    56.6770    25.8540    24.8200    47.3630    24.0550     2.7000    -8.9710 
  227.5000    55.8330    17.1020    16.9020    34.6640    23.8880     2.6850    -8.7090 
  227.6250    54.9540    11.6720    11.8640    17.7640    23.9240     2.5910    -8.2250 
  227.7500    53.3020     8.5860     8.8950    10.5990    23.9310     2.4900    -7.5370 
  227.8750    52.2310     7.0960     7.3300     7.2630    23.9700     2.4180    -6.6880 
  228.0000    52.3330     6.6070     6.6790     6.0480    24.1340     2.3830    -5.7490 
  228.1250    49.7530     6.7270     6.6780     5.9640    24.4070     2.3760    -4.8900 
  228.2500    45.5070     7.0180     6.9440     6.1260    24.5040     2.3770    -4.2290 
  228.3750    44.8240     7.2680     7.2470     6.6300    24.5030     2.3810    -3.7570 
  228.5000    49.2690     7.3560     7.4220     6.7730    24.4770     2.3860    -3.4220 
  228.6250    53.5400     7.1940     7.3420     6.4280    24.4510     2.3930    -3.2260 
