~V
VERS. 2.00: Ver 2.00
~W
STRT.M 56.0000:
STOP.M 235.0000:
STEP.M 0.1250:
NULL. -999.2500:
UWI. F10014:
~C
DEPT.M :
GR.API :
RML.OHMM :
RI. :
RXO.OHMM :
CALI.CM :
DEN.GM/CC :
SP.MV :
~A
# ...
  112.2500    58.2250    27.7020    24.7400    23.6890    25.4060     2.1450   -11.7840 
  112.3750    59.8560    25.5630    22.9140    28.3900    25.2100     2.2110   -11.9470 
  112.5000    66.4510    21.8650    19.7360    32.0980    25.0660     2.2950   -12.1390 
  112.6250    72.9900    17.7180    16.1340    24.1470    25.0090     2.3660   -12.4470 
  112.7500    76.5230    14.3180    13.1040    12.6980    25.0020     2.3990   -12.7720 
  112.8750    78.0140    12.0560    10.9600     9.6510    24.9930     2.3920   -13.0240 
  113.0000    78.8730    10.8870     9.6830     9.7740    24.9450     2.3590   -13.1950 
  113.1250    77.7840    10.6580     9.2190     9.7220    24.8840     2.3280   -13.2940 
  113.2500    75.3310    10.8590     9.2230     9.3300    24.7830     2.3110   -13.3510 
  113.3750    73.4320    11.1600     9.4480     8.8000    24.6490     2.3030   -13.3730 
  113.5000    74.1450    11.3230     9.6600     9.2480    24.5640     2.2970   -13.3650 
  113.6250    77.7910    11.2340     9.6910    10.6840    24.6120     2.2870   -13.3040 
  113.7500    81.2780    11.0280     9.6040     9.9260    24.7160     2.2750   -13.2230 
  113.8750    82.5080    10.8440     9.5110     9.2260    24.8100     2.2700   -13.1210 
  114.0000    81.7620    10.7830     9.5090     9.2700    24.8600     2.2810   -13.0020 
  114.1250    81.1680    10.8860     9.6410    10.0680    24.8520     2.3200   -12.8550 
  114.2500    83.5380    11.0360     9.8160    11.4520    24.8410     2.3770   -12.7040 
  114.3750    86.9900    11.0790     9.8990    13.1870    24.8250     2.4360   -12.5820 
  114.5000    87.5880    10.8840     9.7650    11.9650    24.8280     2.4760   -12.4620 
  114.6250    84.2040    10.4380     9.3820    11.0350    24.8160     2.4800   -12.3590 
  114.7500    80.8730     9.9390     8.9180     9.5380    24.7620     2.4540   -12.2690 
  114.8750    81.3750     9.5150     8.4900     8.4900    24.6460     2.4130   -12.2140 
  115.0000    83.8930     9.2120     8.1540     8.1410    24.4860     2.3730   -12.2240 
  115.1250    86.1600     8.9970     7.9070     8.3160    24.3650     2.3520   -12.3220 
  115.2500    87.8570     8.7660     7.6700     8.2350    24.3030     2.3500   -12.4140 
  115.3750    89.4810     8.4780     7.4030     7.6890    24.2500     2.3620   -12.3960 
  115.5000    90.7180     8.1680     7.1170     7.5100    24.2050     2.3790   -12.2350 
  115.6250    91.6680     7.9110     6.8670     7.3940    24.1930     2.3900   -12.0000 
  115.7500    93.3410     7.7280     6.6760     7.4500    24.2930     2.3900   -11.7980 
  115.8750    94.4750     7.6190     6.5560     7.4580    24.4770     2.3810   -11.6010 
  116.0000    93.2720     7.6060     6.5310     7.6790    24.6990     2.3690   -11.3840 
  116.1250    90.4280     7.7580     6.6600     7.4700    24.8530     2.3620   -11.1240 
  116.2500    88.5000     8.0740     6.9420     7.2180    24.9320     2.3620   -10.8670 
  116.3750    86.9570     8.5300     7.3610     7.4100    24.9130     2.3700   -10.7040 
  116.5000    84.9970     9.0430     7.8540     8.8040    24.7440     2.3800   -10.6970 
  116.6250    84.0740     9.4420     8.2830    10.6000    24.4070     2.3850   -10.7500 
  116.7500    85.3090     9.6140     8.5300     9.9510    24.0870     2.3800   -10.7450 
  116.8750    87.6390     9.5420     8.5590     8.7100    23.9510     2.3640   -10.7280 
  117.0000    88.1590     9.2920     8.4070     8.5680    23.9910     2.3440   -10.6970 
  117.1250    87.0870     8.9550     8.1310     8.6340    24.1580     2.3270   -10.6370 
  117.2500    87.5970     8.6240     7.8200     8.2010    24.4030     2.3210   -10.5580 
  117.3750    89.8320     8.3270     7.5090     7.3810    24.6570     2.3270   -10.4610 
  117.5000    92.6800     8.0550     7.2080     6.7350    24.8290     2.3430   -10.3680 
  117.6250    94.8410     7.8060     6.9260     6.6450    24.8630     2.3600   -10.2940 
  117.7500    96.0490     7.6180     6.6990     6.5790    24.8650     2.3730   -10.2430 
  117.8750    97.3210     7.5590     6.5820     6.5380    24.8740     2.3800   -10.2090 
  118.0000    98.8250     7.6800     6.6180     6.7450    24.8300     2.3840   -10.1800 
  118.1250    98.5160     8.0100     6.8390     6.6760    24.6300     2.3830   -10.1460 
  118.2500    94.2940     8.4420     7.1670     7.2970    24.3550     2.3740   -10.1830 
  118.3750    88.7180     8.8570     7.5120     8.2460    24.1740     2.3580   -10.2930 
  118.5000    84.9250     9.1440     7.7840     9.2290    24.1120     2.3390   -10.3680 
  118.6250    83.1360     9.2810     7.9440     9.0020    24.0940     2.3260   -10.3420 
  118.7500    82.6670     9.4730     8.1190     8.4820    24.1260     2.3220   -10.2630 
  118.8750    82.8650     9.9810     8.4830     8.5890    24.1250     2.3190   -10.1620 
  119.0000    79.9510    11.0330     9.2140     9.7000    24.1000     2.3050   -10.0440 
  119.1250    73.1360    12.8290    10.5390    12.3830    24.1930     2.2700    -9.8810 
  119.2500    67.6220    15.1380    12.3950    16.0460    24.3860     2.2210    -9.6210 
  119.3750    65.2480    17.7060    14.6520    20.3980    24.5700     2.1700    -9.2770 
  119.5000    63.7970    20.3260    17.1100    23.2910    24.6440     2.1240    -8.9260 
  119.6250    62.2990    23.0640    19.6920    23.4650    24.6370     2.1030    -8.6610 
  119.7500    61.8890    26.1560    22.5030    24.1410    24.6480     2.1220    -8.4920 
  119.8750    60.9420    29.6590    25.6140    29.3230    24.7460     2.1940    -8.3610 
  120.0000    59.0810    33.1580    28.7810    44.3880    24.9000     2.3090    -8.2450 
  120.1250    59.2880    35.4050    31.0630    61.7060    24.9250     2.4150    -8.1570 
  120.2500    60.7960    35.6000    31.6980    59.9280    24.8170     2.4590    -8.0520 
  120.3750    62.2860    33.8270    30.5970    41.3750    24.6670     2.4240    -7.9430 
  120.5000    62.7400    31.0780    28.4720    29.3300    24.5760     2.3320    -7.8480 
  120.6250    62.8750    28.6970    26.4050    25.5470    24.6330     2.2380    -7.7610 
  120.7500    63.4260    27.3170    25.0520    23.2810    24.7130     2.1830    -7.6630 
  120.8750    64.4110    26.9250    24.5360    22.0310    24.7570     2.1690    -7.5570 
  121.0000    64.9950    27.1270    24.6470    22.5910    24.8460     2.1760    -7.4560 
  121.1250    63.2820    27.2990    24.9500    24.6170    25.1260     2.1820    -7.3780 
  121.2500    61.6620    27.0170    25.0020    26.2860    25.5140     2.1810    -7.3480 
  121.3750    61.8510    26.2470    24.6800    27.3850    25.7730     2.1750    -7.3860 
  121.5000    62.3840    25.2350    24.1130    26.5930    25.6750     2.1700    -7.5070 
  121.6250    62.1750    24.4530    23.6410    23.5380    25.3610     2.1660    -7.6030 
  121.7500    61.1770    24.2260    23.5660    22.3480    25.1660     2.1600    -7.6030 
  121.8750    59.4550    24.6450    24.0150    23.6730    25.1640     2.1510    -7.5270 
  122.0000    57.1470    25.5910    24.9500    25.9870    25.1850     2.1430    -7.4220 
  122.1250    56.0590    26.7580    26.1780    27.7630    25.1850     2.1380    -7.3780 
  122.2500    58.5220    27.6900    27.2780    28.1490    25.1830     2.1370    -7.3760 
  122.3750    61.3830    28.1000    27.9310    27.6410    25.1980     2.1390    -7.2940 
  122.5000    61.6880    27.8950    27.9730    27.1370    25.2170     2.1400    -7.0870 
  122.6250    59.9800    27.1300    27.3890    26.2030    25.1280     2.1380    -6.8780 
  122.7500    59.8420    26.1560    26.5230    24.8530    24.9850     2.1360    -6.7490 
  122.8750    61.5130    25.2590    25.6630    22.9050    24.8630     2.1350    -6.7260 
  123.0000    63.4510    24.7050    25.0820    20.9690    24.8580     2.1380    -6.7580 
  123.1250    65.7240    24.7770    25.0560    21.4750    25.0280     2.1490    -6.7310 
  123.2500    67.1300    25.4340    25.5760    23.7580    25.2790     2.1630    -6.6380 
  123.3750    65.9200    26.6040    26.6120    28.2760    25.4740     2.1770    -6.5210 
