~V
VERS. 2.00: Ver 2.00
~W
STRT.M 56.0000:
STOP.M 261.0000:
STEP.M 0.1250:
NULL. -999.2500:
UWI. F10028:
~C
DEPT.M :
GR.API :
RML.OHMM :
RI. :
RXO.OHMM :
CALI.CM :
DEN.GM/CC :
SP.MV :
~A
# ...
  179.7500    66.6940    85.9870    80.6550   102.5590    24.8640     2.2430   -11.8880 
  179.8750    65.6770    86.2140    81.6560    97.8910    24.8490     2.2490   -11.9510 
  180.0000    63.9320    84.4110    80.7970    95.9180    24.8030     2.2510   -12.0250 
  180.1250    63.3390    81.1540    78.3900    97.0200    24.7990     2.2480   -12.0960 
  180.2500    63.3040    77.7020    75.5760    96.9880    24.8080     2.2410   -12.1770 
  180.3750    61.5710    74.6890    73.0010    92.0830    24.7620     2.2350   -12.2920 
  180.5000    59.2650    72.3440    70.9600    86.7090    24.7220     2.2300   -12.4180 
  180.6250    60.7000    70.6630    69.4950    88.3160    24.7130     2.2300   -12.5660 
  180.7500    63.9010    69.3890    68.3720    90.0680    24.7120     2.2330   -12.7470 
  180.8750    65.9490    68.4870    67.5430    86.1280    24.7000     2.2380   -12.9410 
  181.0000    65.4330    67.9300    66.9840    81.5910    24.7060     2.2450   -13.1260 
  181.1250    64.0320    67.5330    66.5600    79.6310    24.7200     2.2510   -13.2710 
  181.2500    62.6870    66.8430    65.9030    79.7680    24.7090     2.2510   -13.3950 
  181.3750    60.9920    65.4470    64.6670    80.0230    24.6980     2.2440   -13.4700 
  181.5000    59.3600    63.2210    62.7150    78.5150    24.6820     2.2320   -13.5020 
  181.6250    59.2400    60.5190    60.2740    72.6240    24.6220     2.2190   -13.5500 
  181.7500    61.7200    58.1520    58.0180    65.0530    24.5130     2.2100   -13.5860 
  181.8750    64.3000    56.7140    56.4970    57.0090    24.4250     2.2030   -13.6140 
  182.0000    64.7030    56.5170    56.0800    54.8980    24.4210     2.1980   -13.6430 
  182.1250    63.7880    57.6240    56.9520    59.5170    24.5360     2.1920   -13.6410 
  182.2500    63.2240    59.3070    58.4720    70.2510    24.6480     2.1880   -13.6000 
  182.3750    62.6000    60.9350    60.0330    74.2010    24.7080     2.1850   -13.5550 
  182.5000    61.5400    62.0050    61.1190    84.6600    24.7450     2.1870   -13.5020 
  182.6250    60.6540    62.2380    61.4070    84.7780    24.7600     2.1950   -13.4730 
  182.7500    60.5400    62.0690    61.2470    81.2100    24.7630     2.2060   -13.5130 
  182.8750    60.3680    61.9740    61.0500    79.6830    24.7620     2.2160   -13.5840 
  183.0000    58.3740    62.2590    61.1070    81.7580    24.7620     2.2190   -13.6370 
  183.1250    56.7750    62.8760    61.4270    84.5190    24.7620     2.2150   -13.6930 
  183.2500    58.5840    63.3600    61.6810    85.5700    24.7620     2.2060   -13.7410 
  183.3750    62.6870    63.3350    61.5860    88.2510    24.7620     2.1980   -13.7590 
  183.5000    65.1250    62.7100    61.0450    91.0810    24.7560     2.1950   -13.7440 
  183.6250    64.4520    62.0150    60.4390    87.0940    24.7370     2.1980   -13.6400 
  183.7500    64.7590    62.1010    60.4830    81.5250    24.7100     2.2100   -13.4290 
  183.8750    65.7810    63.3670    61.5550    81.3060    24.6960     2.2340   -13.1680 
  184.0000    64.6770    65.5860    63.4890    86.2410    24.6930     2.2760   -12.8900 
  184.1250    62.3010    67.6280    65.3470   103.1960    24.6910     2.3300   -12.5560 
  184.2500    61.7060    67.8720    65.7580   131.6270    24.6740     2.3720   -12.2110 
  184.3750    63.4030    65.2900    63.7920   135.3160    24.6240     2.3820   -11.8950 
  184.5000    65.3130    60.2460    59.5680   102.5370    24.5530     2.3560   -11.5930 
  184.6250    65.0060    54.3970    54.2760    84.0180    24.4720     2.3090   -11.2690 
  184.7500    64.7270    49.3780    49.4260    69.4310    24.4180     2.2710   -10.9280 
  184.8750    65.3770    45.7680    45.6660    61.4590    24.3690     2.2570   -10.5360 
  185.0000    64.7690    43.5200    43.0970    63.3680    24.3010     2.2650   -10.0710 
  185.1250    60.5680    41.7130    40.9860    71.2940    24.2130     2.2910    -9.5320 
  185.2500    56.2910    38.6350    37.6920    66.7950    24.2590     2.3330    -8.9060 
  185.3750    54.4960    33.3100    32.2120    66.4020    24.4100     2.3920    -8.1710 
  185.5000    54.6750    26.2180    25.0770    58.6540    24.5710     2.4620    -7.3700 
  185.6250    55.2510    19.1660    18.1850    30.9430    24.5950     2.5190    -6.5250 
  185.7500    56.6960    12.9850    12.8630    12.0680    24.4340     2.5430    -5.6350 
  185.8750    58.0150     8.8260     9.3090     6.7480    24.1790     2.5320    -4.7330 
  186.0000    58.3200     6.9260     7.1990     6.3170    24.0780     2.4940    -3.8660 
  186.1250    56.8990     6.2070     6.2410     7.0570    24.3100     2.4480    -3.1280 
  186.2500    55.5340     6.1280     5.9490     7.1050    24.4660     2.4070    -2.5100 
  186.3750    55.6240     6.4260     6.1160     6.8560    24.4460     2.3760    -2.0190 
  186.5000    56.3210     6.8750     6.5360     6.7070    24.2960     2.3570    -1.6370 
  186.6250    55.9680     7.2790     6.9810     6.5990    24.0540     2.3510    -1.4130 
  186.7500    55.0880     7.5510     7.2960     6.7790    23.8950     2.3550    -1.3280 
  186.8750    54.3020     7.6640     7.4340     6.9650    23.9340     2.3630    -1.2860 
  187.0000    54.5290     7.6180     7.3970     7.0100    24.1420     2.3700    -1.2220 
  187.1250    56.3260     7.4470     7.2140     6.9510    24.3820     2.3730    -1.1250 
  187.2500    56.5990     7.2490     6.9820     6.8990    24.5780     2.3750    -0.9890 
  187.3750    52.6070     7.0870     6.7630     6.8430    24.6250     2.3760    -0.7980 
  187.5000    46.2950     7.0040     6.6010     6.8040    24.5810     2.3810    -0.5530 
  187.6250    41.9530     7.0300     6.5320     6.7690    24.5340     2.3890    -0.2490 
  187.7500    39.3220     7.1380     6.5350     6.7900    24.5140     2.4000     0.0920 
  187.8750    37.2480     7.2980     6.5830     6.9780    24.5390     2.4110     0.3830 
  188.0000    36.5380     7.4700     6.6480     7.2460    24.5700     2.4200     0.5860 
  188.1250    38.0470     7.6060     6.6960     7.5200    24.5850     2.4250     0.7440 
  188.2500    39.1610     7.6840     6.7050     7.5860    24.5870     2.4290     0.8700 
  188.3750    38.3530     7.7090     6.6700     7.4450    24.5750     2.4330     0.9500 
  188.5000    37.0500     7.7050     6.6040     7.1510    24.5760     2.4390     0.9850 
  188.6250    36.3380     7.7070     6.5270     7.0200    24.6090     2.4410     0.9780 
  188.7500    35.7660     7.7350     6.4700     6.9690    24.6560     2.4400     0.9260 
  188.8750    35.7180     7.7960     6.4500     6.9360    24.6850     2.4380     0.8110 
  189.0000    36.4290     7.8920     6.4750     6.9880    24.6930     2.4380     0.6260 
  189.1250    36.2350     8.0220     6.5430     7.1840    24.6930     2.4440     0.3970 
  189.2500    35.2700     8.1630     6.6240     7.3930    24.6930     2.4520     0.1600 
  189.3750    35.3650     8.2820     6.6840     7.5690    24.6930     2.4560    -0.0440 
  189.5000    36.4550     8.3370     6.6950     7.5270    24.6930     2.4520    -0.2280 
  189.6250    35.9980     8.2800     6.6310     7.3420    24.6650     2.4430    -0.3850 
  189.7500    34.4100     8.1420     6.5150     7.1030    24.5790     2.4330    -0.5230 
  189.8750    34.1750     7.9720     6.3750     6.9240    24.4530     2.4270    -0.6390 
  190.0000    35.4500     7.8370     6.2460     6.8560    24.3750     2.4240    -0.7330 
  190.1250    36.1140     7.8060     6.1650     6.8410    24.3730     2.4250    -0.8170 
  190.2500    35.5100     7.8790     6.1460     6.8540    24.3540     2.4290    -0.9180 
  190.3750    35.8670     8.0400     6.1970     6.9590    24.2970     2.4370    -1.0700 
  190.5000    39.3200     8.2490     6.3100     7.1270    24.2710     2.4460    -1.2500 
  190.6250    44.3710     8.4440     6.4570     7.3760    24.3280     2.4510    -1.4360 
  190.7500    47.9560     8.5820     6.5870     7.6720    24.4610     2.4500    -1.5920 
  190.8750    49.5150     8.6560     6.6710     7.9560    24.6020     2.4430    -1.6850 
