~V
VERS. 2.00: Ver 2.00
~W
STRT.M 62.0000:
STOP.M 254.0000:
STEP.M 0.1250:
NULL. -999.2500:
UWI. F10030:
~C
DEPT.M :
DEN.GM/CC :
GR.API :
RML.OHMM :
RI. :
RXO.OHMM :
CALI.CM :
SP.MV :
~A
# ...
  197.0000     2.2210    66.6510    34.3320    33.2240    42.0310    24.4140   -17.4190 
  197.1250     2.2160    67.3730    34.8430    33.4520    42.8850    24.4070   -17.4880 
  197.2500     2.2110    65.5460    35.7030    34.1180    44.5110    24.3960   -17.5080 
  197.3750     2.2070    62.9830    36.7150    35.1310    46.3370    24.3700   -17.5050 
  197.5000     2.2040    61.8450    37.6090    36.2550    47.3320    24.3210   -17.4680 
  197.6250     2.2020    62.6420    38.5340    37.1150    46.7630    24.2380   -17.4270 
  197.7500     2.2010    63.9170    39.5930    37.4920    45.8080    24.1200   -17.3860 
  197.8750     2.2020    64.1710    40.2130    37.3420    44.9700    23.9820   -17.3220 
  198.0000     2.2060    62.8400    39.9630    36.7970    44.6090    23.8610   -17.2420 
  198.1250     2.2120    61.7820    39.2820    36.0950    43.4510    23.7930   -17.1330 
  198.2500     2.2170    62.1320    38.7560    35.4660    41.5710    23.7840   -17.0350 
  198.3750     2.2140    63.4200    38.2680    34.9350    39.7770    23.8580   -16.9280 
  198.5000     2.2010    64.1950    37.5830    34.3880    40.1090    24.0350   -16.8270 
  198.6250     2.1800    65.1070    36.4160    33.5990    40.6420    24.2800   -16.7170 
  198.7500     2.1600    66.6880    34.8570    32.5250    38.5690    24.4590   -16.6050 
  198.8750     2.1500    67.5910    33.1700    31.2870    34.1130    24.4990   -16.5050 
  199.0000     2.1520    66.8650    31.7390    30.1470    31.4170    24.4010   -16.4120 
  199.1250     2.1660    63.3830    31.0570    29.5020    31.1810    24.1970   -16.3670 
  199.2500     2.1870    59.1140    31.2390    29.5230    31.2280    23.9710   -16.3360 
  199.3750     2.2140    56.1110    32.3420    30.3280    33.1790    23.7860   -16.3420 
  199.5000     2.2450    54.7280    34.3190    31.9450    37.1850    23.6850   -16.3880 
  199.6250     2.2830    55.0730    37.0660    34.3830    40.3360    23.6370   -16.4960 
  199.7500     2.3320    55.9900    40.0370    37.2170    38.8920    23.6080   -16.6080 
  199.8750     2.3920    56.2200    42.6570    39.9720    41.7230    23.6130   -16.7330 
  200.0000     2.4500    54.6130    44.2740    42.0360    50.4530    23.6340   -16.8880 
  200.1250     2.4760    53.3080    44.0830    42.5360    55.2280    23.6100   -17.0270 
  200.2500     2.4560    54.7680    42.2960    41.4310    47.7800    23.5500   -17.1600 
  200.3750     2.3930    57.3110    39.3590    38.9830    38.6770    23.5100   -17.2700 
  200.5000     2.3140    59.3910    35.9560    35.7780    34.4910    23.5370   -17.3710 
  200.6250     2.2550    61.7840    32.8630    32.5590    34.6410    23.6270   -17.3870 
  200.7500     2.2250    64.0650    30.4930    29.8810    33.9920    23.7310   -17.4190 
  200.8750     2.2190    65.0340    28.9670    27.9890    31.8720    23.8060   -17.4380 
  201.0000     2.2230    64.5710    28.2210    26.9450    30.7670    23.8260   -17.4380 
  201.1250     2.2280    65.3980    28.1720    26.8040    32.3950    23.7520   -17.3970 
  201.2500     2.2280    66.3570    28.5630    27.2920    33.4630    23.6080   -17.3610 
  201.3750     2.2210    64.4680    29.3510    28.2900    33.9320    23.4560   -17.3260 
  201.5000     2.2110    60.3540    30.5640    29.7170    34.7410    23.3920   -17.2730 
  201.6250     2.2150    58.8870    32.2580    31.5400    35.2720    23.4810   -17.2620 
  201.7500     2.2470    61.0120    34.1810    33.5270    37.6760    23.6650   -17.2360 
  201.8750     2.3050    62.2340    35.9770    35.3800    45.9670    23.8490   -17.2150 
  202.0000     2.3660    60.2930    37.2210    36.7060    57.9560    23.9240   -17.2120 
  202.1250     2.3960    59.0450    37.4840    37.0340    55.9720    23.8710   -17.2320 
  202.2500     2.3820    60.5810    37.0400    36.5420    44.9260    23.8340   -17.2640 
  202.3750     2.3350    61.8840    36.3230    35.5970    38.3700    23.9100   -17.3140 
  202.5000     2.2790    60.4600    35.8170    34.6850    37.7020    24.0880   -17.3890 
  202.6250     2.2380    58.9760    35.9630    34.3290    40.6490    24.2300   -17.4760 
  202.7500     2.2140    59.6880    36.7200    34.6550    43.6610    24.2750   -17.6020 
  202.8750     2.2020    60.7790    37.9410    35.6290    44.7580    24.2410   -17.7340 
  203.0000     2.1940    60.8430    39.4270    37.0860    45.3640    24.2020   -17.8650 
  203.1250     2.1910    60.0050    40.9840    38.7950    46.8630    24.2030   -17.9890 
  203.2500     2.2000    59.4570    42.4040    40.4180    48.9590    24.2300   -18.1180 
  203.3750     2.2280    58.9690    43.4590    41.6690    51.3990    24.2610   -18.2340 
  203.5000     2.2710    58.8440    43.8870    42.2640    53.6900    24.2710   -18.3410 
  203.6250     2.3090    59.4620    43.3450    41.8570    56.5220    24.2370   -18.3850 
  203.7500     2.3210    59.8370    42.0200    40.6330    52.6670    24.2120   -18.3620 
  203.8750     2.3010    59.5340    40.2040    38.8610    46.0670    24.2600   -18.3070 
  204.0000     2.2600    59.4210    38.2960    36.9190    42.5200    24.4620   -18.2130 
  204.1250     2.2210    60.6560    36.7230    35.2450    41.9990    24.7040   -18.1180 
  204.2500     2.1980    60.7540    35.6100    34.0420    40.1030    24.7720   -17.9810 
  204.3750     2.1920    58.4140    34.9150    33.3610    38.9200    24.5760   -17.8340 
  204.5000     2.1970    55.8610    34.4970    33.1250    38.3360    24.2650   -17.6640 
  204.6250     2.2050    57.4390    34.1960    33.1910    38.0080    24.0690   -17.5370 
  204.7500     2.2110    61.4020    33.8810    33.3070    37.1770    23.9420   -17.4220 
  204.8750     2.2150    64.3280    33.5100    33.3150    35.3140    23.8350   -17.3220 
  205.0000     2.2200    65.9030    33.0710    33.1090    33.2130    23.7160   -17.2480 
  205.1250     2.2280    65.9160    32.5690    32.6150    32.1310    23.6420   -17.1860 
  205.2500     2.2380    64.8760    32.0390    31.9160    32.7250    23.6880   -17.1570 
  205.3750     2.2450    63.8460    31.5050    31.0870    33.4450    23.8410   -17.1460 
  205.5000     2.2460    64.0430    30.9800    30.2040    33.8100    24.0170   -17.1630 
  205.6250     2.2390    65.0580    30.4530    29.3460    33.7690    24.1180   -17.2060 
  205.7500     2.2290    64.2930    29.9420    28.5970    33.9470    24.1520   -17.2820 
  205.8750     2.2190    62.6440    29.5610    28.0890    33.2160    24.1490   -17.3950 
  206.0000     2.2110    62.2250    29.5690    28.0370    33.9350    24.1360   -17.5290 
  206.1250     2.2090    60.8380    30.5450    28.9210    33.3280    24.1300   -17.7150 
  206.2500     2.2220    57.8220    32.8360    31.0240    33.6550    24.1320   -17.9230 
  206.3750     2.2520    55.8360    36.7670    34.7050    36.6670    24.1180   -18.1670 
  206.5000     2.2980    57.0580    42.3470    40.1180    45.4170    24.0520   -18.4080 
  206.6250     2.3540    57.5860    48.9130    46.8580    62.4680    23.8970   -18.6690 
  206.7500     2.4090    53.7510    54.4910    52.9840    74.2620    23.7430   -18.9180 
  206.8750     2.4550    49.1480    57.0630    56.3200    76.4610    23.6600   -19.1440 
  207.0000     2.4780    47.9390    55.3600    55.3060    75.9380    23.6570   -19.3180 
  207.1250     2.4610    51.6930    49.4070    49.6800    66.1350    23.6470   -19.4120 
  207.2500     2.4100    56.8160    42.0390    42.3530    47.5670    23.5750   -19.4950 
  207.3750     2.3470    59.2850    35.2630    35.4670    32.4480    23.4910   -19.5220 
  207.5000     2.2950    58.9300    30.3110    30.3420    26.0810    23.5060   -19.5500 
  207.6250     2.2730    58.3780    28.0660    27.8350    26.2680    23.6880   -19.5400 
  207.7500     2.2660    58.8110    28.1600    27.5790    27.8870    23.9130   -19.5650 
  207.8750     2.2580    58.8660    30.4170    29.4710    30.2130    24.0730   -19.6070 
  208.0000     2.2400    58.2410    34.4360    33.2720    35.7580    24.1460   -19.7020 
  208.1250     2.2240    58.8300    39.3970    38.3960    49.0470    24.1620   -19.8490 
