~V
VERS. 2.00: Ver 2.00
~W
STRT.M 50.0000:
STOP.M 279.0000:
STEP.M 0.1250:
NULL. -999.2500:
UWI. F10075:
~C
DEPT.M :
GR.API :
RML.OHMM :
RI. :
RXO.OHMM :
CALI.CM :
DEN.GM/CC :
SP.MV :
~A
# ...
  263.7500    49.4230     6.0920     5.1610     5.6840    24.8720     2.3880     2.6940 
  263.8750    48.4190     5.9000     5.0750     6.4500    24.8580     2.4250     2.6150 
  264.0000    45.6050     5.4920     4.8100     6.9750    24.8090     2.4460     2.5100 
  264.1250    42.1980     5.0400     4.4630     6.8350    24.7660     2.4370     2.4160 
  264.2500    40.2640     4.7380     4.1780     5.8670    24.8440     2.4050     2.3590 
  264.3750    40.8610     4.6900     4.0490     4.8520    24.9520     2.3690     2.3120 
  264.5000    43.5740     4.9320     4.1330     4.5170    24.9680     2.3440     2.2410 
  264.6250    48.5290     5.4590     4.4660     4.9910    24.9000     2.3420     2.0450 
  264.7500    55.0180     6.0910     4.9370     6.0570    24.8420     2.3540     1.7010 
  264.8750    60.8590     6.6570     5.4310     7.4060    24.8440     2.3690     1.3060 
  265.0000    63.9580     7.0270     5.8300     8.1530    24.8670     2.3790     0.8850 
  265.1250    64.1820     7.1590     6.0630     7.7270    24.8750     2.3790     0.3710 
  265.2500    63.7300     7.2150     6.2100     6.6060    24.8230     2.3760    -0.2090 
  265.3750    63.7500     7.3390     6.3670     6.4210    24.7540     2.3730    -0.8510 
  265.5000    65.0620     7.6070     6.6020     6.9750    24.7350     2.3750    -1.4780 
  265.6250    67.0620     7.9910     6.9230     8.0480    24.7020     2.3860    -2.0190 
  265.7500    68.5020     8.3380     7.2280     7.7080    24.6970     2.4040    -2.4990 
  265.8750    68.5010     8.5150     7.4060     7.2580    24.7410     2.4200    -2.9690 
  266.0000    67.2060     8.4380     7.3810     7.4500    24.7740     2.4210    -3.3720 
  266.1250    65.1740     8.1030     7.1320     7.5690    24.8020     2.3920    -3.6600 
  266.2500    63.9430     7.6730     6.7910     6.9670    24.8700     2.3420    -3.8920 
  266.3750    64.7000     7.2630     6.4560     6.5760    24.9250     2.2870    -4.0330 
  266.5000    66.1860     6.9470     6.1930     6.3550    24.9790     2.2490    -4.1500 
  266.6250    66.6280     6.7940     6.0610     6.3410    25.0420     2.2420    -4.2380 
  266.7500    65.9750     6.7970     6.0550     6.4050    25.0490     2.2520    -4.3380 
  266.8750    65.5190     6.9360     6.1650     6.4980    25.0550     2.2660    -4.4340 
  267.0000    65.9050     7.1720     6.3600     6.7030    25.0830     2.2780    -4.5260 
  267.1250    65.8630     7.4340     6.5920     6.8430    25.0720     2.2940    -4.5820 
  267.2500    64.6060     7.6240     6.7850     7.2470    25.0400     2.3160    -4.6270 
  267.3750    63.6470     7.6800     6.8840     7.5280    25.0380     2.3410    -4.6470 
  267.5000    63.8600     7.5900     6.8630     7.1830    25.0510     2.3560    -4.6200 
  267.6250    64.5300     7.3940     6.7310     6.5740    25.0670     2.3540    -4.6320 
  267.7500    65.6300     7.2000     6.5750     6.5020    25.0650     2.3450    -4.6440 
  267.8750    67.2330     7.0880     6.4700     6.6200    25.0560     2.3410    -4.7510 
  268.0000    68.0640     7.1080     6.4720     6.7990    25.0610     2.3470    -4.9760 
  268.1250    67.3760     7.2780     6.6120     6.7890    25.0850     2.3560    -5.3350 
  268.2500    67.3180     7.5350     6.8370     7.0770    25.0820     2.3570    -5.7620 
  268.3750    67.3930     7.8300     7.1030     7.9560    25.0520     2.3450    -6.1780 
  268.5000    66.1080     8.1130     7.3650     9.1290    25.0540     2.3290    -6.5740 
  268.6250    63.6790     8.3190     7.5700     8.6790    25.0420     2.3170    -7.0320 
  268.7500    62.5150     8.4310     7.7030     7.8940    25.0560     2.3150    -7.5340 
  268.8750    62.5150     8.4640     7.7720     8.3080    25.0480     2.3180    -7.9760 
  269.0000    62.5150     8.4650     7.8200     9.8990    25.0440     2.3200    -8.3600 
  269.1250    62.5150     8.5550     7.9450     9.6630    25.0490     2.3180    -8.7660 
  269.2500    62.5150     8.8620     8.2500     8.4230    25.0170     2.3160    -9.2160 
  269.3750    62.5150     9.4990     8.8270     8.2470    24.9860     2.3180    -9.7870 
  269.5000    62.5150    10.5060     9.7240     9.9710    24.9670     2.3230   -10.4550 
  269.6250    62.5150    11.7720    10.9030    12.0480    24.9510     2.3250   -10.9900 
  269.7500    62.5150    12.8610    12.0050    13.3680    24.9350     2.3160   -11.3380 
  269.8750    62.5150    13.3210    12.6000    15.3330    24.9280     2.2950   -11.5190 
  270.0000    62.5150    12.9050    12.3890    16.3490    24.9420     2.2730   -11.4620 
  270.1250    62.5150    11.7020    11.3830    15.3820    24.9740     2.2680   -11.1160 
  270.2500    62.5150    10.2810    10.1030    11.6470    24.9900     2.2860   -10.6360 
  270.3750    62.5150     8.9820     8.8740     8.3950    24.9840     2.3170   -10.0960 
  270.5000    62.5150     7.9930     7.8930     8.0820    24.9870     2.3410    -9.4540 
  270.6250    62.5150     7.4500     7.3130     9.5480    24.9800     2.3370    -8.7950 
  270.7500    62.5150     7.3060     7.1090     8.6930    24.9820     2.3150    -8.3800 
  270.8750    62.5150     7.5800     7.3000     7.5860    24.9740     2.2950    -8.2980 
  271.0000    62.5150     8.2770     7.8940     8.3300    24.9090     2.2890    -8.6220 
  271.1250    62.5150     9.4040     8.9190     9.2270    24.8570     2.2980    -9.2680 
  271.2500    62.5150    10.7260    10.1760    10.4130    24.8640     2.3070    -9.9750 
  271.3750    62.5150    11.8840    11.3250    12.4020    24.8830     2.3050   -10.6060 
  271.5000    62.5150    12.3700    11.8300    15.6000    24.8070     2.2940   -11.1400 
  271.6250    62.5150    11.7320    11.2000    19.0910    24.6420     2.2810   -11.5590 
  271.7500    62.5150    10.4570     9.9500    17.9800    24.4860     2.2660   -11.7170 
  271.8750    62.5150     9.1100     8.6590    12.4920    24.3950     2.2400   -11.6630 
  272.0000    62.5150     8.1010     7.7060     8.5210    24.4000     2.1940   -11.4420 
  272.1250    62.5150     7.6240     7.2460     7.5660    24.3740     2.1280   -11.0610 
  272.2500    62.5150     7.4640     7.0830     7.8320    24.2440     2.0650   -10.6830 
  272.3750    62.5150     7.4280     7.0530     8.3310    23.8870     2.0280   -10.4360 
  272.5000    62.5150     7.3940     7.0550     7.9440    23.1590     2.0280   -10.3940 
  272.6250    62.5150     7.3410     7.0570     8.8430    22.0240     2.0620   -10.5540 
  272.7500    62.5150     7.2980     7.0550    10.3740    20.8470     2.1070   -10.8580 
  272.8750    62.5150     7.2920     7.0500    11.3100    20.0150     2.1480   -11.1210 
  273.0000    62.5150     7.3320     7.0430    11.7650    19.6830     2.1820   -11.3410 
  273.1250    62.5150     7.3870     7.0420    12.5400    19.7270     2.2050   -11.5710 
  273.2500    62.5150     7.4100     7.0470    13.3200    19.9760     2.2140   -11.7670 
  273.3750    62.5150     7.3890     7.0560    13.8460    20.3670     2.2020   -12.1400 
  273.5000    62.5150     7.3390     7.0650    13.8720    20.8070     2.1670   -12.9660 
  273.6250    62.5150     7.2900     7.0720    12.3720    21.0980     2.1140   -13.8700 
  273.7500    62.5150     7.2610     7.0770    10.5980    21.1640     2.0640   -14.6940 
  273.8750    62.5150     7.2530     7.0820     8.9940    20.9210     2.0320   -15.5640 
  274.0000    62.5150     7.2590     7.0830     7.9210    20.3180     2.0280   -16.4770 
  274.1250    62.5150     7.2750     7.0790     8.7100    19.6730     2.0540   -17.3550 
  274.2500    62.5150     7.2970     7.0690    10.2240    19.1660     2.0930   -18.2660 
  274.3750    62.5150     7.3190     7.0570    10.3740    18.7450     2.1290   -18.9710 
  274.5000    62.5150     7.3330     7.0470     8.4310    18.4020     2.1540   -19.1960 
  274.6250    62.5150     7.3370     7.0430     7.1930    18.2420     2.1650   -19.2620 
  274.7500    62.5150     7.3370     7.0430     6.7090    18.2320     2.1680   -19.3910 
  274.8750    62.5150     7.3370     7.0430     6.6420    18.3140     2.1690   -19.5450 
