~V
VERS. 2.00: Ver 2.00
~W
STRT.M 50.0000:
STOP.M 255.0000:
STEP.M 0.1250:
NULL. -999.2500:
UWI. F10005:
~C
DEPT.M :
SP.MV :
GR.API :
RML.OHMM :
RI. :
RXO.OHMM :
CALI.CM :
DEN.GM/CC :
~A
# ...
  185.0000    -6.4040    67.7310    13.0210    11.2940    14.1560    23.8470     2.2670 
  185.1250    -6.3400    69.4040    11.8300    10.4580    11.1470    23.8480     2.2790 
  185.2500    -6.2720    72.4800    10.5030     9.4450     9.1170    23.8720     2.2950 
  185.3750    -6.2710    73.8200     9.4540     8.5820     8.3050    23.9560     2.3090 
  185.5000    -6.2830    72.6650     8.8650     8.0160     8.0710    24.0580     2.3190 
  185.6250    -6.3260    70.8260     8.7590     7.7830     7.9790    24.0840     2.3240 
  185.7500    -6.3490    70.0520     8.8820     7.7300     7.9600    24.0540     2.3270 
  185.8750    -6.3560    70.6220     9.0700     7.7500     8.0280    24.0130     2.3290 
  186.0000    -6.3270    72.8790     9.2180     7.7770     8.0830    23.9770     2.3310 
  186.1250    -6.2940    75.4500     9.2870     7.8000     8.0560    23.9150     2.3390 
  186.2500    -6.2830    75.1260     9.3540     7.8600     8.1600    23.8120     2.3540 
  186.3750    -6.2230    73.3870     9.5370     8.0300     8.5590    23.6620     2.3710 
  186.5000    -6.1570    73.1290     9.9440     8.3850     9.1800    23.4980     2.3840 
  186.6250    -6.1190    72.9870    10.6850     9.0160     9.8530    23.4030     2.3800 
  186.7500    -6.0880    69.1090    11.6840     9.8610    10.2420    23.3890     2.3590 
  186.8750    -6.0870    64.0400    12.7620    10.7900    11.6850    23.4530     2.3270 
  187.0000    -6.1190    61.8980    13.5950    11.5590    14.3230    23.5460     2.2960 
  187.1250    -6.1780    61.9550    13.7770    11.8240    13.7880    23.6070     2.2800 
  187.2500    -6.2640    62.2250    13.3960    11.6300    12.3700    23.6670     2.2800 
  187.3750    -6.3880    63.3200    12.7210    11.1920    10.9620    23.7510     2.2920 
  187.5000    -6.4810    64.4230    12.1100    10.7710    10.0780    23.8650     2.3050 
  187.6250    -6.5200    64.8150    11.9370    10.6170    10.1560    23.9980     2.3100 
  187.7500    -6.5580    65.2150    12.2470    10.7900    11.0040    24.1050     2.3040 
  187.8750    -6.6290    65.8490    12.9810    11.2890    11.7820    24.1570     2.2930 
  188.0000    -6.6790    64.9470    13.9970    12.0500    12.3470    24.1560     2.2820 
  188.1250    -6.6910    63.6830    15.0180    12.9040    12.3590    24.1100     2.2710 
  188.2500    -6.7170    63.7680    15.6890    13.5430    12.8820    24.0210     2.2620 
  188.3750    -6.7520    64.0370    15.7730    13.7240    13.4600    23.9090     2.2530 
  188.5000    -6.8380    63.6900    15.2620    13.3910    13.7480    23.8290     2.2460 
  188.6250    -6.9480    63.0710    14.4090    12.7420    12.4980    23.8470     2.2440 
  188.7500    -7.0770    64.2030    13.7260    12.1930    10.5350    23.9550     2.2430 
  188.8750    -7.1770    66.8260    13.5740    12.0170     9.7550    24.1410     2.2420 
  189.0000    -7.2720    67.8590    14.1340    12.3760    10.7460    24.3450     2.2400 
  189.1250    -7.3770    64.7180    15.3980    13.3680    13.4200    24.4750     2.2470 
  189.2500    -7.4150    60.3360    16.8680    14.6910    15.0250    24.5280     2.2650 
  189.3750    -7.4210    57.9940    18.0570    15.9710    15.9500    24.5420     2.2900 
  189.5000    -7.3710    57.9050    18.6080    16.8310    16.5960    24.5500     2.3090 
  189.6250    -7.3090    59.3370    18.4850    17.0840    16.7750    24.5480     2.3060 
  189.7500    -7.2170    61.1950    18.2120    17.0650    16.1400    24.5530     2.2840 
  189.8750    -7.1500    62.1140    18.1360    17.0520    16.3660    24.5640     2.2560 
  190.0000    -7.1020    61.8770    18.3900    17.1960    18.3230    24.5700     2.2350 
  190.1250    -7.0630    62.3230    18.9230    17.5160    19.5840    24.5650     2.2350 
  190.2500    -7.0410    63.4660    19.4670    17.8570    19.5660    24.5440     2.2490 
  190.3750    -7.0480    63.1800    19.7690    18.0310    18.8890    24.4950     2.2640 
  190.5000    -7.1130    61.4620    19.6470    17.8790    18.4000    24.4170     2.2700 
  190.6250    -7.2090    60.8730    19.1420    17.4150    19.4540    24.3120     2.2600 
  190.7500    -7.3240    61.7000    18.7340    17.0110    19.8920    24.1830     2.2540 
  190.8750    -7.3860    61.4720    18.9060    17.0460    19.7400    24.0100     2.2730 
  191.0000    -7.4260    59.2220    20.0720    17.8550    18.8830    23.7850     2.3250 
  191.1250    -7.4730    56.1360    22.6450    19.8660    20.9840    23.5100     2.4000 
  191.2500    -7.6100    53.4090    26.1310    22.8440    30.2350    23.2570     2.4630 
  191.3750    -7.7930    52.4140    29.6010    26.1500    38.6380    23.0840     2.4910 
  191.5000    -7.9640    53.3840    31.6920    28.6050    36.0880    23.0080     2.4780 
  191.6250    -8.1650    54.6930    31.1080    28.8360    28.1220    23.0070     2.4310 
  191.7500    -8.3680    55.2550    28.9300    27.4510    24.3880    23.0350     2.3780 
  191.8750    -8.6410    55.5630    26.5920    25.5680    21.2410    23.0810     2.3320 
  192.0000    -8.9310    57.2170    25.2050    24.1850    19.6120    23.1460     2.3010 
  192.1250    -9.2210    59.2630    25.3860    23.9900    20.0670    23.2360     2.2840 
  192.2500    -9.3930    59.5810    26.6810    24.8250    24.0550    23.3410     2.2740 
  192.3750    -9.4780    57.3940    28.6450    26.4590    28.7370    23.4480     2.2650 
  192.5000    -9.5300    53.2860    30.7910    28.5200    31.3550    23.5390     2.2580 
  192.6250    -9.5460    50.7090    32.6200    30.4870    31.9210    23.5870     2.2530 
  192.7500    -9.5160    50.4520    33.9640    32.0070    32.7090    23.5810     2.2510 
  192.8750    -9.3990    52.8340    34.9020    33.0630    33.8560    23.5260     2.2500 
  193.0000    -9.2990    56.2640    35.6270    33.8380    34.7190    23.4530     2.2440 
  193.1250    -9.1760    57.5950    36.2270    34.4740    35.7670    23.3990     2.2320 
  193.2500    -9.0710    57.0640    36.6230    34.9480    37.5750    23.3730     2.2160 
  193.3750    -9.0200    55.3610    36.6720    35.1300    39.3280    23.3640     2.2000 
  193.5000    -9.0190    54.1550    36.3270    34.9450    39.6140    23.3590     2.1910 
  193.6250    -9.0120    54.2740    35.6960    34.4480    38.7090    23.3540     2.1930 
  193.7500    -9.0330    54.4270    35.1160    33.9340    37.5100    23.3530     2.2010 
  193.8750    -9.1110    55.3920    34.8580    33.6420    36.7150    23.3590     2.2100 
  194.0000    -9.1510    56.9270    35.0670    33.7120    36.5150    23.3660     2.2170 
  194.1250    -9.1660    59.5720    35.7450    34.1860    36.8840    23.3710     2.2210 
  194.2500    -9.1510    60.9940    36.5550    34.8320    37.4110    23.3680     2.2230 
  194.3750    -9.1320    60.3790    37.1970    35.4160    38.5030    23.3580     2.2250 
  194.5000    -9.0570    59.0950    37.4350    35.7320    39.3850    23.3400     2.2280 
  194.6250    -8.9810    57.1160    37.1130    35.6230    39.9970    23.3320     2.2270 
  194.7500    -8.8980    55.3200    36.4250    35.2160    40.1520    23.3580     2.2210 
  194.8750    -8.7660    55.1570    35.5830    34.6710    38.8790    23.4380     2.2100 
  195.0000    -8.6070    56.2770    34.8220    34.1590    37.4670    23.5510     2.2020 
  195.1250    -8.4450    57.1130    34.3650    33.8220    37.5710    23.6500     2.2110 
  195.2500    -8.3410    55.7530    34.1850    33.6330    38.2470    23.7170     2.2420 
  195.3750    -8.2120    53.3650    34.1620    33.5170    39.3680    23.7490     2.2890 
  195.5000    -8.1240    50.3190    34.1350    33.3860    39.4680    23.7490     2.3350 
  195.6250    -8.0850    47.4550    33.9690    33.1660    37.2280    23.7110     2.3590 
  195.7500    -8.0630    48.0170    33.6860    32.8540    34.0230    23.6650     2.3560 
  195.8750    -8.0910    51.0890    33.2890    32.4250    32.7300    23.5950     2.3350 
  196.0000    -8.1790    52.7950    32.6830    31.8130    33.1140    23.4740     2.3070 
  196.1250    -8.3340    53.2390    31.6510    30.8800    32.6360    23.2700     2.2870 
