~V
VERS. 2.00: Ver 2.00
~W
STRT.M 50.0000:
STOP.M 237.0000:
STEP.M 0.1250:
NULL. -999.2500:
UWI. F10006:
~C
DEPT.M :
GR.API :
RML.OHMM :
RI. :
RXO.OHMM :
CALI.CM :
DEN.GM/CC :
SP.MV :
~A
   50.0000    53.1780     0.8470     0.4900     1.3080    24.7260  -999.2500  -999.2500 
   50.1250    50.4670     0.8500     0.5020     1.3010    24.7260  -999.2500  -999.2500 
   50.2500    47.5720     0.8450     0.5110     1.2950    24.7260  -999.2500  -999.2500 
   50.3750    46.9990     0.8340     0.5200     1.2930    24.7260  -999.2500  -999.2500 
   50.5000    50.2030     0.8210     0.5290     1.2910    24.7260     2.5910  -999.2500 
   50.6250    53.4600     0.8070     0.5370     1.2880    24.7260     2.5910  -999.2500 
   50.7500    51.9400     0.7940     0.5410     1.2850    24.7260     2.5910  -999.2500 
   50.8750    46.9700     0.7870     0.5400     1.2810    24.7260     2.5770  -999.2500 
   51.0000    43.2430     0.7840     0.5330     1.2720    24.7250     2.5590  -999.2500 
   51.1250    43.3170     0.7840     0.5230     1.2560    24.7220     2.5650  -999.2500 
   51.2500    43.9910     0.7840     0.5110     1.2370    24.7190     2.5990  -999.2500 
   51.3750    43.6990     0.7830     0.4940     1.2010    24.7130     2.6530  -999.2500 
   51.5000    42.5080     0.7800     0.4690     1.1420    24.6890     2.7060  -999.2500 
   51.6250    42.0790     0.7770     0.4310     1.0920    24.6460     2.7290  -999.2500 
   51.7500    43.0050     0.7740     0.3850     1.0990    24.6050     2.7100  -999.2500 
   51.8750    43.7570     0.7700     0.3360     1.1440    24.5830     2.6490  -999.2500 
   52.0000    42.2630     0.7650     0.2910     1.1870    24.5820     2.5620  -999.2500 
   52.1250    40.8940     0.7600     0.2550     1.1940    24.5900     2.4740  -999.2500 
   52.2500    41.9820     0.7550     0.2290     1.1830    24.5950     2.4080  -999.2500 
   52.3750    44.8270     0.7510     0.2150     1.1750    24.5950     2.3710  -999.2500 
   52.5000    47.9130     0.7490     0.2190     1.1920    24.5900     2.3620   107.3850 
   52.6250    50.5350     0.7490     0.2500     1.2110    24.5630     2.3770   107.3850 
   52.7500    52.1590     0.7490     0.3040     1.2080    24.5050     2.4010   102.8360 
   52.8750    51.3480     0.7490     0.3740     1.1870    24.4280     2.4220    98.9970 
   53.0000    48.9570     0.7490     0.4470     1.1660    24.3470     2.4290   100.1910 
   53.1250    47.6530     0.7530     0.5010     1.1560    24.3830     2.4140   101.4320 
   53.2500    47.7380     0.7610     0.5260     1.1600    24.4260     2.3930   102.7250 
   53.3750    48.0350     0.7670     0.5240     1.1670    24.4710     2.3840   103.9720 
   53.5000    47.0220     0.7610     0.5040     1.1590    24.4790     2.3950   105.1550 
   53.6250    44.3800     0.7360     0.4790     1.1360    24.3250     2.4200   106.2710 
   53.7500    42.2500     0.7050     0.4590     1.1250    24.0170     2.4420   107.4210 
   53.8750    42.5600     0.6820     0.4440     1.1480    23.7590     2.4560   108.6170 
   54.0000    45.5770     0.6700     0.4300     1.1930    23.6460     2.4670   109.8700 
   54.1250    48.3080     0.6640     0.4130     1.2080    23.6070     2.4780   111.0730 
   54.2500    47.5710     0.6600     0.3920     1.2050    23.5170     2.4760   112.1390 
   54.3750    45.4820     0.6610     0.3680     1.1960    23.4230     2.4450   113.0900 
   54.5000    44.8930     0.6690     0.3440     1.1740    23.4140     2.3710   113.9130 
   54.6250    46.2610     0.6850     0.3230     1.1200    23.5400     2.2570   114.6310 
   54.7500    47.4520     0.7080     0.3050     1.0600    23.8090     2.1360   115.2300 
   54.8750    47.3140     0.7380     0.2880     1.0120    24.1500     2.0360   115.7640 
   55.0000    46.6260     0.7710     0.2700     0.9870    24.3860     1.9750   116.2780 
   55.1250    47.5200     0.8090     0.2520     0.9790    24.4820     1.9670   116.9960 
   55.2500    49.8340     0.8580     0.2350     0.9770    24.4680     1.9920   118.0400 
   55.3750    51.9290     0.9060     0.2200     0.9980    24.3880     2.0370   119.3090 
   55.5000    52.7070     0.9280     0.2070     1.0950    24.2330     2.0890   120.4130 
   55.6250    52.3480     0.8690     0.1860     1.3470    24.0360     2.1520   120.6420 
   55.7500    51.6360     0.7120     0.1500     1.7240    23.7780     2.2380   119.8800 
   55.8750    50.1240     0.4900     0.1040     2.0750    23.4890     2.3540   117.9590 
   56.0000    47.8380     0.2800     0.0590     2.2940    23.2350     2.4830   114.6720 
   56.1250    46.5290     0.1490     0.0280     2.3220    23.1190     2.5760   109.4660 
   56.2500    46.9300     0.0830     0.0130     2.4160    23.0740     2.5940   102.2160 
   56.3750    49.5120     0.0630     0.0150     2.9220    23.0240     2.5340    92.7180 
   56.5000    54.0520     0.0750     0.0380     4.5780    22.9410     2.4280    81.2700 
   56.6250    60.9420     0.2850     0.1550     7.4160    22.9790     2.3270    68.5210 
   56.7500    69.7760     1.5900     0.6690     8.7770    23.1380     2.2630    55.4810 
   56.8750    78.1840     4.6790     1.9170     8.3380    23.3790     2.2370    42.6930 
   57.0000    82.6550     7.5880     3.5560     8.0980    23.4230     2.2360    30.5710 
   57.1250    81.4730     9.0930     5.2030     8.4930    23.1700     2.2470    19.5670 
   57.2500    78.3110     9.6460     6.6480     9.4200    22.8560     2.2570     9.9390 
   57.3750    75.1460    10.1150     7.9430    10.2070    22.8910     2.2610     2.1020 
   57.5000    71.9380    10.7550     9.1090    11.0730    23.1310     2.2540    -3.8380 
   57.6250    70.2140    11.5780    10.1270    11.3920    23.2960     2.2390    -7.9460 
   57.7500    70.2310    12.3830    10.9770    11.5400    23.2570     2.2220   -11.0110 
   57.8750    70.7060    13.0610    11.6400    11.4650    23.0670     2.2100   -13.4210 
   58.0000    71.8190    13.6200    12.1470    11.1920    22.8760     2.2020   -15.4010 
   58.1250    74.1190    14.1240    12.5280    10.9190    22.7030     2.1900   -16.9490 
   58.2500    75.0940    14.5670    12.7920    10.8570    22.5710     2.1730   -18.1620 
   58.3750    72.9790    14.8110    12.8470    10.8590    22.4940     2.1570   -19.1550 
   58.5000    71.5950    14.6800    12.5770    10.4930    22.5320     2.1510   -19.9460 
   58.6250    76.1140    14.0180    11.8640     9.5740    22.4840     2.1670   -20.4640 
   58.7500    83.2290    13.0280    10.8690     8.6850    22.2200     2.1960   -20.8450 
   58.8750    87.8660    11.9350     9.7670     7.9300    21.9910     2.2290   -21.1160 
   59.0000    88.6890    10.9520     8.7390     7.4830    22.0370     2.2550   -21.2920 
   59.1250    89.3340    10.2570     7.9540     7.3630    22.2680     2.2660   -21.3970 
   59.2500    91.2700     9.8350     7.4260     7.4480    22.4690     2.2670   -21.5100 
   59.3750    90.9540     9.6570     7.1460     7.5040    22.5840     2.2600   -21.5690 
   59.5000    87.1530     9.7080     7.0960     7.6010    22.6050     2.2480   -21.6130 
   59.6250    83.4110    10.0650     7.3220     8.3600    22.4900     2.2300   -21.7650 
   59.7500    80.6940    10.7550     7.8220     9.1420    22.2630     2.2090   -21.9650 
   59.8750    76.5200    11.8260     8.6430     9.6720    22.1040     2.1850   -22.2300 
   60.0000    71.0170    13.2590     9.8020    11.4190    22.0320     2.1610   -22.5560 
   60.1250    68.5430    14.9170    11.2740    12.8350    22.0350     2.1430   -22.9540 
   60.2500    68.6340    16.4600    12.8070    13.6850    22.1510     2.1330   -23.3640 
   60.3750    67.6210    17.6170    14.1520    14.0390    22.4440     2.1320   -23.7960 
   60.5000    65.8100    18.2550    15.1090    14.2480    22.7600     2.1380   -24.2140 
   60.6250    64.0140    18.4020    15.5580    14.3070    22.9040     2.1450   -24.5590 
   60.7500    63.2560    18.3820    15.7030    14.3570    22.9700     2.1500   -24.8620 
   60.8750    63.4240    18.3960    15.7180    14.5230    23.0760     2.1540   -25.1240 
   61.0000    63.9120    18.5290    15.7290    14.5890    23.2640     2.1580   -25.3460 
   61.1250    64.7090    18.7520    15.7840    14.6720    23.3870     2.1630   -25.5100 
