~V
VERS. 2.00: Ver 2.00
~W
STRT.M 55.0000:
STOP.M 314.0000:
STEP.M 0.1250:
NULL. -999.2500:
UWI. F10048:
~C
DEPT.M :
DEN.GM/CC :
GR.API :
RML.OHMM :
RI. :
RXO.OHMM :
CALI.CM :
SP.MV :
~A
# ...
  133.7500     2.3680    76.1930     5.1810     4.8400     5.3510    23.4120    -6.9890 
  133.8750     2.3770    79.9860     4.9740     4.7500     5.3610    23.3860    -7.5570 
  134.0000     2.3800    82.9570     4.9110     4.7300     5.5310    23.3490    -8.2860 
  134.1250     2.3740    80.1730     5.1330     4.8650     5.8860    23.3270    -9.1940 
  134.2500     2.3620    76.1780     5.6390     5.1730     6.4990    23.3270   -10.2300 
  134.3750     2.3470    74.5840     6.3840     5.6520     7.3440    23.3470   -11.3530 
  134.5000     2.3300    73.0640     7.2440     6.2580     8.2630    23.3750   -12.4970 
  134.6250     2.3120    68.5660     7.9960     6.8910     9.0500    23.3910   -13.5820 
  134.7500     2.2980    64.5490     8.4490     7.4110     9.6340    23.3740   -14.5150 
  134.8750     2.2910    61.9050     8.5250     7.7100     9.8710    23.3050   -15.2360 
  135.0000     2.2910    60.5750     8.2710     7.7430     9.9740    23.2130   -15.7810 
  135.1250     2.2960    61.2980     7.8380     7.5290     9.9270    23.1580   -16.1560 
  135.2500     2.2990    63.4960     7.4450     7.2310     9.8070    23.1450   -16.4310 
  135.3750     2.2980    65.7210     7.1990     6.9610     9.6110    23.1300   -16.6780 
  135.5000     2.2910    67.1100     7.1320     6.7930     9.5950    23.0980   -16.9220 
  135.6250     2.2830    65.8770     7.2390     6.7680     9.9150    23.0520   -17.2050 
  135.7500     2.2750    60.5860     7.4330     6.8350    10.3310    23.0040   -17.5720 
  135.8750     2.2680    55.4770     7.6430     6.9380    10.6490    22.9470   -17.9860 
  136.0000     2.2650    56.8910     7.7910     7.0180    10.9710    22.8930   -18.3810 
  136.1250     2.2650    61.9660     7.7900     7.0160    11.2090    22.8840   -18.7020 
  136.2500     2.2700    63.2700     7.6520     6.9330    11.1290    22.9270   -18.9790 
  136.3750     2.2780    61.7000     7.4230     6.7950    10.7590    22.9770   -19.2160 
  136.5000     2.2880    61.9770     7.1900     6.6480    10.3590    22.9940   -19.4250 
  136.6250     2.2980    66.8500     7.0890     6.5690    10.4010    22.9680   -19.6310 
  136.7500     2.3060    72.0520     7.1930     6.6140    10.9180    22.9220   -19.7850 
  136.8750     2.3090    73.7070     7.5290     6.8190    11.5140    22.8820   -19.8980 
  137.0000     2.3120    71.6900     8.0540     7.1880    12.3110    22.8860   -20.0290 
  137.1250     2.3260    69.3090     8.6570     7.6780    13.7720    22.9740   -20.2790 
  137.2500     2.3530    68.9660     9.1700     8.1570    16.0210    23.0970   -20.5870 
  137.3750     2.3860    68.3530     9.4700     8.5030    18.4510    23.1940   -20.8960 
  137.5000     2.4120    65.7150     9.4920     8.6230    20.0160    23.2250   -21.1520 
  137.6250     2.4080    63.2390     9.2110     8.4530    18.6040    23.1610   -21.3120 
  137.7500     2.3790    62.2310     8.7770     8.1160    14.9220    23.0650   -21.4330 
  137.8750     2.3390    60.3340     8.3140     7.7290    12.8600    22.9980   -21.5210 
  138.0000     2.3030    58.2790     7.9320     7.3950    12.2000    22.9790   -21.5550 
  138.1250     2.2810    58.5770     7.7180     7.1870    11.9450    22.9800   -21.4400 
  138.2500     2.2700    59.6430     7.6380     7.0780    11.6360    22.9660   -21.2620 
  138.3750     2.2670    60.1170     7.6290     7.0270    11.2580    22.9290   -21.0830 
  138.5000     2.2680    61.0090     7.6110     6.9870    11.0040    22.8800   -20.9690 
  138.6250     2.2740    62.8990     7.5120     6.9190    10.8920    22.8250   -20.9640 
  138.7500     2.2860    63.0990     7.3440     6.8210    10.5620    22.7800   -21.0360 
  138.8750     2.3000    62.4130     7.1580     6.7130     9.9110    22.7550   -21.2270 
  139.0000     2.3120    63.1890     7.0310     6.6340     9.2190    22.7660   -21.5610 
  139.1250     2.3130    63.0080     7.0520     6.6390     9.0900    22.8020   -22.0720 
  139.2500     2.3010    59.2810     7.2080     6.7390     9.6920    22.8430   -22.6410 
  139.3750     2.2770    54.1590     7.4520     6.9150    10.8070    22.8970   -23.1970 
  139.5000     2.2510    52.7830     7.7090     7.1180    11.5610    22.9760   -23.7220 
  139.6250     2.2350    55.8880     7.8820     7.2730    11.6810    23.0630   -24.1640 
  139.7500     2.2300    59.1400     7.9350     7.3430    11.5980    23.1130   -24.5640 
  139.8750     2.2330    60.9550     7.8670     7.3280    11.4650    23.0930   -24.9180 
  140.0000     2.2400    61.6820     7.7120     7.2540    11.3110    23.0230   -25.2110 
  140.1250     2.2450    61.4220     7.5290     7.1540    11.1710    22.9190   -25.4370 
  140.2500     2.2470    59.1770     7.3770     7.0520    11.0600    22.8250   -25.6470 
  140.3750     2.2470    56.3960     7.2810     6.9590    11.0180    22.7790   -25.8580 
  140.5000     2.2460    55.7980     7.2440     6.8860    11.0370    22.7650   -26.1020 
  140.6250     2.2470    57.6210     7.2480     6.8520    11.0840    22.7630   -26.4700 
  140.7500     2.2500    59.3370     7.2620     6.8550    11.1390    22.7870   -26.9230 
  140.8750     2.2520    59.5900     7.2780     6.8850    11.1490    22.8610   -27.4400 
  141.0000     2.2530    59.0090     7.3170     6.9290    11.1630    22.9550   -28.0120 
  141.1250     2.2500    58.4540     7.3700     6.9700    11.2090    23.0230   -28.5860 
  141.2500     2.2440    58.0080     7.4290     7.0050    11.2650    23.0510   -29.1170 
  141.3750     2.2370    56.4940     7.4780     7.0350    11.2350    23.0580   -29.5890 
  141.5000     2.2320    53.3840     7.5100     7.0640    11.2080    23.0460   -29.9530 
  141.6250     2.2310    50.6370     7.5480     7.0930    11.2100    23.0250   -30.1120 
  141.7500     2.2350    51.1240     7.5850     7.1170    11.2110    23.0150   -30.1180 
  141.8750     2.2430    53.2640     7.5980     7.1330    11.1550    23.0290   -29.9320 
  142.0000     2.2520    53.4020     7.5880     7.1350    11.1000    23.0600   -29.5440 
  142.1250     2.2610    51.1980     7.5560     7.1130    11.1230    23.0740   -28.9830 
  142.2500     2.2680    49.4340     7.5070     7.0650    11.1630    23.0690   -28.3150 
  142.3750     2.2710    49.5320     7.4450     6.9960    11.1080    23.0490   -27.5450 
  142.5000     2.2700    50.9080     7.3710     6.9160    10.8990    23.0220   -26.6760 
  142.6250     2.2660    53.3050     7.2570     6.8510    10.5280    22.9940   -25.7270 
  142.7500     2.2630    57.2270     7.1800     6.8290    10.1530    22.9600   -24.6740 
  142.8750     2.2610    61.2330     7.1730     6.8690     9.9710    22.9170   -23.5290 
  143.0000     2.2620    64.1390     7.2420     6.9670    10.1400    22.8740   -22.2930 
  143.1250     2.2630    64.6550     7.3860     7.0930    10.5830    22.8370   -20.9670 
  143.2500     2.2630    63.8740     7.4680     7.1790    10.9420    22.8010   -19.5590 
  143.3750     2.2610    62.9200     7.4320     7.1570    10.9890    22.7710   -18.0730 
  143.5000     2.2620    61.5970     7.1910     6.9760    10.5100    22.7540   -16.4950 
  143.6250     2.2730    62.5400     6.7080     6.6090     9.4650    22.7560   -14.8330 
  143.7500     2.2950    67.0830     6.1610     6.1500     8.1550    22.7670   -13.2080 
  143.8750     2.3230    72.9890     5.6970     5.6900     6.8010    22.7710   -11.7070 
  144.0000     2.3500    77.3820     5.4200     5.3110     5.8010    22.7510   -10.3790 
  144.1250     2.3660    80.2360     5.3690     5.0850     5.5420    22.6960    -9.2760 
  144.2500     2.3700    81.8910     5.3250     4.9950     5.6470    22.6180    -8.3770 
  144.3750     2.3680    81.1130     5.3840     5.0190     5.8730    22.5360    -7.7030 
  144.5000     2.3640    77.8180     5.5280     5.1240     6.0330    22.4570    -7.2790 
  144.6250     2.3590    75.3300     5.7200     5.2620     6.3060    22.4120    -7.1460 
  144.7500     2.3540    73.3750     5.8790     5.3730     6.5700    22.3930    -7.1350 
  144.8750     2.3490    71.2230     5.9540     5.4210     6.7860    22.4030    -7.1430 
