~V
VERS. 2.00: Ver 2.00
~W
STRT.M 64.0000:
STOP.M 260.0000:
STEP.M 0.1250:
NULL. -999.2500:
UWI. F10016:
~C
DEPT.M :
GR.API :
RML.OHMM :
RI. :
RXO.OHMM :
CALI.CM :
DEN.GM/CC :
SP.MV :
~A
# ...
   97.7500    84.8110    12.5380    10.8720    13.3290    24.1570     2.3450   -15.6540 
   97.8750    76.8480    14.7950    13.1880    21.5620    24.1250     2.4510   -15.7290 
   98.0000    66.9370    19.5610    17.6440    36.9720    24.1030     2.5640   -15.8130 
   98.1250    59.4420    26.1710    24.2520    55.4650    24.0800     2.6490   -15.8860 
   98.2500    58.1540    31.8080    30.7730    73.2570    24.0530     2.6760   -16.0260 
   98.3750    61.0550    33.9590    34.4960    86.9390    24.0240     2.6320   -16.2080 
   98.5000    63.8530    31.7280    33.8160    68.9490    24.0200     2.5270   -16.3440 
   98.6250    66.4430    26.4480    29.4040    37.2700    24.1100     2.3910   -16.4470 
   98.7500    68.8540    21.1920    24.3760    22.9680    24.2410     2.2690   -16.5540 
   98.8750    69.9260    17.3400    20.2150    18.1160    24.4180     2.1840   -16.6200 
   99.0000    71.0090    15.1540    17.3040    16.2600    24.5480     2.1340   -16.6550 
   99.1250    72.9040    14.3940    15.5250    14.8660    24.4880     2.1120   -16.6250 
   99.2500    73.0670    13.7730    14.2590    13.8030    24.3080     2.1070   -16.5200 
   99.3750    72.9800    12.9730    13.1490    12.1550    24.1270     2.1190   -16.3780 
   99.5000    78.0430    11.8800    11.9570     9.3930    24.0770     2.1500   -16.2090 
   99.6250    85.8380    10.5360    10.6200     7.0540    24.0250     2.1960   -15.9740 
   99.7500    90.2930     9.1680     9.3050     6.8300    23.8720     2.2440   -15.7110 
   99.8750    93.0970     7.9580     8.1790     7.1500    23.6110     2.2850   -15.4620 
  100.0000    95.8790     7.0360     7.3360     6.7570    23.5400     2.3140   -15.2130 
  100.1250    97.1140     6.5460     6.8530     6.3190    23.6270     2.3260   -14.9860 
  100.2500    95.1460     6.4950     6.6970     6.7960    23.5410     2.3230   -14.7920 
  100.3750    91.2630     6.9520     6.9410     7.9840    23.4860     2.3110   -14.5980 
  100.5000    85.8280     8.0000     7.7090     9.2800    23.4620     2.2940   -14.4010 
  100.6250    78.9950     9.7570     9.2030    10.8960    23.4530     2.2740   -14.2520 
  100.7500    74.8130    11.9060    11.2030    13.7950    23.5420     2.2490   -14.1330 
  100.8750    74.2060    13.9530    13.2780    17.8140    23.8120     2.2210   -13.9910 
  101.0000    76.0180    15.2270    14.7680    20.4840    24.2130     2.1960   -13.8820 
  101.1250    78.7480    14.9940    14.8770    17.8870    24.3920     2.1910   -13.8620 
  101.2500    82.8940    13.6210    13.8350    13.1810    24.3370     2.2100   -13.8940 
  101.3750    88.7520    11.7570    12.1830     9.9110    24.1590     2.2450   -13.9670 
  101.5000    92.5370    10.1200    10.5220     8.8470    23.8340     2.2810   -14.0770 
  101.6250    91.5010     9.2170     9.3190     9.1760    23.7130     2.3000   -14.2470 
  101.7500    85.5530     8.7920     8.5990     9.4930    23.6840     2.3020   -14.4400 
  101.8750    79.3490     8.4490     8.2490     9.9470    23.7230     2.2940   -14.6160 
  102.0000    79.9430     8.1340     8.0670     9.6310    23.8300     2.2900   -14.8030 
  102.1250    89.2510     7.8810     7.8450     8.4370    24.0090     2.2970   -14.9790 
  102.2500    97.6790     7.7040     7.5630     7.3610    24.1370     2.3100   -15.0990 
  102.3750    98.3820     7.6370     7.3640     7.1200    24.2140     2.3170   -15.1920 
  102.5000    92.1670     7.9150     7.4360     7.6420    24.2490     2.3090   -15.3280 
  102.6250    83.6890     8.8220     7.9850    10.0110    24.3070     2.2850   -15.4540 
  102.7500    77.2990    10.1320     8.9130    14.1250    24.3340     2.2590   -15.5500 
  102.8750    74.9490    11.4170     9.9970    16.1690    24.2980     2.2460   -15.7150 
  103.0000    78.1120    12.1790    10.8680    14.8940    24.1720     2.2520   -15.8710 
  103.1250    85.9970    11.9830    11.0410    12.3200    24.0090     2.2800   -15.9820 
  103.2500    93.2610    11.1420    10.5510    10.4390    24.0070     2.3200   -16.1240 
  103.3750    95.7920    10.0850     9.6610     9.9150    24.2050     2.3610   -16.3160 
  103.5000    94.6630     9.1970     8.7340    10.4640    24.3290     2.3890   -16.4930 
  103.6250    95.9700     8.7000     8.0940    10.1800    24.2940     2.3920   -16.6730 
  103.7500    99.0720     8.4850     7.7600     8.7700    24.2810     2.3720   -16.8770 
  103.8750    99.2490     8.4610     7.6590     8.8340    24.3150     2.3390   -17.0130 
  104.0000    96.0580     8.5900     7.7050     9.2060    24.3540     2.3090   -17.1460 
  104.1250    93.1330     8.9190     7.8920     9.0780    24.3910     2.2910   -17.3390 
  104.2500    90.8310     9.4270     8.2350     9.2870    24.3940     2.2830   -17.5120 
  104.3750    85.9030    10.0370     8.7330    10.5830    24.3220     2.2770   -17.6150 
  104.5000    79.5620    10.5910     9.2810    12.2370    24.2000     2.2710   -17.7070 
  104.6250    77.7710    10.8650     9.6460    11.6910    24.1240     2.2720   -17.7460 
  104.7500    80.3170    10.8230     9.7080    10.5780    24.1290     2.2820   -17.7680 
  104.8750    83.8580    10.5270     9.4880     9.6990    24.1450     2.2980   -17.8210 
  105.0000    87.9090    10.1000     9.1080     9.2350    24.1360     2.3090   -17.8470 
  105.1250    92.7450     9.6760     8.7040     9.2390    24.1140     2.3060   -17.7930 
  105.2500    97.2850     9.3380     8.3450     8.7900    24.0950     2.2920   -17.7490 
  105.3750    99.5330     9.0960     8.0400     8.1550    24.1050     2.2720   -17.7050 
  105.5000   100.1660     8.9270     7.7940     7.5470    24.0960     2.2510   -17.6210 
  105.6250   101.5120     8.7880     7.6340     7.4350    23.9970     2.2290   -17.5950 
  105.7500   102.1130     8.6570     7.5490     8.0000    23.7090     2.2110   -17.5570 
  105.8750    99.2370     8.5810     7.5300     8.6490    23.5770     2.2070   -17.4540 
  106.0000    93.6040     8.6640     7.5850     8.6340    23.5810     2.2260   -17.3270 
  106.1250    90.1950     9.0690     7.7870     8.3300    23.5910     2.2650   -17.2110 
  106.2500    89.8940     9.7500     8.1760     8.8860    23.5810     2.3020   -17.0620 
  106.3750    88.5760    10.5390     8.7210    10.6340    23.5730     2.3210   -16.8800 
  106.5000    85.4610    11.1390     9.2550    11.7560    23.6370     2.3150   -16.7230 
  106.6250    86.0170    11.1450     9.4370    10.1920    23.7600     2.2960   -16.5340 
  106.7500    91.3930    10.5780     9.1450     8.1950    23.9450     2.2810   -16.3320 
  106.8750    96.9890     9.6730     8.4870     7.4040    24.2160     2.2790   -16.2040 
  107.0000    99.2760     8.7900     7.7260     7.1950    24.4050     2.2850   -16.1670 
  107.1250    99.5370     8.2940     7.1720     7.6550    24.4660     2.2900   -16.1690 
  107.2500    99.5730     8.2110     6.9060     8.4510    24.4500     2.2910   -16.2130 
  107.3750    97.9710     8.4230     6.8930     8.7580    24.4190     2.2870   -16.3760 
  107.5000    94.2370     8.7420     7.0420     8.5640    24.3630     2.2770   -16.6060 
  107.6250    91.4630     9.0170     7.2920     8.9900    24.2470     2.2600   -16.9040 
  107.7500    90.2750     9.2830     7.6190     9.8620    24.1330     2.2440   -17.2320 
  107.8750    87.8800     9.6950     8.0620    10.4330    24.0690     2.2430   -17.5780 
  108.0000    83.6640    10.4100     8.6780    11.0750    24.0320     2.2680   -17.9300 
  108.1250    79.6940    11.4980     9.5320    12.7840    23.9790     2.3160   -18.2840 
  108.2500    77.2020    12.6730    10.5100    16.9200    23.9630     2.3520   -18.6440 
  108.3750    75.2650    13.5670    11.3850    20.6120    23.9910     2.3510   -19.0090 
  108.5000    75.6030    13.8500    11.8590    19.0150    24.0680     2.3040   -19.3280 
  108.6250    78.9120    13.3510    11.6740    14.0350    24.0250     2.2310   -19.5490 
  108.7500    81.7500    12.4920    11.0870    12.1560    24.2490     2.1680   -19.7430 
  108.8750    81.2810    11.6690    10.4080    11.7290    24.4500     2.1350   -19.8400 
