~V
VERS. 2.00: Ver 2.00
~W
STRT.M 50.0000:
STOP.M 300.0000:
STEP.M 0.1250:
NULL. -999.2500:
UWI. F10041:
~C
DEPT.M :
DEN.GM/CC :
GR.API :
RML.OHMM :
RI. :
RXO.OHMM :
CALI.CM :
SP.MV :
~A
# ...
   95.0000     2.2040    79.8520     9.3960     7.8020     7.6560    23.9800   -13.3880 
   95.1250     2.2010    73.8830     9.5240     7.9470     7.6510    23.7780   -13.3320 
   95.2500     2.1970    66.4430     9.5280     8.0680     8.0050    23.6530   -13.2440 
   95.3750     2.1930    61.6020     9.4350     8.1400     8.4260    23.5430   -13.0950 
   95.5000     2.1870    59.5780     9.2730     8.1380     8.6650    23.4140   -12.9610 
   95.6250     2.1800    60.1930     9.0710     8.0290     8.5450    23.3630   -12.7800 
   95.7500     2.1750    64.1730     8.8700     7.8340     8.3850    23.3670   -12.6030 
   95.8750     2.1730    69.1300     8.6770     7.5820     8.2680    23.3830   -12.4960 
   96.0000     2.1700    69.7230     8.4830     7.3130     8.1710    23.4150   -12.3510 
   96.1250     2.1590    66.8190     8.2760     7.0840     7.9570    23.5750   -12.2770 
   96.2500     2.1390    66.2800     8.0800     6.9280     7.8760    23.9930   -12.2760 
   96.3750     2.1140    67.1530     7.9430     6.8500     7.9810    24.6920   -12.3970 
   96.5000     2.0960    65.6550     7.8990     6.8350     8.2280    25.2610   -12.6340 
   96.6250     2.0930    63.1390     7.9350     6.8500     8.1300    25.2840   -12.9230 
   96.7500     2.1010    64.4940     7.9560     6.8540     8.0790    24.9400   -13.2530 
   96.8750     2.1110    65.7710     7.9110     6.8300     7.9920    24.5080   -13.6350 
   97.0000     2.1160    62.3460     7.8360     6.7950     8.0880    24.0980   -14.0610 
   97.1250     2.1190    57.3080     7.8880     6.8130     8.2800    24.0330   -14.4650 
   97.2500     2.1330    55.5730     8.1930     6.9480     8.1930    24.1650   -14.7750 
   97.3750     2.1640    57.4840     8.7660     7.2320     8.3130    24.2190   -14.9430 
   97.5000     2.2070    59.3270     9.4730     7.6420     8.9490    23.9950   -15.0170 
   97.6250     2.2430    59.3440    10.0040     8.0680    10.5860    23.6940   -15.0580 
   97.7500     2.2590    59.3560    10.1280     8.3480    11.5840    23.7390   -15.0140 
   97.8750     2.2500    59.8420     9.8030     8.3750    10.3080    24.1050   -14.9370 
   98.0000     2.2220    59.3650     9.1700     8.1310     8.5230    24.5550   -14.8720 
   98.1250     2.1820    57.9960     8.4790     7.6940     7.6780    24.9150   -14.7860 
   98.2500     2.1410    58.6790     7.9260     7.2540     7.5870    25.1800   -14.7500 
   98.3750     2.1090    62.4430     7.5650     6.9260     7.8350    25.4160   -14.7370 
   98.5000     2.0920    66.8070     7.3840     6.7620     7.9750    25.4500   -14.6770 
   98.6250     2.0950    68.1080     7.3430     6.7650     7.7380    25.0340   -14.5090 
   98.7500     2.1110    65.9120     7.3220     6.8330     7.4880    24.5680   -14.3530 
   98.8750     2.1390    62.2730     7.2170     6.8820     7.4220    24.2810   -14.0890 
   99.0000     2.1800    63.9620     6.9270     6.8280     7.7360    24.1810   -13.7030 
   99.1250     2.2330    77.2640     6.4630     6.5900     7.3820    24.2170   -13.1680 
   99.2500     2.2860    94.4060     6.0630     6.2010     5.8950    24.0910   -12.3700 
   99.3750     2.3300   106.1930     5.8220     5.7260     4.6480    23.9310   -11.3640 
   99.5000     2.3560   109.7320     5.6500     5.2610     4.3110    23.8670   -10.1820 
   99.6250     2.3650   108.8770     5.4360     4.9090     4.4650    23.8530    -9.0220 
   99.7500     2.3660   107.0000     5.2340     4.6820     4.4690    23.7860    -7.9130 
   99.8750     2.3640   105.6610     5.0800     4.5530     4.4420    23.6310    -6.8550 
  100.0000     2.3620   106.0510     4.8990     4.4640     4.3230    23.3820    -5.8820 
  100.1250     2.3650   107.2660     4.6780     4.3490     4.2210    23.2500    -5.0080 
  100.2500     2.3730   107.3070     4.4670     4.1900     4.1730    23.1840    -4.3390 
  100.3750     2.3880   107.3650     4.2780     4.0240     4.2480    23.1530    -3.9000 
  100.5000     2.4040   107.7980     4.1450     3.9270     4.2990    23.1420    -3.6320 
  100.6250     2.4110   104.1630     4.1070     4.0350     4.2900    23.2430    -3.4680 
  100.7500     2.4080    94.4320     4.2830     4.4060     4.8280    23.4330    -3.3520 
  100.8750     2.3930    81.5870     4.8970     5.0650     6.8140    23.7110    -3.2730 
  101.0000     2.3690    72.4350     5.9850     5.9500    10.0820    23.9790    -3.2920 
  101.1250     2.3410    70.5360     7.1570     6.8510     9.9420    23.8930    -3.5330 
  101.2500     2.3160    71.2810     7.9000     7.4860     8.3630    23.5680    -3.9300 
  101.3750     2.2980    70.7560     8.1110     7.7020     7.3080    23.1300    -4.5020 
  101.5000     2.2890    70.6930     7.9330     7.5320     7.1390    22.8230    -5.2600 
  101.6250     2.2850    73.3380     7.5470     7.1610     7.5690    22.7100    -6.0960 
  101.7500     2.2750    74.7210     7.2090     6.8350     8.1880    22.6730    -6.9540 
  101.8750     2.2510    71.8780     7.0050     6.6400     8.3010    22.7110    -7.8740 
  102.0000     2.2130    66.2570     6.9240     6.5610     7.8880    22.9960    -8.8370 
  102.1250     2.1680    63.5840     6.9030     6.5410     7.5190    23.6220    -9.7250 
  102.2500     2.1340    64.5290     6.8780     6.5180     7.3390    24.3290   -10.5910 
  102.3750     2.1190    65.1850     6.8400     6.4840     7.3010    24.7610   -11.3440 
  102.5000     2.1250    63.1530     6.8190     6.4500     7.2430    24.8170   -12.0370 
  102.6250     2.1430    61.3380     6.8530     6.4280     7.0900    24.4980   -12.6800 
  102.7500     2.1570    62.5490     6.9250     6.4130     7.0480    24.0930   -13.2440 
  102.8750     2.1590    64.7080     7.0060     6.4020     7.1330    23.8950   -13.7520 
  103.0000     2.1500    64.9980     7.0560     6.3910     7.1270    23.9560   -14.1050 
  103.1250     2.1360    64.4700     7.0320     6.3780     7.0780    24.2170   -14.3390 
  103.2500     2.1240    63.9660     6.9560     6.3600     7.0920    24.3050   -14.4670 
  103.3750     2.1210    62.8600     6.8780     6.3380     7.0450    24.1540   -14.5090 
  103.5000     2.1260    60.9150     6.8220     6.3240     6.9460    23.7450   -14.4890 
  103.6250     2.1380    59.4410     6.7730     6.3290     6.9820    23.3910   -14.4380 
  103.7500     2.1490    59.9970     6.7310     6.3440     7.0640    23.2220   -14.3310 
  103.8750     2.1550    60.7590     6.7060     6.3520     7.0340    23.2230   -14.2100 
  104.0000     2.1560    60.5800     6.6940     6.3420     6.9150    23.3620   -14.0860 
  104.1250     2.1580    59.7980     6.7050     6.3500     6.8330    23.6000   -13.9560 
  104.2500     2.1640    59.8220     6.7970     6.4400     6.9190    23.8980   -13.8440 
  104.3750     2.1710    60.8290     7.0300     6.6630     7.0880    24.0550   -13.7370 
  104.5000     2.1730    60.7360     7.4140     7.0320     7.3490    23.9330   -13.6270 
  104.6250     2.1630    59.7240     7.9020     7.5020     7.6600    23.6080   -13.5600 
  104.7500     2.1450    58.3990     8.3590     7.9410     7.8840    23.4400   -13.5550 
  104.8750     2.1270    57.4370     8.6700     8.2400     7.8210    23.5540   -13.6070 
  105.0000     2.1160    58.8870     8.7590     8.3260     7.9010    23.8830   -13.7280 
  105.1250     2.1140    61.8590     8.5950     8.1680     8.1620    24.3310   -13.9240 
  105.2500     2.1110    63.2200     8.3010     7.8850     8.2740    24.7290   -14.1050 
  105.3750     2.1020    62.3400     7.9690     7.5660     8.2140    24.9550   -14.2620 
  105.5000     2.0890    61.4360     7.6600     7.2700     8.0730    24.9810   -14.3440 
  105.6250     2.0840    63.6130     7.3860     7.0060     8.0640    24.8470   -14.2690 
  105.7500     2.0960    68.7530     7.1070     6.7370     7.6430    24.5640   -14.1180 
  105.8750     2.1270    76.2140     6.7980     6.4400     6.6360    24.2000   -13.7410 
  106.0000     2.1700    82.8090     6.4660     6.1210     5.8320    23.9200   -13.1750 
  106.1250     2.2130    84.4530     6.1560     5.8230     5.2870    23.7570   -12.4300 
