~V
VERS. 2.00: Ver 2.00
~W
STRT.M 50.0000:
STOP.M 293.0000:
STEP.M 0.1250:
NULL. -999.2500:
UWI. F10045:
~C
DEPT.M :
DEN.GM/CC :
SP.MV :
GR.API :
CALI.CM :
RXO.OHMM :
RI. :
RML.OHMM :
~A
# ...
   83.7500     2.1910   -10.4920   113.5240    24.3190     6.3160     5.7620     5.8920 
   83.8750     2.2020   -10.5390   112.8530    24.4710     6.0910     5.5950     5.6430 
   84.0000     2.2060   -10.6320   112.5540    24.4610     6.0640     5.4030     5.3970 
   84.1250     2.2040   -10.7340   112.2050    24.3400     6.0990     5.2370     5.2570 
   84.2500     2.2010   -10.9310   110.9960    24.2160     6.2150     5.1710     5.2770 
   84.3750     2.1960   -11.2190   109.8630    24.1340     6.4860     5.3010     5.5410 
   84.5000     2.1940   -11.6270   110.0040    24.0830     6.7760     5.7130     6.1240 
   84.6250     2.2120   -12.0950   112.3990    24.0960     7.6150     6.5040     7.1380 
   84.7500     2.2560   -12.6480   110.9590    24.1960    10.1750     7.5620     8.4500 
   84.8750     2.3130   -13.1930   103.4010    24.3000    14.2760     8.6760     9.7710 
   85.0000     2.3530   -13.7190    95.6210    24.3080    16.4480     9.5130    10.6300 
   85.1250     2.3400   -14.1660    94.5230    24.2020    13.8320     9.7160    10.6150 
   85.2500     2.2830   -14.4720    94.1470    24.1020    10.8030     9.4540    10.1270 
   85.3750     2.2100   -14.6230    89.8120    24.0430     9.6230     8.9590     9.5670 
   85.5000     2.1470   -14.5790    85.3750    24.0210     9.7000     8.3940     9.1110 
   85.6250     2.1100   -14.4200    84.5060    24.0160    10.0430     7.7580     8.6150 
   85.7500     2.0920   -14.1550    83.9460    24.0110     9.9980     6.9930     7.8090 
   85.8750     2.0930   -13.8810    85.7700    23.9870     9.2250     6.1450     6.7170 
   86.0000     2.1140   -13.6460    94.9490    23.9250     7.6530     5.4240     5.7330 
   86.1250     2.1610   -13.5800   111.4270    23.8460     6.2280     5.1770     5.4660 
   86.2500     2.2240   -13.7430   129.2710    23.7950     6.3980     5.5300     6.0920 
   86.3750     2.2900   -14.1210   140.5700    23.7980    10.4710     6.5770     7.6960 
   86.5000     2.3540   -14.7310   134.5720    23.8900    21.3140     8.3170    10.2060 
   86.6250     2.4180   -15.5000   110.0980    24.0870    31.3470    10.3730    12.9200 
   86.7500     2.4620   -16.3450    87.6200    24.1820    29.4600    11.7220    14.2320 
   86.8750     2.4520   -17.2080    80.5680    24.1570    19.5630    11.7440    13.3670 
   87.0000     2.3760   -18.0380    84.6400    24.0990    12.6440    10.7700    11.2970 
   87.1250     2.2690   -18.8050    88.6410    24.0710    10.9010     9.6200     9.5820 
   87.2500     2.1850   -19.4350    87.1860    24.0410    10.7210     8.7800     8.6520 
   87.3750     2.1360   -19.9910    83.6640    23.9670    10.7680     8.2970     8.3400 
   87.5000     2.1120   -20.4530    82.3890    23.8490    10.6760     8.0790     8.3740 
   87.6250     2.1000   -20.7600    82.1540    23.7780    10.4330     8.0110     8.5540 
   87.7500     2.0920   -20.9990    81.0880    23.7480    10.0940     7.9850     8.7660 
   87.8750     2.0900   -21.2250    78.7860    23.7290     9.8440     7.9790     8.9600 
   88.0000     2.0950   -21.4350    75.5580    23.7030     9.8180     7.9930     9.0800 
   88.1250     2.1060   -21.5220    72.1390    23.6770    10.0130     8.0300     9.0690 
   88.2500     2.1120   -21.5820    71.8560    23.6460    10.2020     8.0830     8.9980 
   88.3750     2.1080   -21.6000    75.0380    23.6140    10.3290     8.1430     8.9400 
   88.5000     2.0970   -21.5940    78.5200    23.5710    10.4340     8.1940     8.9260 
   88.6250     2.0910   -21.5510    79.8550    23.5380    10.5660     8.2040     8.9680 
   88.7500     2.0920   -21.4750    78.9080    23.5320    10.6650     8.1560     9.0250 
   88.8750     2.1000   -21.3480    76.1690    23.5420    10.6160     8.0410     9.0510 
   89.0000     2.1130   -21.2220    75.1910    23.5280    10.3500     7.8650     8.9830 
   89.1250     2.1280   -21.1410    81.5400    23.4570     9.9520     7.6510     8.7520 
   89.2500     2.1310   -21.0480    88.7040    23.3780     9.6690     7.4510     8.4440 
   89.3750     2.1180   -20.9820    91.0980    23.3810     9.5680     7.3080     8.1840 
   89.5000     2.1010   -20.9050    88.5780    23.5310     9.6070     7.2460     8.0820 
   89.6250     2.0980   -20.8350    83.7480    23.7180     9.8030     7.2630     8.1600 
   89.7500     2.1080   -20.8250    80.4720    23.7990     9.9960     7.3070     8.2820 
   89.8750     2.1200   -20.8210    79.1950    23.8520    10.0730     7.3380     8.3570 
   90.0000     2.1230   -20.8070    81.4310    23.9360    10.0210     7.3340     8.3410 
   90.1250     2.1150   -20.7670    84.8920    24.0120     9.8810     7.2970     8.2350 
   90.2500     2.1020   -20.7520    87.9640    24.0460     9.7710     7.2600     8.1020 
   90.3750     2.0910   -20.7090    87.4980    24.0480     9.6970     7.2410     7.9940 
   90.5000     2.0860   -20.6970    82.5030    24.0600     9.6520     7.2460     7.9550 
   90.6250     2.0920   -20.7770    77.9760    24.0740     9.6560     7.2720     8.0020 
   90.7500     2.1020   -20.7980    75.7240    24.0810     9.6370     7.3000     8.0780 
   90.8750     2.1050   -20.8240    76.1830    24.0810     9.5500     7.3110     8.1170 
   91.0000     2.0960   -20.8860    78.7580    24.0810     9.4870     7.2930     8.0730 
   91.1250     2.0870   -21.0180    83.1820    24.0590     9.5690     7.2490     7.9710 
   91.2500     2.0910   -21.1060    85.2450    23.9910     9.6440     7.1940     7.8940 
   91.3750     2.1030   -21.1850    83.4210    23.8950     9.5900     7.1410     7.8670 
   91.5000     2.1080   -21.2520    81.6360    23.8390     9.4600     7.1010     7.8870 
   91.6250     2.1010   -21.2890    83.5720    23.8260     9.3880     7.0950     7.9360 
   91.7500     2.0930   -21.3740    85.7780    23.8260     9.4450     7.1280     7.9990 
   91.8750     2.0870   -21.4370    83.3140    23.8260     9.6420     7.1980     8.0710 
   92.0000     2.0840   -21.4600    77.6030    23.8260     9.8720     7.2860     8.1480 
   92.1250     2.0830   -21.4170    75.4840    23.8260     9.9660     7.3610     8.2030 
   92.2500     2.0830   -21.3840    78.2910    23.8260     9.9140     7.3970     8.1840 
   92.3750     2.0830   -21.3360    81.3010    23.8310     9.7920     7.3880     8.0640 
   92.5000     2.0860   -21.2770    80.4910    23.8500     9.6870     7.3380     7.8660 
   92.6250     2.0950   -21.1840    76.6310    23.8960     9.5560     7.2640     7.6520 
   92.7500     2.1080   -21.1060    74.5570    23.9370     9.3460     7.1890     7.4960 
   92.8750     2.1210   -21.0830    77.0320    23.9610     9.0920     7.1360     7.4290 
   93.0000     2.1300   -21.1430    83.0530    23.9880     8.9540     7.1170     7.4520 
   93.1250     2.1330   -21.2570    87.9520    24.0220     9.0480     7.1410     7.5710 
   93.2500     2.1320   -21.4110    90.3580    24.0430     9.2030     7.1910     7.7470 
   93.3750     2.1300   -21.6340    91.7940    23.9980     9.3350     7.2490     7.9390 
   93.5000     2.1300   -21.8560    91.7700    23.8510     9.4230     7.2890     8.0990 
   93.6250     2.1280   -22.1140    87.6890    23.6490     9.4360     7.2860     8.1680 
   93.7500     2.1230   -22.3050    81.5370    23.5400     9.3920     7.2400     8.1540 
   93.8750     2.1160   -22.4310    78.2880    23.5340     9.2960     7.1590     8.1010 
   94.0000     2.1110   -22.4850    79.2440    23.6050     9.2560     7.0730     8.0670 
   94.1250     2.1070   -22.4480    80.0930    23.7520     9.3070     7.0360     8.1130 
   94.2500     2.0950   -22.4020    78.5490    23.8410     9.3580     7.0690     8.2230 
   94.3750     2.0820   -22.3110    74.7130    23.8910     9.6500     7.1590     8.3520 
   94.5000     2.0860   -22.2220    71.3100    23.9190    10.9220     7.2860     8.4520 
   94.6250     2.1200   -22.1050    71.6920    23.8740    13.6880     7.4310     8.4810 
   94.7500     2.1650   -22.0090    73.3020    23.7050    14.3220     7.5700     8.4670 
   94.8750     2.1960   -21.9770    73.7370    23.4170    12.1630     7.6880     8.4500 
