~V
VERS. 2.00: Ver 2.00
~W
STRT.M 62.0000:
STOP.M 254.0000:
STEP.M 0.1250:
NULL. -999.2500:
UWI. F10030:
~C
DEPT.M :
DEN.GM/CC :
GR.API :
RML.OHMM :
RI. :
RXO.OHMM :
CALI.CM :
SP.MV :
~A
# ...
   84.5000     2.3240    96.0790     5.2500     4.6410     5.7340    24.4140   -16.7750 
   84.6250     2.3180    91.4770     5.9640     5.1250     6.8030    24.4140   -17.3900 
   84.7500     2.3240    86.4370     7.5550     6.1470     8.1980    24.4800   -18.0850 
   84.8750     2.3580    78.9200    10.1630     7.8770    11.1370    24.7170   -18.8840 
   85.0000     2.4180    70.1520    13.5740    10.3110    20.1650    25.0460   -19.7230 
   85.1250     2.4750    64.5790    16.8220    12.9390    34.6550    25.2320   -20.6540 
   85.2500     2.4920    62.5880    18.5680    14.6970    43.3610    25.0030   -21.6190 
   85.3750     2.4530    62.3250    18.1440    14.8790    34.4440    24.5080   -22.5370 
   85.5000     2.3740    64.7460    15.9910    13.6020    19.0200    23.9370   -23.4410 
   85.6250     2.2880    70.1160    13.3830    11.6930    12.9510    23.3530   -24.2300 
   85.7500     2.2260    72.3640    11.4430    10.0770    11.6630    22.8180   -24.8510 
   85.8750     2.1930    70.0780    10.4290     9.0400    11.9270    22.4070   -25.3530 
   86.0000     2.1780    66.7020    10.1840     8.5640    12.1920    22.2640   -25.7110 
   86.1250     2.1670    64.1270    10.4080     8.5340    12.0010    22.4480   -25.8840 
   86.2500     2.1560    62.5330    10.7070     8.6840    11.7680    22.7580   -25.9740 
   86.3750     2.1480    62.9610    10.9280     8.8780    11.6100    23.0280   -25.9820 
   86.5000     2.1470    65.6860    11.0550     9.0430    11.5270    23.1810   -25.9380 
   86.6250     2.1530    65.7630    11.1520     9.1410    11.4640    23.1970   -25.8860 
   86.7500     2.1590    63.0890    11.2810     9.1700    11.4060    23.1530   -25.8220 
   86.8750     2.1620    61.8280    11.4270     9.1260    11.4990    23.1100   -25.7480 
   87.0000     2.1640    63.3320    11.5270     9.0160    11.4500    23.0880   -25.6750 
   87.1250     2.1670    65.8010    11.4640     8.8540    11.2300    23.0770   -25.5960 
   87.2500     2.1710    67.1070    11.2160     8.6750    10.7040    23.0760   -25.5380 
   87.3750     2.1780    68.4760    10.8440     8.5110    10.0860    23.1190   -25.4980 
   87.5000     2.1870    69.9970    10.5070     8.4090     9.7270    23.2570   -25.4310 
   87.6250     2.1970    69.7670    10.4570     8.4540     9.7640    23.4840   -25.4280 
   87.7500     2.2090    67.4840    10.7680     8.6580     9.8250    23.6970   -25.4930 
   87.8750     2.2230    63.8900    11.3860     8.9940    10.3390    23.8400   -25.5520 
   88.0000     2.2380    60.7520    12.1270     9.3720    12.4280    23.9240   -25.6880 
   88.1250     2.2500    60.0130    12.6630     9.6120    15.7390    23.9680   -25.8920 
   88.2500     2.2510    61.5810    12.7940     9.6060    16.6970    23.9660   -26.0300 
   88.3750     2.2390    63.4790    12.5100     9.3440    14.4450    23.8820   -26.1490 
   88.5000     2.2160    64.9840    11.9700     8.9120    12.6310    23.7240   -26.2500 
   88.6250     2.1900    67.4650    11.4260     8.4630    12.2130    23.5800   -26.2330 
   88.7500     2.1690    67.5070    11.0560     8.1280    12.1950    23.5230   -26.1700 
   88.8750     2.1560    64.3250    10.8940     7.9590    12.0420    23.5550   -26.0940 
   89.0000     2.1500    62.0000    10.8800     7.9480    11.7180    23.6310   -25.9260 
   89.1250     2.1500    64.9190    10.9130     8.0370    11.2470    23.6830   -25.7280 
   89.2500     2.1550    69.7090    10.9030     8.1210    10.9300    23.6770   -25.5850 
   89.3750     2.1630    72.8100    10.8200     8.1450    10.7270    23.6040   -25.4550 
   89.5000     2.1700    73.3060    10.6700     8.0980    10.7060    23.4800   -25.3960 
   89.6250     2.1680    70.4120    10.4930     8.0090    10.5390    23.3550   -25.4200 
   89.7500     2.1560    67.0080    10.3680     7.9380    10.4710    23.2750   -25.4390 
   89.8750     2.1390    64.5600    10.3820     7.9340    10.7570    23.2320   -25.4710 
   90.0000     2.1260    61.6610    10.6150     8.0440    11.5640    23.1900   -25.4750 
   90.1250     2.1280    59.1350    11.1460     8.3410    11.9010    23.1440   -25.3580 
   90.2500     2.1440    59.2480    11.8390     8.7910    11.8040    23.1220   -25.1580 
   90.3750     2.1650    61.4670    12.4680     9.2920    11.7800    23.1400   -24.8480 
   90.5000     2.1810    63.5360    12.7270     9.6450    11.9970    23.1710   -24.4010 
   90.6250     2.1880    65.0460    12.2560     9.5520    12.0880    23.1630   -23.8340 
   90.7500     2.1910    66.8950    11.1980     9.0080    11.2900    23.1100   -23.1990 
   90.8750     2.1980    70.8810     9.8530     8.1520     9.4610    23.0720   -22.5780 
   91.0000     2.2130    78.1470     8.6010     7.2140     7.3060    23.1090   -22.0820 
   91.1250     2.2360    85.8850     7.8110     6.4390     6.6530    23.2050   -21.7280 
   91.2500     2.2540    87.4540     7.5050     5.9170     6.4910    23.2700   -21.5090 
   91.3750     2.2610    81.6410     7.6040     5.6680     6.9080    23.2710   -21.4860 
   91.5000     2.2550    73.6850     7.9600     5.6760     7.6370    23.2460   -21.5940 
   91.6250     2.2410    70.4920     8.4210     5.9450     8.0140    23.2460   -21.8550 
   91.7500     2.2280    71.1410     8.8790     6.3890     8.3830    23.2770   -22.2410 
   91.8750     2.2220    73.1360     9.3260     6.9550     9.0030    23.3530   -22.5910 
   92.0000     2.2270    73.0990     9.7860     7.5770     9.7520    23.4790   -22.8700 
   92.1250     2.2420    69.0120    10.2470     8.1610    11.2540    23.6160   -23.0490 
   92.2500     2.2530    64.9050    10.6230     8.6080    12.8850    23.7280   -23.0930 
   92.3750     2.2530    64.1810    10.8030     8.8350    13.2310    23.8330   -23.0040 
   92.5000     2.2400    66.4280    10.7120     8.7980    12.0560    23.9190   -22.7850 
   92.6250     2.2190    68.1540    10.3420     8.4890    11.0210    23.9370   -22.4510 
   92.7500     2.2040    68.4490     9.8680     8.0610    10.6280    23.8670   -22.0190 
   92.8750     2.2010    69.5020     9.4290     7.6390    10.2710    23.7740   -21.5180 
   93.0000     2.2100    71.6050     9.1120     7.3200     9.4810    23.6480   -20.9780 
   93.1250     2.2260    73.2380     8.9380     7.1550     8.4750    23.4250   -20.4210 
   93.2500     2.2420    74.4400     8.8110     7.0780     8.4120    23.2720   -19.8460 
   93.3750     2.2550    74.5820     8.6600     7.0210     8.3760    23.2770   -19.3030 
   93.5000     2.2660    73.5660     8.4500     6.9330     8.0040    23.4830   -18.8610 
   93.6250     2.2730    74.0420     8.1990     6.7940     7.2560    23.8960   -18.4780 
   93.7500     2.2760    76.3740     7.9710     6.6250     7.0000    24.2930   -18.1950 
   93.8750     2.2740    77.6690     7.8080     6.4410     7.0850    24.5650   -18.0690 
   94.0000     2.2670    75.7750     7.7210     6.2470     7.3100    24.8830   -18.0060 
   94.1250     2.2630    75.6980     7.7080     6.0550     7.5820    25.7480   -18.0810 
   94.2500     2.2650    77.9690     7.7330     5.8890     7.5170    26.6300   -18.3180 
   94.3750     2.2730    78.1850     7.7800     5.7750     7.1750    26.7940   -18.6050 
   94.5000     2.2800    75.2870     7.8400     5.7320     7.1020    26.4120   -18.9470 
   94.6250     2.2750    72.9750     7.9260     5.7920     7.6730    25.8660   -19.3490 
   94.7500     2.2610    72.6710     8.0730     5.9650     8.5660    25.3030   -19.7030 
   94.8750     2.2510    72.5160     8.3260     6.2740     9.3650    24.9750   -20.0030 
   95.0000     2.2600    71.2400     8.7180     6.7280     8.8600    25.0220   -20.3380 
   95.1250     2.2950    69.5910     9.2670     7.3210     8.5740    25.0180   -20.6300 
   95.2500     2.3340    68.4800     9.8850     7.9670     9.3470    24.3260   -20.8450 
   95.3750     2.3530    68.9560    10.4590     8.5690    10.4120    23.4000   -21.0050 
   95.5000     2.3360    71.2380    10.8610     9.0190    10.5730    22.6120   -21.0160 
   95.6250     2.2860    72.6120    10.9370     9.1590    10.4730    22.0910   -20.8910 
