~V
VERS. 2.00: Ver 2.00
~W
STRT.M 50.0000:
STOP.M 313.0000:
STEP.M 0.1250:
NULL. -999.2500:
UWI. F10034:
~C
DEPT.M :
GR.API :
RML.OHMM :
RI. :
RXO.OHMM :
CALI.CM :
DEN.GM/CC :
SP.MV :
~A
# ...
  263.7500    58.3500    44.4070    38.8650    43.0960    23.8900     2.2420   -13.3500 
  263.8750    60.7000    45.6190    39.9810    41.1930    23.8400     2.2430   -13.3290 
  264.0000    62.6850    47.8420    41.9970    43.5480    23.8550     2.2420   -13.3150 
  264.1250    61.7210    51.0440    45.1370    52.2160    23.8650     2.2420   -13.3000 
  264.2500    58.3460    54.3650    48.8060    63.7190    23.8400     2.2410   -13.2790 
  264.3750    54.5440    56.9790    52.3040    71.1780    23.8100     2.2420   -13.2620 
  264.5000    52.4300    58.2940    54.9360    73.9470    23.8290     2.2420   -13.2610 
  264.6250    54.1360    58.0270    56.1220    72.7980    23.8790     2.2410   -13.2600 
  264.7500    58.0880    56.8740    56.2190    69.5330    23.9040     2.2380   -13.2440 
  264.8750    61.1680    55.3310    55.5030    64.6120    23.8670     2.2350   -13.2180 
  265.0000    62.8050    53.3120    53.9400    60.5840    23.7650     2.2320   -13.1900 
  265.1250    62.3180    50.2630    50.7550    57.9520    23.6790     2.2310   -13.1690 
  265.2500    60.9710    45.5460    45.6580    54.9550    23.7390     2.2340   -13.1510 
  265.3750    61.3630    39.4020    38.8660    50.2000    23.8170     2.2430   -13.1420 
  265.5000    63.6420    32.6640    31.3810    42.0400    23.8150     2.2620   -13.1300 
  265.6250    65.9280    25.7030    24.8000    30.7050    23.7710     2.2900   -13.1270 
  265.7500    68.5560    20.6330    19.9340    21.2860    23.7460     2.3190   -13.1460 
  265.8750    73.5910    17.7330    16.9570    16.8170    23.7080     2.3430   -13.2110 
  266.0000    78.6970    16.9190    15.7670    16.8770    23.6410     2.3580   -13.3330 
  266.1250    76.4780    18.2570    16.5070    19.5500    23.5750     2.3600   -13.5240 
  266.2500    68.9280    21.1670    18.8140    23.7950    23.5070     2.3510   -13.7920 
  266.3750    62.9710    25.3300    22.5470    29.1660    23.4580     2.3350   -14.1140 
  266.5000    62.0240    30.3150    27.3930    35.1320    23.4320     2.3160   -14.4820 
  266.6250    61.0190    35.5470    32.8200    41.3200    23.4130     2.2970   -14.8720 
  266.7500    57.5360    40.3630    37.9930    47.6790    23.4050     2.2790   -15.2400 
  266.8750    55.6400    44.3120    42.3150    53.2970    23.3940     2.2650   -15.5570 
  267.0000    57.5220    47.1250    45.3980    55.6710    23.3720     2.2540   -15.8080 
  267.1250    59.4300    48.5670    46.9140    57.3070    23.3530     2.2480   -15.9550 
  267.2500    58.2220    48.9920    47.2440    59.4320    23.3680     2.2470   -16.0070 
  267.3750    55.4670    48.6390    46.6690    57.7840    23.4200     2.2520   -15.9630 
  267.5000    54.3300    47.7870    45.5280    52.2280    23.4700     2.2600   -15.8160 
  267.6250    55.3570    46.6220    44.1010    48.0130    23.5620     2.2680   -15.5630 
  267.7500    56.5820    45.2170    42.5420    46.3400    23.7170     2.2730   -15.2490 
  267.8750    56.8270    43.4510    40.7840    45.1260    23.8560     2.2710   -14.8850 
  268.0000    56.7580    41.1960    38.7150    44.0510    23.9270     2.2630   -14.4810 
  268.1250    57.7720    38.3610    36.2350    42.2500    23.9260     2.2530   -14.0510 
  268.2500    59.3860    35.2440    33.5300    38.2630    23.9170     2.2480   -13.6060 
  268.3750    61.4010    32.1900    30.8590    33.3550    23.9290     2.2540   -13.1700 
  268.5000    62.7570    29.5630    28.5210    29.9470    23.9440     2.2690   -12.7430 
  268.6250    62.5360    27.7870    26.8940    28.7820    23.9490     2.2880   -12.3620 
  268.7500    63.0460    26.8960    26.0360    28.4220    23.9490     2.3050   -12.0200 
  268.8750    63.6860    26.8740    25.9610    28.1060    23.9490     2.3160   -11.7150 
  269.0000    63.9690    27.5480    26.5450    28.1260    23.9490     2.3220   -11.4320 
  269.1250    63.2840    28.5340    27.4870    29.3310    23.9490     2.3240   -11.1850 
  269.2500    61.8270    29.2290    28.2370    30.9480    23.9490     2.3250   -10.9510 
  269.3750    59.2580    29.2290    28.3940    32.0070    23.9490     2.3240   -10.7340 
  269.5000    58.0810    28.4100    27.7820    31.6630    23.9260     2.3230   -10.5610 
  269.6250    60.3980    27.0130    26.5310    29.5290    23.8700     2.3230   -10.4060 
  269.7500    62.3600    25.7600    25.2720    27.0000    23.8250     2.3240   -10.2720 
  269.8750    61.6140    25.2180    24.5260    25.9040    23.8610     2.3250   -10.1700 
  270.0000    59.5870    25.7630    24.6860    27.7150    23.9210     2.3240   -10.1110 
  270.1250    58.6820    27.6770    26.1370    31.9770    23.9420     2.3220   -10.0790 
  270.2500    57.7830    30.5180    28.6290    36.6080    23.9330     2.3180   -10.0750 
  270.3750    55.9510    33.8630    31.8710    41.8040    23.9000     2.3090   -10.0710 
  270.5000    54.8620    37.2550    35.4350    47.9120    23.8430     2.2930   -10.0570 
  270.6250    55.4650    40.3150    38.8370    53.9010    23.7220     2.2720   -10.0300 
  270.7500    56.5990    42.9950    41.7660    57.7620    23.5980     2.2550    -9.9670 
  270.8750    57.5870    45.2000    43.9500    57.8530    23.5870     2.2580    -9.8520 
  271.0000    57.8340    46.5290    44.9480    55.0500    23.7260     2.2940    -9.6800 
  271.1250    58.6350    45.6680    43.5860    60.1100    23.7930     2.3690    -9.4570 
  271.2500    59.7530    41.8130    39.3640    67.2870    23.7310     2.4590    -9.2020 
  271.3750    58.7670    34.7730    32.2990    68.7740    23.6400     2.5360    -8.9200 
  271.5000    53.9850    25.7170    23.6730    63.3960    23.6490     2.5690    -8.6080 
  271.6250    45.4870    17.1520    15.8990    43.6110    23.5660     2.5340    -8.2600 
  271.7500    37.4380    10.8860    10.2790    18.7050    23.4130     2.4590    -7.9250 
  271.8750    30.6820     7.2880     6.8690     7.0740    23.2830     2.3760    -7.6220 
  272.0000    25.4320     5.9700     5.2790     4.9130    23.2540     2.3170    -7.3580 
  272.1250    22.8080     6.5310     5.2840     8.1220    23.2870     2.3190    -7.1450 
  272.2500    22.3620     8.0250     6.2350    14.2990    23.3720     2.3750    -6.9650 
  272.3750    23.4950     9.7620     7.6470    21.0310    23.4870     2.4620    -6.8220 
  272.5000    23.6980    10.9570     8.8790    26.9410    23.5260     2.5380    -6.7310 
  272.6250    21.8800    10.7370     9.0770    24.9250    23.4900     2.5550    -6.7010 
  272.7500    20.9040     9.3520     8.1990    13.9380    23.4190     2.5170    -6.7010 
  272.8750    22.3700     7.5210     6.7650     6.4550    23.3690     2.4510    -6.7110 
  273.0000    25.5770     6.0220     5.4570     4.5290    23.3110     2.3910    -6.7260 
  273.1250    30.0090     5.2840     4.7110     4.4370    23.2900     2.3610    -6.7310 
  273.2500    36.3120     5.0760     4.4230     4.7080    23.3680     2.3560    -6.7210 
  273.3750    43.0490     5.1320     4.4370     4.9820    23.5250     2.3650    -6.7150 
  273.5000    47.2630     5.2170     4.5750     5.2330    23.6250     2.3770    -6.7040 
  273.6250    47.3500     5.2130     4.6670     5.2220    23.5340     2.3810    -6.6900 
  273.7500    45.2650     5.0910     4.6400     4.9210    23.3610     2.3810    -6.6770 
  273.8750    41.9150     4.9350     4.5060     4.4980    23.1880     2.3810    -6.6540 
  274.0000    37.9990     4.7590     4.3150     4.2270    23.0700     2.3840    -6.6260 
  274.1250    34.4140     4.5860     4.1220     4.1500    23.0110     2.3920    -6.5800 
  274.2500    30.8230     4.4410     3.9590     4.1340    22.9930     2.3990    -6.5260 
  274.3750    27.3920     4.3340     3.8330     4.0800    23.0000     2.4020    -6.4670 
  274.5000    25.8440     4.2730     3.7480     3.9640    23.0240     2.4010    -6.4260 
  274.6250    28.0020     4.2840     3.7250     3.8740    23.0570     2.3970    -6.4170 
  274.7500    30.2560     4.3650     3.7590     3.9120    23.0550     2.3930    -6.4330 
  274.8750    31.0690     4.4960     3.8410     4.0670    23.0500     2.3910    -6.4710 
