~V
VERS. 2.00: Ver 2.00
~W
STRT.M 50.0000:
STOP.M 244.0000:
STEP.M 0.1250:
NULL. -999.2500:
UWI. F10003:
~C
DEPT.M :
GR.API :
RML.OHMM :
RI. :
RXO.OHMM :
CALI.CM :
DEN.GM/CC :
SP.MV :
~A
# ...
  128.7500    52.7730    26.2110    23.4140    21.5510    23.8730     2.2450   -14.4640 
  128.8750    50.9510    25.3110    22.5560    21.6750    24.3850     2.2510   -14.5790 
  129.0000    52.3040    24.5990    21.8500    21.9040    24.5990     2.2580   -14.7250 
  129.1250    54.1120    23.6490    20.9970    21.8310    24.4100     2.2600   -14.8390 
  129.2500    54.9690    22.1680    19.7500    20.4620    24.3450     2.2520   -14.9370 
  129.3750    55.4330    20.1140    18.0450    18.2430    24.6510     2.2400   -15.0220 
  129.5000    56.0780    17.7010    16.0220    16.0780    25.0710     2.2310   -15.1130 
  129.6250    57.5040    15.3370    13.9940    14.0090    25.1510     2.2350   -15.1860 
  129.7500    60.4890    13.3560    12.2380    11.8360    24.9950     2.2520   -15.2220 
  129.8750    65.5180    11.8930    10.8790    10.0420    24.8220     2.2750   -15.2120 
  130.0000    71.2810    10.9420     9.9340     9.1160    24.7120     2.2990   -15.1780 
  130.1250    75.7580    10.4500     9.3980     8.9290    24.6460     2.3190   -15.1760 
  130.2500    77.9270    10.1910     9.1020     8.9010    24.5710     2.3370   -15.1800 
  130.3750    77.1470    10.0310     8.9440     8.8890    24.5130     2.3520   -15.1610 
  130.5000    75.4020     9.8750     8.8360     8.8500    24.4860     2.3650   -15.1080 
  130.6250    77.3200     9.6690     8.7140     8.7420    24.4820     2.3730   -15.0880 
  130.7500    81.9070     9.4440     8.5720     8.5710    24.4880     2.3760   -15.1010 
  130.8750    85.2200     9.2540     8.4430     8.4180    24.5030     2.3770   -15.1280 
  131.0000    85.8980     9.1600     8.3670     8.4020    24.5320     2.3790   -15.1550 
  131.1250    85.0140     9.2160     8.3890     8.6000    24.5450     2.3820   -15.0960 
  131.2500    84.2480     9.3720     8.4790     8.7530    24.5280     2.3830   -14.9830 
  131.3750    83.4480     9.5490     8.5790     8.6450    24.4210     2.3770   -14.9150 
  131.5000    82.2980     9.6420     8.6090     8.4770    24.1370     2.3650   -14.8960 
  131.6250    80.2220     9.5270     8.4680     8.3280    23.8530     2.3510   -14.8920 
  131.7500    79.1380     9.2120     8.1610     7.9920    23.7920     2.3420   -14.8920 
  131.8750    80.2310     8.7550     7.7320     7.4880    24.0250     2.3420   -14.8820 
  132.0000    82.2500     8.2690     7.2700     7.1310    24.3170     2.3500   -14.8690 
  132.1250    81.7830     7.9160     6.9060     7.0520    24.4710     2.3640   -14.8590 
  132.2500    81.0970     7.7920     6.7210     7.0810    24.5320     2.3790   -14.8620 
  132.3750    83.8450     7.9530     6.7670     7.1980    24.5480     2.3920   -14.8500 
  132.5000    88.4380     8.4070     7.0620     7.4530    24.5500     2.4020   -14.8300 
  132.6250    89.8250     9.1430     7.6200     7.9000    24.5250     2.4030   -14.7900 
  132.7500    87.4940    10.0100     8.3350     8.5630    24.4820     2.3930   -14.7250 
  132.8750    83.3370    10.8790     9.1180     9.3290    24.4870     2.3710   -14.6330 
  133.0000    76.8710    11.6200     9.8610    10.0210    24.5930     2.3410   -14.5100 
  133.1250    67.6610    12.0840    10.4330    10.7560    24.7420     2.3100   -14.3550 
  133.2500    61.5920    12.2760    10.7950    11.1310    24.8060     2.2810   -14.1820 
  133.3750    61.8540    12.2360    10.9480    11.0230    24.7410     2.2560   -14.0090 
  133.5000    64.1580    12.0630    10.9370    10.7270    24.5360     2.2380   -13.8360 
  133.6250    63.4850    11.9260    10.8550    10.5720    24.2180     2.2330   -13.7200 
  133.7500    62.5190    11.9980    10.8380    10.4520    23.8380     2.2380   -13.6550 
  133.8750    63.0750    12.3850    10.9810    10.4540    23.5110     2.2500   -13.6080 
  134.0000    63.4640    13.0560    11.3040    10.4960    23.3120     2.2590   -13.5770 
  134.1250    61.4570    13.7340    11.6690    10.5620    23.3010     2.2600   -13.6440 
  134.2500    59.1040    13.9840    11.7870    10.9010    23.3280     2.2620   -13.8020 
  134.3750    59.2810    13.4810    11.4110    11.4530    23.3200     2.2760   -14.0010 
  134.5000    63.9480    12.1740    10.4570    11.9460    23.3670     2.3110   -14.2030 
  134.6250    72.2500    10.3950     9.1010    11.8990    23.7250     2.3570   -14.3140 
  134.7500    78.5540     8.9080     7.8630    10.5620    24.1330     2.3920   -14.3760 
  134.8750    80.8540     8.3140     7.1560     8.7280    24.3800     2.3990   -14.4660 
  135.0000    80.1910     9.0340     7.3210     9.0380    24.4150     2.3770   -14.5670 
  135.1250    77.2810    11.4700     8.8220    12.6810    24.3940     2.3430   -14.6230 
  135.2500    71.1530    15.1060    11.5070    19.1920    24.4440     2.3280   -14.6360 
  135.3750    63.3270    19.2530    15.0440    26.9540    24.4990     2.3500   -14.5990 
  135.5000    58.7170    22.9270    18.7120    34.6040    24.5340     2.4090   -14.5040 
  135.6250    58.4740    24.8490    21.2820    38.1910    24.5560     2.4790   -14.4010 
  135.7500    58.8490    24.9860    22.2290    33.8970    24.6490     2.5160   -14.2920 
  135.8750    58.7260    23.9750    21.8150    26.3460    24.7880     2.5000   -14.1600 
  136.0000    60.6440    22.8370    20.8740    21.8880    24.9120     2.4420   -14.0310 
  136.1250    62.1210    22.5340    20.2950    21.4880    24.9470     2.3760   -13.9100 
  136.2500    60.0220    23.1600    20.3690    23.1440    24.9570     2.3290   -13.7800 
  136.3750    58.1350    24.5060    21.0550    25.0260    25.0170     2.3030   -13.6540 
  136.5000    58.7090    26.2080    22.1580    25.9750    25.0850     2.2920   -13.5470 
  136.6250    58.4690    27.8390    23.4050    26.9490    25.0850     2.2870   -13.4420 
  136.7500    57.4980    29.1280    24.5300    27.9540    25.0430     2.2810   -13.3500 
  136.8750    57.7200    29.9890    25.4220    28.9760    24.9880     2.2730   -13.2850 
  137.0000    57.1900    30.4490    26.0540    29.6510    25.0250     2.2600   -13.2270 
  137.1250    55.2210    30.5700    26.4170    28.9930    25.1320     2.2440   -13.1480 
  137.2500    56.3640    30.5120    26.5980    28.0740    25.2270     2.2290   -13.0420 
  137.3750    60.1110    30.3350    26.6280    27.3090    25.2550     2.2170   -12.9270 
  137.5000    61.0400    30.0190    26.4990    26.6190    25.2190     2.2130   -12.8400 
  137.6250    57.5510    29.4020    26.0930    25.7940    25.1830     2.2170   -12.8090 
  137.7500    54.6920    28.3730    25.3370    24.8370    25.1600     2.2250   -12.7800 
  137.8750    53.8380    26.8750    24.1840    23.5720    25.1510     2.2350   -12.7070 
  138.0000    54.1530    24.9950    22.6890    22.0820    25.1210     2.2430   -12.5990 
  138.1250    55.7690    22.9750    21.0240    20.4530    25.1010     2.2490   -12.4640 
  138.2500    58.3010    21.1510    19.4580    18.9380    25.2170     2.2550   -12.3390 
  138.3750    61.4880    19.7270    18.1590    17.5620    25.4300     2.2590   -12.2400 
  138.5000    64.4860    18.7750    17.2090    16.6940    25.5860     2.2620   -12.1690 
  138.6250    66.5450    18.2930    16.6480    16.3070    25.5770     2.2620   -12.0860 
  138.7500    67.7050    18.0650    16.3350    15.9790    25.4840     2.2610   -12.0060 
  138.8750    67.7700    17.9630    16.1830    15.5950    25.4300     2.2640   -11.9490 
  139.0000    67.4760    17.8930    16.1180    15.1500    25.3960     2.2720   -11.9170 
  139.1250    66.0850    17.8310    16.1190    15.4460    25.2670     2.2820   -11.9600 
  139.2500    63.3120    17.8450    16.2150    16.0620    25.1090     2.2850   -12.0590 
  139.3750    60.7360    18.0800    16.5080    17.1450    25.1080     2.2760   -12.1940 
  139.5000    59.7790    18.7570    17.1580    19.2980    25.1840     2.2550   -12.3540 
  139.6250    59.9490    20.3500    18.5440    20.7940    25.2000     2.2280   -12.5730 
  139.7500    58.9700    23.0750    20.8870    23.4200    25.1440     2.2170   -12.8620 
  139.8750    55.6390    27.0370    24.3470    28.2560    25.0120     2.2370   -13.2340 
