~V
VERS. 2.00: Ver 2.00
~W
STRT.M 60.0000:
STOP.M 242.0000:
STEP.M 0.1250:
NULL. -999.2500:
UWI. F10022:
~C
DEPT.M :
GR.API :
RML.OHMM :
RI. :
RXO.OHMM :
CALI.CM :
DEN.GM/CC :
SP.MV :
~A
# ...
   93.7500    54.1760    32.7680    30.6220    60.1710    23.7080     2.6760    -7.3730 
   93.8750    58.2120    26.1200    24.6490    49.6030    23.6410     2.6230    -7.6510 
   94.0000    61.9700    19.0290    18.1940    36.9550    23.5480     2.5500    -7.9630 
   94.1250    62.3530    13.5380    13.1030    25.6600    23.4420     2.4700    -8.2570 
   94.2500    62.9980    10.0120     9.6640    15.8900    23.3570     2.3970    -8.5170 
   94.3750    66.4930     8.1650     7.6340     9.9620    23.2840     2.3380    -8.7450 
   94.5000    71.0350     7.5030     6.6390     8.1980    23.2300     2.2940    -8.9490 
   94.6250    71.5780     7.6030     6.4110     8.2340    23.2320     2.2640    -9.1550 
   94.7500    68.9980     7.9280     6.5310     8.6010    23.3880     2.2450    -9.3410 
   94.8750    67.8830     8.2130     6.7800     8.7540    23.5820     2.2360    -9.4850 
   95.0000    69.8250     8.3180     6.9980     8.7350    23.6880     2.2390    -9.6040 
   95.1250    72.8280     8.2130     7.0850     8.5840    23.6980     2.2530    -9.7190 
   95.2500    73.9100     8.0330     7.0710     8.3950    23.6790     2.2710    -9.8500 
   95.3750    72.1490     7.8800     7.0030     8.3160    23.6720     2.2840    -9.9620 
   95.5000    68.8310     7.8160     6.9330     8.4350    23.6820     2.2880   -10.1010 
   95.6250    68.1490     7.8650     6.9010     8.6580    23.6740     2.2790   -10.2740 
   95.7500    69.7580     7.9830     6.9150     8.9380    23.6550     2.2650   -10.4690 
   95.8750    70.2650     8.1430     6.9720     9.0960    23.6450     2.2510   -10.6910 
   96.0000    67.9290     8.3260     7.0660     8.8730    23.6310     2.2400   -10.9340 
   96.1250    63.2400     8.5230     7.1930     8.7680    23.5920     2.2320   -11.1880 
   96.2500    58.4070     8.7170     7.3380     8.7570    23.5210     2.2240   -11.4050 
   96.3750    55.4460     8.9060     7.4990     8.8250    23.4450     2.2160   -11.6090 
   96.5000    55.7810     9.0960     7.6820     8.9240    23.4090     2.2110   -11.7850 
   96.6250    57.9790     9.3270     7.9140     8.9930    23.4050     2.2130   -11.9290 
   96.7500    60.2920     9.6270     8.2060     9.0920    23.3150     2.2190   -12.0460 
   96.8750    62.6650     9.9970     8.5520     9.2380    23.1090     2.2260   -12.0940 
   97.0000    62.9780    10.3860     8.9140     9.3840    22.9170     2.2270   -12.0560 
   97.1250    61.6430    10.6720     9.2050     9.4890    22.7620     2.2200   -11.9300 
   97.2500    61.6170    10.7800     9.3530     9.5100    22.7420     2.2110   -11.7890 
   97.3750    62.7550    10.6790     9.3230     9.4020    22.9680     2.2030   -11.6750 
   97.5000    62.8360    10.4020     9.1340     9.3180    23.4020     2.1970   -11.5640 
   97.6250    61.6170    10.0250     8.8480     9.4370    23.6660     2.1940   -11.4140 
   97.7500    61.0480     9.6650     8.5740     9.7610    23.6790     2.1910   -11.2090 
   97.8750    60.8640     9.4110     8.3860    10.1250    23.3580     2.1870   -10.9440 
   98.0000    59.9750     9.3530     8.3460    10.3970    22.9330     2.1800   -10.6520 
   98.1250    58.4890     9.6350     8.5570    10.6550    22.7670     2.1740   -10.3330 
   98.2500    57.6860    10.2380     9.0140    10.9640    22.7730     2.1760   -10.0030 
   98.3750    59.6800    11.0470     9.6520    11.4280    22.9150     2.1970    -9.6130 
   98.5000    63.4190    11.7980    10.2920    12.4640    23.1970     2.2430    -9.1530 
   98.6250    65.8240    12.0280    10.5800    14.5000    23.4940     2.3060    -8.6380 
   98.7500    65.7040    11.5370    10.3120    16.4220    23.5650     2.3610    -8.1070 
   98.8750    65.3390    10.3580     9.4590    17.3310    23.6140     2.3890    -7.6140 
   99.0000    66.0030     8.7970     8.2210    15.8910    23.7750     2.3870    -7.1470 
   99.1250    69.1880     7.3540     6.9660    10.5210    23.9580     2.3670    -6.7590 
   99.2500    74.7710     6.3470     5.9820     7.1530    24.0110     2.3490    -6.4470 
   99.3750    80.3530     5.8340     5.3540     6.0430    24.0020     2.3400    -6.2080 
   99.5000    81.7350     5.7160     5.0550     5.9310    23.9900     2.3350    -6.0630 
   99.6250    76.9490     5.8430     5.0270     5.9250    23.9910     2.3340    -5.9910 
   99.7500    72.6240     6.0090     5.1190     5.9220    23.9930     2.3360    -5.9730 
   99.8750    73.6680     6.1290     5.2550     5.9210    23.9930     2.3410    -6.0010 
  100.0000    78.2110     6.1920     5.3900     5.9540    23.9820     2.3480    -6.0900 
  100.1250    79.5910     6.2400     5.5220     6.0610    23.9540     2.3510    -6.2220 
  100.2500    77.0130     6.3400     5.6740     6.2860    23.8990     2.3470    -6.3080 
  100.3750    74.7640     6.5250     5.8630     6.5870    23.8320     2.3330    -6.3630 
  100.5000    74.9480     6.7800     6.0820     6.8220    23.7820     2.3100    -6.3800 
  100.6250    75.6920     7.0260     6.2720     7.0900    23.7490     2.2860    -6.3900 
  100.7500    76.2740     7.1500     6.3570     7.5100    23.7520     2.2700    -6.3900 
  100.8750    76.0800     7.0750     6.2760     7.7670    23.8380     2.2690    -6.3730 
  101.0000    73.6660     6.7850     6.0170     7.4750    23.9730     2.2840    -6.3460 
  101.1250    71.2670     6.3430     5.6230     6.7420    24.0800     2.3100    -6.3180 
  101.2500    71.3950     5.9280     5.2310     6.1030    24.1180     2.3370    -6.3350 
  101.3750    74.4070     5.6770     4.9500     5.7380    24.1210     2.3530    -6.3980 
  101.5000    76.7650     5.6730     4.8510     5.5990    24.1080     2.3530    -6.5380 
  101.6250    75.9700     5.9380     4.9800     5.8740    24.0640     2.3370    -6.7780 
  101.7500    74.1700     6.3240     5.2450     6.3740    23.9890     2.3150    -7.0790 
  101.8750    72.1600     6.7000     5.5550     6.9860    23.8890     2.2980    -7.4450 
  102.0000    69.8040     6.9530     5.8170     7.5060    23.8270     2.2930    -7.8100 
  102.1250    68.7450     7.0140     5.9520     7.5900    23.8610     2.3010    -8.1230 
  102.2500    69.6570     6.9670     5.9870     7.2590    23.9250     2.3100    -8.3790 
  102.3750    71.7390     6.9040     5.9780     6.9800    23.9440     2.3100    -8.5610 
  102.5000    72.7970     6.9080     5.9910     7.1250    23.8540     2.2980    -8.6610 
  102.6250    72.0970     7.0430     6.0840     7.6420    23.6240     2.2800    -8.6780 
  102.7500    69.4730     7.2990     6.2660     8.1740    23.4340     2.2670    -8.6410 
  102.8750    65.1470     7.6760     6.5420     8.4740    23.3440     2.2620    -8.5260 
  103.0000    62.3350     8.1750     6.9110     8.6220    23.3000     2.2650    -8.3520 
  103.1250    64.2280     8.7660     7.3640     8.8620    23.2720     2.2720    -8.0900 
  103.2500    67.5980     9.3190     7.8100     9.3380    23.2370     2.2780    -7.7740 
  103.3750    69.3450     9.6680     8.1300     9.9440    23.1970     2.2810    -7.4520 
  103.5000    69.2350     9.6620     8.2000    10.3840    23.1470     2.2820    -7.1280 
  103.6250    69.7730     9.1970     7.9070    10.1830    23.1040     2.2850    -6.7460 
  103.7500    70.9850     8.4840     7.3780     9.1070    23.0540     2.2910    -6.2990 
  103.8750    70.7870     7.7440     6.7620     7.9210    23.0100     2.2980    -5.8070 
  104.0000    69.7170     7.1470     6.1980     7.0030    23.0390     2.3050    -5.3300 
  104.1250    70.5790     6.7640     5.7730     6.6450    23.1850     2.3090    -4.9290 
  104.2500    74.0460     6.4740     5.4440     6.7860    23.3480     2.3130    -4.6300 
  104.3750    77.9540     6.1790     5.1620     6.7720    23.5220     2.3180    -4.4030 
  104.5000    78.6560     5.8510     4.9020     6.3010    23.7760     2.3250    -4.2160 
  104.6250    76.8650     5.5770     4.7040     5.7670    23.9560     2.3290    -4.1190 
  104.7500    77.6320     5.4830     4.6340     5.4510    24.0380     2.3260    -4.1190 
  104.8750    81.0560     5.6520     4.7490     5.5200    24.0420     2.3160    -4.2300 
