~V
VERS. 2.00: Ver 2.00
~W
STRT.M 56.0000:
STOP.M 312.0000:
STEP.M 0.1250:
NULL. -999.2500:
UWI. F10077:
~C
DEPT.M :
GR.API :
RML.OHMM :
RI. :
RXO.OHMM :
CALI.CM :
DEN.GM/CC :
SP.MV :
~A
# ...
  269.7500    59.2400    34.7110    31.6220    34.7930    23.8760     2.3400   -11.5320 
  269.8750    59.5500    36.2430    32.8650    32.8430    23.7710     2.3280   -11.5220 
  270.0000    58.9960    38.6320    34.8310    34.3490    23.7470     2.3210   -11.5930 
  270.1250    57.7080    43.0900    38.4900    37.7830    23.7290     2.3160   -11.7050 
  270.2500    56.4800    50.5030    44.7420    42.2440    23.6600     2.3100   -11.8950 
  270.3750    54.7340    61.9130    54.7540    53.2240    23.6320     2.3030   -12.1380 
  270.5000    52.7280    77.9680    69.2690    78.8990    23.8370     2.2940   -12.4380 
  270.6250    50.9190    98.2510    87.7180   112.0650    24.3310     2.2830   -12.7380 
  270.7500    49.7110   117.6920   105.3660   130.9940    24.7700     2.2700   -12.9990 
  270.8750    49.9760   130.2290   117.2010   135.7430    24.9780     2.2550   -13.2600 
  271.0000    52.2560   132.3140   120.2740   139.2220    25.0430     2.2370   -13.4930 
  271.1250    55.8090   124.9080   114.6100   133.3990    25.0130     2.2150   -13.6630 
  271.2500    57.1960   113.5780   104.6460   118.4270    24.9310     2.2050   -13.7950 
  271.3750    55.7330    99.3460    91.5750   106.1920    24.8850     2.2310   -13.8820 
  271.5000    53.2210    81.5140    74.9750    99.9640    24.8410     2.3160   -13.8890 
  271.6250    52.2810    60.8900    55.5200    85.6600    24.7250     2.4590   -13.7530 
  271.7500    51.9180    41.7820    37.5730    58.5790    24.6920     2.6080   -13.4380 
  271.8750    52.1530    26.9860    24.0080    32.6430    24.7440     2.7070   -12.8720 
  272.0000    53.5590    17.1140    15.2180    16.4690    24.7300     2.7260   -12.0430 
  272.1250    54.9690    10.4070    10.5090     8.0710    24.6070     2.6650   -11.0610 
  272.2500    55.5480     7.8610     7.9180     6.5080    24.4870     2.5810   -10.0050 
  272.3750    55.4450     6.7170     6.6470     6.6990    24.4430     2.5080    -8.9200 
  272.5000    55.6450     6.4090     6.2350     7.0950    24.4760     2.4660    -7.8570 
  272.6250    56.4430     6.6580     6.4630     6.9640    24.6100     2.4580    -6.9230 
  272.7500    56.5940     7.1330     6.9780     7.1220    24.7890     2.4700    -6.1680 
  272.8750    54.9050     7.6210     7.5620     7.6200    24.9010     2.4900    -5.6350 
  273.0000    50.8590     7.9660     8.0360     8.3100    24.8740     2.5040    -5.3190 
  273.1250    48.0230     8.1010     8.2870     8.8740    24.8250     2.4990    -5.1270 
  273.2500    49.0200     8.1200     8.3740     8.1580    24.8340     2.4770    -4.9350 
  273.3750    52.9600     8.0940     8.3660     7.6280    24.8930     2.4510    -4.7670 
  273.5000    56.2850     8.0870     8.3270     7.6260    24.9410     2.4380    -4.6600 
  273.6250    56.6950     8.1370     8.2860     8.0880    24.8900     2.4500    -4.5970 
  273.7500    55.7880     8.1940     8.2100     8.2370    24.7500     2.4800    -4.5670 
  273.8750    55.5570     8.1890     8.0530     7.6760    24.5810     2.5100    -4.5900 
  274.0000    55.4640     8.0780     7.8020     7.3820    24.4220     2.5260    -4.6930 
  274.1250    53.2570     7.8630     7.4850     7.3740    24.2770     2.5200    -4.8150 
  274.2500    51.0640     7.6280     7.1610     7.2020    24.2130     2.5010    -4.9760 
  274.3750    50.8310     7.4260     6.8480     6.9030    24.2240     2.4760    -5.1780 
  274.5000    52.7460     7.2470     6.5280     7.2340    24.2170     2.4530    -5.4020 
  274.6250    55.5830     7.0220     6.1790     8.4480    24.1620     2.4350    -5.6410 
  274.7500    58.0840     6.7690     5.8600     8.7880    24.0500     2.4210    -5.8660 
  274.8750    59.1900     6.6030     5.6760     8.2550    23.9540     2.4110    -6.0750 
  275.0000    59.4460     6.7010     5.7430     7.4060    23.8690     2.4130    -6.2920 
  275.1250    62.8420     7.4440     6.2840     7.5830    23.8400     2.4310    -6.5610 
  275.2500    70.0490     9.0730     7.4300     9.9160    23.8460     2.4530    -6.8490 
  275.3750    77.4810    11.6820     9.3300    14.0880    23.9040     2.4640    -7.1050 
  275.5000    81.3000    14.9120    11.9020    16.6100    23.9390     2.4490    -7.3020 
  275.6250    79.7860    17.4720    14.3380    18.9980    23.9200     2.4080    -7.4420 
  275.7500    76.8560    18.0660    15.3910    23.3570    23.8720     2.3620    -7.5360 
  275.8750    76.9230    16.4780    14.6590    24.6950    23.8410     2.3320    -7.5390 
  276.0000    81.6010    13.7590    12.8940    17.8780    23.8630     2.3240    -7.4340 
  276.1250    87.4600    11.5150    11.2560    11.5570    24.0210     2.3320    -7.1840 
  276.2500    89.8650    10.4410    10.2870    10.0040    24.2420     2.3380    -6.8630 
  276.3750    89.3490    10.5030    10.0340    10.6600    24.4560     2.3390    -6.5170 
  276.5000    89.9010    11.3210    10.3580    11.4900    24.6020     2.3380    -6.1650 
  276.6250    92.1560    12.2270    10.9260    11.7970    24.6240     2.3410    -5.8150 
  276.7500    93.1250    12.5290    11.1700    12.3940    24.5930     2.3510    -5.5310 
  276.8750    92.2000    11.9700    10.7720    11.6770    24.5920     2.3640    -5.3170 
  277.0000    91.5880    10.7660     9.8160    10.0680    24.6650     2.3770    -5.1600 
  277.1250    93.0000     9.4340     8.6750     7.6240    24.7480     2.3870    -5.1080 
  277.2500    92.9420     8.3880     7.7080     6.4950    24.7720     2.3920    -5.1240 
  277.3750    91.0830     7.7520     7.0570     6.0790    24.7410     2.3930    -5.2150 
  277.5000    90.5450     7.5550     6.7820     6.0610    24.6380     2.3930    -5.3470 
  277.6250    92.7640     7.9180     7.0040     6.1170    24.4840     2.3980    -5.5060 
  277.7500    94.2030     8.8610     7.7180     6.4030    24.3120     2.4090    -5.6520 
  277.8750    91.6780    10.4110     8.9620     7.6180    24.1530     2.4240    -5.7680 
  278.0000    86.1620    12.3990    10.6630    10.5750    24.0610     2.4350    -5.8690 
  278.1250    81.5970    14.2980    12.4820    14.8490    24.0340     2.4370    -5.9520 
  278.2500    80.1350    15.5170    13.8590    17.4400    24.0410     2.4300    -6.0310 
  278.3750    79.4020    15.8790    14.5060    16.5170    24.0360     2.4170    -6.0970 
  278.5000    78.0600    15.6830    14.5450    13.4290    24.0240     2.3990    -6.1490 
  278.6250    76.6210    15.5390    14.4050    11.8820    24.0160     2.3810    -6.1630 
  278.7500    74.5430    15.8460    14.5040    13.2160    24.0580     2.3630    -6.1320 
  278.8750    71.9400    16.6420    14.9780    17.7200    24.1850     2.3470    -6.1350 
  279.0000    71.6480    17.7810    15.8130    20.9320    24.3730     2.3310    -6.1540 
  279.1250    73.4900    19.1140    16.9510    20.8140    24.5490     2.3130    -6.2110 
  279.2500    72.7360    20.6460    18.3040    20.1650    24.6350     2.2940    -6.3160 
  279.3750    70.3840    22.6450    20.0080    22.2140    24.6250     2.2780    -6.4300 
  279.5000    70.6040    25.4820    22.3640    25.8260    24.5820     2.2670    -6.5550 
  279.6250    72.4560    29.6930    25.9610    29.1550    24.6050     2.2590    -6.7480 
  279.7500    70.9660    38.7880    30.8400    36.1800    24.7100     2.2470    -7.0190 
  279.8750    66.2380    49.4620    36.8100    48.8960    24.8410     2.2310    -7.3610 
  280.0000    62.5670    57.1960    43.3100    60.1650    24.9320     2.2110    -7.7640 
  280.1250    63.1290    64.0840    49.4420    64.5820    24.8920     2.1930    -8.2020 
  280.2500    64.8020    69.5280    54.5950    64.3020    24.7320     2.1830    -8.6700 
  280.3750    65.4900    73.5060    58.6270    63.0500    24.5060     2.1800    -9.1710 
  280.5000    64.1260    76.5630    61.8300    62.9940    24.2890     2.1820    -9.7300 
  280.6250    61.8540    79.3720    64.6470    63.6890    24.1200     2.1880   -10.3030 
  280.7500    60.8970    81.9970    67.2120    68.4300    23.9700     2.2000   -10.8650 
  280.8750    62.6700    83.7800    69.0960    73.6550    23.8530     2.2220   -11.3690 
