~V
VERS. 2.00: Ver 2.00
~W
STRT.M 55.0000:
STOP.M 310.0000:
STEP.M 0.1250:
NULL. -999.2500:
UWI. F10049:
~C
DEPT.M :
GR.API :
RML.OHMM :
RI. :
RXO.OHMM :
CALI.CM :
DEN.GM/CC :
SP.MV :
~A
# ...
  257.5000    80.1730    12.8080    13.0980     9.4670    24.8210     2.3260    -8.2950 
  257.6250    77.9630    13.9280    13.9180    11.8990    24.9940     2.2930    -8.0180 
  257.7500    72.7300    16.3420    16.2170    17.1430    25.2060     2.2470    -7.9090 
  257.8750    67.7530    19.5350    19.7370    23.1760    25.3240     2.2070    -7.8660 
  258.0000    65.4300    22.7950    23.8120    26.8410    25.3620     2.1830    -7.7520 
  258.1250    64.4030    25.1820    27.1320    27.5810    25.3440     2.1820    -7.7380 
  258.2500    63.6460    26.4100    28.9340    27.7290    25.3350     2.1930    -7.7520 
  258.3750    64.4690    26.6310    29.3040    27.9060    25.3310     2.2110    -7.6890 
  258.5000    65.5100    26.2820    28.8290    28.3750    25.3310     2.2290    -7.6240 
  258.6250    65.1610    25.8220    28.1000    28.1790    25.3310     2.2410    -7.6140 
  258.7500    64.5050    25.5160    27.4530    27.6690    25.3310     2.2470    -7.5540 
  258.8750    64.7360    25.4000    26.9490    27.4910    25.3310     2.2520    -7.5080 
  259.0000    64.6700    25.4310    26.5760    27.4950    25.3310     2.2560    -7.5300 
  259.1250    65.4940    25.5830    26.3320    27.4040    25.3310     2.2610    -7.6660 
  259.2500    67.7510    25.8690    26.2360    26.9250    25.3310     2.2610    -7.8560 
  259.3750    68.1980    26.3770    26.3610    27.0040    25.3310     2.2560    -8.1260 
  259.5000    64.8610    27.1770    26.7530    27.4220    25.3310     2.2430    -8.4630 
  259.6250    60.3010    28.2880    27.4520    28.1090    25.3330     2.2250    -8.7890 
  259.7500    60.3060    29.5520    28.3700    28.5240    25.3410     2.2060    -9.1380 
  259.8750    64.3760    30.8600    29.4460    28.6330    25.3500     2.1930    -9.4970 
  260.0000    67.7150    32.1320    30.6070    29.8320    25.3120     2.1880    -9.8600 
  260.1250    67.4040    33.2660    31.7370    31.4810    25.2360     2.1940   -10.1050 
  260.2500    65.3840    34.1870    32.7020    32.6460    25.1660     2.2060   -10.4070 
  260.3750    64.3540    34.8190    33.3840    33.0370    25.1540     2.2170   -10.6690 
  260.5000    63.8560    35.1330    33.7350    33.3540    25.2070     2.2230   -10.8600 
  260.6250    63.4460    35.1560    33.7930    32.9880    25.3360     2.2170   -10.9980 
  260.7500    63.7350    35.1070    33.7930    32.5440    25.4330     2.2020   -11.0280 
  260.8750    63.9600    35.1940    33.9310    32.5230    25.4820     2.1840   -11.0280 
  261.0000    64.3240    35.5740    34.3210    32.8210    25.5220     2.1740   -11.0880 
  261.1250    63.0960    36.2760    34.9090    33.3880    25.5440     2.1800   -11.1960 
  261.2500    60.6520    37.0190    35.4210    34.0410    25.5090     2.2000   -11.2230 
  261.3750    58.4810    37.5180    35.6470    34.6760    25.4040     2.2220   -11.2700 
  261.5000    58.9960    37.5890    35.5130    35.4870    25.2750     2.2360   -11.3700 
  261.6250    62.9880    37.2220    35.0790    34.6760    25.0790     2.2330   -11.5450 
  261.7500    65.8700    36.7050    34.5370    33.1640    24.8100     2.2200   -11.8400 
  261.8750    67.2180    36.2170    33.9800    31.7050    24.6670     2.2050   -12.1560 
  262.0000    68.7620    35.8360    33.4860    31.9380    24.6850     2.1940   -12.4240 
  262.1250    71.5520    35.6600    33.2030    32.6330    24.6040     2.1970   -12.6900 
  262.2500    72.0720    35.8550    33.2970    31.9700    24.5360     2.2160   -12.9550 
  262.3750    69.1010    36.7130    33.9810    31.4820    24.6270     2.2520   -13.2050 
  262.5000    66.0650    38.4970    35.4820    35.7760    24.7760     2.2950   -13.4250 
  262.6250    64.4060    41.4250    38.1570    44.6790    24.9010     2.3290   -13.5880 
  262.7500    62.9600    45.0200    41.7550    48.3730    25.0730     2.3510   -13.6930 
  262.8750    61.2590    48.7360    45.8150    48.4170    25.3000     2.3660   -13.7390 
  263.0000    60.7270    52.0190    49.5890    51.1710    25.4260     2.3810   -13.7130 
  263.1250    62.0720    54.5230    52.2850    59.0510    25.4180     2.4070   -13.6010 
  263.2500    64.1480    56.7160    54.2050    66.6650    25.3920     2.4420   -13.4850 
  263.3750    66.6030    59.2050    56.1370    62.8260    25.3610     2.4850   -13.3900 
  263.5000    66.9710    62.3850    58.8400    51.8760    25.3380     2.5290   -13.2570 
  263.6250    63.7610    66.0000    62.4350    63.5400    25.3250     2.5660   -13.0470 
  263.7500    59.2630    68.8880    65.7980    83.2930    25.3170     2.5940   -12.8710 
  263.8750    57.8930    69.7910    67.6560    99.1840    25.3150     2.6170   -12.7750 
  264.0000    60.2450    67.6090    66.8130   102.4560    25.3050     2.6450   -12.8140 
  264.1250    63.2740    61.1390    61.4980    75.0940    25.2660     2.6810   -12.9110 
  264.2500    65.1970    51.5020    52.1200    51.0610    25.2140     2.7140   -12.9080 
  264.3750    67.2140    40.0130    40.2260    43.4340    25.1960     2.7300   -12.6880 
  264.5000    70.0540    28.4490    28.4650    44.1500    25.2350     2.7160   -12.2630 
  264.6250    71.5830    19.0370    19.4700    32.0630    25.2650     2.6680   -11.5900 
  264.7500    70.3690    12.4730    13.3530    15.0840    25.2550     2.6040   -10.6650 
  264.8750    66.1490     8.5600     9.5740     7.5530    25.2670     2.5350    -9.5290 
  265.0000    59.9990     6.5580     7.4370     5.8590    25.3270     2.4710    -8.2480 
  265.1250    55.4010     5.9350     6.5420     6.0010    25.4260     2.4190    -6.9430 
  265.2500    54.3240     6.0170     6.3520     6.2480    25.5060     2.3810    -5.7580 
  265.3750    56.3030     6.4380     6.6130     6.2470    25.4690     2.3590    -4.7840 
  265.5000    59.0490     6.9280     7.0700     5.9860    25.3120     2.3520    -3.9720 
  265.6250    60.7340     7.2870     7.4860     5.7720    25.2990     2.3560    -3.4730 
  265.7500    62.3020     7.4630     7.7760     6.2230    25.3680     2.3660    -3.2400 
  265.8750    63.7700     7.4540     7.9490     6.5340    25.5000     2.3760    -3.2130 
  266.0000    62.9820     7.3040     8.0250     6.3290    25.5620     2.3860    -3.2600 
  266.1250    58.4920     7.1220     8.0080     6.0300    25.4440     2.3910    -3.3170 
  266.2500    54.9360     7.0290     7.9360     5.8600    25.2020     2.3910    -3.3070 
  266.3750    55.2410     7.0440     7.8240     5.9110    25.0020     2.3820    -3.3020 
  266.5000    57.1760     7.0660     7.6630     5.9690    24.9160     2.3660    -3.3810 
  266.6250    57.5510     6.8800     7.3980     6.1340    24.9250     2.3480    -3.4930 
  266.7500    56.6210     6.4200     6.9960     6.3840    24.9150     2.3340    -3.6360 
  266.8750    56.2250     5.7730     6.4660     6.2650    24.8380     2.3250    -3.6880 
  267.0000    57.5130     5.1430     5.8810     5.3690    24.6630     2.3200    -3.7500 
  267.1250    64.3660     4.7930     5.3910     4.6830    24.4790     2.3150    -3.9650 
  267.2500    74.6240     4.7930     5.1060     4.3520    24.4110     2.3120    -4.3070 
  267.3750    83.8990     5.1520     5.0940     4.3590    24.4730     2.3120    -4.7100 
  267.5000    90.2910     5.8360     5.3820     4.8120    24.6290     2.3160    -5.1060 
  267.6250    96.2210     6.7680     5.9770     6.1630    24.9040     2.3150    -5.4770 
  267.7500   103.6860     7.6990     6.6990     7.2830    25.3950     2.3000    -5.7940 
  267.8750   110.2180     8.3870     7.3580     7.8990    26.0700     2.2710    -6.1270 
  268.0000   112.9460     8.6670     7.7760     8.0300    26.5780     2.2390    -6.3220 
  268.1250   109.9820     8.5160     7.8350     7.7730    26.6600     2.2220    -6.3400 
  268.2500   102.8450     8.2220     7.6710     7.5480    26.2800     2.2270    -6.3010 
  268.3750    95.3750     7.9960     7.4230     7.4690    25.6400     2.2510    -6.2170 
  268.5000    91.8950     7.9530     7.2050     7.3030    25.3000     2.2810    -6.1670 
  268.6250    94.6240     8.1140     7.1000     6.9400    25.4730     2.3020    -6.0090 
