~V
VERS. 2.00: Ver 2.00
~W
STRT.M 50.0000:
STOP.M 212.0000:
STEP.M 0.1250:
NULL. -999.2500:
UWI. F10013:
~C
DEPT.M :
GR.API :
RML.OHMM :
RI. :
RXO.OHMM :
CALI.CM :
DEN.GM/CC :
SP.MV :
~A
# ...
  106.2500    68.2380    29.2070    26.9500    29.7750    23.0690     2.1020   -20.7640 
  106.3750    68.8060    31.2190    28.4950    29.3520    23.0200     2.1250   -20.7170 
  106.5000    69.1840    34.5710    30.9150    33.6460    22.9790     2.1400   -20.6550 
  106.6250    67.5390    40.0650    35.0270    42.9090    22.9280     2.1440   -20.5750 
  106.7500    64.7320    47.5260    40.9030    50.0510    22.8980     2.1400   -20.5040 
  106.8750    61.7790    56.6360    48.4070    59.4510    22.8700     2.1340   -20.4650 
  107.0000    60.2710    66.4780    56.8220    77.0390    22.8610     2.1260   -20.4440 
  107.1250    60.3440    74.8660    64.3600    94.5160    22.8130     2.1190   -20.3760 
  107.2500    61.5160    79.6250    69.1050   109.9240    22.6830     2.1160   -20.2650 
  107.3750    63.3240    79.5260    69.8920   124.3460    22.5720     2.1190   -20.1680 
  107.5000    65.0240    75.1210    66.9040   115.0120    22.6100     2.1240   -20.1110 
  107.6250    67.3180    68.6700    61.6490    90.2210    22.7780     2.1220   -20.1170 
  107.7500    69.5200    63.2660    56.7570    64.5720    22.9340     2.1110   -20.1300 
  107.8750    69.3200    60.3450    53.6370    53.7240    22.9460     2.0940   -20.1200 
  108.0000    66.0390    60.1710    52.8060    51.8520    22.6650     2.0810   -20.0890 
  108.1250    62.2260    62.1770    54.1480    61.0390    22.1950     2.0780   -20.0790 
  108.2500    60.6990    64.4170    56.1800    69.7060    21.9720     2.0760   -20.1270 
  108.3750    61.6990    65.3610    57.5960    71.3550    22.0660     2.0700   -20.2290 
  108.5000    65.0880    64.0460    57.3750    66.4650    22.2040     2.0580   -20.3540 
  108.6250    69.1000    60.1770    54.9180    60.9460    21.9840     2.0480   -20.4370 
  108.7500    71.2830    55.0880    51.1470    54.7080    21.6740     2.0480   -20.4980 
  108.8750    72.2270    49.8630    46.9590    48.6990    21.5380     2.0620   -20.5550 
  109.0000    73.7540    45.3760    43.1790    45.0540    21.5170     2.0840   -20.6370 
  109.1250    74.2160    42.2520    40.4500    42.0400    21.4820     2.1070   -20.7550 
  109.2500    72.6570    40.0400    38.5060    40.3430    21.4930     2.1230   -20.8550 
  109.3750    70.7110    38.0340    36.7830    42.5800    21.5510     2.1300   -20.8950 
  109.5000    71.9920    35.4290    34.5470    50.3530    21.5940     2.1290   -20.8770 
  109.6250    77.1050    31.5850    31.1190    44.5690    21.7050     2.1250   -20.8280 
  109.7500    82.5930    27.0030    26.8930    29.5730    21.9390     2.1300   -20.7810 
  109.8750    86.8250    22.4470    22.5750    19.3650    22.1990     2.1490   -20.7430 
  110.0000    90.9690    18.6530    18.8750    16.6230    22.3070     2.1800   -20.7030 
  110.1250    95.3700    16.2290    16.3810    15.0230    22.2660     2.2140   -20.6390 
  110.2500    96.4140    14.9540    14.9340    14.0870    22.2240     2.2430   -20.5360 
  110.3750    94.2970    14.5400    14.3220    13.7630    22.2240     2.2650   -20.4010 
  110.5000    92.8660    14.5810    14.2280    15.0060    22.2550     2.2820   -20.2660 
  110.6250    94.4100    14.6500    14.2940    16.3380    22.2850     2.2950   -20.1560 
  110.7500    96.2170    14.5130    14.2420    17.0690    22.3190     2.3070   -20.0500 
  110.8750    95.8550    14.2210    14.0630    16.5130    22.3600     2.3150   -19.9300 
  111.0000    93.4590    14.0150    13.9250    15.3420    22.4300     2.3190   -19.7800 
  111.1250    89.5070    14.3720    14.2200    15.0640    22.4910     2.3120   -19.5710 
  111.2500    83.6440    15.6150    15.2550    16.6980    22.5400     2.2930   -19.3420 
  111.3750    77.8910    18.0260    17.3510    20.7700    22.5720     2.2620   -19.1300 
  111.5000    74.9310    21.7460    20.7720    26.1770    22.6010     2.2260   -18.9460 
  111.6250    74.0420    26.8240    25.8350    34.1920    22.6550     2.1960   -18.8030 
  111.7500    71.1350    32.5450    31.9690    44.0910    22.7130     2.1750   -18.6910 
  111.8750    66.4040    38.2570    38.5050    53.9570    22.7480     2.1620   -18.6010 
  112.0000    64.0290    43.4340    44.7190    58.7230    22.7600     2.1550   -18.5460 
  112.1250    64.8990    47.7990    50.0380    58.6180    22.7640     2.1530   -18.5420 
  112.2500    65.2070    51.5640    54.5100    58.5310    22.7510     2.1530   -18.5770 
  112.3750    65.2260    54.5850    57.9840    60.9860    22.6970     2.1530   -18.6310 
  112.5000    67.3980    56.3050    59.9620    66.6510    22.6120     2.1510   -18.7010 
  112.6250    70.6370    55.6400    59.3740    75.1740    22.5240     2.1430   -18.8000 
  112.7500    68.9250    52.8920    56.5070    73.5190    22.4770     2.1360   -18.9250 
  112.8750    64.2520    49.0120    52.2430    60.3940    22.4560     2.1340   -19.0490 
  113.0000    64.0980    45.5220    48.0530    48.6150    22.4130     2.1430   -19.1550 
  113.1250    68.3880    44.5090    45.9640    43.3910    22.3240     2.1650   -19.2940 
  113.2500    67.2550    47.0250    47.1690    45.6000    22.2360     2.1940   -19.5160 
  113.3750    59.2610    54.1650    52.9830    54.8550    22.1610     2.2310   -19.7880 
  113.5000    52.5770    67.1490    64.9410    69.5290    22.1480     2.2790   -20.0540 
  113.6250    51.8990    88.6510    85.9450    87.5420    22.2920     2.3450   -20.2730 
  113.7500    51.7150   117.7600   114.5950   110.6690    22.5460     2.4250   -20.4740 
  113.8750    49.3130   151.3150   147.2200   160.4960    22.7850     2.5090   -20.7110 
  114.0000    47.3310   181.1500   176.1100   225.0030    22.9680     2.5820   -20.9970 
  114.1250    48.7300   192.4950   188.5810   263.4220    23.0740     2.6230   -21.2920 
  114.2500    50.2880   182.7940   182.1620   277.0500    23.1480     2.6320   -21.5440 
  114.3750    51.3690   158.1610   160.8800   275.6440    23.1370     2.6100   -21.7600 
  114.5000    53.1380   129.0570   133.2160   212.2360    23.0590     2.5680   -21.9570 
  114.6250    53.7000   104.5570   107.9540   132.4360    22.9260     2.5120   -22.1240 
  114.7500    52.6030    86.6230    88.5950    84.9510    22.7680     2.4550   -22.2580 
  114.8750    53.0590    74.6090    75.2270    64.1330    22.6720     2.4040   -22.3410 
  115.0000    56.2830    67.1940    66.7600    56.8420    22.6800     2.3670   -22.3750 
  115.1250    58.9510    63.4910    62.3550    55.0660    22.7590     2.3490   -22.3240 
  115.2500    59.0120    61.8300    60.2450    55.7490    22.8550     2.3450   -22.1840 
  115.3750    57.1600    61.4480    59.6120    58.6060    23.0090     2.3490   -22.0030 
  115.5000    54.3280    61.7900    59.8330    62.4910    23.2030     2.3550   -21.8220 
  115.6250    53.2200    62.5370    60.5160    65.1530    23.3500     2.3570   -21.6680 
  115.7500    55.4550    63.4510    61.3600    66.0330    23.3650     2.3530   -21.5270 
  115.8750    57.8770    64.4530    62.2730    66.2140    23.2920     2.3420   -21.3860 
  116.0000    57.0600    65.4450    63.1780    66.7800    23.2700     2.3280   -21.2380 
  116.1250    54.7310    66.1800    63.8840    65.7230    23.2240     2.3190   -21.0970 
  116.2500    54.2770    66.4170    64.1740    65.2690    23.0870     2.3230   -21.0110 
  116.3750    55.8340    65.9760    63.8580    62.7710    22.9150     2.3380   -20.9840 
  116.5000    58.4930    64.8700    62.9010    62.2400    22.8640     2.3550   -20.9840 
  116.6250    61.5240    63.3510    61.4740    62.1110    22.9730     2.3620   -20.9760 
  116.7500    63.0310    61.9770    60.0820    61.6400    23.1670     2.3580   -20.9400 
  116.8750    61.6460    61.1390    59.0880    60.8670    23.3230     2.3490   -20.8810 
  117.0000    59.0010    60.9310    58.6090    60.6070    23.3160     2.3440   -20.8280 
  117.1250    58.5200    60.8480    58.2590    58.5200    23.1120     2.3410   -20.8410 
  117.2500    59.4850    59.7770    57.1040    53.1490    22.8270     2.3330   -20.8870 
  117.3750    60.1050    56.7900    54.3460    51.0210    22.5670     2.3110   -20.9110 
