~V
VERS. 2.00: Ver 2.00
~W
STRT.M 55.0000:
STOP.M 264.0000:
STEP.M 0.1250:
NULL. -999.2500:
UWI. F10017:
~C
DEPT.M :
DEN.GM/CC :
SP.MV :
GR.API :
CALI.CM :
RXO.OHMM :
RI. :
RML.OHMM :
~A
# ...
  133.7500     2.1330   -23.9120    70.6110    24.0870    12.0020    16.1740    16.1800 
  133.8750     2.1110   -22.7070    69.6790    24.1150    14.3530    17.2640    17.7420 
  134.0000     2.1010   -21.1370    67.3580    24.1480    17.5590    18.7270    19.8300 
  134.1250     2.1050   -19.3660    64.9110    24.1360    20.7340    20.5160    22.1730 
  134.2500     2.1070   -17.6140    64.0160    24.1290    24.3840    22.5180    24.5540 
  134.3750     2.1020   -16.0990    64.6060    24.2290    28.2030    24.6400    26.8550 
  134.5000     2.0990   -14.8470    64.1690    24.4610    30.9740    26.6670    28.8690 
  134.6250     2.1140   -13.8940    62.4480    24.7250    31.6020    28.1390    30.0910 
  134.7500     2.1400   -13.2000    61.0460    24.7660    29.2310    28.8380    30.3670 
  134.8750     2.1640   -12.7490    60.8320    24.4960    25.6610    28.8030    29.8980 
  135.0000     2.1810   -12.5360    62.4090    24.1060    24.6410    28.3400    29.2140 
  135.1250     2.1920   -12.4940    64.2450    23.9150    25.9960    27.8500    28.9580 
  135.2500     2.1970   -12.5200    64.7950    23.8230    27.6800    27.5520    29.2650 
  135.3750     2.1960   -12.4680    64.2850    23.7010    29.3890    27.4320    29.8520 
  135.5000     2.1900   -12.3530    64.8860    23.6540    31.1360    27.3240    30.1530 
  135.6250     2.1770   -12.1300    67.5450    23.8290    29.9500    26.9330    29.4200 
  135.7500     2.1580   -11.8220    68.3030    24.1020    27.5520    26.1940    27.7880 
  135.8750     2.1340   -11.4500    65.8280    24.4040    26.7510    25.2390    25.8360 
  136.0000     2.1130   -10.9800    62.8380    24.7140    27.5150    24.3260    24.2570 
  136.1250     2.1020   -10.3780    64.0090    24.7470    26.9260    23.8100    23.6970 
  136.2500     2.1020    -9.6750    67.1890    24.6100    26.8790    23.8500    24.1010 
  136.3750     2.1050    -8.9900    66.4670    24.5810    28.1510    24.5260    25.2650 
  136.5000     2.1090    -8.3140    61.1080    24.8670    29.8740    25.8470    26.9430 
  136.6250     2.1120    -7.6950    57.0560    25.3390    31.3010    27.8830    28.9870 
  136.7500     2.1150    -7.2290    56.7500    25.6250    33.2260    30.4050    31.2740 
  136.8750     2.1150    -7.0000    56.9620    25.5120    37.9130    33.1670    33.7210 
  137.0000     2.1090    -7.1250    54.5040    25.1530    42.0250    35.8020    36.0770 
  137.1250     2.0940    -7.8020    51.4770    24.8850    44.1480    37.5360    37.5480 
  137.2500     2.0800    -8.9850    50.8900    25.0440    42.8110    37.5790    37.2830 
  137.3750     2.0840   -10.5800    53.3220    25.2150    40.6690    35.3160    34.7700 
  137.5000     2.1100   -12.6030    57.0960    25.2410    35.1800    30.9710    30.4070 
  137.6250     2.1430   -14.8520    59.8050    25.0330    26.4780    25.7110    25.3650 
  137.7500     2.1670   -16.9580    62.5590    24.4570    19.1040    21.0450    20.9220 
  137.8750     2.1840   -18.7390    65.3230    23.6800    16.4930    17.6090    17.6170 
  138.0000     2.1920   -19.9650    67.2210    23.1800    17.2100    15.5530    15.6390 
  138.1250     2.1810   -20.4320    66.5520    23.2970    16.8060    15.0200    15.2400 
  138.2500     2.1600   -20.3440    64.2810    23.6890    16.1080    15.7140    16.1500 
  138.3750     2.1500   -19.7840    61.2560    24.1060    18.1280    17.5680    18.2400 
  138.5000     2.1550   -18.8370    58.2580    24.4580    23.0850    20.4240    21.2140 
  138.6250     2.1640   -17.7330    57.0940    24.8020    28.4120    23.9450    24.5740 
  138.7500     2.1650   -16.8020    57.5260    25.0360    31.6420    27.3310    27.5590 
  138.8750     2.1570   -16.2700    59.2010    25.1080    32.5390    29.8040    29.5020 
  139.0000     2.1510   -16.3050    61.4650    25.0160    32.5290    30.6610    29.9120 
  139.1250     2.1550   -17.0080    62.2670    24.9160    36.0690    29.3240    28.4350 
  139.2500     2.1560   -18.1320    61.4180    24.8260    31.7610    26.5960    25.7880 
  139.3750     2.1440   -19.4890    60.4030    24.6020    24.2830    23.3280    22.7130 
  139.5000     2.1240   -20.8990    60.7140    24.2060    16.9140    20.3250    19.9320 
  139.6250     2.1090   -22.2860    61.6430    23.8390    12.9060    18.2350    18.0480 
  139.7500     2.1020   -23.4850    62.9540    23.6700    11.5750    17.0420    17.0260 
  139.8750     2.0950   -24.4230    65.4270    23.6270    11.2260    16.6260    16.7340 
  140.0000     2.0840   -25.1010    67.3330    23.6320    11.2160    16.7600    16.9830 
  140.1250     2.0730   -25.4170    65.6670    23.6930    11.3790    17.1360    17.5620 
  140.2500     2.0720   -25.4310    63.5820    23.8220    11.3030    17.3960    18.1090 
  140.3750     2.0870   -25.1880    64.3750    23.9750    10.8180    17.3860    18.3590 
  140.5000     2.1100   -24.7420    66.9710    24.0780    10.2270    17.1320    18.1830 
  140.6250     2.1300   -23.9580    67.1160    24.1090    10.0330    16.8590    17.7710 
  140.7500     2.1410   -22.9330    66.6090    24.1310    10.3450    16.8850    17.6580 
  140.8750     2.1470   -21.6610    67.5870    24.1780    11.0300    17.4980    18.3200 
  141.0000     2.1510   -20.1300    68.2840    24.2540    12.2010    18.9710    20.1820 
  141.1250     2.1510   -18.3980    67.0220    24.3450    15.6860    21.7700    23.7220 
  141.2500     2.1490   -16.6260    65.4810    24.4190    21.9660    25.7350    28.4330 
  141.3750     2.1510   -14.9590    64.6340    24.4190    31.1540    30.3020    33.4570 
  141.5000     2.1590   -13.4570    63.4950    24.3250    40.5490    34.2130    37.3310 
  141.6250     2.1730   -12.2730    61.9260    24.1350    45.5400    35.6410    38.2020 
  141.7500     2.1860   -11.2700    61.8200    23.9640    44.0030    34.8110    36.7890 
  141.8750     2.1910   -10.3990    62.5870    23.8850    36.7490    32.8590    34.6000 
  142.0000     2.1820    -9.7170    64.3390    23.8990    30.7520    31.0500    33.0030 
  142.1250     2.1630    -9.3010    67.0950    23.8210    31.7350    30.2690    32.8370 
  142.2500     2.1460    -9.0010    68.6270    23.7680    35.8560    30.4220    33.7600 
  142.3750     2.1330    -8.7600    67.6670    23.9020    38.2810    31.2610    35.2610 
  142.5000     2.1220    -8.5890    65.4170    24.1470    37.5060    32.4180    36.6060 
  142.6250     2.1130    -8.5200    64.3520    24.2730    35.0560    33.4630    37.0970 
  142.7500     2.1080    -8.7230    63.4430    24.2260    34.7780    34.2730    36.9870 
  142.8750     2.1050    -9.2740    61.5410    24.1440    37.2290    35.0150    36.7880 
  143.0000     2.1010   -10.0950    59.9500    24.1710    39.0230    35.9140    36.9430 
  143.1250     2.1000   -11.1800    59.1700    24.2510    39.2410    37.1690    37.7780 
  143.2500     2.0870   -12.6760    58.7280    24.3360    40.0820    38.7480    39.2010 
  143.3750     2.0450   -14.5970    58.9680    24.4290    41.8050    40.2190    40.6560 
  143.5000     1.9890   -16.8970    59.4140    24.5440    42.3910    40.3120    40.5780 
  143.6250     1.9890   -19.6720    59.2650    24.6870    40.8460    36.7040    36.3310 
  143.7500     2.0690   -22.7130    59.4150    24.8880    36.6350    29.9890    28.9050 
  143.8750     2.1960   -25.8640    62.4230    24.8340    27.7780    22.3170    20.8890 
  144.0000     2.3090   -29.0360    69.4470    24.4240    16.6590    15.7970    14.3850 
  144.1250     2.3540   -31.9990    78.8000    24.1940    10.0640    11.5630    10.3320 
  144.2500     2.3440   -34.6480    87.0940    24.1720     7.5500     8.9880     7.9360 
  144.3750     2.3120   -36.9080    92.1280    24.2110     7.1580     7.5840     6.6540 
  144.5000     2.2860   -38.7650    93.5090    24.2330     7.3730     6.9780     6.1380 
  144.6250     2.2810   -40.1470    96.0850    24.2290     7.4850     6.9660     6.2710 
  144.7500     2.2890   -41.1320   100.8450    24.2130     7.4360     7.2040     6.7480 
  144.8750     2.3020   -41.8750   103.9130    24.1950     7.2990     7.4770     7.2810 
