~V
VERS. 2.00: Ver 2.00
~W
STRT.M 55.0000:
STOP.M 279.0000:
STEP.M 0.1250:
NULL. -999.2500:
UWI. F10072:
~C
DEPT.M :
GR.API :
RML.OHMM :
RI. :
RXO.OHMM :
CALI.CM :
DEN.GM/CC :
SP.MV :
~A
# ...
  145.0000    61.4360    11.2050     9.9940     9.5010    22.9760     2.1700   -19.4330 
  145.1250    61.7930    10.7970     9.7760     9.4010    22.9410     2.1800   -19.6020 
  145.2500    63.2510    10.4510     9.5030     9.7580    22.9980     2.1820   -19.7350 
  145.3750    63.8910    10.2270     9.2250    10.1520    23.1610     2.1730   -19.8370 
  145.5000    64.6260    10.1560     8.9870    10.2510    23.4220     2.1570   -19.8630 
  145.6250    68.4800    10.2690     8.8470     9.9070    23.5580     2.1450   -19.8410 
  145.7500    72.6650    10.5130     8.8300     9.6580    23.5890     2.1410   -19.7720 
  145.8750    73.0300    10.8300     8.9470     9.7680    23.5900     2.1470   -19.6730 
  146.0000    68.8770    11.1310     9.1710    10.3870    23.6030     2.1590   -19.5670 
  146.1250    64.8360    11.2880     9.4130    11.3290    23.6090     2.1700   -19.4720 
  146.2500    64.0920    11.2620     9.5630    11.4640    23.6000     2.1730   -19.3460 
  146.3750    64.8980    11.0890     9.5690    10.9680    23.5740     2.1660   -19.1540 
  146.5000    64.9390    10.8680     9.4430    10.5690    23.5550     2.1550   -18.9230 
  146.6250    64.6210    10.7340     9.2650    10.2060    23.5520     2.1470   -18.6240 
  146.7500    64.5780    10.7240     9.1510     9.8740    23.5740     2.1490   -18.3180 
  146.8750    65.5430    10.7930     9.1490     9.3690    23.6190     2.1570   -17.9630 
  147.0000    67.0080    10.8280     9.2240     8.9030    23.6340     2.1650   -17.4930 
  147.1250    68.2470    10.6620     9.2370     9.3400    23.6030     2.1680   -16.8500 
  147.2500    69.7510    10.2400     9.0540     9.7870    23.5890     2.1700   -16.1330 
  147.3750    71.8680     9.5760     8.6230     9.5360    23.6400     2.1790   -15.3460 
  147.5000    75.7800     8.7690     8.0000     8.7010    23.7430     2.1990   -14.5180 
  147.6250    80.9480     7.9830     7.3390     7.4460    23.7690     2.2240   -13.6660 
  147.7500    85.8360     7.3560     6.7870     7.0020    23.7190     2.2430   -12.8200 
  147.8750    89.6660     6.9450     6.4060     6.6640    23.6320     2.2530   -12.0090 
  148.0000    91.5580     6.7400     6.2020     6.5050    23.5690     2.2590   -11.2490 
  148.1250    91.4850     6.6980     6.1540     6.4140    23.5760     2.2680   -10.5660 
  148.2500    89.4010     6.7090     6.1740     6.4230    23.6370     2.2810    -9.9830 
  148.3750    89.3970     6.7190     6.2170     6.3800    23.7030     2.2900    -9.5620 
  148.5000    93.0510     6.7140     6.2610     6.2990    23.6820     2.2900    -9.2750 
  148.6250    95.2160     6.7160     6.2950     6.2810    23.5980     2.2790    -9.1190 
  148.7500    93.0810     6.7460     6.3170     6.2870    23.5570     2.2650    -8.9830 
  148.8750    89.0770     6.8040     6.3310     6.2410    23.5490     2.2550    -8.8570 
  149.0000    86.5900     6.8680     6.3350     6.0100    23.5570     2.2490    -8.7780 
  149.1250    85.3140     6.8760     6.3060     6.0630    23.5780     2.2460    -8.7760 
  149.2500    85.0380     6.7760     6.2040     6.3610    23.5930     2.2440    -8.7610 
  149.3750    87.0810     6.5450     5.9850     6.5990    23.5950     2.2480    -8.7210 
  149.5000    89.6520     6.2250     5.6600     6.4410    23.6500     2.2600    -8.6240 
  149.6250    91.1510     5.9640     5.3500     5.7450    23.8470     2.2820    -8.4370 
  149.7500    92.4820     5.9280     5.1990     5.3220    24.0760     2.3100    -8.2610 
  149.8750    94.5730     6.2090     5.2890     5.2230    24.1860     2.3370    -8.1400 
  150.0000    95.1630     6.7800     5.6400     6.0590    24.1510     2.3530    -8.1130 
  150.1250    92.7110     7.4820     6.2250     8.1310    24.0410     2.3500    -8.1550 
  150.2500    89.9840     8.0640     6.8470     9.6560    23.8860     2.3280    -8.2810 
  150.3750    88.4980     8.3750     7.3190     8.7920    23.6960     2.2950    -8.4570 
  150.5000    87.6840     8.3940     7.5250     7.6580    23.5710     2.2610    -8.6910 
  150.6250    85.5060     8.2000     7.4580     7.2820    23.5180     2.2390    -9.0110 
  150.7500    84.3460     7.9720     7.3010     7.3190    23.4950     2.2300    -9.3590 
  150.8750    86.7090     7.7880     7.1680     7.3980    23.4380     2.2300    -9.6760 
  151.0000    90.6470     7.6700     7.1050     7.3510    23.2530     2.2340    -9.9060 
  151.1250    90.1850     7.6260     7.0890     7.1230    23.0440     2.2370   -10.0440 
  151.2500    86.4490     7.6350     7.0680     7.0000    23.0390     2.2380   -10.1140 
  151.3750    84.7970     7.6920     7.0370     7.0190    23.3110     2.2370   -10.1240 
  151.5000    87.4500     7.7930     7.0210     7.1690    23.6950     2.2340   -10.1140 
  151.6250    88.3980     7.9710     7.0740     7.3660    23.9140     2.2290   -10.1020 
  151.7500    86.0140     8.2650     7.2320     7.5620    23.9220     2.2180   -10.0740 
  151.8750    83.1960     8.7260     7.5350     8.0410    23.8680     2.2000   -10.0200 
  152.0000    82.7340     9.3620     8.0210     8.6650    23.9030     2.1840    -9.9660 
  152.1250    83.4820    10.1160     8.7110     9.4150    24.0200     2.1900    -9.9350 
  152.2500    82.2520    10.8240     9.4760     9.8690    24.1760     2.2200    -9.9190 
  152.3750    80.4750    11.3470    10.1460    10.0560    24.2360     2.2650    -9.9550 
  152.5000    79.2250    11.5960    10.5530    10.1890    24.2020     2.3000    -9.9930 
  152.6250    79.1220    11.5410    10.5690    10.3820    24.1470     2.3000   -10.0490 
  152.7500    80.6970    11.3330    10.3380    10.8650    24.1320     2.2700   -10.0870 
  152.8750    82.4650    11.1000    10.0110    11.0370    24.1640     2.2260   -10.1210 
  153.0000    82.9990    10.9300     9.7150    10.7830    24.1910     2.1850   -10.1610 
  153.1250    82.7460    10.8700     9.5500    10.4620    24.1890     2.1540   -10.1950 
  153.2500    82.4200    10.8910     9.5220    10.4590    24.1660     2.1340   -10.2080 
  153.3750    81.2050    10.9700     9.6140    10.5720    24.1410     2.1220   -10.1710 
  153.5000    81.3190    11.0810     9.7800    10.7970    24.1300     2.1180   -10.1140 
  153.6250    83.3560    11.1900     9.9590    11.0720    24.1350     2.1230   -10.0000 
  153.7500    82.9320    11.2610    10.0970    10.9480    24.1340     2.1330    -9.8690 
  153.8750    80.0740    11.2630    10.1620    10.9050    24.1210     2.1440    -9.7480 
  154.0000    80.5820    11.1780    10.1250    10.7510    24.0820     2.1540    -9.6170 
  154.1250    85.0110    11.0010     9.9490    10.5400    24.0450     2.1600    -9.5070 
  154.2500    84.7120    10.7890     9.6810    10.5470    24.0090     2.1630    -9.4020 
  154.3750    81.2710    10.6050     9.3850    10.4640    23.9590     2.1660    -9.3290 
  154.5000    82.1350    10.5180     9.1420     9.8620    23.8540     2.1710    -9.2820 
  154.6250    87.0490    10.5890     9.0630     9.1130    23.7020     2.1750    -9.2680 
  154.7500    87.6810    10.7460     9.1510     9.1040    23.4910     2.1760    -9.2980 
  154.8750    81.7270    10.8770     9.3490     9.7660    23.1640     2.1740    -9.3340 
  155.0000    75.7410    10.8620     9.5400    10.7920    22.8490     2.1710    -9.3820 
  155.1250    77.5380    10.6410     9.5840    11.5110    22.6860     2.1770    -9.4140 
  155.2500    83.3210    10.3750     9.4930    11.2870    22.6780     2.1900    -9.4230 
  155.3750    86.1430    10.2580     9.3720    10.0900    22.8270     2.2070    -9.3610 
  155.5000    83.6980    10.4310     9.3740     9.0520    23.1570     2.2180    -9.2210 
  155.6250    81.0160    10.9050     9.6480     9.3730    23.6830     2.2130    -9.0370 
  155.7500    80.3180    11.4030    10.0990    10.4090    24.1890     2.1970    -8.8320 
  155.8750    77.5860    11.6400    10.5290    11.5790    24.5380     2.1780    -8.6370 
  156.0000    72.7210    11.4090    10.6860    12.3890    24.6930     2.1660    -8.4360 
  156.1250    72.7700    10.6420    10.3360    11.5930    24.9400     2.1690    -8.2410 
