~V
VERS. 2.00: Ver 2.00
~W
STRT.M 57.0000:
STOP.M 257.0000:
STEP.M 0.1250:
NULL. -999.2500:
UWI. F10004:
~C
DEPT.M :
GR.API :
RML.OHMM :
RI. :
RXO.OHMM :
CALI.CM :
DEN.GM/CC :
SP.MV :
~A
# ...
  180.7500    62.7840     9.1960     8.9730     8.2660    24.2990     2.4450    -0.5340 
  180.8750    52.0460     8.4490     8.2220     7.6030    24.1520     2.4280    -0.4030 
  181.0000    46.4560     8.0830     7.7790     7.2150    23.9290     2.4280    -0.2660 
  181.1250    46.6480     8.0350     7.6220     6.9150    23.7420     2.4370    -0.0910 
  181.2500    49.9320     8.1330     7.6210     6.7360    23.5970     2.4460     0.1050 
  181.3750    54.4840     8.2730     7.6970     6.7420    23.5380     2.4520     0.2780 
  181.5000    58.1590     8.3740     7.7740     6.6720    23.5980     2.4540     0.4150 
  181.6250    61.1540     8.3840     7.7910     6.7700    24.3830     2.4520     0.4930 
  181.7500    66.7890     8.3220     7.7440     6.9680    25.3990     2.4450     0.5300 
  181.8750    75.8730     8.2180     7.6430     7.1340    25.1600     2.4360     0.5360 
  182.0000    84.1090     8.1120     7.5190     7.3120    24.4520     2.4280     0.5050 
  182.1250    85.5750     8.0750     7.4230     7.5640    24.0640     2.4260     0.4230 
  182.2500    83.2760     8.1750     7.4090     7.6720    24.1490     2.4300     0.3140 
  182.3750    81.2500     8.4590     7.5240     7.8490    24.2050     2.4340     0.2050 
  182.5000    81.3300     8.9110     7.7730     8.5740    24.2840     2.4290     0.1120 
  182.6250    83.0640     9.3970     8.0880    10.3160    24.3980     2.4040     0.0560 
  182.7500    85.2820     9.7200     8.3330    12.0750    24.4960     2.3640     0.0250 
  182.8750    86.6980     9.7880     8.4300    11.4670    24.5590     2.3170     0.0130 
  183.0000    87.2780     9.6670     8.3900     9.5170    24.5650     2.2780     0.0060 
  183.1250    87.7250     9.5610     8.3290     8.7130    24.4790     2.2710     0.0070 
  183.2500    86.2060     9.6600     8.3940     9.8460    24.3960     2.2980     0.0080 
  183.3750    82.1630    10.0250     8.6620    13.1620    24.3750     2.3490     0.0090 
  183.5000    79.6230    10.6190     9.1480    17.4540    24.3940     2.4030    -0.0020 
  183.6250    82.0800    11.3680     9.8370    15.4490    24.4080     2.4330    -0.0330 
  183.7500    83.9460    12.1540    10.6090    13.4700    24.4650     2.4330    -0.0740 
  183.8750    81.4030    12.8890    11.3560    13.6000    24.5350     2.4100    -0.1230 
  184.0000    77.5870    13.4350    11.9400    16.9350    24.5620     2.3780    -0.1690 
  184.1250    80.2730    13.5390    12.1460    19.5470    24.5750     2.3530    -0.2250 
  184.2500    86.4430    13.1660    11.9420    18.9990    24.5720     2.3380    -0.2990 
  184.3750    90.4780    12.4070    11.3860    13.2990    24.5490     2.3350    -0.3950 
  184.5000    90.9600    11.5120    10.6530     9.6780    24.5060     2.3420    -0.5010 
  184.6250    90.4880    10.8240     9.9800     9.4450    24.4400     2.3560    -0.5960 
  184.7500    89.9550    10.4570     9.5010    11.0420    24.4020     2.3690    -0.6700 
  184.8750    89.1890    10.3250     9.2150    12.9710    24.4270     2.3760    -0.7210 
  185.0000    89.3730    10.2350     9.0400    11.8200    24.4860     2.3750    -0.7660 
  185.1250    90.2440    10.0050     8.8810     9.9470    24.5190     2.3660    -0.7910 
  185.2500    89.3640     9.6800     8.7190     9.0030    24.5280     2.3590    -0.7970 
  185.3750    87.1470     9.4330     8.6340     9.0940    24.5240     2.3620    -0.7950 
  185.5000    85.1360     9.4570     8.7370     9.7460    24.4890     2.3800    -0.7800 
  185.6250    83.5980     9.8950     9.1460    10.5130    24.3570     2.4090    -0.7760 
  185.7500    82.8490    10.5820     9.7750    11.0240    24.1500     2.4340    -0.7930 
  185.8750    81.9460    11.3060    10.4780    12.3770    23.9870     2.4440    -0.8060 
  186.0000    80.2850    11.8340    11.0510    14.0720    23.9700     2.4370    -0.8190 
  186.1250    79.3570    11.9120    11.2290    13.2500    24.0730     2.4170    -0.8330 
  186.2500    80.6790    11.5750    11.0000    11.6800    24.1480     2.4000    -0.8440 
  186.3750    83.9270    10.9390    10.4500    10.6550    24.1310     2.3900    -0.8460 
  186.5000    86.2690    10.1830     9.7470    10.1180    24.0670     2.3900    -0.8450 
  186.6250    86.2870     9.5110     9.0870     9.0320    24.0930     2.3930    -0.8370 
  186.7500    85.7270     9.0290     8.5860     8.4340    24.2190     2.3960    -0.8310 
  186.8750    85.3690     8.7630     8.2830     8.2510    24.3470     2.3960    -0.8440 
  187.0000    85.2870     8.6890     8.1660     8.3710    24.4430     2.3940    -0.8780 
  187.1250    87.0350     8.7860     8.2160     8.4820    24.4380     2.3930    -0.9240 
  187.2500    90.7870     8.9850     8.3600     8.3960    24.2920     2.3940    -0.9800 
  187.3750    93.0560     9.2370     8.5540     8.3780    24.0580     2.4000    -1.0400 
  187.5000    91.4930     9.4890     8.7540     8.6940    23.9110     2.4080    -1.0940 
  187.6250    87.6040     9.6740     8.9130     9.1390    23.9830     2.4140    -1.1480 
  187.7500    84.5410     9.7600     9.0000     9.3430    24.1820     2.4140    -1.2080 
  187.8750    82.2420     9.7380     8.9910     9.2060    24.3560     2.4070    -1.2630 
  188.0000    81.2370     9.6140     8.8770     9.0050    24.4620     2.3980    -1.3100 
  188.1250    82.9810     9.3940     8.6480     8.8080    24.5320     2.3930    -1.3450 
  188.2500    85.2590     9.1090     8.3500     8.6880    24.5740     2.3960    -1.3720 
  188.3750    87.1150     8.7970     8.0360     8.6870    24.5840     2.4070    -1.4030 
  188.5000    88.6110     8.5520     7.7870     8.8280    24.5720     2.4200    -1.4520 
  188.6250    89.2710     8.6020     7.7630     8.8440    24.5360     2.4280    -1.5180 
  188.7500    87.3530     9.1110     8.0760     9.0470    24.5030     2.4300    -1.5820 
  188.8750    82.3320    10.1850     8.8220     9.8870    24.4610     2.4290    -1.6490 
  189.0000    76.0400    11.7710    10.0140    12.7090    24.3960     2.4250    -1.6860 
  189.1250    72.0210    13.5710    11.5230    18.0570    24.3170     2.4160    -1.7160 
  189.2500    72.1650    15.0400    12.9220    20.7870    24.2650     2.4020    -1.7420 
  189.3750    74.1980    15.7900    13.8370    18.2290    24.2520     2.3810    -1.7600 
  189.5000    75.7290    15.7280    14.0810    14.4770    24.2770     2.3580    -1.7620 
  189.6250    76.3490    15.1240    13.7550    14.1320    24.3020     2.3430    -1.7410 
  189.7500    75.8560    14.5920    13.3540    15.6670    24.3260     2.3350    -1.6990 
  189.8750    74.3500    14.4890    13.1970    16.8630    24.3410     2.3260    -1.6570 
  190.0000    71.8940    14.9510    13.4520    16.2030    24.3370     2.3110    -1.6110 
  190.1250    69.9400    15.9560    14.1880    17.0190    24.3120     2.2990    -1.5770 
  190.2500    68.2020    17.1730    15.1930    20.2660    24.2940     2.3110    -1.5670 
  190.3750    65.9950    18.3740    16.2980    21.9730    24.2580     2.3550    -1.5790 
  190.5000    63.8450    19.4100    17.3480    21.5930    24.1760     2.4130    -1.6140 
  190.6250    64.2230    20.1610    18.1910    20.4420    24.0820     2.4420    -1.6630 
  190.7500    67.9290    20.6060    18.7510    19.4180    24.0650     2.4140    -1.7310 
  190.8750    72.7100    20.6600    18.9360    18.0560    24.0770     2.3310    -1.7890 
  191.0000    74.5960    20.2340    18.6720    16.3490    24.0590     2.2250    -1.8420 
  191.1250    71.7260    19.2440    17.8900    16.1960    24.1000     2.1450    -1.8850 
  191.2500    69.0930    17.9530    16.8010    16.3790    24.2720     2.1130    -1.9220 
  191.3750    69.5870    16.6380    15.6230    16.1880    24.5030     2.1270    -1.9590 
  191.5000    72.6590    15.5600    14.5760    15.4250    24.6220     2.1720    -1.9960 
  191.6250    74.0990    14.9050    13.8380    15.3110    24.6280     2.2300    -2.0400 
  191.7500    73.2080    14.5290    13.3370    15.5040    24.5920     2.2880    -2.0800 
  191.8750    72.3530    14.2210    12.9340    15.4370    24.5530     2.3400    -2.1430 
