~V
VERS. 2.00: Ver 2.00
~W
STRT.M 50.0000:
STOP.M 244.0000:
STEP.M 0.1250:
NULL. -999.2500:
UWI. F10003:
~C
DEPT.M :
GR.API :
RML.OHMM :
RI. :
RXO.OHMM :
CALI.CM :
DEN.GM/CC :
SP.MV :
~A
# ...
   95.0000    82.5950     9.0950     8.5610     9.9650    24.8940     2.2930   -10.9690 
   95.1250    82.3480     9.1640     8.6890     9.9970    25.0080     2.2670   -10.9010 
   95.2500    81.2110     9.1110     8.6770     9.6620    25.1470     2.2420   -10.7850 
   95.3750    80.2550     9.1120     8.6400     9.4200    25.2320     2.2220   -10.6320 
   95.5000    77.6530     9.3840     8.7600     9.7040    25.2040     2.2140   -10.4480 
   95.6250    72.9490    10.1250     9.2380    10.5840    25.0500     2.2200   -10.2750 
   95.7500    71.0310    11.1550    10.0010    12.0070    24.8820     2.2340   -10.0870 
   95.8750    71.9900    12.1610    10.8390    13.8770    24.7620     2.2500    -9.8620 
   96.0000    71.2830    12.7450    11.4320    15.8410    24.6950     2.2680    -9.6340 
   96.1250    67.7450    12.4680    11.3580    16.7960    24.6610     2.2870    -9.4580 
   96.2500    67.3340    11.4880    10.6470    14.8190    24.6230     2.3040    -9.3490 
   96.3750    71.9150    10.1550     9.5450    11.5430    24.7340     2.3150    -9.2900 
   96.5000    77.6670     8.9150     8.4220     9.1200    24.8420     2.3180    -9.2830 
   96.6250    79.5470     8.1670     7.6330     8.1680    24.8760     2.3150    -9.2960 
   96.7500    79.3470     7.8760     7.2110     8.0190    24.8580     2.3120    -9.3340 
   96.8750    79.2430     7.8810     7.0700     8.1900    24.8440     2.3130    -9.3990 
   97.0000    80.1700     7.9560     7.0610     8.2500    24.8240     2.3180    -9.4640 
   97.1250    82.2580     7.8780     7.0090     8.2770    24.8320     2.3260    -9.4710 
   97.2500    84.6500     7.6130     6.8360     8.1100    24.8320     2.3370    -9.4260 
   97.3750    86.4710     7.2410     6.5670     7.7330    24.8330     2.3520    -9.3630 
   97.5000    87.7540     6.9010     6.2940     7.2440    24.8230     2.3680    -9.3030 
   97.6250    88.7220     6.7690     6.1470     6.9150    24.8430     2.3790    -9.3140 
   97.7500    89.6810     6.8730     6.1750     6.7300    24.8650     2.3800    -9.3560 
   97.8750    92.5420     7.1760     6.3690     6.9790    24.8770     2.3730    -9.3760 
   98.0000    96.1650     7.5700     6.6600     7.5130    24.8850     2.3600    -9.3800 
   98.1250    94.3010     7.8820     6.9200     8.0360    24.9020     2.3470    -9.4000 
   98.2500    86.4210     7.9880     7.0320     8.2460    24.9180     2.3380    -9.4390 
   98.3750    78.9910     7.8480     6.9460     7.9810    24.9330     2.3360    -9.5110 
   98.5000    79.2070     7.5080     6.6830     7.5820    24.9510     2.3390    -9.6090 
   98.6250    84.1690     7.0840     6.3220     7.3220    24.9750     2.3490    -9.6340 
   98.7500    86.1840     6.7450     5.9970     6.9760    24.9640     2.3610    -9.5740 
   98.8750    83.8520     6.6200     5.8110     6.9380    24.9280     2.3720    -9.4550 
   99.0000    82.5250     6.8100     5.8500     7.2740    24.8740     2.3800    -9.3080 
   99.1250    86.7800     7.4330     6.2260     8.0360    24.8370     2.3870    -9.1590 
   99.2500    89.8120     8.4000     6.9060     9.4210    24.7940     2.3960    -9.0130 
   99.3750    86.8730     9.5770     7.8260    11.4400    24.7330     2.4080    -8.8680 
   99.5000    80.1370    10.7270     8.8330    13.6330    24.6850     2.4250    -8.7190 
   99.6250    74.9180    11.4890     9.6500    14.7250    24.6910     2.4450    -8.5930 
   99.7500    71.7900    11.7120    10.0810    14.4490    24.6740     2.4620    -8.5200 
   99.8750    70.1990    11.3990    10.0500    13.6430    24.6240     2.4680    -8.4870 
  100.0000    70.6600    10.7220     9.6380    12.2980    24.6340     2.4560    -8.4850 
  100.1250    72.5840     9.9810     9.0530    11.4080    24.7840     2.4240    -8.4890 
  100.2500    72.8400     9.4670     8.5670    11.0910    24.8850     2.3860    -8.4960 
  100.3750    71.2050     9.3260     8.3310    10.9550    24.9340     2.3510    -8.4660 
  100.5000    70.9850     9.5930     8.4130    10.7960    24.9720     2.3260    -8.4150 
  100.6250    72.8400    10.2110     8.8240    11.1740    25.0850     2.3090    -8.3920 
  100.7500    72.7060    10.8940     9.3700    11.6730    25.2860     2.2890    -8.3440 
  100.8750    69.8220    11.3900     9.8600    12.0550    25.5800     2.2630    -8.2770 
  101.0000    67.8390    11.4970    10.1090    12.2500    25.7730     2.2350    -8.2230 
  101.1250    69.9010    11.0670     9.9470    11.7320    25.5370     2.2190    -8.2230 
  101.2500    74.6490    10.3000     9.4740    10.7620    25.1330     2.2220    -8.2500 
  101.3750    80.0720     9.4210     8.8410     9.9480    24.8400     2.2460    -8.3040 
  101.5000    82.9140     8.6510     8.2230     9.3730    24.7380     2.2840    -8.3310 
  101.6250    81.3380     8.1830     7.7880     8.7760    24.7170     2.3230    -8.2840 
  101.7500    78.5250     7.9890     7.5550     8.2890    24.7150     2.3480    -8.2380 
  101.8750    76.1800     7.9870     7.4910     8.0830    24.7250     2.3550    -8.2140 
  102.0000    75.4290     8.0580     7.5160     8.0710    24.7470     2.3460    -8.1880 
  102.1250    78.0470     8.0700     7.5260     8.1400    24.7400     2.3320    -8.1400 
  102.2500    82.7480     7.9610     7.4460     8.1240    24.7200     2.3240    -8.0650 
  102.3750    86.2160     7.7290     7.2500     7.7510    24.6850     2.3270    -7.9530 
  102.5000    87.8100     7.4080     6.9520     7.1830    24.6320     2.3400    -7.8010 
  102.6250    87.8350     7.0460     6.5820     6.6340    24.5800     2.3610    -7.6320 
  102.7500    85.5300     6.6740     6.1880     6.3030    24.5650     2.3840    -7.4460 
  102.8750    80.8480     6.2890     5.7840     6.0890    24.5530     2.4050    -7.2360 
  103.0000    76.8870     5.8960     5.3880     5.9470    24.5330     2.4180    -6.9810 
  103.1250    77.9780     5.5590     5.0520     5.9020    24.4530     2.4180    -6.6560 
  103.2500    81.2680     5.4040     4.8500     6.0250    24.3260     2.4070    -6.2440 
  103.3750    83.4590     5.6020     4.8900     6.5490    24.2090     2.3940    -5.7350 
  103.5000    83.9400     6.3560     5.3090     7.7570    24.1470     2.3850    -5.1470 
  103.6250    81.6150     8.0020     6.3990    10.2790    24.1720     2.3810    -4.4220 
  103.7500    75.2770    10.5120     8.2480    14.1940    24.3440     2.3740    -3.5470 
  103.8750    67.2700    13.7940    10.9240    19.1110    24.7480     2.3490    -2.5570 
  104.0000    60.5960    17.5500    14.3140    24.0710    25.4810     2.2940    -1.5310 
  104.1250    54.7950    21.2210    18.0400    28.8900    26.6240     2.2080    -0.5400 
  104.2500    49.3050    24.2520    21.4320    32.1450    27.7720     2.1190     0.3650 
  104.3750    47.2800    26.3450    24.0080    33.0650    28.0460     2.0480     1.1610 
  104.5000    49.6770    27.4890    25.5720    33.3630    27.2750     2.0120     1.7980 
  104.6250    53.5600    27.8270    26.1180    34.2030    26.5370     2.0180     2.1540 
  104.7500    55.7500    27.7850    26.0880    34.3690    26.0820     2.0480     2.2600 
  104.8750    55.4040    27.5770    25.7310    33.6120    25.5920     2.0890     2.1820 
  105.0000    53.3670    27.3470    25.2430    32.4830    25.1990     2.1290     1.9890 
  105.1250    52.2180    27.2180    24.7990    31.8320    25.3700     2.1590     1.7550 
  105.2500    53.6640    27.2460    24.5130    31.4070    25.8910     2.1770     1.4870 
  105.3750    56.1810    27.4280    24.4330    31.8250    26.4570     2.1820     1.1550 
  105.5000    56.8340    27.6670    24.5300    32.6430    26.8490     2.1770     0.7890 
  105.6250    54.9750    27.7390    24.6830    33.3660    27.0300     2.1710     0.4190 
  105.7500    54.0850    27.4600    24.7110    33.4670    27.0550     2.1720     0.0370 
  105.8750    54.4450    26.7510    24.5010    32.4790    27.0550     2.1790    -0.3680 
  106.0000    54.3540    25.6940    24.0400    30.8100    27.0950     2.1870    -0.8130 
  106.1250    54.1200    24.5410    23.4360    28.8830    27.1980     2.1910    -1.3220 
