~V
VERS. 2.00: Ver 2.00
~W
STRT.M 55.0000:
STOP.M 181.0000:
STEP.M 0.1250:
NULL. -999.2500:
UWI. F10008:
~C
DEPT.M :
SP.MV :
GR.API :
RML.OHMM :
RI. :
RXO.OHMM :
CALI.CM :
DEN.GM/CC :
~A
# ...
  111.2500    -5.1090    53.6430    35.3440    34.2970    38.3520    24.2240     2.3500 
  111.3750    -5.2150    53.8090    34.3960    33.2960    33.7510    24.0270     2.3480 
  111.5000    -5.2600    51.7320    33.4860    32.2910    31.1110    23.9780     2.3530 
  111.6250    -5.2730    48.5230    33.0370    31.6760    32.6730    24.1080     2.3650 
  111.7500    -5.2940    47.7580    33.1390    31.5860    35.9900    24.3280     2.3790 
  111.8750    -5.2890    49.1380    33.7650    32.0450    37.9340    24.4890     2.3920 
  112.0000    -5.3270    50.0840    34.7570    32.9430    39.3010    24.5590     2.4040 
  112.1250    -5.3240    48.7970    35.7900    34.0030    41.5360    24.5730     2.4190 
  112.2500    -5.2300    47.5680    36.5010    34.8300    47.2800    24.5850     2.4390 
  112.3750    -5.1610    47.7220    36.7710    35.2340    46.3020    24.5710     2.4610 
  112.5000    -5.1730    48.7900    36.6750    35.2300    42.7450    24.5410     2.4790 
  112.6250    -5.2250    49.8890    36.3200    34.8940    38.0100    24.5400     2.4870 
  112.7500    -5.2870    49.5420    35.8520    34.3720    37.2150    24.5680     2.4840 
  112.8750    -5.3140    47.8000    35.3570    33.7500    40.4660    24.7250     2.4770 
  113.0000    -5.2330    47.3690    34.9070    33.1110    44.1610    25.0010     2.4670 
  113.1250    -5.0800    49.5270    34.5980    32.5600    43.1810    25.3250     2.4520 
  113.2500    -4.9110    50.4270    34.4710    32.1910    37.5510    24.8210     2.4350 
  113.3750    -4.7110    48.9260    34.5130    32.0690    35.3140    24.5430     2.4200 
  113.5000    -4.5150    47.7040    34.6140    32.1370    34.9850    24.3770     2.4170 
  113.6250    -4.3420    48.8900    34.5470    32.1730    38.5480    24.3770     2.4330 
  113.7500    -4.1930    49.9830    34.0910    31.9140    37.7150    24.3340     2.4590 
  113.8750    -4.0730    50.4730    33.1380    31.2170    36.0450    24.3380     2.4800 
  114.0000    -3.9840    52.0580    31.8160    30.1270    34.4810    24.3900     2.4860 
  114.1250    -3.9310    54.8720    30.5030    28.9110    33.7390    24.4890     2.4770 
  114.2500    -3.8970    55.9320    29.5770    27.9240    32.3670    24.4860     2.4670 
  114.3750    -3.8280    54.3160    29.2320    27.3480    30.6800    24.4210     2.4680 
  114.5000    -3.7020    51.4020    29.4790    27.2190    32.3520    24.3890     2.4820 
  114.6250    -3.5560    50.4690    30.1430    27.4690    35.5030    24.3850     2.5060 
  114.7500    -3.3400    50.8630    30.8720    27.8850    34.7100    24.3080     2.5300 
  114.8750    -3.1280    50.5190    31.5310    28.3940    34.5570    24.2260     2.5500 
  115.0000    -3.0440    49.0780    32.1130    28.9740    37.3080    24.2270     2.5600 
  115.1250    -3.0530    49.0330    32.6640    29.5860    38.0880    24.3660     2.5540 
  115.2500    -2.9870    49.8000    33.1970    30.1220    37.0250    24.5060     2.5360 
  115.3750    -2.8260    49.1020    33.5840    30.4450    39.1440    24.5680     2.5140 
  115.5000    -2.6080    46.4700    33.5870    30.4050    41.7420    24.5880     2.5010 
  115.6250    -2.4440    44.1180    32.9890    29.9070    37.7260    24.5830     2.5030 
  115.7500    -2.4270    43.4060    32.0960    29.2150    33.5400    24.5980     2.5110 
  115.8750    -2.4250    44.3550    31.2570    28.5920    31.7350    24.6160     2.5130 
  116.0000    -2.3130    46.1720    30.7640    28.2380    31.5450    24.6150     2.4980 
  116.1250    -2.1460    47.0750    30.8380    28.2570    31.5630    24.5560     2.4690 
  116.2500    -2.0440    45.9300    31.2610    28.4320    32.5110    24.4880     2.4440 
  116.3750    -2.0220    45.1390    31.6700    28.4660    33.2850    24.4830     2.4390 
  116.5000    -2.1180    46.5090    31.6920    28.1040    32.5340    24.5280     2.4570 
  116.6250    -2.2090    49.3040    31.1470    27.2930    32.8640    24.5580     2.4890 
  116.7500    -2.2050    51.4860    30.3760    26.3800    30.9420    24.5600     2.5150 
  116.8750    -2.1620    52.6780    29.7240    25.6520    29.0980    24.5620     2.5260 
  117.0000    -2.1310    53.5560    29.4330    25.2750    28.6040    24.5380     2.5270 
  117.1250    -2.1180    52.5490    29.5610    25.3050    29.6870    24.4750     2.5280 
  117.2500    -2.0980    51.5310    29.8050    25.5210    30.5280    24.4250     2.5330 
  117.3750    -2.1280    53.1610    29.9310    25.7360    29.6110    24.4800     2.5390 
  117.5000    -2.1310    55.9100    29.8590    25.8290    27.9980    24.5330     2.5390 
  117.6250    -2.0370    54.7830    29.6740    25.7820    27.2510    24.5430     2.5290 
  117.7500    -1.9570    50.3160    29.5760    25.7120    28.6080    24.5520     2.5170 
  117.8750    -1.9520    48.1940    29.6190    25.6760    29.5380    24.5620     2.5090 
  118.0000    -1.9770    49.9740    29.6860    25.6500    27.8250    24.4360     2.5090 
  118.1250    -2.0220    51.6430    29.5300    25.5100    27.6430    24.4020     2.5130 
  118.2500    -2.1620    52.7150    29.0690    25.1720    28.7900    24.4470     2.5170 
  118.3750    -2.2760    53.7400    28.4040    24.6530    28.7770    24.4540     2.5150 
  118.5000    -2.3190    54.6510    27.7850    24.0910    27.0800    24.2730     2.5060 
  118.6250    -2.3710    53.9500    27.5910    23.7400    26.4700    24.1050     2.4920 
  118.7500    -2.3630    52.6430    27.9320    23.7380    25.8960    24.0120     2.4820 
  118.8750    -2.3190    52.6400    28.6780    24.0930    25.3700    24.0430     2.4810 
  119.0000    -2.3730    53.3500    29.4600    24.6360    26.1450    24.1610     2.4880 
  119.1250    -2.4450    52.5730    29.6080    24.9320    29.0250    24.3440     2.4960 
  119.2500    -2.4170    50.9610    28.7920    24.6090    31.6830    24.4970     2.4920 
  119.3750    -2.3680    50.1140    27.0700    23.5640    31.0390    24.5560     2.4770 
  119.5000    -2.3060    50.6940    24.8500    22.0080    26.2500    24.5640     2.4580 
  119.6250    -2.2090    50.6580    22.7070    20.3720    22.2500    24.5610     2.4510 
  119.7500    -2.2020    50.0730    21.0240    19.0400    20.5420    24.5460     2.4580 
  119.8750    -2.2300    49.2520    19.9560    18.1600    20.5580    24.5240     2.4680 
  120.0000    -2.1380    47.8130    19.5480    17.7550    20.7640    24.5260     2.4700 
  120.1250    -1.9970    46.6180    19.7970    17.8250    19.9840    24.5340     2.4580 
  120.2500    -1.8590    45.8470    20.3200    18.1390    20.0640    24.5010     2.4390 
  120.3750    -1.6970    45.9400    20.7390    18.4720    20.3840    24.4750     2.4230 
  120.5000    -1.5270    46.3820    20.6900    18.5670    20.6220    24.4300     2.4130 
  120.6250    -1.3780    46.6690    19.8750    18.1530    21.0880    24.4640     2.4070 
  120.7500    -1.1810    48.6460    18.5880    17.3370    20.6510    24.4770     2.4010 
  120.8750    -0.9550    52.6420    17.2400    16.3700    18.1650    24.4350     2.3940 
  121.0000    -0.7550    56.6270    16.2620    15.5760    16.5330    24.4240     2.3930 
  121.1250    -0.5690    57.3800    16.0670    15.2970    16.3610    24.4430     2.4040 
  121.2500    -0.3720    54.3170    16.5700    15.5430    17.2130    24.4900     2.4250 
  121.3750    -0.2110    50.9800    17.6000    16.2380    19.1850    24.4790     2.4530 
  121.5000    -0.2110    50.3440    18.8700    17.1960    22.6320    24.3830     2.4790 
  121.6250    -0.3610    52.2100    19.9840    18.1230    22.0910    24.3220     2.4970 
  121.7500    -0.4970    54.1770    20.6540    18.7530    21.3160    24.2960     2.5040 
  121.8750    -0.6380    55.9660    20.7450    18.9530    19.6890    24.2280     2.5030 
  122.0000    -0.7950    59.0380    20.2820    18.7130    19.6050    24.1110     2.4990 
  122.1250    -0.9970    60.9340    19.3680    18.0850    20.0180    24.0430     2.4970 
  122.2500    -1.3490    60.0140    18.2910    17.2960    19.2320    24.1270     2.4970 
  122.3750    -1.7520    58.3360    17.2750    16.5180    17.0940    24.1910     2.4960 
