~V
VERS. 2.00: Ver 2.00
~W
STRT.M 55.0000:
STOP.M 297.0000:
STEP.M 0.1250:
NULL. -999.2500:
UWI. F10076:
~C
DEPT.M :
DEN.GM/CC :
SP.MV :
GR.API :
CALI.CM :
RXO.OHMM :
RI. :
RML.OHMM :
~A
# ...
  257.5000     2.2090   -19.9290    64.1330    25.3300   173.4150   145.2360   158.6590 
  257.6250     2.2600   -19.9740    65.2980    25.2720   153.7130   141.4320   154.9540 
  257.7500     2.2950   -20.0480    67.2340    25.2120   122.2410   140.1990   153.1180 
  257.8750     2.2960   -20.1030    67.8540    25.1840   107.4850   144.1970   156.6340 
  258.0000     2.2630   -20.1120    65.8910    25.1050   123.0330   154.8500   167.5890 
  258.1250     2.2070   -20.1250    61.5390    24.8870   174.4470   172.8150   186.8140 
  258.2500     2.1580   -20.1330    57.5010    24.6580   202.7400   193.5600   209.3740 
  258.3750     2.1300   -20.1360    55.8570    24.7020   177.6290   210.7350   229.0870 
  258.5000     2.1250   -20.0870    58.7040    24.9470   138.2710   217.6710   239.4010 
  258.6250     2.1300   -19.9970    63.0600    25.0860   147.8560   210.8570   235.4460 
  258.7500     2.1320   -19.8710    64.6550    25.2570   179.6560   197.5270   223.0490 
  258.8750     2.1300   -19.7170    63.9940    25.5600   188.2330   183.3090   208.1590 
  259.0000     2.1250   -19.5570    63.4770    25.8090   169.2750   171.2320   195.1520 
  259.1250     2.1200   -19.3640    64.9840    25.7730   149.6790   161.8940   185.8600 
  259.2500     2.1190   -19.1360    66.6130    25.4990   148.3680   153.7520   178.6880 
  259.3750     2.1260   -18.8980    67.0960    25.2340   152.5870   145.9630   172.3610 
  259.5000     2.1350   -18.6170    65.6620    25.1250   144.7600   137.9250   165.9040 
  259.6250     2.1500   -18.3560    63.9200    24.0870   113.1010   128.1160   157.7700 
  259.7500     2.1920   -18.1480    63.2840    22.6310    94.5160   115.9340   146.9410 
  259.8750     2.2720   -17.9290    63.3960    23.0410   104.3110   102.5370   133.5980 
  260.0000     2.3700   -17.6780    63.4430    24.2860   128.2140    89.8680   119.2580 
  260.1250     2.4310   -17.4190    63.1310    25.1110   127.8730    78.6080   105.4100 
  260.2500     2.4350   -17.2540    64.5630    25.0260   102.8310    67.4450    91.7740 
  260.3750     2.3920   -17.0800    67.8290    24.7780    87.2600    55.9970    77.7280 
  260.5000     2.3190   -16.9210    71.1420    24.3740    90.1300    45.2570    63.7400 
  260.6250     2.2360   -16.7720    72.7850    24.1950    81.6340    37.2860    52.1050 
  260.7500     2.1650   -16.6230    74.0970    24.1260    50.8750    32.7370    44.5050 
  260.8750     2.1210   -16.5140    76.7630    24.1130    30.6930    32.0730    42.1330 
  261.0000     2.0970   -16.4150    78.5610    24.1040    36.2400    35.8180    46.1490 
  261.1250     2.0770   -16.3620    78.0620    24.0400    74.0050    45.9580    59.6320 
  261.2500     2.0590   -16.2630    77.0120    23.8930   134.4710    63.1420    82.5890 
  261.3750     2.0560   -16.1630    75.0470    23.7640   189.5390    87.9280   113.5110 
  261.5000     2.0730   -16.0920    70.7500    23.8150   210.6390   116.9610   145.8530 
  261.6250     2.1020   -16.0020    66.2990    24.1310   190.4360   138.1840   166.5390 
  261.7500     2.1270   -15.9330    65.8970    24.3650   161.6350   143.7660   171.0420 
  261.8750     2.1460   -15.8230    68.7830    24.5030   154.5010   135.2240   161.6390 
  262.0000     2.1590   -15.7260    71.9100    24.5550   169.7800   117.7300   143.0270 
  262.1250     2.1740   -15.5780    73.1800    24.3640   165.7650    96.5220   119.5330 
  262.2500     2.2040   -15.4600    72.7080    24.0620   128.3410    77.4940    96.9440 
  262.3750     2.2570   -15.3380    72.9270    23.7770    81.3010    63.4250    78.8970 
  262.5000     2.3190   -15.1950    76.6800    23.6110    51.1100    54.9200    67.1420 
  262.6250     2.3560   -15.0610    81.1770    23.5990    43.3700    51.6620    62.2220 
  262.7500     2.3520   -14.9150    80.3680    23.6670    48.3670    50.8050    60.8890 
  262.8750     2.3200   -14.8000    74.1410    23.7320    61.4340    50.0000    60.2670 
  263.0000     2.2830   -14.6950    69.0840    23.7760    71.9110    47.2470    57.7550 
  263.1250     2.2460   -14.6250    71.9450    23.7310    64.3790    41.8670    51.9950 
  263.2500     2.2090   -14.5670    78.2770    23.8440    46.1640    35.8800    44.9860 
  263.3750     2.1890   -14.5180    84.1580    24.1550    30.6530    30.9210    38.7570 
  263.5000     2.2070   -14.5180    89.8800    24.3980    24.5080    27.8590    34.6100 
  263.6250     2.2650   -14.5130    96.0720    24.0890    26.2640    27.1680    33.2900 
  263.7500     2.3200   -14.5610    99.1630    23.6100    28.9760    28.2280    34.1380 
  263.8750     2.3430   -14.6260    96.9950    23.4230    29.9660    30.6950    36.8120 
  264.0000     2.3350   -14.7190    92.4860    23.6570    33.8150    34.1960    40.9250 
  264.1250     2.3190   -14.8150    88.0040    24.0500    43.8100    38.2750    45.8820 
  264.2500     2.3190   -14.9020    82.8970    24.3290    51.1610    42.1740    50.5380 
  264.3750     2.3330   -14.9890    79.7680    24.4740    50.5520    45.3020    54.0470 
  264.5000     2.3510   -15.1100    79.4710    24.5030    47.8090    47.2140    55.9280 
  264.6250     2.3590   -15.2410    79.8720    24.4430    46.4380    47.5470    55.8750 
  264.7500     2.3630   -15.3020    78.4330    24.3770    43.6410    46.8820    54.6270 
  264.8750     2.3720   -15.3400    77.9210    24.3230    39.5700    45.8120    52.8480 
  265.0000     2.3900   -15.3660    81.1300    24.2900    37.0010    44.8230    51.1160 
  265.1250     2.4090   -15.3640    84.2590    24.2810    36.1190    44.2210    49.8280 
  265.2500     2.4190   -15.3900    83.9380    24.3080    34.2040    44.0610    49.0640 
  265.3750     2.4270   -15.4210    81.3590    24.2820    33.2360    44.3850    48.8900 
  265.5000     2.4450   -15.4030    78.1320    24.1830    34.1880    45.1590    49.2970 
  265.6250     2.4690   -15.3080    75.1220    23.8970    36.3990    46.3780    50.3240 
  265.7500     2.4770   -15.2200    73.6560    23.5400    36.7730    48.0120    51.8920 
  265.8750     2.4600   -15.0670    74.0700    23.2980    36.9530    50.1890    54.1130 
  266.0000     2.4250   -14.8290    75.2930    23.1780    38.8610    53.0480    57.1280 
  266.1250     2.3790   -14.4270    78.0860    23.0640    38.4550    56.7290    61.0780 
  266.2500     2.3380   -13.9260    82.1890    22.8820    36.0020    60.7970    65.4410 
  266.3750     2.3160   -13.3850    84.0040    22.6510    36.4990    64.4990    69.4000 
  266.5000     2.3250   -12.8340    82.4640    22.6920    42.9960    66.7300    71.8820 
  266.6250     2.3570   -12.2790    80.8440    23.0390    52.5610    66.1140    71.6090 
  266.7500     2.3920   -11.7640    79.2810    23.2460    51.4150    63.1390    68.9840 
  266.8750     2.4140   -11.3350    76.5110    23.2360    40.8690    58.6240    64.6810 
  267.0000     2.4230   -10.9800    73.9660    23.2900    33.2940    53.4530    59.5020 
  267.1250     2.4320   -10.7470    74.8750    23.5630    34.8590    48.3320    54.1540 
  267.2500     2.4520   -10.6110    77.3100    23.8820    37.9300    43.6580    49.1460 
  267.3750     2.4760   -10.5350    79.7770    24.1070    35.3830    39.6450    44.7570 
  267.5000     2.4840   -10.5040    80.5530    24.2330    29.3390    36.4460    41.1880 
  267.6250     2.4730   -10.5330    79.9060    24.2380    27.3360    34.2930    38.7050 
  267.7500     2.4630   -10.5930    80.4640    24.1620    25.2990    32.9940    37.1220 
  267.8750     2.4630   -10.6610    80.7830    24.0810    23.7700    32.3880    36.2870 
  268.0000     2.4690   -10.7540    78.4180    23.9460    24.5990    32.1980    35.9370 
  268.1250     2.4740   -10.9010    77.0460    23.7840    27.3930    32.0560    35.7030 
  268.2500     2.4780   -11.0620    81.8030    23.5970    28.0180    31.7560    35.3220 
  268.3750     2.4890   -11.2470    88.8150    23.3810    26.6410    31.4600    34.9090 
  268.5000     2.5140   -11.4070    90.3480    23.3360    25.6420    31.6350    34.9250 
  268.6250     2.5440   -11.5440    84.1870    23.4040    27.0870    33.2610    36.4910 
