~V
VERS. 2.00: Ver 2.00
~W
STRT.M 55.0000:
STOP.M 264.0000:
STEP.M 0.1250:
NULL. -999.2500:
UWI. F10017:
~C
DEPT.M :
DEN.GM/CC :
SP.MV :
GR.API :
CALI.CM :
RXO.OHMM :
RI. :
RML.OHMM :
~A
# ...
  235.0000     2.4560   -43.8890    70.0990    23.9030    40.0070    37.2930    38.4120 
  235.1250     2.4630   -43.9120    65.4550    23.8990    28.7110    34.0590    35.0810 
  235.2500     2.4590   -43.9570    63.7760    23.9050    22.6550    31.3410    32.2810 
  235.3750     2.4610   -44.0370    64.5690    23.9230    22.6770    29.6230    30.5120 
  235.5000     2.4780   -44.0850    65.0690    23.8730    28.2580    28.9980    29.8680 
  235.6250     2.5060   -44.0620    64.9640    23.7710    33.9810    29.3940    30.2760 
  235.7500     2.5310   -44.0180    65.6950    23.7600    35.5920    30.2970    31.2060 
  235.8750     2.5360   -43.8820    67.0190    23.7740    34.2800    31.4520    32.3950 
  236.0000     2.5100   -43.6820    67.8050    23.7940    33.9710    32.9110    33.8980 
  236.1250     2.4680   -43.4610    68.3210    23.8970    37.6990    35.1860    36.2420 
  236.2500     2.4500   -43.1790    69.4900    23.9770    44.4770    37.9700    39.1090 
  236.3750     2.4650   -42.8600    71.3500    24.0370    53.0980    39.3290    40.5090 
  236.5000     2.4890   -42.5350    73.1200    24.0670    69.0410    36.0930    37.1760 
  236.6250     2.4650   -42.1630    71.4390    24.0790    79.9620    27.4350    28.2580 
  236.7500     2.3880   -41.7790    65.0180    24.0720    63.0260    18.5760    19.1340 
  236.8750     2.3030   -41.4720    55.9250    24.0330    30.0230    12.1880    12.5530 
  237.0000     2.2610   -41.2240    46.7990    24.0160    10.2250     8.4880     8.7420 
  237.1250     2.2930   -40.9810    38.4030    23.9610     7.6440     7.0160     7.2270 
  237.2500     2.3590   -40.7970    30.5430    23.7840    13.9440     6.7430     6.9450 
  237.3750     2.4140   -40.6350    23.6000    23.6240    26.7170     7.1710     7.3860 
  237.5000     2.4290   -40.5410    18.6610    23.7830    33.6080     7.6950     7.9260 
  237.6250     2.4060   -40.6020    17.7400    23.9090    24.6920     7.4760     7.7000 
  237.7500     2.3690   -40.7450    20.4890    23.9020    12.3770     6.5100     6.7050 
  237.8750     2.3140   -40.9480    25.1710    23.7680     6.4050     5.2940     5.3860 
  238.0000     2.2370   -41.2180    30.4380    23.6540     4.6610     4.2800     4.5610 
  238.1250     2.1560   -41.5240    35.6400    23.8550     4.2150     3.6930     4.3300 
  238.2500     2.0950   -41.7820    39.0830    24.2890     3.7620     3.4340     4.4590 
  238.3750     2.0600   -41.9940    39.2980    24.8730     3.4570     3.4000     4.7280 
  238.5000     2.0480   -42.1510    36.7100    25.4410     3.3880     3.4760     4.8890 
  238.6250     2.0570   -42.2590    34.2780    25.2330     3.5200     3.5590     4.7760 
  238.7500     2.0740   -42.3040    33.2090    24.6210     3.6090     3.5970     4.4880 
  238.8750     2.0860   -42.2330    32.1620    24.3640     3.5760     3.5860     4.1680 
  239.0000     2.0850   -42.1080    30.6170    24.5630     3.5060     3.5310     3.9280 
  239.1250     2.0740   -42.0610    29.3980    24.7810     3.5100     3.4510     3.8760 
  239.2500     2.0630   -42.0500    28.7740    24.6680     3.5110     3.3990     3.9380 
  239.3750     2.0650   -42.1040    28.3730    24.4820     3.5180     3.4300     4.0320 
  239.5000     2.1000   -42.1940    28.0200    24.4350     3.6550     3.5790     4.1660 
  239.6250     2.1980   -42.2900    27.7840    24.4440     4.7620     3.8430     4.4200 
  239.7500     2.3300   -42.4220    26.5650    24.5870     8.6020     4.1230     4.7840 
  239.8750     2.4370   -42.5690    24.5810    24.4620    14.7200     4.3120     5.1550 
  240.0000     2.4670   -42.6820    23.0860    24.1960    16.9630     4.3260     5.4270 
  240.1250     2.4170   -42.7720    22.7670    24.0730    12.1460     4.1420     5.5930 
  240.2500     2.3650   -42.8620    23.4340    24.1720     7.1070     3.8900     5.7020 
  240.3750     2.3450   -42.9420    24.9030    24.4140     4.9870     3.6630     5.7470 
  240.5000     2.3320   -43.0170    26.6610    24.7830     4.1220     3.5160     5.6080 
  240.6250     2.2750   -43.0290    27.5540    25.0890     3.6720     3.4690     5.1610 
  240.7500     2.1870   -42.9990    26.9170    25.2030     3.5820     3.4710     4.5650 
  240.8750     2.1080   -42.9640    27.0160    25.3370     3.5790     3.4800     4.0620 
  241.0000     2.0660   -42.9070    28.7120    25.8650     3.5030     3.4760     3.8410 
  241.1250     2.0670   -42.7870    30.1260    26.0920     3.4100     3.4600     3.9240 
  241.2500     2.0980   -42.6820    30.5420    25.4900     3.4410     3.4420     4.1030 
  241.3750     2.1470   -42.5810    30.7300    24.7070     3.5850     3.4250     4.2350 
  241.5000     2.1960   -42.5050    31.2460    24.3080     3.7720     3.4110     4.2150 
  241.6250     2.2330   -42.5290    30.3530    24.1920     3.9150     3.4060     4.0420 
  241.7500     2.2550   -42.5480    28.3710    24.1290     3.9790     3.4090     3.8590 
  241.8750     2.2540   -42.6070    26.6610    24.1020     3.9540     3.4200     3.8230 
  242.0000     2.2310   -42.7300    26.0730    24.1100     3.8650     3.4320     4.0290 
  242.1250     2.2080   -42.8750    26.7430    24.1680     3.7750     3.4480     4.3670 
  242.2500     2.2120   -43.0080    27.0150    24.2400     3.7650     3.4700     4.5360 
  242.3750     2.2410   -43.1500    26.9470    24.2400     3.8780     3.5070     4.4570 
  242.5000     2.2760   -43.2790    27.5640    24.1380     4.1040     3.5630     4.3240 
  242.6250     2.3040   -43.3740    28.9050    24.2020     4.4110     3.6350     4.3360 
  242.7500     2.3140   -43.4810    30.0080    24.4680     4.6960     3.7000     4.4590 
  242.8750     2.2990   -43.5650    31.0440    24.8340     4.7790     3.7380     4.5920 
  243.0000     2.2580   -43.5970    32.5420    24.8230     4.5720     3.7420     4.6630 
  243.1250     2.2200   -43.5890    32.6960    24.8150     4.2340     3.7210     4.7110 
  243.2500     2.2110   -43.5810    31.1140    25.7140     3.9910     3.7020     4.8380 
  243.3750     2.2180   -43.5460    29.1160    27.4090     3.9230     3.7010     5.0490 
  243.5000     2.2110   -43.4930    28.3200    28.7070     4.0410     3.7220     5.2570 
  243.6250     2.1770   -43.4000    29.7390    28.4810     4.2890     3.7580     5.4060 
  243.7500     2.1390   -43.2730    32.5700    27.4530     4.3690     3.7870     5.5990 
  243.8750     2.1150   -43.1740    34.8790    26.7000     4.2350     3.7970     5.8270 
  244.0000     2.1130   -43.1510    35.3010    26.2810     4.0840     3.7900     5.9880 
  244.1250     2.1380   -43.2410    34.3430    26.3130     4.1110     3.7840     5.9290 
  244.2500     2.1850   -43.3560    34.4350    26.2410     4.2950     3.8080     5.7160 
  244.3750     2.2460   -43.5110    37.0000    25.6340     4.5920     3.8830     5.5390 
  244.5000     2.2990   -43.7060    41.0010    24.8840     4.9210     4.0020     5.5910 
  244.6250     2.3190   -43.9440    44.2070    24.3850     5.2070     4.1300     5.9260 
  244.7500     2.3110   -44.2220    45.2270    24.2250     5.4170     4.2080     6.2520 
  244.8750     2.2900   -44.5130    45.0070    24.2190     5.3700     4.2010     6.3060 
  245.0000     2.2730   -44.8040    44.8270    24.2490     4.9050     4.1140     6.0310 
  245.1250     2.2710   -45.0610    43.7150    24.2870     4.3930     4.0290     5.6430 
  245.2500     2.2740   -45.3900    43.2030    24.2760     4.5010     4.0850     5.5110 
  245.3750     2.2790   -45.8520    46.0930    24.1430     5.5000     4.4210     5.8250 
  245.5000     2.2900   -46.3540    53.9010    23.9080     7.4500     5.1790     6.7020 
  245.6250     2.3140   -46.8270    63.9860    23.8950    11.3610     6.6330     8.4820 
  245.7500     2.3310   -47.3050    72.1870    23.8170    17.1250     8.8120    11.2890 
  245.8750     2.3290   -47.7340    79.5870    23.6850    22.6410    11.5810    15.1000 
  246.0000     2.3200   -48.0010    86.5400    23.5790    25.5140    14.2820    18.9860 
  246.1250     2.3260   -48.0540    90.9230    23.5410    25.7300    15.4390    20.4060 
