~V
VERS. 2.00: Ver 2.00
~W
STRT.M 55.0000:
STOP.M 247.0000:
STEP.M 0.1250:
NULL. -999.2500:
UWI. F10032:
~C
DEPT.M :
GR.API :
RML.OHMM :
RI. :
RXO.OHMM :
CALI.CM :
DEN.GM/CC :
SP.MV :
~A
# ...
   77.5000    63.2900    10.4120     8.6450    12.1790    23.2030     2.1220   -26.1570 
   77.6250    67.0980    10.4150     8.7340    12.0140    23.1950     2.1130   -26.0580 
   77.7500    67.5470    10.3650     8.8040    11.7950    23.1970     2.1200   -25.8700 
   77.8750    65.8980    10.2910     8.8620    11.3620    23.3040     2.1370   -25.6280 
   78.0000    66.4040    10.2220     8.8870    10.7920    23.5420     2.1550   -25.3580 
   78.1250    69.3110    10.1540     8.8140    10.6410    23.5640     2.1650   -25.0520 
   78.2500    69.2840    10.0360     8.6330    10.8730    23.3830     2.1670   -24.6860 
   78.3750    66.3400     9.8000     8.3470    10.7630    23.2320     2.1690   -24.2280 
   78.5000    64.8030     9.4020     7.9630    10.2570    23.2400     2.1770   -23.7280 
   78.6250    67.6350     8.8680     7.5140     9.4140    23.2780     2.1970   -23.2920 
   78.7500    72.5190     8.3570     7.1050     8.7740    23.2650     2.2240   -22.9380 
   78.8750    76.9720     8.0050     6.8050     8.3920    23.2580     2.2510   -22.6660 
   79.0000    78.2970     7.9120     6.6420     7.9040    23.2800     2.2690   -22.5010 
   79.1250    75.8680     8.1390     6.6610     8.0980    23.2950     2.2670   -22.5270 
   79.2500    73.8780     8.5310     6.8310     9.1380    23.3190     2.2490   -22.7540 
   79.3750    74.3570     8.9010     7.0740    10.5530    23.4130     2.2220   -23.1470 
   79.5000    75.5830     9.0630     7.2600    11.3940    23.5360     2.1950   -23.6120 
   79.6250    74.5400     8.9620     7.3240    11.4150    23.7410     2.1770   -24.0560 
   79.7500    71.5690     8.9280     7.4220    11.3650    24.2350     2.1690   -24.4630 
   79.8750    67.2630     9.3340     7.7410    11.4180    24.8360     2.1780   -24.8390 
   80.0000    62.8280    10.4490     8.4580    11.8600    24.7920     2.2140   -25.1680 
   80.1250    61.8280    12.3840     9.7720    13.3650    24.1650     2.2830   -25.3850 
   80.2500    63.0670    14.5650    11.4350    17.9550    23.9620     2.3590   -25.4890 
   80.3750    63.9030    16.1840    12.8910    27.2050    23.9870     2.4090   -25.5060 
   80.5000    62.6940    16.4360    13.4400    26.1680    23.9380     2.4120   -25.4610 
   80.6250    63.1480    15.0530    12.7050    16.7810    23.7380     2.3620   -25.4310 
   80.7500    66.8960    13.1580    11.4140    13.4800    23.6130     2.2960   -25.4430 
   80.8750    70.2950    11.5710    10.1370    12.6860    23.5540     2.2380   -25.4740 
   81.0000    70.3410    10.6900     9.2160    12.4390    23.5150     2.2010   -25.4740 
   81.1250    68.2460    10.5500     8.7930    12.4150    23.4280     2.1850   -25.4230 
   81.2500    67.6530    10.6880     8.6420    12.4660    23.2700     2.1790   -25.3510 
   81.3750    68.4110    10.7760     8.5830    12.3050    23.0800     2.1800   -25.2980 
   81.5000    68.6150    10.6490     8.5160    11.8160    22.8930     2.1840   -25.2970 
   81.6250    68.1050    10.3260     8.3910    11.1610    22.7970     2.1910   -25.2890 
   81.7500    68.8640     9.9910     8.2100    10.9200    22.8140     2.1960   -25.2320 
   81.8750    70.4490     9.7650     8.0400    11.0030    22.9110     2.1980   -25.1350 
   82.0000    69.9670     9.7170     7.9740    11.3320    23.0090     2.1980   -25.0590 
   82.1250    67.4340     9.8580     8.0740    11.6420    23.0460     2.1960   -25.0660 
   82.2500    67.1550    10.0760     8.2690    11.8990    23.0530     2.1910   -25.1070 
   82.3750    68.6750    10.2830     8.4960    12.1550    23.0530     2.1840   -25.1300 
   82.5000    68.9870    10.4170     8.6910    12.5090    23.0530     2.1770   -25.1010 
   82.6250    67.0620    10.4290     8.7820    12.8180    23.0470     2.1730   -25.0600 
   82.7500    67.1180    10.3470     8.7870    12.9110    23.0300     2.1740   -25.0460 
   82.8750    70.1630    10.2330     8.7660    12.9560    23.0130     2.1780   -25.0280 
   83.0000    71.8860    10.1750     8.7870    12.8060    23.0140     2.1850   -24.9300 
   83.1250    69.2770    10.2690     8.8950    12.6620    23.0300     2.1900   -24.6880 
   83.2500    66.0750    10.4950     9.0510    12.6430    23.0360     2.1930   -24.3200 
   83.3750    64.9970    10.7400     9.1760    12.8440    23.0810     2.1920   -23.8470 
   83.5000    64.7540    10.7910     9.1260    13.1410    23.2080     2.1880   -23.2820 
   83.6250    65.1910    10.3580     8.6940    12.7770    23.5560     2.1890   -22.5670 
   83.7500    69.2530     9.4850     7.9490    11.5140    23.9360     2.2000   -21.6860 
   83.8750    76.7500     8.3650     7.0680     9.7530    24.1130     2.2230   -20.7230 
   84.0000    85.3690     7.2910     6.2530     7.8140    24.2750     2.2530   -19.8400 
   84.1250    91.8880     6.6070     5.6910     6.7510    24.4760     2.2770   -19.2010 
   84.2500    94.0380     6.3960     5.4160     6.2650    24.6360     2.2850   -18.7960 
   84.3750    92.1160     6.6430     5.4490     6.6270    24.5680     2.2760   -18.6030 
   84.5000    87.9450     7.2410     5.7550     7.8360    24.1610     2.2570   -18.6070 
   84.6250    85.0740     8.0180     6.2740     9.2050    23.8120     2.2420   -18.8830 
   84.7500    83.2090     8.7470     6.8730    10.0680    23.6350     2.2370   -19.3760 
   84.8750    80.8130     9.3520     7.4880    10.6330    23.6010     2.2430   -19.9740 
   85.0000    76.7980     9.8900     8.0970    11.4960    23.6100     2.2500   -20.5360 
   85.1250    70.6360    10.4890     8.7060    12.4350    23.6430     2.2470   -20.9750 
   85.2500    64.9380    11.1510     9.3050    14.6570    23.6940     2.2310   -21.3570 
   85.3750    61.3620    11.7400     9.8110    20.0170    23.7700     2.2050   -21.6790 
   85.5000    61.1400    12.0370    10.0620    27.7020    23.8150     2.1760   -21.9340 
   85.6250    63.0240    11.7930     9.8710    26.4070    23.8040     2.1560   -22.1300 
   85.7500    64.3840    11.1560     9.3720    19.1280    23.7540     2.1480   -22.3450 
   85.8750    65.9190    10.3870     8.7510    13.4600    23.6930     2.1510   -22.6570 
   86.0000    68.2110     9.7600     8.1800    11.2700    23.6450     2.1600   -23.0690 
   86.1250    68.7860     9.4910     7.8140    11.0420    23.6060     2.1650   -23.5310 
   86.2500    67.3840     9.5320     7.6810    11.2560    23.5910     2.1610   -23.9750 
   86.3750    64.6860     9.7930     7.7540    11.5120    23.5870     2.1500   -24.4280 
   86.5000    62.3950    10.1370     7.9550    11.8140    23.6610     2.1390   -24.9240 
   86.6250    62.4280    10.4290     8.2050    11.9890    23.7810     2.1360   -25.4290 
   86.7500    64.7950    10.6220     8.4410    12.0880    23.8330     2.1420   -25.8790 
   86.8750    67.6100    10.7100     8.6220    12.0600    23.7050     2.1550   -26.2290 
   87.0000    69.2240    10.6920     8.7180    11.9640    23.5990     2.1700   -26.4810 
   87.1250    70.0680    10.5600     8.7130    11.8720    23.5770     2.1810   -26.6560 
   87.2500    68.8310    10.3380     8.6420    11.8870    23.5780     2.1880   -26.7800 
   87.3750    65.9370    10.0440     8.5190    11.8850    23.5860     2.1910   -26.8480 
   87.5000    63.6170     9.7230     8.3600    11.7270    23.6060     2.1920   -26.8770 
   87.6250    64.2850     9.4530     8.1920    11.2140    23.6600     2.1930   -26.8360 
   87.7500    65.4120     9.2750     8.0540    10.5660    23.7310     2.1950   -26.7400 
   87.8750    65.7050     9.2090     7.9720    10.1610    23.7800     2.1980   -26.6210 
   88.0000    66.7310     9.2530     7.9630    10.4610    23.7960     2.2000   -26.5050 
   88.1250    67.7150     9.3910     8.0530    10.9090    23.8050     2.1980   -26.3660 
   88.2500    67.7540     9.5630     8.2050    11.3090    23.8210     2.1920   -26.1720 
   88.3750    66.3990     9.7370     8.3620    11.6450    23.8320     2.1840   -25.9050 
   88.5000    63.9150     9.8710     8.4700    11.9550    23.8300     2.1780   -25.5280 
   88.6250    62.5870     9.8950     8.4950    12.1170    23.8110     2.1800   -25.0970 
