~V
VERS. 2.00: Ver 2.00
~W
STRT.M 55.0000:
STOP.M 308.0000:
STEP.M 0.1250:
NULL. -999.2500:
UWI. F10053:
~C
DEPT.M :
GR.API :
RML.OHMM :
RI. :
RXO.OHMM :
CALI.CM :
DEN.GM/CC :
SP.MV :
~A
# ...
  190.0000    58.2470    14.7920    12.6550    10.9450    22.7390     2.5290    -2.8980 
  190.1250    58.0020    14.2160    12.1740    10.6670    22.7730     2.5360    -2.8210 
  190.2500    58.0090    13.6430    11.7280    10.4920    22.8410     2.5400    -2.7790 
  190.3750    58.8000    13.1160    11.3420    10.1950    22.9390     2.5320    -2.7760 
  190.5000    59.2630    12.6120    10.9870    10.0440    23.0870     2.5030    -2.7570 
  190.6250    58.2320    12.0620    10.5550     9.9870    23.2010     2.4510    -2.8240 
  190.7500    58.7870    11.4660     9.9980     9.4510    23.2210     2.3890    -3.0230 
  190.8750    63.5640    10.9150     9.3890     8.5670    23.1940     2.3300    -3.3470 
  191.0000    71.6730    10.5500     8.8900     7.7170    23.0550     2.2850    -3.6990 
  191.1250    77.3770    10.5210     8.7380     7.3870    22.8940     2.2620    -4.0470 
  191.2500    78.4320    10.7240     8.9570     7.8200    22.7930     2.2560    -4.3530 
  191.3750    76.4800    10.9610     9.4320     9.0260    22.7520     2.2610    -4.6010 
  191.5000    76.4160    10.9800     9.8590    10.4300    22.7300     2.2730    -4.8210 
  191.6250    79.6030    10.5420     9.7990    10.0670    22.7220     2.2840    -4.9980 
  191.7500    82.5510     9.7870     9.2670     7.9750    22.7180     2.2870    -5.1380 
  191.8750    83.6300     8.9670     8.5060     6.6900    22.7110     2.2830    -5.3160 
  192.0000    83.6420     8.3510     7.7900     6.6360    22.6780     2.2740    -5.4740 
  192.1250    82.3420     8.1430     7.3370     6.7510    22.6440     2.2690    -5.7260 
  192.2500    79.5080     8.2170     7.1400     6.7990    22.6470     2.2680    -6.0860 
  192.3750    77.7490     8.3980     7.1400     6.9470    22.6800     2.2700    -6.5430 
  192.5000    79.2360     8.5410     7.2440     7.1460    22.7190     2.2730    -7.0640 
  192.6250    82.6810     8.6430     7.4110     7.1940    22.7370     2.2760    -7.5750 
  192.7500    85.4540     8.8810     7.6920     7.2830    22.7400     2.2810    -7.9450 
  192.8750    87.1020     9.4250     8.1810     7.4020    22.7400     2.2870    -8.1470 
  193.0000    87.4880    10.3240     8.9390     7.6730    22.7370     2.2920    -8.2680 
  193.1250    86.1970    11.3780     9.9010     8.5640    22.7320     2.2930    -8.2560 
  193.2500    83.9050    12.1090    10.6640    10.5910    22.7250     2.2910    -8.1020 
  193.3750    81.2630    12.1220    10.7620    13.2470    22.7340     2.2930    -7.7560 
  193.5000    79.5590    11.2810     9.9730    14.2500    22.8030     2.3060    -7.2490 
  193.6250    80.2660     9.7920     8.5640     9.3030    22.9570     2.3310    -6.5930 
  193.7500    82.6680     8.3070     7.2250     6.2100    23.1840     2.3610    -5.9390 
  193.8750    85.3870     7.2490     6.2920     5.2280    23.5610     2.3870    -5.3090 
  194.0000    87.1740     6.8370     5.8910     5.2360    24.0490     2.4030    -4.7500 
  194.1250    84.7140     7.1810     6.1330     5.6300    24.4490     2.4090    -4.3060 
  194.2500    79.3660     8.0150     6.8620     6.2560    24.4730     2.4120    -4.0870 
  194.3750    76.9370     9.1210     7.9370     7.1600    24.2570     2.4120    -4.0840 
  194.5000    80.4270    10.2670     9.1300     8.2410    24.0350     2.4110    -4.2500 
  194.6250    83.7750    11.2220    10.1510     9.1780    23.9510     2.4070    -4.6220 
  194.7500    83.0590    11.9140    10.8800     9.8520    23.9140     2.3990    -5.1830 
  194.8750    80.8210    12.3610    11.3240    10.3870    23.9010     2.3910    -5.8880 
  195.0000    79.2700    12.6410    11.5660    10.9360    23.8720     2.3820    -6.8260 
  195.1250    78.8240    12.8480    11.6990    11.4420    23.8990     2.3760    -7.9000 
  195.2500    79.3070    13.0690    11.7990    11.7770    23.8860     2.3740    -8.9380 
  195.3750    80.6830    13.3240    11.8840    12.1480    23.7790     2.3740    -9.9720 
  195.5000    82.3310    13.6080    11.9530    12.4580    23.5440     2.3760   -10.9920 
  195.6250    84.7640    13.9060    12.0120    12.8010    23.3590     2.3780   -11.9100 
  195.7500    86.6220    14.2070    12.0890    13.2050    23.1760     2.3800   -12.7640 
  195.8750    86.8230    14.5140    12.2150    13.5340    22.9920     2.3790   -13.5120 
  196.0000    85.6740    14.8350    12.4150    13.9320    22.9510     2.3790   -14.0750 
  196.1250    84.4470    15.1720    12.6970    14.7420    23.0870     2.3780   -14.5390 
  196.2500    84.0080    15.5010    13.0120    15.7670    23.2630     2.3800   -14.9050 
  196.3750    83.7750    15.8010    13.3270    17.0190    23.4620     2.3820   -15.2310 
  196.5000    84.0030    16.0620    13.6170    18.6540    23.6830     2.3860   -15.5610 
  196.6250    85.4390    16.3130    13.8930    19.0540    23.7350     2.3900   -15.8290 
  196.7500    86.9800    16.6200    14.2130    18.1440    23.5480     2.3940   -16.0070 
  196.8750    86.7980    17.0510    14.6330    17.2060    23.2060     2.3940   -16.1800 
  197.0000    83.9680    17.6470    15.1860    17.2160    22.8540     2.3880   -16.3880 
  197.1250    81.1110    18.4390    15.8980    18.2860    22.7250     2.3760   -16.6250 
  197.2500    81.0480    19.3450    16.7240    19.9370    22.6130     2.3590   -16.9040 
  197.3750    82.8970    20.2590    17.5980    22.3940    22.4760     2.3430   -17.1930 
  197.5000    84.8040    21.0420    18.4140    23.2530    22.4020     2.3290   -17.4840 
  197.6250    85.1030    21.5250    19.0270    24.5720    22.6230     2.3200   -17.8960 
  197.7500    85.2050    21.7330    19.4280    23.9820    22.9940     2.3170   -18.3300 
  197.8750    83.5090    21.7820    19.6710    23.5500    23.4120     2.3190   -18.7110 
  198.0000    79.5310    21.8730    19.8870    25.1950    23.7450     2.3250   -19.0160 
  198.1250    76.2100    22.2970    20.2950    27.3460    23.9310     2.3320   -19.2670 
  198.2500    76.5990    23.1450    21.0250    31.3360    24.0380     2.3320   -19.4870 
  198.3750    79.0920    24.3530    22.1290    33.8240    24.0930     2.3250   -19.6680 
  198.5000    80.2520    25.6360    23.5030    35.2490    24.1320     2.3130   -19.7910 
  198.6250    79.1850    26.3560    24.6720    39.7130    24.1380     2.3070   -19.8090 
  198.7500    77.9790    26.1060    25.0370    41.7500    24.1240     2.3140   -19.7020 
  198.8750    78.4670    24.8490    24.3640    37.8600    24.1050     2.3320   -19.4930 
  199.0000    80.2240    22.9850    22.9720    30.1360    24.1080     2.3520   -19.1380 
  199.1250    82.6860    21.2190    21.5510    21.8430    24.1560     2.3660   -18.6360 
  199.2500    85.2040    20.0150    20.6140    18.7690    24.2170     2.3700   -18.1190 
  199.3750    86.7710    19.4080    20.2550    20.3220    24.2220     2.3690   -17.5910 
  199.5000    87.0590    19.1330    20.2740    23.9540    24.1550     2.3640   -16.9780 
  199.6250    86.1860    18.7430    20.1960    25.0830    24.1140     2.3550   -16.1930 
  199.7500    86.1810    17.9660    19.6110    20.9600    24.1330     2.3440   -15.3790 
  199.8750    88.2020    16.8180    18.4660    15.9750    24.2100     2.3340   -14.6610 
  200.0000    92.5660    15.5080    17.0080    13.0920    24.2700     2.3300   -14.1130 
  200.1250    95.8960    14.3300    15.6300    12.1300    24.2150     2.3380   -13.6520 
  200.2500    96.2810    13.3930    14.5230    11.3880    24.0920     2.3530   -13.1930 
  200.3750    95.8520    12.6680    13.6690    11.0740    23.9890     2.3710   -12.8410 
  200.5000    95.2720    12.1250    13.0250    11.3870    23.9190     2.3840   -12.6710 
  200.6250    94.9760    11.9260    12.7290    11.7820    23.8910     2.3820   -12.7950 
  200.7500    95.3060    12.2820    12.9480    11.0360    23.8830     2.3650   -13.2000 
  200.8750    94.8150    13.4610    13.9020    11.6630    23.8800     2.3380   -13.8260 
  201.0000    90.3420    15.8870    15.7970    16.0900    23.8820     2.3090   -14.6000 
  201.1250    82.5770    19.9420    18.9330    29.1970    23.8700     2.2860   -15.5230 
