~V
VERS. 2.00: Ver 2.00
~W
STRT.M 50.0000:
STOP.M 307.0000:
STEP.M 0.1250:
NULL. -999.2500:
UWI. F10044:
~C
DEPT.M :
GR.API :
RML.OHMM :
RI. :
RXO.OHMM :
CALI.CM :
DEN.GM/CC :
SP.MV :
~A
   50.0000    33.6180     1.6040     0.2640     2.8040    25.2490  -999.2500   127.9600 
   50.1250    33.7930     1.5480     0.2610     2.8800    25.2250  -999.2500   128.0350 
   50.2500    34.1950     1.4760     0.2590     2.7550    25.1960  -999.2500   128.2250 
   50.3750    34.7800     1.4030     0.2560     2.3590    25.1500  -999.2500   128.5030 
   50.5000    36.2540     1.3360     0.2520     1.7450    25.0600  -999.2500   128.8880 
   50.6250    38.0210     1.2750     0.2480     1.0690    24.9070  -999.2500   129.3990 
   50.7500    37.6840     1.2160     0.2430     0.6550    24.6890     0.0000   129.9740 
   50.8750    35.8860     1.1570     0.2400     0.4940    24.4430     0.0000   130.5040 
   51.0000    36.1770     1.1070     0.2410     0.4630    24.2430     0.0000   130.9440 
   51.1250    39.5450     1.0730     0.2470     0.4880    24.1330     0.0000   131.2980 
   51.2500    41.7320     1.0470     0.2570     0.5240    24.0800     0.0000   131.4720 
   51.3750    42.2230     1.0130     0.2660     0.5470    24.0710     0.0810   131.4590 
   51.5000    43.7460     0.9610     0.2700     0.5330    24.0980     0.2170   131.2440 
   51.6250    46.9460     0.8940     0.2660     0.5060    24.1750     0.5100   130.7080 
   51.7500    48.5030     0.8390     0.2590     0.5200    24.3140     1.4260   129.9650 
   51.8750    48.0480     0.8220     0.2530     0.5690    24.5050     2.1610   129.1390 
   52.0000    47.9310     0.8590     0.2510     0.6290    24.6920     2.1470   128.3320 
   52.1250    47.9050     0.9570     0.2550     0.6910    24.7850     2.1240   127.6590 
   52.2500    46.3730     1.0740     0.2600     0.6730    24.7420     2.0990   127.2240 
   52.3750    43.5760     1.1610     0.2630     0.5380    24.5940     2.0760   127.0410 
   52.5000    41.0750     1.1740     0.2640     0.4720    24.4080     2.0610   127.0750 
   52.6250    40.2620     1.0850     0.2610     0.5160    24.2870     2.0560   127.3620 
   52.7500    39.3950     0.9480     0.2580     0.6070    24.2960     2.0580   127.8010 
   52.8750    37.8450     0.8230     0.2560     0.7760    24.4420     2.0660   128.3410 
   53.0000    36.5490     0.7510     0.2560     1.1950    24.6700     2.0780   128.9180 
   53.1250    37.9080     0.7490     0.2550     2.2190    24.8970     2.0910   129.4490 
   53.2500    40.8220     0.7770     0.2540     3.4860    25.0510     2.1030   129.9190 
   53.3750    43.4490     0.8040     0.2510     4.6490    25.1090     2.1130   130.3430 
   53.5000    45.0020     0.8170     0.2470     5.1150    25.0770     2.1210   130.7430 
   53.6250    44.9640     0.8140     0.2460     3.5480    24.9280     2.1290   131.1470 
   53.7500    42.9860     0.8060     0.2480     1.7690    24.6610     2.1370   131.5980 
   53.8750    40.3230     0.7990     0.2530     0.9770    24.2810     2.1450   132.0800 
   54.0000    39.5050     0.7980     0.2610     0.8380    23.8520     2.1530   132.5680 
   54.1250    40.4770     0.8070     0.2710     0.9480    23.5380     2.1570   132.9820 
   54.2500    40.9860     0.8240     0.2800     1.0030    23.3780     2.1560   133.1940 
   54.3750    41.6390     0.8460     0.2880     0.9380    23.3340     2.1480   133.1260 
   54.5000    43.2060     0.8690     0.2940     0.7170    23.3560     2.1340   132.7330 
   54.6250    43.7260     0.8920     0.2960     0.3260    23.4510     2.1180   131.8710 
   54.7500    41.9140     0.9190     0.2930     0.0420    23.6390     2.1040   130.5510 
   54.8750    39.3780     0.9500     0.2860    -0.1450    23.9390     2.0960   128.7960 
   55.0000    37.4460     0.9720     0.2770    -0.2280    24.3330     2.0990   126.6720 
   55.1250    36.3390     0.9480     0.2680    -0.2560    24.7350     2.1240   124.1590 
   55.2500    35.6060     0.8510     0.2630    -0.2600    25.0280     2.1770   121.2860 
   55.3750    35.7870     0.6740     0.2650     0.0220    25.1740     2.2680   117.9500 
   55.5000    37.3040     0.4520     0.2720     0.5250    25.2110     2.3930   113.9400 
   55.6250    39.3450     0.2630     0.2710     1.3540    25.1840     2.5290   108.8180 
   55.7500    40.3760     0.1330     0.2590     2.5270    25.0930     2.6320   102.4140 
   55.8750    41.1780     0.0760     0.2520     3.2000    24.8850     2.6670    94.4210 
   56.0000    45.3560     0.1650     0.3070     3.0960    24.5300     2.6290    84.8330 
   56.1250    54.3920     0.6160     0.5700     3.9770    24.0300     2.5400    73.8800 
   56.2500    64.6530     1.5150     1.1250     5.0900    23.5400     2.4460    62.4720 
   56.3750    74.1840     2.8280     2.0020     6.0460    23.2400     2.3710    51.1560 
   56.5000    81.5870     4.3070     3.1120     6.4310    23.1810     2.3230    40.4170 
   56.6250    84.4480     5.3800     4.2010     6.2300    23.2990     2.3050    30.9020 
   56.7500    85.2130     5.7410     5.0110     6.1740    23.4840     2.3010    22.8730 
   56.8750    88.1240     5.5920     5.4860     6.3150    23.6980     2.3010    16.6470 
   57.0000    93.6670     5.3660     5.7320     6.4400    23.9150     2.3020    12.2310 
   57.1250    96.8840     5.2800     5.8460     6.4030    24.0840     2.3050     9.4390 
   57.2500    97.8820     5.2710     5.8920     6.2670    24.1720     2.3090     7.4490 
   57.3750    99.9010     5.2890     5.8980     6.1160    24.1830     2.3150     5.9170 
   57.5000   103.3240     5.3520     5.9220     6.0460    24.1460     2.3200     4.6330 
   57.6250   103.2440     5.5440     6.0560     5.9850    24.0650     2.3180     3.5260 
   57.7500    99.6160     5.8920     6.3210     6.1600    23.9510     2.3060     2.5120 
   57.8750    93.4680     6.3630     6.6860     6.6260    23.8210     2.2870     1.5980 
   58.0000    85.7950     6.8560     7.0650     7.1930    23.7190     2.2640     0.8000 
   58.1250    80.2450     7.1720     7.3070     7.6690    23.6970     2.2470     0.1880 
   58.2500    79.5890     7.1980     7.3330     7.7080    23.7240     2.2400    -0.2690 
   58.3750    81.8410     6.9300     7.1430     7.4760    23.7740     2.2430    -0.6150 
   58.5000    83.7280     6.5220     6.8400     7.1040    23.8210     2.2580    -0.8790 
   58.6250    86.4170     6.2780     6.6230     6.9210    23.8240     2.2830    -1.0990 
   58.7500    89.6340     6.3540     6.6240     6.9670    23.7980     2.3150    -1.2760 
   58.8750    89.3800     6.7210     6.8560     7.4170    23.7630     2.3520    -1.4570 
   59.0000    83.6200     7.2140     7.2210     8.0890    23.7270     2.3850    -1.6720 
   59.1250    75.7070     7.5640     7.5120     8.9590    23.6840     2.4000    -1.9500 
   59.2500    71.2940     7.6020     7.5570     9.2000    23.6530     2.3960    -2.2430 
   59.3750    71.6460     7.3040     7.3070     8.3910    23.6650     2.3790    -2.5500 
   59.5000    75.2750     6.7990     6.8470     7.3290    23.7250     2.3600    -2.8440 
   59.6250    80.5600     6.3190     6.3770     6.7170    23.7840     2.3490    -3.1660 
   59.7500    83.7980     6.0370     6.0740     6.5550    23.8140     2.3420    -3.5370 
   59.8750    83.0730     6.0180     6.0170     6.6430    23.8250     2.3340    -3.9400 
   60.0000    79.4980     6.2500     6.2090     7.0780    23.8190     2.3170    -4.3820 
   60.1250    74.9830     6.6860     6.6090     7.7650    23.7960     2.2890    -4.8750 
   60.2500    69.1630     7.1770     7.0810     8.2070    23.7860     2.2580    -5.3860 
   60.3750    62.6940     7.6080     7.5240     8.3850    23.7830     2.2320    -5.8750 
   60.5000    57.8500     7.8790     7.8490     8.4920    23.7870     2.2180    -6.3170 
   60.6250    57.3630     7.9030     7.9620     8.5160    23.8000     2.2190    -6.6280 
   60.7500    60.6040     7.7460     7.8900     8.5000    23.8240     2.2290    -6.7960 
   60.8750    66.3100     7.4950     7.6800     8.2320    23.8550     2.2400    -6.8450 
   61.0000    71.2870     7.2380     7.3980     7.8380    23.8820     2.2470    -6.8050 
   61.1250    72.0850     7.0460     7.1080     7.4910    23.8810     2.2460    -6.6770 
