~V
VERS. 2.00: Ver 2.00
~W
STRT.M 56.0000:
STOP.M 268.0000:
STEP.M 0.1250:
NULL. -999.2500:
UWI. F10027:
~C
DEPT.M :
GR.API :
RML.OHMM :
RI. :
RXO.OHMM :
CALI.CM :
DEN.GM/CC :
SP.MV :
~A
# ...
  213.5000    75.4110    21.5400    19.8700    22.5960    23.9020     2.2530   -10.5100 
  213.6250    75.9630    21.8240    19.9540    21.8210    23.8400     2.2710   -10.4580 
  213.7500    73.1250    22.0640    19.9800    21.5730    23.7390     2.2920   -10.4400 
  213.8750    70.0010    22.2100    19.9150    21.9430    23.6710     2.3080   -10.3990 
  214.0000    69.1400    22.2420    19.7620    21.8610    23.6790     2.3130   -10.3700 
  214.1250    70.1590    22.1980    19.5850    21.0290    23.8320     2.3010   -10.4200 
  214.2500    70.0140    22.2120    19.4900    20.7510    24.0300     2.2820   -10.4770 
  214.3750    67.3000    22.4270    19.5780    21.3760    24.1670     2.2630   -10.5100 
  214.5000    64.1640    22.9810    19.9450    21.8020    24.2170     2.2480   -10.5650 
  214.6250    64.8200    24.0690    20.7520    22.7460    24.2220     2.2400   -10.6460 
  214.7500    66.5950    25.6610    21.9870    24.2780    24.2210     2.2390   -10.7020 
  214.8750    65.8160    27.6870    23.6170    26.5900    24.2110     2.2430   -10.7410 
  215.0000    63.5830    29.9090    25.4910    30.3230    24.1870     2.2500   -10.7850 
  215.1250    63.9070    31.7330    27.2060    35.5080    24.1600     2.2520   -10.8170 
  215.2500    65.8720    32.5700    28.2650    38.0420    24.1680     2.2540   -10.8180 
  215.3750    66.3840    32.0990    28.3340    38.2510    24.1720     2.2610   -10.8380 
  215.5000    66.0700    30.4970    27.4380    36.3140    24.1720     2.2760   -10.9070 
  215.6250    66.3450    28.5130    26.0370    30.9720    24.1940     2.2960   -10.9480 
  215.7500    65.5530    27.2340    24.9910    26.2600    24.2390     2.3100   -10.9920 
  215.8750    64.3180    27.4710    24.9750    26.2800    24.2700     2.3150   -11.1050 
  216.0000    64.4260    29.8650    26.5850    31.3830    24.2670     2.3120   -11.2300 
  216.1250    64.9780    35.1340    30.6260    39.7060    24.2160     2.3110   -11.3020 
  216.2500    64.0590    41.9320    36.2800    47.0460    24.1640     2.3240   -11.4070 
  216.3750    61.9900    47.4620    41.3850    53.2830    24.1070     2.3570   -11.5130 
  216.5000    60.2260    47.8950    42.5820    60.1500    24.0170     2.4090   -11.5170 
  216.6250    59.3140    40.5280    37.0390    68.5200    23.9420     2.4710   -11.4850 
  216.7500    60.9990    29.8210    28.1450    67.3280    23.8820     2.5200   -11.4140 
  216.8750    65.0780    19.9510    19.4780    43.4540    23.8660     2.5390   -11.2320 
  217.0000    66.8100    13.0830    13.1040    18.8830    23.8760     2.5240   -10.9860 
  217.1250    62.9000     9.6250     9.5810     9.7700    23.8990     2.4830   -10.7540 
  217.2500    59.0470     8.1050     7.7850     7.7320    23.9250     2.4390   -10.4860 
  217.3750    58.3100     7.7360     7.1170     7.9450    23.9600     2.4090   -10.1850 
  217.5000    58.5720     7.9250     7.1290     8.2820    24.0270     2.3970    -9.9490 
  217.6250    57.5540     8.2120     7.4540     8.1920    24.1340     2.4000    -9.7290 
  217.7500    56.0850     8.3080     7.7230     8.0260    24.1990     2.4060    -9.4970 
  217.8750    55.3080     8.1550     7.7850     7.9500    24.2330     2.4070    -9.3340 
  218.0000    55.2200     7.8140     7.6300     7.7400    24.2620     2.4000    -9.2470 
  218.1250    54.7620     7.3910     7.3270     7.4620    24.2640     2.3890    -9.1250 
  218.2500    54.3280     6.9950     7.0020     7.3760    24.2440     2.3820    -8.9940 
  218.3750    54.0400     6.6840     6.7230     6.9650    24.2240     2.3810    -8.9260 
  218.5000    54.4270     6.5030     6.5290     6.5990    24.2150     2.3770    -8.8500 
  218.6250    54.2190     6.5060     6.4640     6.6160    24.2140     2.3630    -8.7800 
  218.7500    53.1440     6.6740     6.5290     7.4520    24.2150     2.3440    -8.7770 
  218.8750    54.0230     6.9900     6.7330     8.6410    24.2160     2.3280    -8.7690 
  219.0000    59.1670     7.4150     7.0700     8.5170    24.2180     2.3280    -8.7160 
  219.1250    69.6610     7.8960     7.5210     8.7310    24.2360     2.3460    -8.7220 
  219.2500    81.4620     8.3620     8.0070     9.3650    24.2860     2.3680    -8.7710 
  219.3750    90.7730     8.7700     8.4620    10.2300    24.3510     2.3830    -8.7780 
  219.5000    96.1220     9.0970     8.8310    10.7920    24.3980     2.3840    -8.8130 
  219.6250    98.2380     9.3140     9.0570    10.8350    24.4190     2.3760    -8.9100 
  219.7500   100.3830     9.4330     9.1420    10.5850    24.4310     2.3680    -8.9870 
  219.8750   103.2090     9.4480     9.0910    10.3110    24.4250     2.3610    -9.0840 
  220.0000   106.6530     9.3650     8.9240    10.1200    24.4170     2.3580    -9.2470 
  220.1250   108.0860     9.1910     8.6700    10.0050    24.4130     2.3540    -9.4180 
  220.2500   109.1210     8.9820     8.3960     9.9020    24.4080     2.3520    -9.5820 
  220.3750   112.4290     8.8000     8.1580     9.5600    24.3990     2.3510    -9.7930 
  220.5000   117.3750     8.7170     8.0140     9.1540    24.3990     2.3510   -10.0280 
  220.6250   116.5140     8.8810     8.0680     9.5100    24.3970     2.3480   -10.2330 
  220.7500   109.1010     9.4210     8.4020    10.9240    24.3810     2.3430   -10.4400 
  220.8750   100.8690    10.5440     9.1760    13.4010    24.3850     2.3420   -10.6660 
  221.0000    95.7770    12.4530    10.5860    14.7660    24.4110     2.3580   -10.9010 
  221.1250    90.9230    15.3590    12.9520    16.1870    24.4010     2.4050   -11.1530 
  221.2500    82.6930    18.8520    16.1020    20.2900    24.3310     2.4700   -11.3980 
  221.3750    74.4510    22.3390    19.6410    32.8170    24.2220     2.5310   -11.6350 
  221.5000    71.6400    25.0920    22.8770    59.6980    24.1080     2.5590   -11.8710 
  221.6250    75.8320    26.5090    24.9890    54.6670    24.0190     2.5310   -12.0860 
  221.7500    79.1070    27.2380    26.2210    32.8130    24.0050     2.4630   -12.3230 
  221.8750    78.8350    28.2460    27.3090    26.4700    24.0560     2.3800   -12.5730 
  222.0000    77.3860    30.4370    29.1340    35.8510    24.1510     2.3080   -12.7690 
  222.1250    75.5210    34.5000    32.5770    46.5050    24.2120     2.2660   -12.9270 
  222.2500    72.7480    39.7900    37.4010    53.7980    24.2290     2.2500   -13.1230 
  222.3750    70.8340    45.3650    42.9200    61.8750    24.1830     2.2490   -13.3090 
  222.5000    71.3160    50.1200    48.0580    68.9590    24.1060     2.2520   -13.4460 
  222.6250    73.2290    53.0570    51.6280    59.8620    24.1050     2.2480   -13.6140 
  222.7500    74.7800    54.5130    53.6790    53.7770    24.1540     2.2370   -13.7540 
  222.8750    76.2260    54.9070    54.5400    55.8350    24.1990     2.2220   -13.8530 
  223.0000    76.9980    54.5860    54.5570    65.0890    24.2270     2.2090   -13.9950 
  223.1250    75.4990    53.7010    53.8760    66.4540    24.2510     2.2000   -14.1490 
  223.2500    73.0380    52.5300    52.7890    60.7260    24.2620     2.1930   -14.2760 
  223.3750    70.7570    51.3220    51.5220    55.2130    24.2610     2.1880   -14.4300 
  223.5000    69.0920    50.4220    50.4170    57.0320    24.2460     2.1880   -14.6180 
  223.6250    69.1460    52.3680    50.0680    56.1620    24.2180     2.1900   -14.7540 
  223.7500    70.5580    58.1610    50.8220    53.4670    24.2030     2.1930   -14.9050 
  223.8750    71.8660    65.6130    52.9800    52.3300    24.1910     2.1930   -15.0920 
  224.0000    70.4140    72.3990    56.7470    55.9040    24.1390     2.1890   -15.2590 
  224.1250    67.1770    79.4850    62.4120    62.9780    23.9690     2.1830   -15.4010 
  224.2500    66.4200    87.9290    69.2840    64.0090    23.7240     2.1760   -15.5270 
  224.3750    67.9710    96.5360    76.4580    61.6250    23.5220     2.1700   -15.6360 
  224.5000    68.3330   103.6950    82.7170    67.8880    23.4750     2.1640   -15.7040 
  224.6250    66.1630   107.6880    86.7300    86.2560    23.6110     2.1620   -15.7940 
