~V
VERS. 2.00: Ver 2.00
~W
STRT.M 50.0000:
STOP.M 293.0000:
STEP.M 0.1250:
NULL. -999.2500:
UWI. F10037:
~C
DEPT.M :
GR.API :
RML.OHMM :
RI. :
RXO.OHMM :
CALI.CM :
SP.MV :
DEN.GM/CC :
~A
# ...
   61.2500    58.9290     8.0880     6.9240     7.8220    24.3810   -11.8260     2.2090 
   61.3750    56.7060     8.1210     6.9930     8.0440    24.4540   -12.2420     2.2100 
   61.5000    55.0710     8.0960     7.0030     8.0680    24.4740   -12.6280     2.2150 
   61.6250    55.4440     8.0240     6.9440     7.9090    24.4580   -12.9750     2.2190 
   61.7500    54.8940     7.9460     6.8490     7.7010    24.4080   -13.2350     2.2210 
   61.8750    53.7090     7.8860     6.7500     7.5280    24.3080   -13.3960     2.2180 
   62.0000    54.4800     7.8560     6.6690     7.4800    24.1500   -13.5130     2.2110 
   62.1250    56.2780     7.8540     6.6220     7.6230    23.9480   -13.6170     2.2060 
   62.2500    57.6650     7.8570     6.5960     7.8120    23.7560   -13.6410     2.2060 
   62.3750    58.2650     7.8590     6.5830     7.8850    23.6150   -13.5830     2.2120 
   62.5000    57.4110     7.8660     6.5800     7.8300    23.5320   -13.4890     2.2220 
   62.6250    55.4530     7.9000     6.5960     7.7310    23.4880   -13.3760     2.2290 
   62.7500    54.6900     7.9690     6.6340     7.7400    23.4590   -13.2690     2.2290 
   62.8750    55.9510     8.0550     6.6830     7.9470    23.4480   -13.1480     2.2220 
   63.0000    57.9200     8.1110     6.7170     8.3470    23.4700   -12.9820     2.2110 
   63.1250    59.8530     8.0570     6.6880     8.5730    23.5390   -12.7430     2.2020 
   63.2500    62.2380     7.8760     6.5750     8.5910    23.6650   -12.5000     2.1980 
   63.3750    64.8530     7.5910     6.3810     8.4260    23.8240   -12.2480     2.2000 
   63.5000    66.1960     7.2690     6.1410     8.0640    23.9900   -11.9570     2.2080 
   63.6250    65.7520     7.0120     5.9200     7.5770    24.1690   -11.6710     2.2190 
   63.7500    65.2400     6.8770     5.7730     7.2060    24.3390   -11.4200     2.2290 
   63.8750    65.2280     6.8830     5.7280     7.0860    24.4390   -11.2270     2.2370 
   64.0000    64.7780     7.0110     5.7860     7.2360    24.4350   -11.1270     2.2430 
   64.1250    63.3050     7.2080     5.9210     7.5840    24.3290   -11.1160     2.2450 
   64.2500    61.2410     7.3800     6.0660     7.6800    24.1640   -11.1330     2.2420 
   64.3750    58.9680     7.4680     6.1720     7.6260    23.9540   -11.1950     2.2340 
   64.5000    56.8250     7.4390     6.2070     7.5350    23.7250   -11.2850     2.2220 
   64.6250    58.0670     7.2990     6.1530     7.3570    23.5190   -11.3220     2.2090 
   64.7500    61.6740     7.1240     6.0510     7.1500    23.3290   -11.3100     2.2000 
   64.8750    63.2990     6.9750     5.9380     7.1190    23.1690   -11.2330     2.1960 
   65.0000    62.7380     6.8830     5.8430     7.2840    23.0520   -11.0290     2.1960 
   65.1250    64.4970     6.8590     5.7850     7.4680    23.0110   -10.7010     2.2000 
   65.2500    68.5890     6.8620     5.7500     7.5020    23.0280   -10.3300     2.2030 
   65.3750    71.2570     6.8490     5.7170     7.4590    23.0760    -9.9090     2.2020 
   65.5000    70.6240     6.7830     5.6610     7.2980    23.1360    -9.4120     2.1970 
   65.6250    69.3200     6.6390     5.5580     6.9340    23.1820    -8.7880     2.1900 
   65.7500    69.6620     6.4440     5.4170     6.4220    23.2100    -8.0410     2.1890 
   65.8750    72.5990     6.2300     5.2560     5.9080    23.2330    -7.2590     2.1990 
   66.0000    79.1430     6.0370     5.1010     5.4970    23.2600    -6.5800     2.2210 
   66.1250    87.2890     5.9020     4.9820     5.4040    23.2900    -6.0210     2.2490 
   66.2500    92.5410     5.8230     4.9080     5.3780    23.3550    -5.4870     2.2720 
   66.3750    91.2910     5.7790     4.8730     5.3190    23.4390    -4.9800     2.2880 
   66.5000    85.9660     5.7440     4.8600     5.1880    23.4550    -4.5780     2.2950 
   66.6250    85.6230     5.6910     4.8510     5.1700    23.3910    -4.3960     2.2980 
   66.7500    90.3160     5.6300     4.8370     5.1540    23.3070    -4.3880     2.3000 
   66.8750    94.0490     5.6000     4.8340     5.1380    23.2370    -4.4680     2.3000 
   67.0000    92.3280     5.6630     4.8760     5.1390    23.1460    -4.5530     2.3000 
   67.1250    86.9940     5.8960     5.0080     5.2380    22.9890    -4.6260     2.2970 
   67.2500    82.5000     6.2540     5.2100     5.4610    22.7810    -4.7490     2.2930 
   67.3750    78.0200     6.6220     5.4230     5.9310    22.5550    -4.9580     2.2860 
   67.5000    73.6620     6.8300     5.5540     6.4650    22.3590    -5.2120     2.2760 
   67.6250    71.9080     6.6690     5.4790     6.8660    22.2270    -5.4050     2.2670 
   67.7500    74.3140     6.2020     5.2200     6.8020    22.0930    -5.5210     2.2640 
   67.8750    80.1890     5.6540     4.8970     6.1350    21.8440    -5.5910     2.2710 
   68.0000    87.2110     5.4050     4.7300     5.4740    21.4690    -5.6640     2.2900 
   68.1250    90.2640     6.0280     5.1000     5.6820    21.0060    -5.7980     2.3160 
   68.2500    85.2050     7.6400     6.1450     6.9570    20.5520    -6.0060     2.3400 
   68.3750    74.2460    10.0950     7.8410     9.0980    20.1210    -6.2870     2.3550 
   68.5000    65.4990    12.8410     9.8870    11.5820    19.7630    -6.6650     2.3580 
   68.6250    63.6960    14.7280    11.5680    13.0540    19.5420    -7.2570     2.3510 
   68.7500    64.6290    14.9340    12.2360    13.1780    19.4110    -8.0600     2.3410 
   68.8750    64.9170    13.4310    11.6800    11.5410    19.3140    -9.0550     2.3290 
   69.0000    65.4530    11.1530    10.2970     9.5630    19.2260   -10.1500     2.3140 
   69.1250    65.4460     9.3350     8.8520     8.7140    19.1850   -11.2430     2.2900 
   69.2500    63.9730     8.3030     7.8170     8.4170    19.2620   -12.2340     2.2590 
   69.3750    62.4500     7.9150     7.2410     8.2970    19.5340   -13.0890     2.2240 
   69.5000    62.2380     7.9150     7.0170     8.2710    20.0780   -13.8120     2.1910 
   69.6250    63.5060     8.0410     6.9970     8.2340    20.9590   -14.3600     2.1670 
   69.7500    64.5040     8.0810     6.9980     8.2110    22.0620   -14.7640     2.1520 
   69.8750    64.1850     7.9860     6.9490     8.0770    23.1820   -15.0270     2.1470 
   70.0000    61.4730     7.7980     6.8460     7.8030    24.0620   -15.1790     2.1500 
   70.1250    57.3800     7.6150     6.7220     7.6500    24.5080   -15.2250     2.1550 
   70.2500    55.9670     7.4990     6.6200     7.6520    24.6480   -15.1860     2.1570 
   70.3750    58.4010     7.4590     6.5510     7.8580    24.6170   -15.0770     2.1550 
   70.5000    61.6030     7.4680     6.5080     8.1650    24.5180   -14.9050     2.1480 
   70.6250    61.4700     7.4900     6.4710     8.3820    24.3740   -14.6270     2.1390 
   70.7500    59.1060     7.4970     6.4250     8.4780    24.1810   -14.2550     2.1320 
   70.8750    58.0210     7.4880     6.3710     8.4880    23.9350   -13.8460     2.1290 
   71.0000    60.0530     7.4770     6.3210     8.5270    23.6800   -13.4340     2.1350 
   71.1250    62.9220     7.5000     6.3040     8.6060    23.4670   -13.0870     2.1510 
   71.2500    63.3570     7.5940     6.3410     8.6170    23.3040   -12.8570     2.1760 
   71.3750    61.7260     7.7910     6.4540     8.6830    23.2190   -12.7270     2.2030 
   71.5000    60.2850     8.0960     6.6480     8.8330    23.2490   -12.6710     2.2290 
   71.6250    59.6300     8.4550     6.8930     9.2120    23.3980   -12.7200     2.2460 
   71.7500    58.8200     8.7390     7.1020     9.7240    23.5870   -12.8570     2.2540 
   71.8750    59.2800     8.8350     7.1950    10.1740    23.7510   -13.0220     2.2520 
   72.0000    62.6600     8.6840     7.1250    10.2060    23.8570   -13.2140     2.2420 
   72.1250    68.2340     8.3100     6.8850     9.6170    23.9090   -13.4410     2.2270 
   72.2500    71.6490     7.9010     6.5910     8.7050    23.9330   -13.6600     2.2120 
   72.3750    70.9520     7.6110     6.3430     8.6130    23.9740   -13.8780     2.2030 
