~V
VERS. 2.00: Ver 2.00
~W
STRT.M 55.0000:
STOP.M 247.0000:
STEP.M 0.1250:
NULL. -999.2500:
UWI. F10032:
~C
DEPT.M :
GR.API :
RML.OHMM :
RI. :
RXO.OHMM :
CALI.CM :
DEN.GM/CC :
SP.MV :
~A
# ...
  178.7500    62.5460   167.9990   159.5480   147.4000    24.8420     2.1010   -23.0230 
  178.8750    61.2010   167.0710   159.7160   151.4770    24.5760     2.1690   -22.9630 
  179.0000    59.3060   165.2190   158.8000   173.5360    24.5830     2.2300   -22.9100 
  179.1250    58.5820   156.7890   152.6720   184.4310    24.8620     2.2480   -22.8370 
  179.2500    59.1700   138.7610   138.4390   171.7770    25.0280     2.2310   -22.7480 
  179.3750    60.8750   114.2820   117.2450   153.7440    25.0430     2.2030   -22.6870 
  179.5000    62.5140    90.7300    94.6220   137.6250    25.0010     2.1870   -22.6780 
  179.6250    64.8540    75.1300    77.6580    97.4400    24.9500     2.1920   -22.6930 
  179.7500    68.2170    68.0420    68.5410    66.1290    24.9030     2.2040   -22.7330 
  179.8750    69.2240    69.3430    67.9520    61.2350    24.8990     2.2110   -22.8550 
  180.0000    64.7680    78.7840    76.0710    92.9070    24.9310     2.2100   -23.0380 
  180.1250    59.4290    97.2900    93.9520   137.1010    24.9030     2.2030   -23.2290 
  180.2500    60.0160   121.5190   117.7280   160.5150    24.7660     2.1970   -23.4320 
  180.3750    64.2040   145.9400   141.6230   163.0790    24.5380     2.1900   -23.6760 
  180.5000    65.2760   162.6380   158.1650   160.8060    24.4630     2.1780   -23.9290 
  180.6250    61.6170   166.4700   162.3000   157.0050    24.4400     2.1590   -24.1600 
  180.7500    58.8680   164.8220   160.3340   153.1520    24.4810     2.1450   -24.3870 
  180.8750    59.0090   163.6200   157.8990   149.8970    24.5540     2.1500   -24.5820 
  181.0000    59.7710   165.6270   158.0600   147.4850    24.6820     2.1810   -24.7590 
  181.1250    58.9270   171.7250   161.8970   151.9310    24.7810     2.2290   -24.9090 
  181.2500    58.1860   179.7230   167.6410   164.3580    24.5840     2.2640   -25.0400 
  181.3750    57.8160   186.8900   173.1310   181.1260    24.4230     2.2700   -25.1350 
  181.5000    57.4050   190.3260   175.9660   184.2520    24.7190     2.2470   -25.1930 
  181.6250    57.9690   187.6990   174.0770   179.3650    25.0140     2.2130   -25.2320 
  181.7500    60.0640   181.2610   169.0500   172.4820    25.1710     2.1910   -25.2450 
  181.8750    61.3120   173.7910   163.0240   162.5000    25.2390     2.1840   -25.2520 
  182.0000    59.7200   167.7930   158.0950   149.2390    25.2140     2.1850   -25.2600 
  182.1250    58.4400   164.9780   156.0530   141.4460    25.1620     2.1840   -25.2720 
  182.2500    59.6320   164.6250   156.5640   146.4130    25.1420     2.1800   -25.2720 
  182.3750    61.1620   165.7640   158.7820   160.4300    25.1170     2.1770   -25.3000 
  182.5000    60.3520   167.1980   161.5410   171.7940    25.0880     2.1770   -25.3450 
  182.6250    56.1670   167.3760   163.3650   173.4240    25.0560     2.1810   -25.3470 
  182.7500    52.6510   165.3730   163.1200   164.9940    25.0170     2.1850   -25.3700 
  182.8750    52.8450   160.6410   160.0180   152.4350    24.9480     2.1850   -25.4200 
  183.0000    57.3500   153.2440   153.9850   147.3490    24.8720     2.1820   -25.4550 
  183.1250    61.3360   143.9810   145.5840   140.0980    24.8650     2.1780   -25.4570 
  183.2500    61.7910   134.8000   136.6660   128.3240    24.9210     2.1760   -25.4860 
  183.3750    61.0150   127.0950   128.6710   117.7840    24.9720     2.1770   -25.5510 
  183.5000    61.7240   121.9860   122.9170   111.1180    24.9910     2.1820   -25.5770 
  183.6250    62.2040   121.1890   121.2740   108.8390    24.9900     2.1910   -25.6220 
  183.7500    60.2000   125.0280   124.2300   116.2750    24.9720     2.2010   -25.7240 
  183.8750    57.4940   134.2140   132.6290   128.1360    24.9550     2.2100   -25.7890 
  184.0000    57.4340   149.4690   147.2970   130.9720    24.9400     2.2140   -25.7790 
  184.1250    58.3510   172.4330   169.9340   164.7410    24.9550     2.2090   -25.8200 
  184.2500    57.5320   201.3310   198.5850   221.3590    24.9850     2.1990   -25.8790 
  184.3750    56.0990   233.3480   230.1220   264.9140    24.9800     2.1870   -25.8520 
  184.5000    55.2940   263.0350   258.8850   278.8930    24.9320     2.1760   -25.8030 
  184.6250    55.3640   280.6910   275.8520   289.9810    24.8810     2.1700   -25.7960 
  184.7500    55.9280   281.9190   277.9230   296.7920    24.8750     2.1650   -25.7240 
  184.8750    56.7230   265.1200   264.1070   288.0230    24.8840     2.1590   -25.5880 
  185.0000    57.4670   233.2600   236.4860   269.6630    24.9350     2.1530   -25.4610 
  185.1250    57.7700   194.4310   200.5060   246.9410    24.9660     2.1470   -25.3070 
  185.2500    58.2200   159.6200   165.9000   213.6900    24.9710     2.1480   -25.0890 
  185.3750    58.1540   133.7530   138.2970   153.5440    24.9490     2.1580   -24.8020 
  185.5000    57.8230   118.0640   120.3390    99.3840    24.9000     2.1760   -24.4910 
  185.6250    57.8460   113.0770   113.6700    79.4480    24.8250     2.1980   -24.1170 
  185.7500    58.2710   115.2600   114.7320   104.6430    24.7480     2.2160   -23.6730 
  185.8750    57.4180   122.5510   121.1870   118.9410    24.6830     2.2260   -23.2340 
  186.0000    56.3190   132.6990   130.6680   121.7350    24.6230     2.2300   -22.8190 
  186.1250    59.0130   142.9770   140.3950   134.2420    24.6680     2.2310   -22.3820 
  186.2500    64.0650   151.6780   148.4980   132.4400    24.8230     2.2330   -21.9550 
  186.3750    66.1020   159.6950   155.7770   108.8210    24.9980     2.2340   -21.5870 
  186.5000    62.1180   169.5560   164.7310   113.8980    25.1410     2.2340   -21.2740 
  186.6250    57.8730   184.3040   178.3170   153.5750    25.2070     2.2290   -20.9480 
  186.7500    59.1720   203.4360   195.9330   200.1920    25.2460     2.2220   -20.6490 
  186.8750    62.7840   224.8640   215.3160   220.4930    25.2700     2.2150   -20.3910 
  187.0000    63.2330   244.0230   232.0680   233.9680    25.2810     2.2070   -20.1450 
  187.1250    59.0620   253.7780   239.9080   249.3310    25.2800     2.1920   -19.9040 
  187.2500    55.5970   254.8680   239.5090   267.0000    25.2660     2.1650   -19.6480 
  187.3750    54.6480   251.6620   234.4530   260.4060    25.2160     2.1310   -19.4140 
  187.5000    56.6980   246.8010   227.5890   216.4650    25.1500     2.1080   -19.1810 
  187.6250    59.0710   234.8600   216.2560   169.5950    25.1510     2.1360   -18.9430 
  187.7500    59.1770   209.5160   195.8800   165.0630    25.1550     2.2210   -18.7440 
  187.8750    58.7790   171.8410   165.3200   224.4370    24.9570     2.3390   -18.5830 
  188.0000    61.3520   131.7280   130.0270   292.6090    24.7210     2.4420   -18.4120 
  188.1250    67.2960   101.0710   100.0700   153.4040    24.6180     2.4810   -18.1970 
  188.2500    71.3250    81.5650    79.7550    71.6510    24.6880     2.4700   -17.9880 
  188.3750    71.1570    71.7860    68.9390    46.8700    24.7460     2.4470   -17.7970 
  188.5000    67.6500    69.8060    65.8590    45.5370    24.6370     2.4510   -17.5760 
  188.6250    64.6830    74.6970    69.4070    60.7360    24.5130     2.4930   -17.3280 
  188.7500    66.2120    82.3330    75.7550    87.7900    24.4430     2.5430   -17.0600 
  188.8750    71.6120    86.9780    79.8450   104.7530    24.4290     2.5780   -16.7680 
  189.0000    77.7300    81.8630    75.4550    89.3640    24.4480     2.5880   -16.4460 
  189.1250    80.7770    65.1900    60.3100    99.1820    24.4200     2.5730   -16.1050 
  189.2500    81.1380    44.0370    42.8840   103.6420    24.3770     2.5450   -15.7660 
  189.3750    81.0400    25.4310    28.5360    68.1110    24.3790     2.5120   -15.4040 
  189.5000    81.9030    16.2160    18.7620    28.8930    24.3830     2.4840   -15.0000 
  189.6250    81.8370    11.4010    13.1850    13.2260    24.3160     2.4690   -14.6050 
  189.7500    80.0700     8.5300     9.7900     9.6110    24.1080     2.4630   -14.2460 
  189.8750    77.4510     6.9680     7.7790     8.2880    23.8160     2.4560   -13.8780 
