~V
VERS. 2.00: Ver 2.00
~W
STRT.M 50.0000:
STOP.M 293.0000:
STEP.M 0.1250:
NULL. -999.2500:
UWI. F10037:
~C
DEPT.M :
GR.API :
RML.OHMM :
RI. :
RXO.OHMM :
CALI.CM :
SP.MV :
DEN.GM/CC :
~A
# ...
  207.5000    32.2750     6.2460     5.2750     5.4590    26.2620    -5.1090     2.3250 
  207.6250    31.6630     6.2690     5.2990     5.5600    26.4270    -5.1590     2.3350 
  207.7500    32.7920     6.2910     5.3130     5.6350    26.0680    -5.2250     2.3600 
  207.8750    35.1950     6.3230     5.3190     5.7220    25.5300    -5.2990     2.3910 
  208.0000    36.6930     6.3660     5.3180     5.8210    25.1540    -5.4080     2.4200 
  208.1250    35.7590     6.4020     5.3110     5.9390    25.0700    -5.5370     2.4400 
  208.2500    34.6050     6.4170     5.3010     6.0580    25.0860    -5.7220     2.4490 
  208.3750    34.4730     6.4210     5.3000     6.1140    25.1160    -5.9480     2.4520 
  208.5000    35.5610     6.4430     5.3250     6.1200    25.0970    -6.1890     2.4540 
  208.6250    37.5360     6.5540     5.4180     6.1530    24.9170    -6.5030     2.4620 
  208.7500    40.3530     6.7980     5.6070     6.3420    24.5150    -6.8210     2.4770 
  208.8750    44.9870     7.2070     5.9140     6.7350    23.8870    -7.1560     2.4990 
  209.0000    52.1570     7.7820     6.3440     7.3260    23.2510    -7.5200     2.5190 
  209.1250    63.4460     8.4970     6.8800     8.1180    23.1250    -7.8550     2.5260 
  209.2500    77.3970     9.2240     7.4350     8.9780    23.4650    -8.1420     2.5170 
  209.3750    89.5510     9.8230     7.9100     9.6240    24.0310    -8.3790     2.4990 
  209.5000    93.1420    10.1470     8.2050     9.9120    24.5150    -8.5630     2.4830 
  209.6250    85.2530    10.0310     8.1980     9.8420    24.5900    -8.5820     2.4820 
  209.7500    74.4430     9.5670     7.9330     9.4050    24.4160    -8.6580     2.4920 
  209.8750    64.9240     8.8980     7.4880     8.5560    24.3120    -8.7070     2.5060 
  210.0000    56.9710     8.2230     6.9900     7.4990    24.4070    -8.7100     2.5140 
  210.1250    50.9050     7.7690     6.5900     6.6500    24.6050    -8.6870     2.5110 
  210.2500    48.8300     7.5850     6.3560     6.3780    24.7490    -8.7070     2.5020 
  210.3750    49.6370     7.6360     6.2920     6.5050    24.7430    -8.7630     2.4910 
  210.5000    51.1920     7.8160     6.3480     6.8130    24.5610    -8.8500     2.4810 
  210.6250    53.0820     7.9580     6.4300     7.0290    24.2380    -8.9610     2.4710 
  210.7500    53.8820     7.9400     6.4390     6.8580    23.9090    -9.0880     2.4580 
  210.8750    52.8360     7.7360     6.3370     6.4320    23.7740    -9.1870     2.4410 
  211.0000    50.3020     7.4050     6.1380     6.0300    23.9330    -9.2710     2.4250 
  211.1250    48.3060     7.0650     5.8980     5.8100    24.3310    -9.3280     2.4150 
  211.2500    46.5490     6.8140     5.6920     5.7260    24.8020    -9.3320     2.4160 
  211.3750    43.6600     6.6790     5.5560     5.7220    25.2090    -9.3230     2.4270 
  211.5000    39.5640     6.6470     5.4940     5.7600    25.4980    -9.2650     2.4450 
  211.6250    35.6200     6.6840     5.4930     5.7880    25.6460    -9.2160     2.4620 
  211.7500    33.1780     6.7340     5.5140     5.8130    25.7230    -9.1740     2.4730 
  211.8750    32.5940     6.7650     5.5320     5.8530    25.7000    -9.1220     2.4790 
  212.0000    33.4800     6.7570     5.5310     5.9090    25.6140    -9.1130     2.4840 
  212.1250    35.0080     6.6990     5.4990     5.9500    25.3780    -9.1000     2.4900 
  212.2500    36.9440     6.6140     5.4470     5.9550    25.0570    -9.0760     2.4970 
  212.3750    38.6090     6.5310     5.3920     5.8940    24.7750    -9.0650     2.5010 
  212.5000    40.7940     6.4840     5.3590     5.8000    24.6260    -9.0640     2.4980 
  212.6250    44.0320     6.5210     5.3810     5.7060    24.6000    -9.0670     2.4840 
  212.7500    46.5700     6.6350     5.4570     5.7460    24.6500    -9.0940     2.4650 
  212.8750    47.3490     6.7880     5.5690     5.9460    24.7700    -9.1310     2.4420 
  213.0000    47.8190     6.9150     5.6770     6.2700    24.9400    -9.1430     2.4210 
  213.1250    49.9610     6.9310     5.7280     6.5600    25.1250    -9.1810     2.4110 
  213.2500    51.9480     6.8350     5.7090     6.7010    25.2570    -9.2320     2.4150 
  213.3750    51.2520     6.6880     5.6470     6.6640    25.3270    -9.2410     2.4350 
  213.5000    48.6590     6.6010     5.6060     6.5100    25.3940    -9.2710     2.4640 
  213.6250    46.4920     6.7160     5.6810     6.4610    25.4730    -9.2770     2.4890 
  213.7500    46.7020     7.0250     5.8920     6.6110    25.4780    -9.2500     2.4970 
  213.8750    49.2780     7.4350     6.1950     6.9520    25.3410    -9.2360     2.4870 
  214.0000    52.5960     7.7850     6.4910     7.4020    25.0350    -9.2220     2.4640 
  214.1250    53.9950     7.8480     6.6180     7.6860    24.5850    -9.1870     2.4420 
  214.2500    52.6250     7.5860     6.5170     7.4490    24.1620    -9.1340     2.4280 
  214.3750    48.4750     7.0730     6.2090     6.5710    23.9140    -9.0850     2.4240 
  214.5000    41.9650     6.4770     5.7910     5.5700    23.8350    -9.0270     2.4210 
  214.6250    38.1560     6.0070     5.4080     5.1990    23.8630    -8.9800     2.4160 
  214.7500    39.9460     5.7410     5.1500     5.1560    23.8930    -8.9510     2.4090 
  214.8750    44.0940     5.6690     5.0350     5.2790    23.8790    -8.8990     2.4050 
  215.0000    48.5760     5.7320     5.0400     5.4470    23.8640    -8.8380     2.4080 
  215.1250    54.2200     5.8540     5.1200     5.5140    24.0600    -8.7750     2.4160 
  215.2500    61.0790     5.9550     5.2050     5.5090    24.4260    -8.7160     2.4230 
  215.3750    65.6310     6.0060     5.2600     5.4520    24.8510    -8.6790     2.4270 
  215.5000    65.8210     5.9970     5.2700     5.4260    25.1780    -8.6490     2.4300 
  215.6250    64.2510     5.9340     5.2310     5.4640    25.2550    -8.6180     2.4370 
  215.7500    63.3080     5.8420     5.1630     5.5310    25.1760    -8.6060     2.4460 
  215.8750    64.9300     5.7390     5.0790     5.6320    25.0830    -8.6400     2.4560 
  216.0000    68.5040     5.6430     4.9940     5.7770    25.0470    -8.6910     2.4640 
  216.1250    70.7230     5.5900     4.9380     5.9230    25.0540    -8.7750     2.4680 
  216.2500    71.6390     5.6110     4.9360     6.0800    25.0670    -8.8870     2.4710 
  216.3750    71.5050     5.7480     5.0250     6.2950    25.0800    -8.9840     2.4720 
  216.5000    70.9650     6.0470     5.2440     6.6720    25.0880    -9.1060     2.4680 
  216.6250    70.4250     6.5820     5.6560     7.5200    25.0950    -9.2470     2.4530 
  216.7500    70.7160     7.3100     6.2430     8.8980    25.1140    -9.3660     2.4300 
  216.8750    71.3960     8.1710     6.9700    10.5240    25.1460    -9.4890     2.4020 
  217.0000    72.3800     9.0630     7.7670    12.2310    25.1660    -9.6190     2.3770 
  217.1250    74.2250     9.8400     8.5240    13.6910    25.1720    -9.7590     2.3650 
  217.2500    74.3290    10.4220     9.1560    14.2610    25.1710    -9.9180     2.3680 
  217.3750    70.7200    10.8110     9.6350    13.7240    25.1690   -10.0950     2.3810 
  217.5000    67.1750    11.1000    10.0030    13.6360    25.1630   -10.2780     2.3980 
  217.6250    67.3900    11.4580    10.3740    14.4460    25.1470   -10.4640     2.4100 
  217.7500    68.3370    11.9920    10.8500    15.0160    25.1170   -10.6630     2.4160 
  217.8750    67.9270    12.7060    11.4570    14.9690    25.0760   -10.8470     2.4190 
  218.0000    66.7550    13.4930    12.1360    15.4130    25.0380   -11.0170     2.4220 
  218.1250    67.3820    14.1080    12.7120    16.8190    25.0180   -11.1340     2.4250 
  218.2500    69.0580    14.3640    13.0190    17.6370    25.0260   -11.1970     2.4240 
  218.3750    72.0880    14.1730    12.9620    16.9280    25.0580   -11.2410     2.4170 
  218.5000    73.9720    13.5690    12.5420    15.6500    25.0860   -11.2300     2.4090 
  218.6250    74.0200    12.6680    11.8150    14.3170    25.0710   -11.1920     2.4100 
