~V
VERS. 2.00: Ver 2.00
~W
STRT.M 64.0000:
STOP.M 287.0000:
STEP.M 0.1250:
NULL. -999.2500:
UWI. F10052:
~C
DEPT.M :
SP.MV :
DEN.GM/CC :
GR.API :
RML.OHMM :
RI. :
RXO.OHMM :
CALI.CM :
~A
# ...
  266.5000   -22.7200     2.3270   105.5580     5.4290     4.6250     5.4260    24.7010 
  266.6250   -22.7340     2.3150   109.1230     5.0830     4.2890     4.9780    24.6990 
  266.7500   -22.7260     2.3160   108.6520     4.9050     4.0600     4.7610    24.6860 
  266.8750   -22.7140     2.3270   106.2520     4.9080     3.9430     4.7110    24.6700 
  267.0000   -22.6900     2.3410   102.4230     5.0360     3.9150     4.7610    24.6540 
  267.1250   -22.6480     2.3530    99.3900     5.1810     3.9340     4.8260    24.6460 
  267.2500   -22.6140     2.3630   101.0580     5.2580     3.9460     4.8910    24.6460 
  267.3750   -22.6040     2.3720   104.6370     5.2500     3.9390     4.9670    24.6510 
  267.5000   -22.6120     2.3790   104.5550     5.1840     3.9210     4.9290    24.6590 
  267.6250   -22.6350     2.3770    98.0300     5.0930     3.9080     4.7690    24.6670 
  267.7500   -22.6390     2.3650    93.7020     4.9990     3.9060     4.6990    24.6730 
  267.8750   -22.6440     2.3470    96.2040     4.9040     3.9090     4.7210    24.6720 
  268.0000   -22.6920     2.3330    99.2200     4.8240     3.9110     4.7920    24.6590 
  268.1250   -22.7860     2.3360    97.1180     4.8110     3.9290     4.8240    24.6350 
  268.2500   -22.8660     2.3510    97.3260     4.8770     3.9870     4.7790    24.6070 
  268.3750   -22.9040     2.3680   101.6670     5.0000     4.0920     4.6650    24.5760 
  268.5000   -22.9120     2.3730   103.0050     5.1450     4.2340     4.6580    24.5380 
  268.6250   -22.8970     2.3570    97.9180     5.2610     4.3850     4.8900    24.4880 
  268.7500   -22.9120     2.3360    96.8280     5.3210     4.5030     5.1560    24.4350 
  268.8750   -22.9460     2.3240   102.0610     5.3030     4.5590     5.1660    24.3900 
  269.0000   -22.9670     2.3270   105.2530     5.2150     4.5410     4.9820    24.3660 
  269.1250   -22.9690     2.3390   102.0040     5.0890     4.4640     4.8770    24.3690 
  269.2500   -22.9740     2.3470    96.6090     4.9790     4.3760     4.9280    24.3870 
  269.3750   -23.0020     2.3470    91.1450     4.9080     4.3100     5.0080    24.4060 
  269.5000   -23.0350     2.3390    88.2250     4.8800     4.2820     5.0970    24.4120 
  269.6250   -23.0770     2.3350    90.0530     4.8880     4.2910     5.1920    24.3940 
  269.7500   -23.1180     2.3400    93.3080     4.9120     4.3130     5.2580    24.3490 
  269.8750   -23.1590     2.3500    92.7510     4.9430     4.3260     5.2890    24.2750 
  270.0000   -23.1950     2.3600    88.7270     4.9790     4.3120     5.3030    24.1700 
  270.1250   -23.2440     2.3560    85.7850     5.0200     4.2860     5.3840    24.0320 
  270.2500   -23.3260     2.3370    84.8250     5.1050     4.3160     5.5410    23.8740 
  270.3750   -23.4130     2.3120    86.0770     5.3280     4.5090     5.7950    23.7150 
  270.5000   -23.5190     2.2940    87.9280     5.8470     5.0170     6.3250    23.5950 
  270.6250   -23.6270     2.2990    86.4500     6.9850     6.1660     8.2470    23.5610 
  270.7500   -23.7240     2.3290    79.2140     9.4630     8.1460    14.4870    23.5970 
  270.8750   -23.7970     2.3810    69.9440    15.1340    11.1670    29.3400    23.6780 
  271.0000   -23.8430     2.4410    63.7410    20.9480    15.1620    52.2990    23.7860 
  271.1250   -23.8550     2.4770    60.8500    26.1680    19.2280    65.8760    23.9020 
  271.2500   -23.8430     2.4710    58.1880    29.0940    21.8720    64.8630    23.9930 
  271.3750   -23.8360     2.4230    56.0700    29.3560    22.6190    50.5330    24.0110 
  271.5000   -23.8190     2.3500    56.1420    28.4820    22.2460    34.5900    23.9210 
  271.6250   -23.8060     2.2800    60.0230    28.2810    21.9350    26.1620    23.6810 
  271.7500   -23.7860     2.2320    65.6540    29.2520    22.2640    25.0720    23.3370 
  271.8750   -23.7710     2.2110    68.5220    31.1940    23.2670    27.2950    22.9490 
  272.0000   -23.7650     2.2090    67.1350    33.6130    24.7210    30.7030    22.5960 
  272.1250   -23.7700     2.2140    65.3590    35.8130    26.2180    31.9560    22.3430 
  272.2500   -23.7800     2.2180    65.8620    37.3960    27.4150    29.6610    22.1620 
  272.3750   -23.7910     2.2200    66.2070    38.4080    28.2670    27.1410    22.0210 
  272.5000   -23.8140     2.2140    63.6100    39.2030    28.9510    27.7660    21.9260 
  272.6250   -23.8340     2.1930    60.8170    40.3280    29.8300    30.0100    21.9420 
  272.7500   -23.8640     2.1710    59.7580    42.1990    31.2230    31.1070    22.0740 
  272.8750   -23.8970     2.1690    60.3180    45.1760    33.4150    31.1380    22.2910 
  273.0000   -23.9310     2.2030    62.4400    49.5130    36.6190    30.6810    22.5340 
  273.1250   -23.9540     2.2640    63.0570    55.4850    41.0740    33.4570    22.7330 
  273.2500   -23.9560     2.3140    60.0130    62.5000    46.3730    42.3700    22.8510 
  273.3750   -23.9300     2.3270    55.1270    69.8610    52.0410    54.5450    22.8740 
  273.5000   -23.8710     2.3090    53.2710    76.7540    57.4980    60.9250    22.8280 
  273.6250   -23.7810     2.3000    55.6570    82.3270    62.0690    62.6500    22.7980 
  273.7500   -23.6970     2.3320    56.6040    86.3450    65.5170    62.9420    22.8520 
  273.8750   -23.6360     2.4060    54.1040    88.2900    67.5370    60.9300    22.9820 
  274.0000   -23.5540     2.4970    50.0970    87.4840    67.7690    59.3880    23.1350 
  274.1250   -23.4920     2.5430    48.5580    83.3960    65.7130    56.3470    23.2470 
  274.2500   -23.4320     2.5170    49.8570    77.9420    62.2880    52.3920    23.2930 
  274.3750   -23.3640     2.4360    52.3240    73.2400    58.7660    47.5180    23.2750 
  274.5000   -23.3290     2.3400    55.2920    71.2000    56.6800    43.5540    23.2150 
  274.6250   -23.3060     2.2580    58.7850    74.0040    58.1310    40.5920    23.1290 
  274.7500   -23.2650     2.1910    60.4550    82.1500    64.0000    40.3220    23.0320 
  274.8750   -23.2190     2.1430    58.5140    96.7570    75.2620    45.1990    22.9240 
  275.0000   -23.1830     2.1270    54.4540   118.5240    92.0630    57.1310    22.8030 
  275.1250   -23.1020     2.1810    53.1320   145.1820   112.3670    78.5650    22.6860 
  275.2500   -23.0460     2.3130    53.4990   165.5510   129.5220   105.8430    22.5980 
  275.3750   -23.0350     2.4590    53.1900   169.3480   137.4150   125.3580    22.5520 
  275.5000   -22.9880     2.5250    52.0570   157.7720   134.3140   117.2160    22.5550 
  275.6250   -22.9230     2.4580    52.3740   141.9000   124.2910    91.9230    22.6240 
  275.7500   -22.8910     2.3420    54.2540   129.7660   114.7070    73.1440    22.7220 
  275.8750   -22.8540     2.2360    54.4850   121.7010   107.9680    67.8400    22.7890 
  276.0000   -22.8120     2.1770    52.5790   115.1610   103.3540    75.6140    22.7690 
  276.1250   -22.7750     2.1950    50.7480   106.1110    97.9710    81.2250    22.6160 
  276.2500   -22.7300     2.2580    50.1170    92.9460    89.3780    65.1820    22.4020 
  276.3750   -22.6890     2.3130    50.4670    76.2830    76.8390    47.6190    22.2350 
  276.5000   -22.6720     2.3190    50.4490    58.4370    61.4330    41.3640    22.1930 
  276.6250   -22.6510     2.2750    51.0560    45.2460    46.2820    41.0380    22.2600 
  276.7500   -22.6240     2.2240    51.8460    33.5220    34.2840    41.9540    22.3500 
  276.8750   -22.5830     2.2000    52.0910    26.3160    26.3310    36.4800    22.4530 
  277.0000   -22.5510     2.2290    52.0910    23.0610    22.1800    25.1590    22.5740 
  277.1250   -22.5780     2.3270    52.0910    23.8410    22.1060    19.3110    22.6670 
  277.2500   -22.5970     2.4460    52.0910    28.2180    25.9950    24.3580    22.6870 
  277.3750   -22.5790     2.5340    52.0910    37.0970    34.9510    48.6740    22.6380 
  277.5000   -22.5700     2.5550    52.0910    52.0420    50.1360    81.1430    22.5730 
  277.6250   -22.5730     2.5100    52.0910    74.4300    71.2890    79.7140    22.5740 
