~V
VERS. 2.00: Ver 2.00
~W
STRT.M 55.0000:
STOP.M 314.0000:
STEP.M 0.1250:
NULL. -999.2500:
UWI. F10048:
~C
DEPT.M :
DEN.GM/CC :
GR.API :
RML.OHMM :
RI. :
RXO.OHMM :
CALI.CM :
SP.MV :
~A
# ...
  156.2500     2.4460    87.0320     6.6950     5.2870     9.8150    23.6970    -5.2590 
  156.3750     2.5130    85.0920     9.3530     7.1510    16.2070    23.6970    -5.8830 
  156.5000     2.5890    75.4580    12.8400     9.9100    25.0710    23.6910    -6.6500 
  156.6250     2.6410    65.3260    16.1350    12.9960    34.0560    23.6350    -7.6360 
  156.7500     2.6480    62.4260    17.9830    15.2830    36.9990    23.5110    -8.8230 
  156.8750     2.6010    62.8400    17.6570    15.8510    31.5970    23.3210   -10.1930 
  157.0000     2.5150    61.3290    15.4130    14.5160    22.6340    23.0990   -11.6180 
  157.1250     2.4180    59.0270    12.5190    12.1380    15.1050    22.9300   -12.9720 
  157.2500     2.3350    57.7330    10.2720    10.0390    11.2200    22.8840   -14.2000 
  157.3750     2.2760    57.8710     8.9420     8.6130    10.0590    22.9450   -15.2870 
  157.5000     2.2390    59.1480     8.3470     7.8380    10.0220    23.0500   -16.1720 
  157.6250     2.2180    59.7300     8.2410     7.6010    10.2670    23.1350   -16.6740 
  157.7500     2.2040    58.6620     8.3240     7.6250    10.5590    23.1830   -16.8610 
  157.8750     2.1950    56.9630     8.4870     7.7660    10.8400    23.2060   -16.8060 
  158.0000     2.1910    57.0100     8.6690     7.9290    11.1390    23.2170   -16.5930 
  158.1250     2.1930    56.8550     8.8150     8.0520    11.4130    23.2300   -16.1460 
  158.2500     2.2000    55.2000     8.8660     8.1050    11.8240    23.2520   -15.4940 
  158.3750     2.2070    55.1180     8.7630     8.0530    12.1780    23.2800   -14.6500 
  158.5000     2.2120    58.7180     8.4850     7.8760    12.2310    23.2990   -13.6750 
  158.6250     2.2170    63.5010     8.0930     7.5990    11.7060    23.3110   -12.6470 
  158.7500     2.2280    66.4970     7.7680     7.3410    10.7030    23.3260   -11.5850 
  158.8750     2.2500    68.3920     7.6620     7.2080     9.6870    23.3490   -10.5000 
  159.0000     2.2880    70.0530     7.8360     7.2510     9.1020    23.3800    -9.4270 
  159.1250     2.3450    70.1880     8.2210     7.4420     9.7560    23.3950    -8.4920 
  159.2500     2.4010    70.7730     8.5620     7.6240    10.9990    23.3860    -7.7730 
  159.3750     2.4370    73.1290     8.6610     7.6660    12.0790    23.3330    -7.2970 
  159.5000     2.4370    77.0150     8.4310     7.4960    12.2850    23.2110    -6.9980 
  159.6250     2.4020    77.1700     7.9480     7.1420    10.4100    23.0490    -6.8410 
  159.7500     2.3630    73.0850     7.4890     6.7880     8.6820    22.9230    -6.8360 
  159.8750     2.3380    68.9080     7.2230     6.5540     8.0740    22.8670    -6.9320 
  160.0000     2.3360    68.7800     7.1830     6.4790     8.0760    22.8690    -7.0410 
  160.1250     2.3480    72.9320     7.2720     6.5200     8.2710    22.9210    -7.0610 
  160.2500     2.3550    75.5180     7.3030     6.5530     8.4290    22.9600    -6.9400 
  160.3750     2.3520    75.6420     7.1800     6.5040     8.1730    22.9380    -6.7420 
  160.5000     2.3380    75.7680     6.9080     6.3560     7.5360    22.8790    -6.5400 
  160.6250     2.3210    78.9570     6.5900     6.1580     7.0340    22.8620    -6.3400 
  160.7500     2.3110    83.6700     6.3500     5.9880     7.0050    22.9490    -6.0890 
  160.8750     2.3090    86.3150     6.2380     5.8820     7.0750    23.0810    -5.8320 
  161.0000     2.3140    84.5140     6.2400     5.8420     7.0840    23.1890    -5.6370 
  161.1250     2.3230    79.1370     6.2960     5.8400     7.0320    23.2430    -5.5300 
  161.2500     2.3290    74.6570     6.3270     5.8310     6.9050    23.2720    -5.5000 
  161.3750     2.3330    74.0100     6.3020     5.7920     6.7170    23.2900    -5.4920 
  161.5000     2.3360    77.9280     6.2220     5.7180     6.5980    23.2990    -5.4540 
  161.6250     2.3410    81.4830     6.1160     5.6200     6.5380    23.2950    -5.4250 
  161.7500     2.3460    81.2990     6.0250     5.5260     6.4800    23.2800    -5.4630 
  161.8750     2.3490    79.8040     5.9730     5.4600     6.2280    23.2580    -5.5970 
  162.0000     2.3440    81.1940     5.9690     5.4390     6.0080    23.2340    -5.7650 
  162.1250     2.3310    82.7750     6.0040     5.4580     6.0180    23.2440    -5.9130 
  162.2500     2.3150    79.0740     6.0390     5.4740     6.1750    23.3160    -6.0950 
  162.3750     2.3010    72.5520     6.0360     5.4460     6.3340    23.3980    -6.3400 
  162.5000     2.2940    68.0120     5.9740     5.3500     6.4680    23.4820    -6.6500 
  162.6250     2.3030    68.1610     5.8740     5.2060     6.4550    23.5980    -7.0450 
  162.7500     2.3210    71.8040     5.8260     5.1060     6.3230    23.7180    -7.5350 
  162.8750     2.3410    75.5750     5.9250     5.1400     6.5960    23.7600    -8.1580 
  163.0000     2.3490    76.3150     6.2340     5.3690     7.9720    23.7140    -8.9570 
  163.1250     2.3330    74.2750     6.7640     5.8160    11.1890    23.6660    -9.9480 
  163.2500     2.2990    72.6850     7.3520     6.3530    15.1620    23.6790   -10.9440 
  163.3750     2.2620    70.3210     7.8300     6.8460    18.7870    23.7270   -11.8670 
  163.5000     2.2350    66.0390     8.0550     7.1640    19.5100    23.7500   -12.7110 
  163.6250     2.2270    63.1700     7.9420     7.2000    15.7570    23.7700   -13.4080 
  163.7500     2.2330    63.9460     7.6450     7.0490    12.0220    23.8000   -13.8740 
  163.8750     2.2450    65.9790     7.3280     6.8320    10.1530    23.8360   -14.0460 
  164.0000     2.2560    66.2490     7.1410     6.6790     9.3960    23.8490   -13.9320 
  164.1250     2.2580    64.3220     7.2000     6.7110     9.2040    23.8220   -13.5990 
  164.2500     2.2530    64.2660     7.4480     6.9210     9.2980    23.7540   -13.1900 
  164.3750     2.2440    66.2670     7.7950     7.2500     9.5290    23.6440   -12.6940 
  164.5000     2.2360    66.8250     8.1010     7.5840     9.7510    23.5010   -12.0640 
  164.6250     2.2340    63.5340     8.1670     7.7300     9.8380    23.3880   -11.2340 
  164.7500     2.2410    60.3970     7.9240     7.5870     9.6000    23.3370   -10.2730 
  164.8750     2.2600    61.7000     7.3840     7.1370     8.8580    23.3820    -9.1790 
  165.0000     2.2920    69.4000     6.6490     6.4640     7.5090    23.5160    -7.9750 
  165.1250     2.3350    78.8450     5.8900     5.7200     6.0100    23.7050    -6.7220 
  165.2500     2.3790    84.2930     5.2590     5.0560     4.8860    23.8990    -5.4870 
  165.3750     2.4160    84.6720     4.8140     4.5330     4.3930    24.0490    -4.3670 
  165.5000     2.4390    84.7780     4.5410     4.1580     4.2680    24.1260    -3.4700 
  165.6250     2.4470    86.4290     4.4120     3.9360     4.2140    24.1440    -2.9330 
  165.7500     2.4450    88.7030     4.3920     3.8480     4.2620    24.1420    -2.6920 
  165.8750     2.4440    92.3470     4.5270     3.9240     4.5320    24.1260    -2.7390 
  166.0000     2.4550    95.6170     4.8880     4.2060     5.3390    24.0800    -3.1220 
  166.1250     2.4830    92.1840     5.5680     4.7640     7.2140    23.9910    -3.8330 
  166.2500     2.5150    82.3650     6.4810     5.5410     9.6300    23.8660    -4.7340 
  166.3750     2.5290    71.4430     7.5020     6.4600    12.4020    23.7280    -5.8170 
  166.5000     2.5080    64.8280     8.4700     7.4010    14.9230    23.6200    -7.0710 
  166.6250     2.4520    62.5780     9.1950     8.1900    14.8550    23.5330    -8.4600 
  166.7500     2.3880    62.3580     9.6860     8.7550    15.0350    23.4210    -9.8820 
  166.8750     2.3370    64.8920     9.9820     9.0930    15.8310    23.2810   -11.2990 
  167.0000     2.3080    67.9910    10.1600     9.2560    15.0290    23.1600   -12.6440 
  167.1250     2.2970    65.3140    10.2590     9.3010    12.9460    23.1380   -13.8540 
  167.2500     2.2910    57.7790    10.2220     9.2910    12.0270    23.1770   -14.9200 
  167.3750     2.2850    52.7270    10.0730     9.2290    11.7880    23.2440   -15.7440 
