~V
VERS. 2.00: Ver 2.00
~W
STRT.M 50.0000:
STOP.M 244.0000:
STEP.M 0.1250:
NULL. -999.2500:
UWI. F10003:
~C
DEPT.M :
GR.API :
RML.OHMM :
RI. :
RXO.OHMM :
CALI.CM :
DEN.GM/CC :
SP.MV :
~A
# ...
   72.5000    83.8430     7.5940     7.4590     7.5610    25.1580     2.2920   -22.0490 
   72.6250    83.4880     7.0540     6.9320     7.3670    25.0390     2.3060   -22.0270 
   72.7500    83.5200     6.5360     6.4060     6.9840    24.9390     2.3250   -21.9870 
   72.8750    83.9560     6.1450     5.9680     6.3190    24.8880     2.3460   -21.9140 
   73.0000    84.1710     5.9460     5.6860     5.8470    24.8610     2.3670   -21.8330 
   73.1250    86.6130     5.9660     5.6140     6.1640    24.8220     2.3840   -21.7440 
   73.2500    88.4550     6.1210     5.6990     6.9160    24.8050     2.3920   -21.6580 
   73.3750    85.8690     6.3830     5.9180     7.6800    24.8260     2.3900   -21.5810 
   73.5000    80.7300     6.7730     6.2720     8.0930    24.8320     2.3810   -21.5070 
   73.6250    79.4440     7.4070     6.8320     8.3170    24.7940     2.3670   -21.4130 
   73.7500    79.5950     8.3070     7.6110     8.8520    24.7600     2.3480   -21.3040 
   73.8750    76.2970     9.4080     8.5760     9.8910    24.7720     2.3240   -21.2130 
   74.0000    69.8130    10.4920     9.5760    11.2080    24.8130     2.2970   -21.1440 
   74.1250    64.4400    11.1400    10.2650    12.2420    24.8000     2.2730   -21.1190 
   74.2500    61.9960    11.1240    10.3970    12.3680    24.6830     2.2650   -21.0910 
   74.3750    63.7560    10.4170     9.8820    11.3860    24.5640     2.2760   -21.0130 
   74.5000    70.4240     9.2340     8.8660     9.6530    24.5210     2.3040   -20.8980 
   74.6250    80.3440     7.9520     7.6640     7.9010    24.5790     2.3370   -20.8050 
   74.7500    87.2120     6.8870     6.5980     6.7670    24.6490     2.3650   -20.7350 
   74.8750    89.3180     6.1340     5.7820     6.1540    24.7200     2.3880   -20.6640 
   75.0000    88.2790     5.6770     5.2360     5.8160    24.7390     2.4080   -20.5650 
   75.1250    87.4340     5.5110     4.9820     5.5930    24.6590     2.4230   -20.4120 
   75.2500    89.0440     5.5740     4.9600     5.5890    24.5540     2.4270   -20.2650 
   75.3750    91.0310     5.8710     5.1670     5.9050    24.4890     2.4160   -20.1820 
   75.5000    91.5370     6.4060     5.6000     6.5940    24.5020     2.3910   -20.1420 
   75.6250    89.2060     7.1620     6.2570     7.5530    24.5280     2.3570   -20.0710 
   75.7500    83.4670     7.9820     7.0150     8.4970    24.5250     2.3210   -19.9700 
   75.8750    73.5810     8.7140     7.7430     9.1290    24.5160     2.2870   -19.8230 
   76.0000    64.4780     9.2090     8.2960     9.3960    24.4740     2.2620   -19.6510 
   76.1250    62.6280     9.3020     8.4910     9.3640    24.3400     2.2530   -19.4830 
   76.2500    63.6160     9.0450     8.3400     9.1150    24.1900     2.2570   -19.2930 
   76.3750    65.0140     8.5130     7.8970     8.6540    24.1760     2.2700   -19.0800 
   76.5000    68.8350     7.8300     7.2710     7.8100    24.3120     2.2860   -18.8610 
   76.6250    75.3800     7.1400     6.5970     7.1590    24.3520     2.3030   -18.6700 
   76.7500    78.5870     6.5610     5.9970     6.7170    24.3930     2.3200   -18.5150 
   76.8750    78.1510     6.1580     5.5400     6.6170    24.4100     2.3380   -18.4250 
   77.0000    78.1460     5.9840     5.2730     6.9470    24.4220     2.3520   -18.3710 
   77.1250    78.0990     6.1900     5.3050     7.5780    24.5560     2.3580   -18.3100 
   77.2500    77.3600     6.8970     5.7180     8.6590    24.7360     2.3560   -18.2870 
   77.3750    75.9750     8.2950     6.6750    10.4970    24.8350     2.3540   -18.2730 
   77.5000    73.6940    10.5050     8.3360    13.9040    24.8090     2.3690   -18.2460 
   77.6250    70.1710    13.4880    10.8320    19.6190    24.6220     2.4150   -18.2190 
   77.7500    66.1290    16.5970    13.7200    26.4050    24.4040     2.4810   -18.1990 
   77.8750    62.3060    19.1010    16.3960    31.8400    24.2220     2.5440   -18.1690 
   78.0000    58.5110    20.2920    18.1240    33.1670    24.0660     2.5660   -18.1340 
   78.1250    56.5870    19.5810    18.1070    29.3110    24.0590     2.5180   -18.1180 
   78.2500    57.5650    17.6470    16.7530    23.6700    24.3060     2.4280   -18.0840 
   78.3750    59.9460    15.2430    14.7200    17.7390    24.7550     2.3330   -18.0590 
   78.5000    61.6950    13.0220    12.6580    13.6850    25.0670     2.2640   -18.0700 
   78.6250    62.9570    11.4060    11.0070    11.5400    25.0730     2.2380   -18.0830 
   78.7500    64.1450    10.3210     9.7950    10.3130    24.9980     2.2410   -18.0630 
   78.8750    64.2650     9.6700     8.9830     9.7970    24.9480     2.2600   -18.0060 
   79.0000    64.5650     9.3490     8.5080     9.5140    24.9620     2.2820   -17.9460 
   79.1250    65.9500     9.2870     8.3290     9.3120    24.9440     2.2990   -17.8980 
   79.2500    66.1930     9.3240     8.2970     9.1270    24.9190     2.3090   -17.8710 
   79.3750    64.8890     9.3460     8.3060     9.1950    24.9050     2.3120   -17.8580 
   79.5000    65.0110     9.2610     8.2620     9.4460    24.9300     2.3100   -17.8150 
   79.6250    69.9880     9.0190     8.1020     9.4350    24.9510     2.3090   -17.7560 
   79.7500    74.7040     8.7090     7.8780     9.0930    24.9430     2.3130   -17.7040 
   79.8750    75.3560     8.4440     7.6780     8.6360    24.9030     2.3240   -17.6790 
   80.0000    72.8170     8.3300     7.5930     8.4720    24.8740     2.3380   -17.6600 
   80.1250    71.9630     8.4660     7.7120     8.5890    24.8680     2.3480   -17.6290 
   80.2500    73.9810     8.8030     8.0080     9.0820    24.8650     2.3500   -17.5700 
   80.3750    74.0670     9.2740     8.4310     9.6030    24.8580     2.3420   -17.4790 
   80.5000    70.6480     9.7740     8.8950     9.9240    24.9010     2.3290   -17.3950 
   80.6250    67.1690    10.1310     9.2460     9.5890    24.9730     2.3130   -17.2940 
   80.7500    66.3220    10.2100     9.3550     9.2630    25.0150     2.3000   -17.1800 
   80.8750    66.1480     9.9170     9.1300     9.1890    25.0260     2.2900   -17.0800 
   81.0000    65.4260     9.2420     8.5510     8.9000    25.0060     2.2850   -16.9710 
   81.1250    66.3100     8.2610     7.6740     7.9830    25.0020     2.2860   -16.8460 
   81.2500    68.4200     7.2230     6.7190     6.6790    24.9760     2.2960   -16.7380 
   81.3750    70.2620     6.3050     5.8420     5.5630    24.9260     2.3180   -16.6540 
   81.5000    71.5050     5.6360     5.1580     4.9990    24.9060     2.3500   -16.5720 
   81.6250    71.7000     5.3700     4.7920     5.1340    24.9260     2.3840   -16.5090 
   81.7500    72.3300     5.5180     4.7530     5.6020    24.9360     2.4060   -16.4490 
   81.8750    72.4910     6.1280     5.0810     6.4340    24.9490     2.4090   -16.3380 
   82.0000    70.2490     7.2100     5.8020     7.8030    24.9970     2.3910   -16.1850 
   82.1250    64.8380     8.7440     6.9550    10.0040    25.1290     2.3560   -16.0410 
   82.2500    61.1740    10.4370     8.3570    12.3650    25.2060     2.3200   -15.8820 
   82.3750    62.0280    12.0070     9.8070    13.8180    25.1730     2.2920   -15.7040 
   82.5000    62.9390    13.1860    11.0710    13.9520    25.0760     2.2730   -15.5110 
   82.6250    60.7930    13.7810    11.9020    13.3790    24.9700     2.2630   -15.2820 
   82.7500    59.8130    14.0320    12.3840    12.9590    24.8920     2.2540   -15.0340 
   82.8750    61.1000    14.2400    12.7080    12.7110    24.8700     2.2460   -14.7680 
   83.0000    61.3350    14.6830    13.1060    12.7840    24.8960     2.2390   -14.5020 
   83.1250    57.5250    15.5220    13.7630    13.2680    24.9700     2.2330   -14.2570 
   83.2500    54.7760    16.5630    14.6090    14.0250    25.0160     2.2250   -14.0400 
   83.3750    56.0200    17.5580    15.4880    15.0390    25.0830     2.2140   -13.8410 
   83.5000    59.5740    18.2790    16.2150    16.1720    25.1020     2.2050   -13.6320 
   83.6250    61.6670    18.5730    16.6160    16.8310    25.0190     2.2000   -13.4440 
