~V
VERS. 2.00: Ver 2.00
~W
STRT.M 51.0000:
STOP.M 242.0000:
STEP.M 0.1250:
NULL. -999.2500:
UWI. F10056:
~C
DEPT.M :
GR.API :
RML.OHMM :
RI. :
RXO.OHMM :
CALI.CM :
SP.MV :
DEN.GM/CC :
~A
# ...
  231.0000    66.9520    13.3590    12.1500    11.6320    24.3000   -10.8590     2.4150 
  231.1250    68.1880    13.3090    12.1650    10.6760    24.3230   -10.9660     2.4260 
  231.2500    68.7780    13.1780    12.1130     9.7740    24.4390   -11.1230     2.4430 
  231.3750    68.7780    13.0110    12.0250     9.2120    24.6310   -11.2250     2.4690 
  231.5000    68.7780    12.8480    11.9290     9.2680    24.8430   -11.3260     2.4960 
  231.6250    68.7780    12.7130    11.8500     9.3300    24.8660   -11.4770     2.4990 
  231.7500    68.7780    12.6180    11.8000     9.1460    24.8470   -11.6350     2.4680 
  231.8750    68.7780    12.5820    11.8000     9.0290    24.8170   -11.7470     2.4110 
  232.0000    68.7780    12.6340    11.8730     9.1870    24.7910   -11.8620     2.3510 
  232.1250    68.7780    12.8100    12.0580    11.2290    24.8800   -12.0070     2.3220 
  232.2500    68.7780    13.0670    12.3270    14.1700    24.9460   -12.1430     2.3300 
  232.3750    68.7780    13.3370    12.6290    14.9820    24.9300   -12.3340     2.3600 
  232.5000    68.7780    13.5300    12.8890    13.3620    24.8090   -12.5320     2.3890 
  232.6250    68.7780    13.5490    13.0130    12.3380    24.7940   -12.7070     2.4010 
  232.7500    68.7780    13.4190    12.9970    11.9800    24.9150   -12.8440     2.4000 
  232.8750    68.7780    13.1960    12.8760    11.5750    25.0030   -13.0120     2.3980 
  233.0000    68.7780    12.9510    12.7020    11.2150    25.0100   -13.1420     2.4000 
  233.1250    68.7780    12.7440    12.5280    10.8480    24.9080   -13.1730     2.4000 
  233.2500    68.7780    12.5700    12.3720    10.3700    24.8610   -13.1790     2.3950 
  233.3750    68.7780    12.3970    12.2190     9.9820    24.8330   -13.1510     2.3860 
  233.5000    68.7780    12.1890    12.0470    10.1750    24.8100   -13.0740     2.3820 
  233.6250    68.7780    11.9590    11.8660    10.4480    24.7820   -12.9800     2.3890 
  233.7500    68.7780    11.8040    11.7470    11.0770    24.8170   -12.9150     2.4060 
  233.8750    68.7780    11.8300    11.7760    11.3650    24.8410   -12.8510     2.4310 
  234.0000    68.7780    12.1030    12.0100    11.7900    24.8450   -12.8300     2.4620 
  234.1250    68.7780    12.6360    12.4730    13.1170    24.8420   -12.8900     2.4860 
  234.2500    68.7780    13.2560    13.0350    15.9520    24.8390   -12.8710     2.4950 
  234.3750    68.7780    13.7860    13.5520    17.7180    24.8430   -12.7810     2.4840 
  234.5000    68.7780    14.0750    13.8880    16.8870    24.8460   -12.7220     2.4550 
  234.6250    68.7780    14.0550    13.9550    15.6640    24.8470   -12.6970     2.4220 
  234.7500    68.7780    13.9070    13.8860    15.1860    24.8470   -12.7220     2.3990 
  234.8750    68.7780    13.8130    13.8300    14.9890    24.8470   -12.7680     2.3920 
  235.0000    68.7780    13.9240    13.9280    14.7460    24.8470   -12.7490     2.4020 
  235.1250    68.7780    14.3670    14.3120    14.7190    24.8350   -12.6150     2.4300 
  235.2500    68.7780    15.0810    14.9530    13.7530    24.8060   -12.5260     2.4670 
  235.3750    68.7780    16.0060    15.8100    12.9660    24.7780   -12.5020     2.5020 
  235.5000    68.7780    17.0490    16.8070    13.3010    24.7500   -12.4780     2.5240 
  235.6250    68.7780    18.0640    17.8160    14.8190    24.7670   -12.4560     2.5270 
  235.7500    68.7780    18.8880    18.6780    15.6150    24.7930   -12.4040     2.5210 
  235.8750    68.7780    19.4220    19.2840    16.1600    24.8290   -12.3160     2.5170 
  236.0000    68.7780    19.6630    19.6120    17.0410    24.8460   -12.2280     2.5220 
  236.1250    68.7780    19.6750    19.7060    17.7050    24.8440   -12.3040     2.5390 
  236.2500    68.7780    19.6180    19.7070    17.7460    24.8230   -12.4850     2.5540 
  236.3750    68.7780    19.5630    19.6830    19.1740    24.7510   -12.6310     2.5540 
  236.5000    68.7780    19.5350    19.6620    20.2630    24.6200   -12.7220     2.5340 
  236.6250    68.7780    19.5300    19.6520    20.6240    24.6080   -12.7760     2.5010 
  236.7500    68.7780    19.5330    19.6510    19.4440    24.6570   -12.7290     2.4760 
  236.8750    68.7780    19.5360    19.6560    19.3330    24.6700   -12.5750     2.4760 
  237.0000    68.7780    19.5390    19.6640    24.4800    24.6690   -12.3700     2.5030 
  237.1250    68.7780    19.5400    19.6690    36.4290    24.7660   -12.1210     2.5390 
  237.2500    68.7780    19.5400    19.6690    38.1800    24.8200   -11.8380     2.5590 
  237.3750    68.7780    19.5400    19.6690    28.9490    24.8350   -11.5550     2.5540 
  237.5000    68.7780    19.5400    19.6690    26.8260    24.8370   -11.3470     2.5300 
  237.6250    68.7780    19.5400    19.6690    36.1190    24.8380   -11.1520     2.5100 
  237.7500    68.7780    19.5400    19.6690    43.1900    24.8260   -11.1400     2.5080 
  237.8750    68.7780    19.5400    19.6690    49.2150    24.7710   -11.3320     2.5250 
  238.0000    68.7780    19.5400    19.6690    54.2540    24.6370   -11.6040     2.5490 
  238.1250    68.7780    19.5400    19.6690    52.2020    24.5190   -11.8040     2.5670 
  238.2500    68.7780    19.5400    19.6690    38.7220    24.4540   -11.9730     2.5740 
  238.3750    68.7780    19.5400    19.6690    37.0330    24.4370   -12.1780     2.5690 
  238.5000    68.7780    19.5400    19.6690    37.9410    24.4280   -12.3830     2.5590 
  238.6250    68.7780    19.5400    19.6690    37.7110    24.3860   -12.5730     2.5480 
  238.7500    68.7780    19.5400    19.6690    47.3300    24.3210   -12.5730     2.5430 
  238.8750    68.7780    19.5400    19.6690    61.6540    24.2590   -12.5730     2.5420 
  239.0000    68.7780    19.5400    19.6690    66.4370    24.2110  -999.2500     2.5440 
  239.1250    68.7780    19.5400    19.6690    94.9710    24.1760  -999.2500     2.5450 
  239.2500    68.7780    19.5400    19.6690    99.5500    24.1410  -999.2500     2.5460 
  239.3750    68.7780    19.5400    19.6690    66.5000    24.1470  -999.2500     2.5490 
  239.5000    68.7780    19.5400    19.6690    43.0960    24.2170  -999.2500     2.5550 
  239.6250    68.7780    19.5400    19.6690    35.0600    24.2710  -999.2500     2.5570 
  239.7500    68.7780    19.5400    19.6690    35.9060    24.2510  -999.2500     2.5500 
  239.8750    68.7780    19.5400    19.6690    33.6570    24.1230  -999.2500     2.5340 
  240.0000    68.7780    19.5400    19.6690    29.6480    24.0280  -999.2500     2.5190 
  240.1250    68.7780    19.5400    19.6690    25.0930    24.0170  -999.2500     2.5180 
  240.2500    68.7780    19.5400    19.6690    20.1760    24.0510  -999.2500     2.5290 
  240.3750    68.7780    19.5400    19.6690    17.0120    24.0750  -999.2500     2.5330 
  240.5000    68.7780    19.5400    19.6690    17.4100    24.0850  -999.2500     2.5010 
  240.6250    68.7780    19.5400    19.6690    22.2510    24.0690  -999.2500     2.3990 
  240.7500    68.7780    19.5400    19.6690    24.6660    23.8700  -999.2500     2.2410 
  240.8750    68.7780    19.5400    19.6690    22.0210    23.2430  -999.2500     2.0620 
  241.0000    68.7780    19.5400    19.6690    16.3130    22.0860  -999.2500     1.9010 
  241.1250    68.7780    19.5400    19.6690    13.0080    21.0110  -999.2500     1.7970 
  241.2500    68.7780    19.5400    19.6690    11.9690    20.5850  -999.2500     1.7420 
  241.3750    68.7780    19.5400    19.6690    11.8610    20.5050  -999.2500     1.7210 
  241.5000    68.7780    19.5400    19.6690    11.8590    20.5050  -999.2500     1.7130 
  241.6250    68.7780    19.5400    19.6690    11.8580    20.5050  -999.2500     1.7100 
  241.7500    68.7780    19.5400    19.6690    11.8560    20.5050  -999.2500     1.7110 
  241.8750    68.7780    19.5400    19.6690    11.8520    20.5050  -999.2500     1.7120 
  242.0000    68.7780    19.5400    19.6690    11.8510    20.5050  -999.2500  -999.2500 
