~V
VERS. 2.00: Ver 2.00
~W
STRT.M 57.0000:
STOP.M 177.0000:
STEP.M 0.1250:
NULL. -999.2500:
UWI. F10011:
~C
DEPT.M :
DEN.GM/CC :
SP.MV :
GR.API :
CALI.CM :
RXO.OHMM :
RI. :
RML.OHMM :
~A
# ...
   68.2500     2.2740   -14.4110   112.7940    14.7670     9.0880     6.8430     8.8290 
   68.3750     2.2870   -14.3500   114.1270    14.7410     8.9100     6.7360     8.9480 
   68.5000     2.3050   -14.2560   114.7540    14.7230     8.6560     6.7990     9.1940 
   68.6250     2.3180   -14.1400   115.7320    14.6780     8.5710     6.9620     9.4010 
   68.7500     2.3220   -14.0360   114.3720    14.5850     8.5620     7.0640     9.4240 
   68.8750     2.3210   -13.9370   109.7800    14.4260     8.5350     6.9890     9.2150 
   69.0000     2.3190   -13.7740   103.0710    14.1230     8.4670     6.7300     8.8550 
   69.1250     2.3140   -13.5540    96.3880    13.6990     8.6050     6.4470     8.5880 
   69.2500     2.2980   -13.3470    91.9380    13.4720     8.9390     6.3740     8.6800 
   69.3750     2.2670   -13.1390    88.8440    13.4710     9.4030     6.6850     9.3190 
   69.5000     2.2300   -12.9260    85.7920    13.5820     9.9970     7.5000    10.6370 
   69.6250     2.2030   -12.7020    82.9100    13.7630    10.2450     8.9890    12.7660 
   69.7500     2.1880   -12.4350    79.9770    14.0230    10.3380    10.9690    15.3320 
   69.8750     2.1750   -12.2140    76.3420    14.3300    10.2390    13.1180    17.7790 
   70.0000     2.1620   -12.0050    74.5120    14.6360     9.7800    14.9490    19.4450 
   70.1250     2.1490   -11.8900    77.8870    15.1630     9.3190    15.9580    19.8770 
   70.2500     2.1380   -11.8400    81.6480    15.9880     9.4380    16.3080    19.6160 
   70.3750     2.1280   -11.8310    81.4700    17.2150    10.2600    16.3080    19.1760 
   70.5000     2.1240   -11.8710    78.2620    18.7870    11.3940    16.3040    18.9730 
   70.6250     2.1300   -11.9930    77.2530    20.4030    12.9700    16.6040    19.3180 
   70.7500     2.1410   -12.1510    78.2900    21.5280    14.6060    17.2530    20.1630 
   70.8750     2.1470   -12.2370    78.6820    22.2690    15.8080    18.1590    21.3290 
   71.0000     2.1410   -12.3520    77.3770    22.7090    16.4860    19.0150    22.3640 
   71.1250     2.1190   -12.4910    74.7260    22.8910    16.9040    19.1100    22.3190 
   71.2500     2.0990   -12.6270    74.6210    22.9540    17.0150    18.0820    20.8210 
   71.3750     2.0960   -12.7490    79.2150    22.8920    16.3900    16.0790    18.1970 
   71.5000     2.1150   -12.9140    86.0800    22.7420    14.3820    13.6710    15.2670 
   71.6250     2.1480   -13.1010    90.3140    22.7150    11.4800    11.5150    12.8830 
   71.7500     2.1880   -13.3130    91.3990    22.8320     9.4640     9.8700    11.2620 
   71.8750     2.2270   -13.5390    93.3560    22.9500     8.7610     8.7360    10.3010 
   72.0000     2.2570   -13.7130    97.3540    23.0100     8.6780     7.9880     9.7250 
   72.1250     2.2680   -13.7830    98.8300    23.0260     8.7810     7.4920     9.2510 
   72.2500     2.2680   -13.8070    96.3580    23.0280     8.8170     7.1190     8.7940 
   72.3750     2.2700   -13.7590    93.8500    23.0280     8.9340     6.9180     8.5420 
   72.5000     2.2750   -13.6580    96.6100    23.0330     9.1090     7.0220     8.7750 
   72.6250     2.2730   -13.4610   102.2330    23.0620    11.4440     7.7040     9.8520 
   72.7500     2.2550   -13.2160   102.0350    23.1240    16.6700     9.0310    11.7260 
   72.8750     2.2220   -12.9790    94.6900    23.1940    22.0670    10.9970    14.2280 
   73.0000     2.1830   -12.7550    85.4140    23.2470    23.9670    13.3170    16.8390 
   73.1250     2.1540   -12.5420    80.2310    23.3330    20.7160    15.2460    18.5030 
   73.2500     2.1360   -12.3800    77.7910    23.5220    17.1790    16.3080    18.9160 
   73.3750     2.1310   -12.2590    74.5590    23.7880    15.6030    16.6560    18.6190 
   73.5000     2.1310   -12.1450    71.2920    23.9550    16.0650    16.8210    18.4880 
   73.6250     2.0920   -12.1050    71.3550    24.0080    16.9340    17.3750    19.2600 
   73.7500     1.9870   -12.1300    74.2030    24.0770    17.3790    18.3400    20.7020 
   73.8750     1.8450   -12.2050    77.4020    24.2010    17.5720    19.2470    22.0140 
   74.0000     1.7390   -12.3280    79.3270    24.1260    17.9530    19.2700    21.9930 
   74.1250     1.7280   -12.4790    79.8610    23.5380    17.9380    17.5970    19.6660 
   74.2500     1.7810   -12.6180    81.1200    22.7960    16.0900    14.9360    16.2750 
   74.3750     1.8640   -12.7570    85.7660    22.3240    12.6970    12.1790    13.0920 
   74.5000     1.9510   -12.8890    94.8100    22.1090     9.5750     9.9630    10.8550 
   74.6250     2.0160   -12.9200   103.5270    21.9570     8.1740     8.6700     9.9070 
   74.7500     2.0510   -12.8710   106.9860    21.8360     8.1190     8.2040     9.9600 
   74.8750     2.0630   -12.7630   104.5650    21.7910     8.9850     8.5900    10.9630 
   75.0000     2.0680   -12.6150    98.8440    21.8850    10.8730     9.9140    12.9780 
   75.1250     2.0700   -12.4240    94.2260    22.2300    14.1930    12.4510    16.3160 
   75.2500     2.0560   -12.1790    91.5970    22.7330    18.7570    15.9800    20.7010 
   75.3750     2.0140   -11.9700    87.8410    23.0470    24.7440    20.1710    25.5630 
   75.5000     1.9460   -11.7970    82.8930    23.1290    31.0000    24.3990    29.9210 
   75.6250     1.8780   -11.7070    79.1140    23.1070    33.9770    27.8440    32.8170 
   75.7500     1.8340   -11.6820    77.7180    23.1250    33.3940    30.5850    34.9490 
   75.8750     1.8190   -11.7380    78.2730    23.1910    32.5990    33.2850    37.4720 
   76.0000     1.8240   -11.8220    79.3010    23.2230    33.5680    36.6280    41.2460 
   76.1250     1.8540   -11.9410    78.2810    23.2920    35.9210    40.4750    45.9810 
   76.2500     1.9170   -12.1600    74.5110    23.4030    40.8380    42.7510    48.5950 
   76.3750     2.0280   -12.4210    70.8260    23.2820    51.6480    40.6700    45.1350 
   76.5000     2.1840   -12.7310    70.1630    22.9130    66.1550    33.4160    35.3720 
   76.6250     2.3430   -13.0650    74.6230    22.7910    74.0480    24.0860    24.6280 
   76.7500     2.4380   -13.3770    82.7830    22.7650    46.0530    16.4820    16.7520 
   76.8750     2.4430   -13.6260    93.1220    22.7310    13.0220    11.3300    11.8010 
   77.0000     2.3830   -13.8590   104.2590    22.5980     5.8620     8.1890     9.0320 
   77.1250     2.3130   -14.0960   114.5490    22.4870     5.6430     6.6070     7.9490 
   77.2500     2.2740   -14.2890   120.8000    22.7610     5.5410     5.9020     7.7680 
   77.3750     2.2720   -14.4330   120.9250    23.2900     5.6540     5.8020     8.0920 
   77.5000     2.2960   -14.5120   116.3490    23.6150     6.0780     6.0720     8.5810 
   77.6250     2.3240   -14.5150   111.3170    23.6740     6.7540     6.5100     8.9580 
   77.7500     2.3430   -14.5060   108.9100    23.7140     7.0790     6.9380     9.1650 
   77.8750     2.3500   -14.5100   110.3390    23.7750     7.0160     7.3060     9.2780 
   78.0000     2.3490   -14.4940   113.7340    23.8390     7.3150     7.6350     9.4160 
   78.1250     2.3540   -14.4270   115.2820    23.8050     8.5110     7.9830     9.7140 
   78.2500     2.3770   -14.3200   113.8160    23.7920     9.1750     8.3350    10.1680 
   78.3750     2.4030   -14.1810   109.5400    23.8500     8.9600     8.6090    10.6880 
   78.5000     2.4010   -14.0180   104.7460    23.9730     8.7820     8.7130    11.1130 
   78.6250     2.3500   -13.8670   102.4560    24.0640     9.2430     8.5590    11.2130 
   78.7500     2.2840   -13.7220   102.5710    24.1290     9.8860     8.2020    10.9530 
   78.8750     2.2330   -13.5730   101.5900    24.1740     9.9140     7.7170    10.4010 
   79.0000     2.2140   -13.4320    99.4360    24.2140     9.1940     7.1810     9.6870 
   79.1250     2.2230   -13.3320   102.8180    24.2300     8.4760     6.6580     8.9560 
   79.2500     2.2410   -13.2670   108.8090    24.2360     7.9700     6.2230     8.3740 
   79.3750     2.2600   -13.2400   111.7240    24.2330     7.2850     5.9670     8.0980 
