~V
VERS. 2.00: Ver 2.00
~W
STRT.M 55.0000:
STOP.M 247.0000:
STEP.M 0.1250:
NULL. -999.2500:
UWI. F10032:
~C
DEPT.M :
GR.API :
RML.OHMM :
RI. :
RXO.OHMM :
CALI.CM :
DEN.GM/CC :
SP.MV :
~A
# ...
  111.2500    85.2620     6.9810     6.3110     6.4920    24.1690     2.3100   -12.1680 
  111.3750    91.7450     6.4930     6.0430     6.1270    24.2170     2.3160   -12.5230 
  111.5000    93.7150     6.1280     5.8090     5.7490    24.3990     2.3200   -12.9740 
  111.6250    88.8510     6.1750     5.8030     5.6710    24.5680     2.3140   -13.4480 
  111.7500    82.9290     6.6540     6.0570     6.2090    24.5430     2.2980   -13.9440 
  111.8750    78.1940     7.5140     6.5790     7.2100    24.4210     2.2750   -14.4860 
  112.0000    73.9660     8.6210     7.3560     8.1230    24.2500     2.2500   -15.0730 
  112.1250    71.3150     9.7340     8.2680     9.0650    24.1030     2.2240   -15.6480 
  112.2500    70.2630    10.5850     9.0470    10.0610    23.9940     2.2000   -16.1470 
  112.3750    70.2670    11.0350     9.5400    10.8570    23.8850     2.1800   -16.5460 
  112.5000    69.7730    11.1010     9.7420    11.1950    23.7850     2.1660   -16.8070 
  112.6250    70.2470    10.9220     9.7120    10.8860    23.7000     2.1650   -16.9160 
  112.7500    72.7640    10.7300     9.5940    10.3510    23.6940     2.1760   -16.9160 
  112.8750    76.0540    10.6490     9.4780     9.9040    23.7670     2.1950   -16.8570 
  113.0000    76.5970    10.7220     9.4100     9.7720    23.8240     2.2140   -16.7760 
  113.1250    72.7340    10.9210     9.3930     9.7970    23.8160     2.2280   -16.6490 
  113.2500    69.7170    11.1370     9.4200    10.3760    23.7570     2.2350   -16.4980 
  113.3750    71.9940    11.2990     9.4890    10.7510    23.7180     2.2370   -16.3240 
  113.5000    76.8300    11.3870     9.5650    10.6570    23.7110     2.2390   -16.1350 
  113.6250    77.3700    11.4440     9.6290    10.3420    23.7370     2.2440   -15.9810 
  113.7500    74.0540    11.5390     9.7310    10.2690    23.7390     2.2530   -15.8670 
  113.8750    70.1360    11.6850     9.8930    10.7040    23.7230     2.2650   -15.7800 
  114.0000    69.0570    11.8650    10.0750    11.5960    23.7110     2.2730   -15.6770 
  114.1250    70.8050    12.0760    10.2520    11.7880    23.7000     2.2710   -15.5690 
  114.2500    72.3430    12.3250    10.4670    11.4590    23.6770     2.2610   -15.4580 
  114.3750    71.7720    12.6260    10.7350    11.5280    23.6490     2.2490   -15.3780 
  114.5000    70.1080    12.9660    11.0360    12.1310    23.6260     2.2430   -15.3480 
  114.6250    71.9200    13.2780    11.3380    12.8510    23.5920     2.2480   -15.3630 
  114.7500    74.4740    13.4600    11.5750    13.1890    23.5700     2.2590   -15.4060 
  114.8750    73.9290    13.4340    11.6460    12.9890    23.5710     2.2700   -15.4350 
  115.0000    71.3630    13.1860    11.5160    12.4550    23.5810     2.2800   -15.4760 
  115.1250    71.3650    12.7710    11.2510    12.6190    23.5860     2.2890   -15.5460 
  115.2500    73.5930    12.3560    10.9790    12.6220    23.5860     2.2960   -15.6260 
  115.3750    74.3110    12.0700    10.7740    12.3720    23.5890     2.3010   -15.7140 
  115.5000    72.8230    11.9980    10.7230    11.7930    23.6050     2.3000   -15.7990 
  115.6250    72.0270    12.1930    10.9190    12.0060    23.6360     2.2880   -15.8910 
  115.7500    71.1960    12.5380    11.2740    12.6800    23.6410     2.2700   -15.9730 
  115.8750    69.3220    12.8860    11.6750    13.3430    23.6000     2.2490   -16.0280 
  116.0000    66.9070    13.0490    11.9920    13.7030    23.5500     2.2280   -16.0500 
  116.1250    65.7310    12.8220    11.9930    13.4710    23.5290     2.2140   -16.0240 
  116.2500    66.3560    12.2710    11.6160    12.7230    23.5220     2.2060   -15.9830 
  116.3750    68.0870    11.5510    10.9700    11.5390    23.5240     2.2030   -15.9280 
  116.5000    70.5780    10.8560    10.2660    10.1540    23.5340     2.2050   -15.8610 
  116.6250    73.6710    10.3280     9.6520     9.4970    23.5540     2.2110   -15.7540 
  116.7500    76.9930     9.9040     9.1180     9.1660    23.5680     2.2170   -15.6100 
  116.8750    79.5190     9.4740     8.6240     9.0950    23.5750     2.2260   -15.4530 
  117.0000    80.9990     8.9620     8.1450     9.1330    23.5730     2.2390   -15.2930 
  117.1250    83.2500     8.3840     7.6950     8.7290    23.5690     2.2580   -15.1940 
  117.2500    86.1860     7.8950     7.3330     7.9600    23.5750     2.2760   -15.1770 
  117.3750    87.4470     7.6570     7.1340     7.7290    23.5690     2.2890   -15.2240 
  117.5000    85.9930     7.7770     7.1560     8.6030    23.4650     2.2910   -15.3540 
  117.6250    84.0920     8.3310     7.4720     9.0420    23.2480     2.2780   -15.5340 
  117.7500    81.6300     9.1520     8.0310     9.7070    23.1030     2.2590   -15.7570 
  117.8750    77.1150    10.0560     8.7690    10.1790    23.0970     2.2370   -16.0570 
  118.0000    71.2970    10.8430     9.5500    10.8570    23.2280     2.2180   -16.4340 
  118.1250    67.0560    11.3550    10.1750    11.4990    23.4670     2.2080   -16.8400 
  118.2500    65.3340    11.6800    10.6110    11.8900    23.6910     2.2080   -17.2060 
  118.3750    66.5850    11.9510    10.9320    11.9830    23.8050     2.2190   -17.5130 
  118.5000    67.9930    12.2750    11.2170    11.9830    23.8030     2.2370   -17.7220 
  118.6250    67.2590    12.6380    11.4720    11.7970    23.7780     2.2540   -17.8720 
  118.7500    65.8260    12.9030    11.6640    12.2350    23.8100     2.2610   -17.9940 
  118.8750    66.9710    12.9650    11.7480    12.8390    23.8320     2.2560   -18.0650 
  119.0000    70.8600    12.8130    11.6890    12.9800    23.7730     2.2440   -18.0760 
  119.1250    73.9540    12.5310    11.4900    12.4350    23.6370     2.2300   -17.9980 
  119.2500    73.8490    12.3030    11.2740    11.7000    23.5190     2.2190   -17.8780 
  119.3750    72.9140    12.2260    11.1300    11.4990    23.4200     2.2110   -17.7530 
  119.5000    72.3190    12.3030    11.0790    11.7350    23.3690     2.2040   -17.6240 
  119.6250    71.1430    12.4490    11.1080    12.0530    23.3800     2.2000   -17.4790 
  119.7500    68.5010    12.5510    11.1670    12.0220    23.4200     2.2010   -17.3280 
  119.8750    67.2210    12.5630    11.2270    11.7510    23.4190     2.2060   -17.1450 
  120.0000    67.9230    12.4880    11.2630    11.5790    23.3790     2.2140   -16.9040 
  120.1250    66.6370    12.3300    11.2280    11.7480    23.3670     2.2180   -16.6070 
  120.2500    64.9140    12.1180    11.1190    12.1940    23.4050     2.2140   -16.2600 
  120.3750    64.7260    11.9410    11.0000    13.5830    23.4700     2.2010   -15.8590 
  120.5000    64.2640    12.0360    11.0480    15.7020    23.4900     2.1800   -15.4210 
  120.6250    61.2880    12.8310    11.5800    15.5280    23.4400     2.1630   -14.9360 
  120.7500    60.1140    14.3190    12.6520    12.9970    23.4270     2.1720   -14.3770 
  120.8750    63.0360    16.1760    14.1010    13.7930    23.5830     2.2210   -13.7550 
  121.0000    66.9490    17.6460    15.4210    19.4920    23.7550     2.3040   -13.1020 
  121.1250    69.2650    17.4510    15.5960    24.8750    23.8030     2.3900   -12.4760 
  121.2500    73.4700    15.5270    14.3890    18.8160    23.7980     2.4390   -11.8990 
  121.3750    81.0030    12.6660    12.2920    10.6400    23.8990     2.4370   -11.3910 
  121.5000    87.9090     9.9510    10.1190     7.6640    24.0840     2.3940   -10.9470 
  121.6250    90.2480     8.1940     8.5190     7.4910    24.1280     2.3420   -10.5280 
  121.7500    88.9680     7.3120     7.5380     7.1730    23.8320     2.3050   -10.1600 
  121.8750    86.1960     7.0730     7.0640     6.7680    23.7030     2.2880    -9.8520 
  122.0000    86.1310     7.1410     6.8860     6.6870    23.7090     2.2850    -9.6110 
  122.1250    93.2030     7.1380     6.7590     6.5240    23.7210     2.2930    -9.4340 
  122.2500   102.1950     6.8910     6.5440     6.1880    23.7390     2.3090    -9.2900 
  122.3750   108.0040     6.4520     6.2530     5.7660    23.7710     2.3300    -9.1600 
