~V
VERS. 2.00: Ver 2.00
~W
STRT.M 51.0000:
STOP.M 262.0000:
STEP.M 0.1250:
NULL. -999.2500:
UWI. F10019:
~C
DEPT.M :
DEN.GM/CC :
SP.MV :
GR.API :
CALI.CM :
RXO.OHMM :
RI. :
RML.OHMM :
~A
# ...
  163.5000     2.3990    -4.3100    78.0790    24.2430    13.6980    15.8350    14.2430 
  163.6250     2.3670    -3.8710    82.2960    24.2850    10.3380    13.4870    12.1010 
  163.7500     2.3390    -3.5280    80.6070    24.2840     8.6960    12.0480    10.9170 
  163.8750     2.3190    -3.2580    78.0530    24.2360     8.0470    11.1710    10.3020 
  164.0000     2.3140    -2.9430    80.5030    24.0790     8.7750    10.6330     9.9490 
  164.1250     2.3120    -2.6840    82.3410    23.9620    10.2090    10.2830     9.6740 
  164.2500     2.3000    -2.3980    78.7300    24.0440    10.9980    10.1980     9.5930 
  164.3750     2.2840    -2.1410    75.4510    24.2510    10.8080    10.5790    10.0170 
  164.5000     2.2900    -1.9050    76.3220    24.2820    11.5190    11.8980    11.5660 
  164.6250     2.3270    -1.7330    76.4210    24.2040    16.7840    14.4490    14.5210 
  164.7500     2.3870    -1.5650    73.9890    24.1610    29.3390    18.5860    19.1310 
  164.8750     2.4530    -1.3730    69.5310    24.2000    48.0050    24.2990    25.2440 
  165.0000     2.5040    -1.2900    65.5670    24.2280    56.8080    30.3840    31.5330 
  165.1250     2.5350    -1.2380    63.5760    24.2320    54.2010    34.3760    35.5710 
  165.2500     2.5550    -1.2600    62.0590    24.2430    46.7630    35.0750    36.1990 
  165.3750     2.5740    -1.2690    60.1120    24.2800    40.5760    33.3480    34.3930 
  165.5000     2.5860    -1.3270    57.6370    24.3450    37.0670    30.9490    32.0710 
  165.6250     2.5600    -1.3850    55.3210    24.3690    35.2340    29.0130    30.3690 
  165.7500     2.4860    -1.4660    53.2740    24.3560    33.8990    27.7310    29.4360 
  165.8750     2.3950    -1.5920    53.1440    24.3200    32.0360    27.0870    29.1970 
  166.0000     2.3570    -1.6410    55.7880    24.2730    29.7570    27.0760    29.5630 
  166.1250     2.3860    -1.6960    56.1830    24.2240    29.2810    27.3910    30.1450 
  166.2500     2.4480    -1.7230    54.3920    24.2090    31.8280    27.6910    30.5210 
  166.3750     2.5020    -1.7750    54.6440    24.2180    34.6780    27.5560    30.2040 
  166.5000     2.5180    -1.7630    57.5160    24.2010    32.5540    26.5630    28.7710 
  166.6250     2.5040    -1.7420    59.1400    24.1410    27.0470    24.9940    26.6990 
  166.7500     2.4770    -1.6750    58.7890    24.1250    21.8520    23.3170    24.6210 
  166.8750     2.4530    -1.5620    58.5020    24.1490    18.9600    21.9790    23.0990 
  167.0000     2.4450    -1.5010    59.1190    24.1330    19.4580    21.3400    22.5540 
  167.1250     2.4510    -1.4150    60.2510    24.0710    22.6860    21.3060    22.7800 
  167.2500     2.4750    -1.3530    62.0040    24.0260    26.9550    21.6850    23.4660 
  167.3750     2.5100    -1.2510    62.2320    24.0440    28.7570    22.1480    24.1700 
  167.5000     2.5260    -1.2020    58.8270    24.1030    27.0050    22.2960    24.4230 
  167.6250     2.5120    -1.1530    55.2920    24.1690    24.9090    22.0930    24.2400 
  167.7500     2.4830    -1.1090    55.6060    24.2010    23.8180    21.7280    23.8730 
  167.8750     2.4640    -1.0800    58.9550    24.1700    22.6310    21.4420    23.6030 
  168.0000     2.4620    -1.0100    60.5150    24.1880    21.3820    21.4060    23.6000 
  168.1250     2.4660    -0.9580    61.2640    24.2490    22.3310    21.4990    23.7020 
  168.2500     2.4720    -0.8970    63.0520    24.2480    25.1150    21.4970    23.6610 
  168.3750     2.4830    -0.8730    64.8040    24.2030    26.9340    21.2130    23.2950 
  168.5000     2.4930    -0.7790    63.9380    24.1650    26.0260    20.6590    22.6540 
  168.6250     2.4980    -0.7080    61.5700    24.1270    24.6770    20.1770    22.1350 
  168.7500     2.5040    -0.6450    59.0880    24.1650    24.8910    20.0450    22.0600 
  168.8750     2.5190    -0.5550    56.9820    24.2790    26.2100    20.3850    22.5720 
  169.0000     2.5430    -0.5350    56.9560    24.3200    29.7530    21.1010    23.5170 
  169.1250     2.5690    -0.5070    59.1950    24.2610    32.8830    21.6900    24.2350 
  169.2500     2.5950    -0.5230    61.0550    24.1770    33.2140    21.6660    24.1290 
  169.3750     2.6210    -0.5370    61.1310    24.1420    28.9100    20.8110    22.9790 
  169.5000     2.6380    -0.6210    60.0620    24.1650    22.9130    19.3190    21.1040 
  169.6250     2.6290    -0.7200    59.6500    24.2240    19.4530    17.7550    19.2230 
  169.7500     2.5910    -0.8420    59.4820    24.2410    18.5120    16.3790    17.6360 
  169.8750     2.5400    -1.0130    59.1520    24.2000    18.0620    15.2730    16.3940 
  170.0000     2.5040    -1.1390    59.6770    24.2290    17.4340    14.4720    15.4850 
  170.1250     2.4800    -1.3150    60.5720    24.2940    16.6950    13.9150    14.8290 
  170.2500     2.4520    -1.4630    61.2490    24.3440    15.7380    13.6350    14.4730 
  170.3750     2.4160    -1.6410    60.5000    24.3620    15.3900    13.7230    14.5400 
  170.5000     2.3850    -1.7680    58.6980    24.3200    17.0190    14.3790    15.2640 
  170.6250     2.3710    -1.8670    59.0180    24.2160    19.5640    15.5460    16.5700 
  170.7500     2.3740    -1.9430    61.1970    24.1230    21.7720    17.0800    18.2840 
  170.8750     2.3830    -1.9640    62.6930    24.0810    23.5240    18.6260    19.9890 
  171.0000     2.3900    -1.9930    60.7830    24.0850    24.8630    19.5000    20.8990 
  171.1250     2.3960    -1.9610    58.1020    24.1200    25.5680    19.3920    20.6860 
  171.2500     2.3980    -1.9800    56.8670    24.1450    24.4790    18.4080    19.5080 
  171.3750     2.3900    -1.9830    56.7440    24.1830    21.6650    16.9860    17.8960 
  171.5000     2.3690    -2.0130    57.0020    24.2350    18.8850    15.6450    16.4660 
  171.6250     2.3520    -2.0250    57.5650    24.2430    17.2840    14.6820    15.5390 
  171.7500     2.3470    -2.0560    58.8910    24.2200    16.4450    14.1960    15.2000 
  171.8750     2.3520    -2.0860    59.3560    24.1260    16.0840    14.1810    15.3950 
  172.0000     2.3600    -2.0330    57.2040    23.8030    16.6970    14.5950    15.9940 
  172.1250     2.3710    -1.9950    57.1190    23.3500    18.3300    15.1860    16.6610 
  172.2500     2.3890    -1.9110    60.6060    23.1440    19.8990    15.7440    17.1490 
  172.3750     2.4100    -1.8610    64.1220    23.5040    20.5050    16.0930    17.3180 
  172.5000     2.4230    -1.7740    63.4440    24.0020    20.0430    16.0970    17.1320 
  172.6250     2.4230    -1.7300    61.4750    24.2220    19.3680    15.8550    16.7790 
  172.7500     2.4200    -1.6900    61.1000    24.1960    18.9010    15.4900    16.4040 
  172.8750     2.4190    -1.6960    62.4860    24.1650    18.8120    15.1370    16.1170 
  173.0000     2.4140    -1.7970    63.3040    24.1700    18.7340    14.9290    16.0070 
  173.1250     2.3990    -1.8850    62.2720    24.1100    18.1760    14.8830    16.0570 
  173.2500     2.3800    -1.9960    59.6000    24.1000    17.7060    14.9790    16.2350 
  173.3750     2.3710    -2.0920    56.5400    24.2270    18.3520    15.1630    16.4710 
  173.5000     2.3840    -2.2510    54.3930    24.3190    20.6620    15.3370    16.6470 
  173.6250     2.4150    -2.3430    53.6670    24.3440    21.7740    15.4010    16.6840 
  173.7500     2.4550    -2.4430    53.7990    24.3500    20.7530    15.3230    16.5910 
  173.8750     2.4880    -2.5680    54.6830    24.3540    18.9810    15.1400    16.4500 
  174.0000     2.4990    -2.6290    55.8700    24.3170    18.1740    14.9660    16.4140 
  174.1250     2.4980    -2.7090    56.8630    24.2310    17.7520    14.9420    16.5980 
  174.2500     2.4930    -2.7600    57.3560    24.0920    17.7720    15.1680    17.0650 
  174.3750     2.4860    -2.8180    57.4150    23.9790    18.4140    15.6870    17.8000 
  174.5000     2.4790    -2.7820    56.2080    24.0780    19.0800    16.4930    18.7400 
  174.6250     2.4800    -2.7730    54.7440    24.3150    19.8820    17.4240    19.7130 
