~V
VERS. 2.00: Ver 2.00
~W
STRT.M 59.0000:
STOP.M 212.0000:
STEP.M 0.1250:
NULL. -999.2500:
UWI. F10143:
~C
DEPT.M :
GR.API :
RML.OHMM :
RI. :
RXO.OHMM :
CALI.CM :
SP.MV :
DEN.GM/CC :
~A
# ...
   70.2500    75.1670    12.5210     8.6500    10.6000    25.2420   -27.5360     2.3660 
   70.3750    79.2720    10.6170     7.5730     7.3870    25.2990   -26.9580     2.3170 
   70.5000    81.5650     9.3560     6.7420     6.3930    25.3550   -26.4950     2.2810 
   70.6250    80.5630     8.9400     6.3200     7.0570    25.4050   -26.2020     2.2440 
   70.7500    79.4390     9.0040     6.1770     7.3940    25.4450   -26.0680     2.2040 
   70.8750    79.0990     9.2490     6.1880     6.8110    25.4740   -26.0570     2.1810 
   71.0000    78.6990     9.4270     6.2350     6.2270    25.4960   -26.1290     2.1880 
   71.1250    79.3080     9.3870     6.2310     6.0030    25.5010   -26.2180     2.2090 
   71.2500    82.4370     9.2180     6.1810     5.5950    25.4920   -26.2880     2.2130 
   71.3750    86.2730     9.0390     6.1160     5.2080    25.4610   -26.3300     2.1980 
   71.5000    86.9800     8.9210     6.0630     5.0420    25.4600   -26.3430     2.1740 
   71.6250    83.8820     8.8820     6.0380     5.1610    25.4940   -26.3380     2.1530 
   71.7500    82.2130     8.8840     6.0340     5.2710    25.5020   -26.3060     2.1400 
   71.8750    85.0170     8.9070     6.0470     5.4240    25.4770   -26.2650     2.1440 
   72.0000    90.0530     8.9490     6.0720     5.6040    25.4400   -26.2330     2.1600 
   72.1250    91.4850     9.0270     6.1060     5.7010    25.4200   -26.2100     2.1710 
   72.2500    91.6570     9.1240     6.1400     5.7190    25.4130   -26.1840     2.1730 
   72.3750    91.8060     9.1860     6.1500     5.7570    25.4120   -26.1580     2.1730 
   72.5000    91.4460     9.1400     6.1050     5.8890    25.4120   -26.1290     2.1780 
   72.6250    89.9800     8.9060     5.9670     5.8700    25.4100   -26.0730     2.1920 
   72.7500    88.1650     8.5520     5.7710     5.7290    25.3970   -26.0010     2.2140 
   72.8750    86.5850     8.2000     5.5730     5.5330    25.3620   -25.9250     2.2390 
   73.0000    86.0590     7.9930     5.4380     5.2610    25.3240   -25.8610     2.2540 
   73.1250    88.3080     8.0850     5.4320     5.0750    25.2720   -25.8570     2.2430 
   73.2500    89.7010     8.4440     5.5410     5.3890    25.2030   -25.9280     2.2180 
   73.3750    89.5180     8.9780     5.7300     5.9780    25.0970   -26.0620     2.1970 
   73.5000    90.1510     9.5140     5.9290     6.4230    25.0100   -26.2450     2.1910 
   73.6250    90.4250     9.8060     6.0300     6.0410    24.9960   -26.4750     2.1930 
   73.7500    89.3010     9.7730     5.9930     5.9900    25.0170   -26.7610     2.1920 
   73.8750    88.1670     9.4650     5.8340     6.0410    25.0370   -27.0830     2.1910 
   74.0000    87.6550     9.0140     5.6180     6.1060    25.0360   -27.4170     2.1950 
   74.1250    84.5360     8.5910     5.4390     6.0650    25.0040   -27.7310     2.2020 
   74.2500    78.4850     8.3720     5.3790     6.4250    24.9520   -28.0030     2.2040 
   74.3750    72.7770     8.5770     5.5350     7.5950    24.9210   -28.2060     2.2050 
   74.5000    69.6280     9.4670     6.0260     8.7270    24.9240   -28.3080     2.2140 
   74.6250    68.9010    11.4130     7.0860     9.8520    24.9500   -28.2610     2.2490 
   74.7500    66.8410    14.2200     8.7160    12.4580    24.9550   -28.0700     2.3130 
   74.8750    64.1550    17.3690    10.7620    19.1640    24.9450   -27.7560     2.3930 
   75.0000    65.7950    19.6910    12.6160    27.2650    24.9110   -27.3440     2.4530 
   75.1250    73.2290    19.3170    13.0090    23.5410    24.8940   -26.8660     2.4430 
   75.2500    81.3760    16.6210    11.8230    14.2650    24.9190   -26.3790     2.3840 
   75.3750    87.4030    13.0870     9.8190     8.3060    25.0040   -25.9520     2.3160 
   75.5000    91.8580    10.0980     7.8660     5.7950    25.0950   -25.6410     2.2650 
   75.6250    94.1460     8.3450     6.4870     5.0600    25.1380   -25.5170     2.2520 
   75.7500    96.2410     7.4720     5.6120     4.8920    25.1670   -25.5680     2.2650 
   75.8750   101.2340     7.1370     5.1020     4.7690    25.1960   -25.7780     2.2780 
   76.0000   107.4690     7.0480     4.8140     4.5550    25.2360   -26.1110     2.2680 
   76.1250   110.4030     7.0560     4.6700     4.4160    25.2560   -26.5730     2.2390 
   76.2500   109.1110     7.1570     4.6320     4.3800    25.2580   -27.1510     2.2200 
   76.3750   103.8090     7.4400     4.7230     4.6140    25.2390   -27.8350     2.2200 
   76.5000    95.3750     7.9750     4.9710     5.2960    25.1930   -28.6250     2.2320 
   76.6250    87.2800     8.8070     5.4210     6.6860    25.1030   -29.5230     2.2380 
   76.7500    80.3010     9.8330     6.0500     8.6230    24.9790   -30.4810     2.2360 
   76.8750    74.2910    10.9890     6.8450     9.8650    24.8860   -31.4710     2.2370 
   77.0000    69.4400    12.2090     7.7550    10.4180    24.8740   -32.4890     2.2410 
   77.1250    67.3070    13.3390     8.6350    10.8910    24.9270   -33.4790     2.2440 
   77.2500    65.7110    14.1600     9.2790    11.8340    25.0030   -34.4080     2.2470 
   77.3750    63.1840    14.4290     9.5210    12.7400    24.9680   -35.2600     2.2530 
   77.5000    62.2430    14.0050     9.3000    12.5890    24.8200   -36.0410     2.2480 
   77.6250    62.5990    12.9620     8.6760     9.6950    24.7130   -36.7460     2.2140 
   77.7500    61.7240    11.8230     7.9450     8.5040    24.6430   -37.3840     2.1740 
   77.8750    59.9650    10.9550     7.2980     8.1880    24.6040   -37.9670     2.1490 
   78.0000    59.0590    10.5370     6.8500     8.5430    24.6380   -38.5010     2.1420 
   78.1250    58.8420    10.6080     6.6690     8.9240    24.7180   -39.0070     2.1400 
   78.2500    58.5290    10.9240     6.6670     9.1710    24.7650   -39.4960     2.1310 
   78.3750    58.9630    11.2980     6.7580     9.3640    24.7870   -39.9890     2.1180 
   78.5000    60.6470    11.6010     6.8660     9.7980    24.7690   -40.4720     2.1070 
   78.6250    62.0280    11.7750     6.9440    10.1210    24.6950   -40.9450     2.0990 
   78.7500    62.0420    11.8490     6.9920    10.2830    24.6420   -41.4240     2.0940 
   78.8750    59.9730    11.8350     7.0130    10.3520    24.6160   -41.9220     2.0900 
   79.0000    55.9670    11.7620     7.0190    10.3340    24.6170   -42.4070     2.0870 
   79.1250    53.9550    11.6800     7.0160    10.2420    24.6260   -42.8500     2.0820 
   79.2500    55.8140    11.6340     7.0070    10.5060    24.6180   -43.2280     2.0750 
   79.3750    59.0950    11.6240     6.9840    11.0340    24.6060   -43.5010     2.0690 
   79.5000    60.6290    11.6170     6.9390    11.2650    24.6800   -43.6640     2.0660 
   79.6250    59.2270    11.5510     6.8580    10.9920    24.8400   -43.6830     2.0610 
   79.7500    56.9500    11.4110     6.7490    10.6530    24.9390   -43.5760     2.0570 
   79.8750    54.2650    11.2310     6.6270    10.1580    24.8910   -43.3320     2.0550 
   80.0000    52.5180    11.0650     6.5110     9.6740    24.7990   -42.9750     2.0560 
   80.1250    54.1980    10.9540     6.4170     9.3180    24.7570   -42.4940     2.0570 
   80.2500    57.7770    10.8740     6.3380     8.9760    24.7320   -41.9280     2.0530 
   80.3750    61.1640    10.7930     6.2630     8.6380    24.6820   -41.2840     2.0400 
   80.5000    61.7270    10.6960     6.1890     8.6480    24.6040   -40.5760     2.0260 
   80.6250    60.8990    10.5970     6.1190     9.0570    24.5020   -39.8340     2.0250 
   80.7500    61.9250    10.5400     6.0680     9.4420    24.3870   -39.0930     2.0370 
   80.8750    65.0770    10.5710     6.0560     9.5180    24.2900   -38.3880     2.0560 
   81.0000    67.0780    10.7130     6.0950     9.6960    24.2490   -37.7560     2.0750 
   81.1250    64.6470    10.9380     6.1810     9.9150    24.2590   -37.2280     2.0880 
   81.2500    61.1920    11.1390     6.2740    10.1460    24.2920   -36.7860     2.0970 
   81.3750    60.2280    11.2330     6.3390    10.3010    24.3430   -36.4300     2.1010 
