~V
VERS. 2.00: Ver 2.00
~W
STRT.M 54.0000:
STOP.M 236.0000:
STEP.M 0.1250:
NULL. -999.2500:
UWI. F10195:
~C
DEPT.M :
GR.API :
RML.OHMM :
RI. :
RXO.OHMM :
CALI.CM :
SP.MV :
DEN.GM/CC :
~A
# ...
   99.0000    73.3210     9.1300     7.4500     7.3020    26.2400   -25.1530     2.0950 
   99.1250    77.1600     8.8240     7.1610     7.3030    24.9890   -23.9760     2.1500 
   99.2500    81.4110     8.4990     6.8600     7.9280    24.3910   -22.9950     2.2230 
   99.3750    84.6030     8.1370     6.5400     7.9690    24.2210   -22.2210     2.2790 
   99.5000    85.8750     7.7390     6.1970     7.1370    24.1920   -21.6680     2.3150 
   99.6250    87.1100     7.3270     5.8390     6.0620    24.1900   -21.3640     2.3430 
   99.7500    89.9600     6.9630     5.5040     5.6980    24.1860   -21.3840     2.3670 
   99.8750    91.7890     6.7310     5.2510     5.7190    24.1950   -21.6420     2.3810 
  100.0000    89.0770     6.7130     5.1480     5.9560    24.2010   -22.0730     2.3830 
  100.1250    82.4970     6.9540     5.2420     6.1790    24.1750   -22.6400     2.3770 
  100.2500    78.4630     7.4830     5.5830     6.1250    24.3540   -23.3630     2.3740 
  100.3750    77.5740     8.1740     6.0960     6.4630    25.1010   -24.2020     2.3690 
  100.5000    74.4520     8.8830     6.6890     7.9640    26.4960   -25.1150     2.3400 
  100.6250    67.9870     9.4400     7.2270     9.5430    27.8920   -26.0580     2.2750 
  100.7500    63.9190     9.6650     7.5400    10.1450    28.7080   -26.9650     2.1990 
  100.8750    64.2770     9.6100     7.6220    10.3550    28.9750   -27.8340     2.1550 
  101.0000    65.3800     9.3920     7.5400    10.6040    29.1670   -28.6560     2.1490 
  101.1250    63.8720     9.1600     7.4050    10.6990    29.7400   -29.3960     2.1610 
  101.2500    61.5180     9.0310     7.3240    10.7210    30.8440   -29.9970     2.1660 
  101.3750    61.0260     8.9880     7.3060    10.9560    31.8610   -30.4580     2.1590 
  101.5000    63.2270     8.9730     7.3110    11.0470    32.4840   -30.7950     2.1490 
  101.6250    66.6100     8.9350     7.2950    10.9640    32.7380   -31.0070     2.1420 
  101.7500    67.6780     8.8400     7.2290    10.5750    32.7820   -31.1040     2.1390 
  101.8750    66.9820     8.7060     7.1280    10.1210    32.7240   -31.1390     2.1360 
  102.0000    66.1650     8.5680     7.0090     9.7870    32.6730   -31.1230     2.1360 
  102.1250    65.5850     8.4700     6.8940     9.6890    32.6410   -31.0620     2.1410 
  102.2500    64.3580     8.4600     6.8110     9.7710    32.6260   -30.9820     2.1500 
  102.3750    62.8770     8.5340     6.7830     9.7720    32.6320   -30.9190     2.1590 
  102.5000    62.5590     8.6720     6.8230     9.7240    32.5900   -30.8750     2.1680 
  102.6250    62.8640     8.8510     6.9260     9.7580    32.4310   -30.8610     2.1780 
  102.7500    62.4320     9.0480     7.0680    10.1240    32.1420   -30.8820     2.1890 
  102.8750    62.6800     9.2210     7.2100    10.9370    31.8170   -30.8850     2.1980 
  103.0000    62.4600     9.3380     7.3320    12.0010    31.4540   -30.8470     2.2030 
  103.1250    59.7930     9.3950     7.4310    13.0270    31.3250   -30.7760     2.2050 
  103.2500    58.4870     9.4370     7.5240    12.0550    31.6280   -30.6660     2.2040 
  103.3750    61.6970     9.5430     7.6410    11.4270    32.0210   -30.4920     2.2030 
  103.5000    65.6070     9.7710     7.8110    10.8890    32.2310   -30.2720     2.2010 
  103.6250    65.9640    10.1240     8.0480    10.4940    32.1180   -30.0370     2.1940 
  103.7500    64.5880    10.5230     8.3170    10.7840    31.9610   -29.7820     2.1810 
  103.8750    63.9610    10.8260     8.5340    11.4730    32.1140   -29.5090     2.1650 
  104.0000    63.0820    10.9340     8.6270    12.0130    32.5310   -29.2270     2.1480 
  104.1250    60.6910    10.8150     8.5670    12.2720    32.9660   -28.9510     2.1280 
  104.2500    58.9800    10.4930     8.3690    12.1760    32.9990   -28.6680     2.1080 
  104.3750    59.7220    10.1110     8.1250    11.6900    32.5830   -28.3890     2.1030 
  104.5000    62.3980     9.7670     7.8980    11.0470    31.8580   -28.1140     2.1230 
  104.6250    65.1810     9.5260     7.7290    10.4350    31.3620   -27.8400     2.1640 
  104.7500    65.6830     9.4530     7.6540    10.1840    31.4520   -27.5960     2.2080 
  104.8750    65.8040     9.5590     7.6790    10.5850    31.8200   -27.3970     2.2330 
  105.0000    66.1130     9.8630     7.8320    11.0560    32.1970   -27.2450     2.2320 
  105.1250    65.5490    10.3480     8.1220    10.9980    32.5920   -27.1320     2.2120 
  105.2500    63.1400    10.9290     8.5300    10.3800    32.6880   -27.0840     2.1880 
  105.3750    60.6470    11.4220     8.9350    10.1080    32.3150   -27.1260     2.1740 
  105.5000    60.1460    11.6650     9.2100    10.6540    31.7280   -27.2770     2.1730 
  105.6250    61.5760    11.5660     9.2570    11.4620    31.4730   -27.5410     2.1860 
  105.7500    62.9950    11.1350     9.0310    11.3300    31.5600   -27.8960     2.2010 
  105.8750    63.6830    10.6170     8.6830    10.9870    31.7300   -28.3250     2.2070 
  106.0000    64.2830    10.1890     8.3290    10.7840    31.8630   -28.8220     2.2050 
  106.1250    64.5540     9.9500     8.0520    10.6760    32.0360   -29.3900     2.2000 
  106.2500    63.7350     9.9170     7.9030    10.6160    32.2390   -30.0390     2.1970 
  106.3750    62.8190     9.9730     7.8450    10.7590    32.5890   -30.7210     2.1950 
  106.5000    62.8700    10.0260     7.8330    11.0710    33.1690   -31.3980     2.1900 
  106.6250    63.2940    10.0250     7.8200    11.4330    33.9270   -32.0450     2.1770 
  106.7500    61.2150     9.9580     7.7840    11.2930    34.3420   -32.6290     2.1580 
  106.8750    58.1640     9.8750     7.7500    11.1590    34.3980   -33.1500     2.1440 
  107.0000    57.0300     9.8140     7.7470    11.2730    34.4030   -33.6060     2.1410 
  107.1250    57.2850     9.8000     7.7840    11.7070    34.6190   -33.9800     2.1380 
  107.2500    56.1140     9.8320     7.8470    11.6220    34.8070   -34.1890     2.1210 
  107.3750    54.2720     9.8660     7.8950    11.2500    34.7990   -34.2330     2.0990 
  107.5000    54.7650     9.8460     7.8850    10.8230    34.6560   -34.1080     2.0840 
  107.6250    57.2310     9.7210     7.7790    10.0640    34.3110   -33.8150     2.0720 
  107.7500    59.5820     9.4630     7.5500     9.5800    33.5890   -33.3850     2.0600 
  107.8750    61.1450     9.1330     7.2540    10.0340    32.6620   -32.8510     2.0640 
  108.0000    61.9930     8.7880     6.9410    10.8520    32.0560   -32.2430     2.0900 
  108.1250    63.7840     8.4840     6.6610    10.3330    31.8360   -31.6060     2.1300 
  108.2500    66.4540     8.3010     6.4730     9.0120    31.6290   -31.0550     2.1610 
  108.3750    66.8890     8.2610     6.3880     8.5690    31.2620   -30.6380     2.1760 
  108.5000    64.4430     8.3700     6.4130     9.0170    30.8460   -30.3770     2.1800 
  108.6250    62.7450     8.6110     6.5330     9.7670    30.5810   -30.2810     2.1810 
  108.7500    66.0640     8.9400     6.7200    10.5470    30.6060   -30.3240     2.1870 
  108.8750    68.6060     9.2510     6.9050    11.2270    30.7230   -30.4310     2.1920 
  109.0000    67.2840     9.4620     7.0420    11.2520    30.7130   -30.5650     2.1920 
  109.1250    64.0180     9.5220     7.1090    10.9500    30.5220   -30.6660     2.1860 
  109.2500    62.2690     9.4220     7.0980    10.4310    30.1930   -30.6280     2.1800 
  109.3750    62.4900     9.3120     7.0670     9.8400    29.6980   -30.4490     2.1830 
  109.5000    64.7210     9.3890     7.1180     9.5160    28.9740   -30.1240     2.1950 
  109.6250    68.0730     9.8340     7.3830     9.5700    28.2720   -29.6400     2.2090 
  109.7500    68.0360    10.7630     8.0040     9.7400    27.6780   -28.9920     2.2120 
  109.8750    64.6460    11.9490     8.8880    10.6420    26.9280   -28.2580     2.2030 
  110.0000    61.2190    13.0720     9.8500    14.5540    26.0100   -27.4510     2.1930 
  110.1250    58.4770    13.7300    10.5840    25.4860    25.5570   -26.5640     2.1740 
