~V
VERS. 2.00: Ver 2.00
~W
STRT.M 50.0000:
STOP.M 223.0000:
STEP.M 0.1250:
NULL. -999.2500:
UWI. F10135:
~C
DEPT.M :
SP.MV :
DEN.GM/CC :
GR.API :
RML.OHMM :
RI. :
RXO.OHMM :
CALI.CM :
~A
# ...
  128.7500   -12.2910     2.2840    98.0990     6.1190     5.7650     6.0090    25.8670 
  128.8750   -12.1910     2.2900   101.9850     5.8580     5.3290     5.8290    25.8670 
  129.0000   -12.0830     2.3130   104.5150     6.0520     5.2810     5.6510    25.8600 
  129.1250   -12.0090     2.3610   104.4370     6.9050     5.7780     5.7840    25.8120 
  129.2500   -11.9470     2.4280    98.0330     8.4530     6.8760     6.5270    25.6770 
  129.3750   -11.8720     2.5030    87.2120    10.6840     8.6870     8.5330    25.5940 
  129.5000   -11.8000     2.5670    79.2200    13.2850    11.1400    12.4610    25.4880 
  129.6250   -11.7750     2.5910    74.3760    15.3580    13.6200    18.7690    25.4610 
  129.7500   -11.8300     2.5700    68.8100    16.0490    15.0780    24.6150    25.4000 
  129.8750   -11.9120     2.5100    67.4090    15.0410    14.8540    27.5530    25.3440 
  130.0000   -11.9880     2.4350    76.3320    12.7600    13.0780    22.4960    25.3400 
  130.1250   -12.0360     2.3720    89.6710    10.1590    10.5760    13.0710    25.3770 
  130.2500   -12.0670     2.3330    96.4690     8.0670     8.3490     7.9890    25.4530 
  130.3750   -12.0690     2.3140    98.7200     6.6870     6.7180     5.8920    25.4650 
  130.5000   -12.0480     2.3050   103.8640     5.9440     5.6840     5.1580    25.4730 
  130.6250   -11.9890     2.2990   111.1790     5.7950     5.2340     5.0700    25.5110 
  130.7500   -11.8790     2.3040   112.4000     6.1340     5.2400     5.1880    25.5860 
  130.8750   -11.7600     2.3300   106.0490     7.0460     5.7450     5.4130    25.5980 
  131.0000   -11.6430     2.3830    96.8680     8.6550     6.8530     6.2230    25.6000 
  131.1250   -11.5480     2.4580    88.5150    11.1130     8.8100     9.4590    25.5980 
  131.2500   -11.4840     2.5300    79.6760    14.0300    11.4460    16.6980    25.5860 
  131.3750   -11.4240     2.5800    70.4240    16.8450    14.3780    24.8690    25.5110 
  131.5000   -11.3430     2.6020    65.4020    18.8920    16.9330    27.0340    25.4670 
  131.6250   -11.2740     2.6020    66.5650    19.5820    18.2690    22.0200    25.4230 
  131.7500   -11.3050     2.5980    67.7870    19.3620    18.5020    17.3830    25.3470 
  131.8750   -11.3830     2.5990    65.7280    18.8300    18.1200    15.2580    25.3400 
  132.0000   -11.4140     2.6060    61.4630    18.4960    17.6900    15.3430    25.3540 
  132.1250   -11.4140     2.6140    59.1720    18.5760    17.5580    16.6640    25.4510 
  132.2500   -11.4320     2.6170    59.2670    18.8240    17.6130    17.3680    25.4770 
  132.3750   -11.4910     2.6120    60.3300    19.0330    17.6770    18.4160    25.5560 
  132.5000   -11.5590     2.5990    62.5150    19.1440    17.6590    19.3930    25.5930 
  132.6250   -11.5910     2.5830    67.4950    19.3390    17.6670    18.4160    25.6000 
  132.7500   -11.6010     2.5720    73.0640    19.8640    17.9300    16.8720    25.6000 
  132.8750   -11.6250     2.5690    74.5190    20.8370    18.6100    17.3330    25.6000 
  133.0000   -11.6740     2.5730    70.7950    22.1750    19.7140    20.9570    25.6000 
  133.1250   -11.6890     2.5790    65.1940    23.5830    21.0600    25.7690    25.6000 
  133.2500   -11.7190     2.5820    63.3610    24.7160    22.2790    28.9130    25.6000 
  133.3750   -11.7440     2.5830    65.0650    25.4430    23.1580    27.4330    25.5950 
  133.5000   -11.7460     2.5870    66.2240    25.8490    23.6750    23.5930    25.5720 
  133.6250   -11.7560     2.5950    64.5890    26.1530    23.9860    21.4170    25.4390 
  133.7500   -11.7480     2.6000    63.7180    26.4960    24.2970    22.4120    25.3370 
  133.8750   -11.7350     2.5970    65.0240    26.7750    24.5920    26.4850    25.2460 
  134.0000   -11.7260     2.5820    65.6770    26.7610    24.7040    29.8880    25.2070 
  134.1250   -11.7250     2.5580    64.2400    26.2050    24.3780    29.6450    25.2100 
  134.2500   -11.7310     2.5330    65.3140    25.2810    23.6800    25.4540    25.2670 
  134.3750   -11.7370     2.5080    68.6820    24.2900    22.8250    21.8550    25.3230 
  134.5000   -11.7240     2.4850    70.2170    23.5720    22.1100    20.6740    25.3400 
  134.6250   -11.6510     2.4670    68.0740    23.4530    21.8640    21.7410    25.3770 
  134.7500   -11.5770     2.4590    66.1520    23.8570    22.1080    22.7580    25.4530 
  134.8750   -11.5400     2.4640    65.2150    24.6080    22.7530    22.8600    25.4650 
  135.0000   -11.5210     2.4800    62.1780    25.4150    23.5800    22.7900    25.4670 
  135.1250   -11.4680     2.4990    58.2090    25.8450    24.2100    23.7580    25.4670 
  135.2500   -11.3990     2.5140    56.9610    25.6580    24.3400    26.5830    25.4670 
  135.3750   -11.3840     2.5200    58.8720    24.7910    23.8300    27.6580    25.4670 
  135.5000   -11.4530     2.5160    62.4350    23.4010    22.7490    25.1850    25.4670 
  135.6250   -11.5730     2.5000    65.6850    21.8420    21.3530    21.3000    25.4560 
  135.7500   -11.6320     2.4770    68.3920    20.5430    20.0650    17.7450    25.4000 
  135.8750   -11.6360     2.4540    68.7050    19.7550    19.1540    16.7750    25.3440 
  136.0000   -11.6530     2.4360    67.7890    19.5750    18.7700    16.8260    25.3330 
  136.1250   -11.6750     2.4310    66.3970    20.0200    19.0130    16.9480    25.3330 
  136.2500   -11.6640     2.4360    62.6170    20.7880    19.6620    17.6830    25.3330 
  136.3750   -11.6350     2.4500    57.5300    21.6250    20.5060    18.9160    25.3330 
  136.5000   -11.5780     2.4730    55.7630    22.2800    21.2940    21.3150    25.3400 
  136.6250   -11.4970     2.5000    59.9910    22.5070    21.7340    22.5110    25.3770 
  136.7500   -11.4430     2.5240    61.5250    22.3370    21.7730    22.4410    25.4530 
  136.8750   -11.4030     2.5380    56.8530    21.8730    21.4620    21.3340    25.4700 
  137.0000   -11.3810     2.5400    53.3190    21.2740    20.9410    20.5090    25.4880 
  137.1250   -11.4050     2.5340    57.0170    20.7170    20.3840    20.0890    25.5820 
  137.2500   -11.4260     2.5310    62.0290    20.2960    19.9230    20.4430    25.5970 
  137.3750   -11.4110     2.5370    64.2160    20.0400    19.6040    20.2780    25.6000 
  137.5000   -11.4280     2.5490    63.9610    19.9490    19.4360    19.8790    25.6070 
  137.6250   -11.5120     2.5650    61.6620    20.0360    19.4420    20.6520    25.6440 
  137.7500   -11.5960     2.5770    58.2660    20.2560    19.5940    21.6220    25.7190 
  137.8750   -11.6610     2.5850    56.1430    20.5620    19.8630    22.2130    25.7320 
  138.0000   -11.7380     2.5900    56.5230    20.8730    20.1840    22.6330    25.7330 
  138.1250   -11.8570     2.5900    56.5230    21.0680    20.4370    22.0140    25.7330 
  138.2500   -11.9630     2.5870    55.7730    21.0900    20.5400    22.9950    25.7330 
  138.3750   -12.0560     2.5800    55.8280    20.9420    20.4730    23.1910    25.7330 
  138.5000   -12.1460     2.5720    56.9710    20.6810    20.2750    21.6310    25.7400 
  138.6250   -12.2750     2.5650    57.8940    20.3980    20.0200    20.1220    25.7800 
  138.7500   -12.4500     2.5570    57.8990    20.1720    19.7920    20.5660    25.9730 
  138.8750   -12.6340     2.5480    57.7450    20.0250    19.6260    22.0150    26.0890 
  139.0000   -12.7850     2.5390    58.0710    19.9270    19.5130    21.5110    26.0890 
  139.1250   -12.9110     2.5330    58.3090    19.7930    19.3870    20.0020    26.0890 
  139.2500   -13.0680     2.5310    60.1570    19.5660    19.1800    18.4550    26.0920 
  139.3750   -13.2020     2.5300    65.4260    19.2600    18.8820    18.4700    26.1150 
  139.5000   -13.2600     2.5270    72.1890    18.9560    18.5500    19.2120    26.1770 
  139.6250   -13.2810     2.5190    73.9010    18.7970    18.3050    18.1930    26.2640 
  139.7500   -13.2890     2.5090    68.6930    18.8430    18.2270    16.9470    26.3010 
  139.8750   -13.2520     2.5000    62.3400    19.1030    18.3450    17.9520    26.3090 
