~V
VERS. 2.00: Ver 2.00
~W
STRT.M 47.0000:
STOP.M 242.0000:
STEP.M 0.1250:
NULL. -999.2500:
UWI. F10188:
~C
DEPT.M :
SP.MV :
DEN.GM/CC :
GR.API :
RML.OHMM :
RI. :
RXO.OHMM :
CALI.CM :
~A
   47.0000    56.5390  -999.2500  -999.2500  -999.2500  -999.2500  -999.2500  -999.2500 
   47.1250    56.5060  -999.2500  -999.2500  -999.2500  -999.2500  -999.2500  -999.2500 
   47.2500    56.4490  -999.2500  -999.2500  -999.2500  -999.2500  -999.2500  -999.2500 
   47.3750    56.3010  -999.2500  -999.2500  -999.2500  -999.2500  -999.2500  -999.2500 
   47.5000    55.9840  -999.2500  -999.2500  -999.2500  -999.2500  -999.2500  -999.2500 
   47.6250    55.5200  -999.2500  -999.2500  -999.2500  -999.2500  -999.2500  -999.2500 
   47.7500    54.9870  -999.2500  -999.2500  -999.2500  -999.2500  -999.2500  -999.2500 
   47.8750    54.4640  -999.2500  -999.2500  -999.2500  -999.2500  -999.2500  -999.2500 
   48.0000    53.9820  -999.2500  -999.2500  -999.2500  -999.2500  -999.2500  -999.2500 
   48.1250    53.5820  -999.2500  -999.2500  -999.2500  -999.2500  -999.2500  -999.2500 
   48.2500    53.2600  -999.2500  -999.2500  -999.2500  -999.2500  -999.2500  -999.2500 
   48.3750    53.0360  -999.2500  -999.2500  -999.2500  -999.2500  -999.2500  -999.2500 
   48.5000    52.9120  -999.2500  -999.2500  -999.2500  -999.2500  -999.2500  -999.2500 
   48.6250    52.8740  -999.2500  -999.2500  -999.2500  -999.2500  -999.2500  -999.2500 
   48.7500    52.8910  -999.2500  -999.2500  -999.2500  -999.2500  -999.2500  -999.2500 
   48.8750    52.8220  -999.2500  -999.2500  -999.2500  -999.2500  -999.2500  -999.2500 
   49.0000    52.5600  -999.2500    48.6470     0.2480     0.1610    -4.0850    24.7100 
   49.1250    52.1570  -999.2500    48.6470     0.2480     0.1610    -4.0850    24.7100 
   49.2500    51.6990  -999.2500    48.6470     0.2480     0.1610    -4.0850    24.7100 
   49.3750    51.2660  -999.2500    49.2460     0.2100     0.1630    -4.0440    24.6510 
   49.5000    50.8400  -999.2500    48.0740     0.1690     0.1670    -3.9920    24.6060 
   49.6250    50.3530  -999.2500    47.0420     0.1510     0.1720    -3.9380    24.5770 
   49.7500    49.7480  -999.2500    48.2220     0.1660     0.1750    -3.8850    24.5520 
   49.8750    49.1050  -999.2500    49.7210     0.2120     0.1760    -3.8350    24.5200 
   50.0000    48.5210  -999.2500    46.8450     0.2720     0.1750    -3.7960    24.5040 
   50.1250    47.9390  -999.2500    41.2280     0.3250     0.1740    -3.7790    24.5500 
   50.2500    47.2850  -999.2500    38.2670     0.3570     0.1720    -3.7910    24.6730 
   50.3750    46.5170  -999.2500    40.2450     0.3670     0.1710    -3.8230    24.8430 
   50.5000    45.7280  -999.2500    44.8580     0.3620     0.1730    -3.8760    25.0360 
   50.6250    44.9700  -999.2500    48.1930     0.3540     0.1770    -3.9480    25.2390 
   50.7500    44.2210  -999.2500    48.6780     0.3500     0.1840    -4.0200    25.4000 
   50.8750    43.3860  -999.2500    46.5480     0.3500     0.1900    -4.0540    25.4580 
   51.0000    42.4580  -999.2500    44.0430     0.3500     0.1940    -4.0770    25.4350 
   51.1250    41.4970  -999.2500    44.6980     0.3480     0.1930    -4.1160    25.4140 
   51.2500    40.4950  -999.2500    48.6510     0.3460     0.1900    -4.1590    25.3920 
   51.3750    39.4680  -999.2500    52.8610     0.3420     0.1850    -4.1880    25.3640 
   51.5000    38.4740  -999.2500    54.9640     0.3260     0.1820    -4.1900    25.3420 
   51.6250    37.5790  -999.2500    55.0310     0.2960     0.1800    -4.1750    25.3140 
   51.7500    36.8480  -999.2500    54.8730     0.2620     0.1810    -4.1620    25.2890 
   51.8750    36.3550  -999.2500    55.6720     0.2380     0.1830    -4.1660    25.2770 
   52.0000    36.1520  -999.2500    56.1710     0.2390     0.1840    -4.1840    25.2730 
   52.1250    36.1960  -999.2500    54.8720     0.2500     0.1870    -4.2030    25.2710 
   52.2500    36.4460  -999.2500    52.7790     0.2540     0.1920    -4.2150    25.2720 
   52.3750    36.7880  -999.2500    51.3910     0.2440     0.1980    -4.2150    25.2730 
   52.5000    37.0310  -999.2500    49.8500     0.2310     0.2020    -4.2000    25.2730 
   52.6250    37.0110  -999.2500    46.3810     0.2250     0.2040    -4.1850    25.2700 
   52.7500    36.7170  -999.2500    42.9520     0.2210     0.2030    -4.1890    25.2690 
   52.8750    36.2570  -999.2500    42.2870     0.2160     0.2000    -4.1980    25.2700 
   53.0000    35.6580  -999.2500    44.0010     0.1980     0.1980    -4.1910    25.2640 
   53.1250    34.9050  -999.2500    44.7540     0.1710     0.1970    -4.1710    25.2540 
   53.2500    34.0750  -999.2500    43.6730     0.1470     0.1960    -4.1460    25.2590 
   53.3750    33.2730  -999.2500    42.6620     0.1380     0.1940    -4.1250    25.2670 
   53.5000    32.6620  -999.2500    43.3650     0.1480     0.1920    -4.1240    25.2720 
   53.6250    32.3510  -999.2500    45.6680     0.1640     0.1900    -4.1420    25.2710 
   53.7500    32.3650  -999.2500    48.1220     0.1720     0.1860    -4.1630    25.2730 
   53.8750    32.6130  -999.2500    47.8610     0.1600     0.1820    -4.1860    25.2770 
   54.0000    33.0760  -999.2500    45.3240     0.1210     0.1770    -4.1840    25.2780 
   54.1250    33.7430  -999.2500    43.9070     0.0770     0.1720    -4.1690    25.2700 
   54.2500    34.5600  -999.2500    43.8530     0.0440     0.1660    -4.1600    25.2470 
   54.3750    35.4150  -999.2500    42.9860     0.0320     0.1590    -4.1510    25.2220 
   54.5000    36.1430  -999.2500    41.3980     0.0540     0.1530    -4.1260    25.2120 
   54.6250    36.7090     1.9610    41.9090     0.1010     0.1470    -4.0880    25.2100 
   54.7500    37.1150     1.9610    43.7510     0.1570     0.1440    -4.0580    25.2100 
   54.8750    37.3440     1.9650    45.3710     0.2000     0.1440    -4.0440    25.2100 
   55.0000    37.3850     1.9630    45.6970     0.2060     0.1490    -4.0320    25.2100 
   55.1250    37.3380     1.9610    45.0760     0.1830     0.1560    -4.0150    25.2120 
   55.2500    37.3040     1.9660    44.0900     0.1540     0.1640    -3.9980    25.2200 
   55.3750    37.3560     1.9780    42.5210     0.1370     0.1680    -3.9980    25.2410 
   55.5000    37.6260     1.9950    40.0090     0.1320     0.1690    -4.0340    25.2630 
   55.6250    38.1860     2.0170    39.1650     0.1240     0.1710    -4.0900    25.2700 
   55.7500    38.9890     2.0430    40.6890     0.1080     0.1750    -4.1170    25.2710 
   55.8750    39.9620     2.0670    42.0520     0.0870     0.1810    -4.1140    25.2720 
   56.0000    41.0650     2.0790    40.2410     0.0710     0.1890    -4.1000    25.2740 
   56.1250    42.2110     2.0790    38.2440     0.0570     0.1960    -4.0860    25.2780 
   56.2500    43.2980     2.0670    38.1500     0.0400     0.2030    -4.0740    25.2790 
   56.3750    44.2830     2.0520    40.0990     0.0210     0.2080    -4.0640    25.2830 
   56.5000    45.1130     2.0390    41.1200     0.0070     0.2140    -4.0580    25.2990 
   56.6250    45.7540     2.0290    39.9750     0.0010     0.2180    -4.0570    25.3250 
   56.7500    46.2300     2.0220    39.1920     0.0000     0.2200    -4.0630    25.3430 
   56.8750    46.5720     2.0200    41.0540     0.0000     0.2180    -4.0760    25.3490 
   57.0000    46.7280     2.0240    42.9950     0.0000     0.2100    -4.0910    25.3490 
   57.1250    46.7670     2.0330    42.3490     0.0040     0.2010    -4.1020    25.3490 
   57.2500    46.8530     2.0460    40.5950     0.0150     0.1940    -4.1040    25.3490 
   57.3750    47.0850     2.0650    40.0750     0.0320     0.1920    -4.0910    25.3350 
   57.5000    47.5640     2.0880    40.3890     0.0470     0.1930    -4.0460    25.2740 
   57.6250    48.3180     2.1160    41.1090     0.0510     0.1940    -3.9550    25.1340 
   57.7500    49.3510     2.1510    42.0240     0.0420     0.1900    -3.8080    24.9110 
   57.8750    50.5940     2.1880    41.9950     0.0240     0.1850    -3.5730    24.5970 
   58.0000    51.9110     2.2210    41.8150     0.0080     0.1830    -3.2950    24.2090 
   58.1250    53.0240     2.2490    43.7030     0.0010     0.1910    -2.9760    23.8900 
