~V
VERS. 2.00: Ver 2.00
~W
STRT.M 60.0000:
STOP.M 220.0000:
STEP.M 0.1250:
NULL. -999.2500:
UWI. F10154:
~C
DEPT.M :
GR.API :
RML.OHMM :
RI. :
RXO.OHMM :
CALI.CM :
DEN.GM/CC :
SP.MV :
~A
# ...
  206.2500    75.2370    11.4420     9.9770    10.4410    24.5710     2.4500   -14.8650 
  206.3750    74.6670    10.9910     9.6140    10.0310    24.5290     2.4500   -14.5270 
  206.5000    74.4340    10.6830     9.3550     9.4800    24.5090     2.4410   -14.1860 
  206.6250    74.0670    10.4690     9.1630     9.0200    24.5170     2.4220   -13.8590 
  206.7500    74.1620    10.2960     8.9970     8.4540    24.5460     2.4010   -13.5520 
  206.8750    75.8380    10.1720     8.8690     7.4970    24.5250     2.3860   -13.2800 
  207.0000    77.3090    10.1240     8.8080     7.2540    24.5040     2.3810   -13.0300 
  207.1250    75.6320    10.1810     8.8480     7.7870    24.5180     2.3870   -12.8530 
  207.2500    72.4200    10.3040     8.9620     9.0180    24.6100     2.3970   -12.7070 
  207.3750    70.4080    10.4410     9.1070     9.5410    24.5780     2.4040   -12.6090 
  207.5000    70.5700    10.5290     9.2190     9.3820    24.4950     2.4040   -12.5070 
  207.6250    70.4420    10.5030     9.2230     8.8900    24.4610     2.4030   -12.3980 
  207.7500    69.2170    10.3820     9.1310     8.6480    24.4610     2.4050   -12.2890 
  207.8750    69.3850    10.2110     8.9830     8.6280    24.4740     2.4130   -12.2230 
  208.0000    72.6240    10.0550     8.8380     8.2730    24.4870     2.4270   -12.1610 
  208.1250    75.7440     9.9840     8.7530     7.9990    24.4680     2.4390   -12.0650 
  208.2500    74.9540    10.0100     8.7410     7.7940    24.4340     2.4500   -11.9910 
  208.3750    72.8460    10.1180     8.7990     7.7230    24.4160     2.4610   -11.9720 
  208.5000    73.2530    10.2730     8.9080     7.9940    24.4460     2.4770   -12.0180 
  208.6250    74.9750    10.4330     9.0470     8.5290    24.4760     2.4910   -12.1040 
  208.7500    75.8730    10.5740     9.1890     8.9920    24.5200     2.4920   -12.1870 
  208.8750    75.8690    10.6920     9.3220     9.3580    24.6310     2.4700   -12.2410 
  209.0000    74.4750    10.8050     9.4520     9.0600    24.7560     2.4280   -12.3380 
  209.1250    70.6290    10.9430     9.6030     8.7040    24.7440     2.3880   -12.4420 
  209.2500    68.1820    11.1270     9.7880     9.0410    24.6430     2.3710   -12.5300 
  209.3750    68.0390    11.3690    10.0160    10.3990    24.5920     2.3840   -12.6130 
  209.5000    68.0390    11.6680    10.2880    12.8300    24.7060     2.4200   -12.6840 
  209.6250    68.0390    12.0060    10.5960    12.7620    24.7660     2.4560   -12.7520 
  209.7500    68.0390    12.3410    10.9070    11.2300    24.7100     2.4730   -12.8370 
  209.8750    68.0390    12.6430    11.1950    11.3040    24.6450     2.4690   -12.9320 
  210.0000    68.0390    12.8980    11.4430    12.4080    24.5540     2.4530   -13.0300 
  210.1250    68.0390    13.1070    11.6430    15.8680    24.5280     2.4390   -13.1360 
  210.2500    68.0390    13.3150    11.8270    12.6940    24.5790     2.4380   -13.2260 
  210.3750    68.0390    13.5660    12.0300    11.2760    24.5870     2.4520   -13.2570 
  210.5000    68.0390    13.8990    12.2870    11.8140    24.6090     2.4760   -13.2780 
  210.6250    68.0390    14.3590    12.6420    13.8590    24.6590     2.4930   -13.2880 
  210.7500    68.0390    14.9250    13.0940    15.0510    24.6600     2.4940   -13.3170 
  210.8750    68.0390    15.5770    13.6390    15.0230    24.6390     2.4750   -13.3610 
  211.0000    68.0390    16.2820    14.2570    14.0160    24.6130     2.4470   -13.3820 
  211.1250    68.0390    16.9920    14.9220    11.6470    24.5430     2.4340   -13.3510 
  211.2500    68.0390    17.6560    15.5940    11.3890    24.4990     2.4470   -13.3070 
  211.3750    68.0390    18.2380    16.2420    13.3170    24.5340     2.4790   -13.3020 
  211.5000    68.0390    18.7290    16.8480    16.1700    24.6580     2.5070   -13.3040 
  211.6250    68.0390    19.1550    17.4150    17.4310    24.7000     2.5080   -13.3300 
  211.7500    68.0390    19.5980    17.9910    18.5750    24.6670     2.4890   -13.3140 
  211.8750    68.0390    20.1260    18.6220    17.2830    24.5650     2.4720   -13.2680 
  212.0000    68.0390    20.7580    19.3390    16.6540    24.4440     2.4770   -13.2000 
  212.1250    68.0390    21.4050    20.0850    21.1350    24.3680     2.5090   -13.1560 
  212.2500    68.0390    21.8580    20.6660    32.5970    24.3890     2.5430   -13.1110 
  212.3750    68.0390    21.9190    20.8620    33.5140    24.4800     2.5620   -13.0380 
  212.5000    68.0390    21.4860    20.5380    20.5790    24.5360     2.5610   -12.9840 
  212.6250    68.0390    20.5810    19.7080    14.9120    24.5020     2.5510   -12.9200 
  212.7500    68.0390    19.5320    18.7220    12.4230    24.4490     2.5440   -12.8600 
  212.8750    68.0390    18.6010    17.8450     9.8210    24.3790     2.5450   -12.7750 
  213.0000    68.0390    17.9820    17.2650     9.4820    24.3300     2.5520   -12.7030 
  213.1250    68.0390    17.8320    17.1280    11.9700    24.3990     2.5610   -12.6610 
  213.2500    68.0390    18.0580    17.3580    14.2510    24.4660     2.5660   -12.6350 
  213.3750    68.0390    18.5790    17.8900    15.5240    24.5080     2.5590   -12.6280 
  213.5000    68.0390    19.2850    18.6310    17.4550    24.5300     2.5320   -12.5470 
  213.6250    68.0390    20.0400    19.4590    20.8800    24.5100     2.4860   -12.4500 
  213.7500    68.0390    20.6990    20.2230    24.5570    24.4770     2.4430   -12.3670 
  213.8750    68.0390    21.1590    20.8170    27.5720    24.4740     2.4270   -12.3330 
  214.0000    68.0390    21.3520    21.1670    31.9970    24.5170     2.4510   -12.3180 
  214.1250    68.0390    21.2080    21.1850    29.8250    24.6090     2.5110   -12.3070 
  214.2500    68.0390    20.8170    20.9330    29.4010    24.6490     2.5740   -12.3570 
  214.3750    68.0390    20.2680    20.4800    28.3280    24.6200     2.6170   -12.4570 
  214.5000    68.0390    19.6790    19.9410    23.2850    24.5110     2.6260   -12.5990 
  214.6250    68.0390    19.1930    19.4640    18.4730    24.3580     2.5920   -12.7160 
  214.7500    68.0390    18.8720    19.1340    17.1580    24.1880     2.5340   -12.8570 
  214.8750    68.0390    18.7120    18.9610    17.1570    24.0680     2.4710   -12.9780 
  215.0000    68.0390    18.6650    18.9030    16.5480    24.0280     2.4260   -13.0430 
  215.1250    68.0390    18.6700    18.8990    14.8160    24.0570     2.4240   -13.1440 
  215.2500    68.0390    18.6770    18.9000    14.3940    24.1130     2.4580   -13.1930 
  215.3750    68.0390    18.6790    18.9000    15.7350    24.1810     2.5080   -13.1690 
  215.5000    68.0390    18.6790    18.9000    18.4670    24.1740     2.5490   -13.1670 
  215.6250    68.0390    18.6790    18.9000    20.2990    24.0890     2.5650   -13.2190 
  215.7500    68.0390    18.6790    18.9000    19.2200    24.0050     2.5650   -13.2940 
  215.8750    68.0390    18.6790    18.9000    17.3580    23.9530     2.5600   -13.3690 
  216.0000    68.0390    18.6790    18.9000    15.5050    23.8970     2.5560   -13.4280 
  216.1250    68.0390    18.6790    18.9000    14.3590    23.8550     2.5520   -13.4480 
  216.2500    68.0390    18.6790    18.9000    13.7990    23.9080     2.5440   -13.4670 
  216.3750    68.0390    18.6790    18.9000    13.9590    23.9610     2.5330   -13.5260 
  216.5000    68.0390    18.6790    18.9000    15.1090    23.9480     2.5240   -13.5850 
  216.6250    68.0390    18.6790    18.9000    18.4500    23.8270     2.5230   -13.6090 
  216.7500    68.0390    18.6790    18.9000    22.2820    23.6970     2.5210   -13.5780 
  216.8750    68.0390    18.6790    18.9000    23.4390    23.5550     2.5100   -13.5280 
  217.0000    68.0390    18.6790    18.9000    24.2940    23.4170     2.4870   -13.5460 
  217.1250    68.0390    18.6790    18.9000    27.5410    23.2700     2.4590   -13.5750 
  217.2500    68.0390    18.6790    18.9000    22.5120    23.0870     2.4410   -13.6140 
  217.3750    68.0390    18.6790    18.9000    17.3060    22.6700     2.4400   -13.6240 
