~V
VERS. 2.00: Ver 2.00
~W
STRT.M 49.0000:
STOP.M 290.0000:
STEP.M 0.1250:
NULL. -999.2500:
UWI. F10103:
~C
DEPT.M :
DEN.GM/CC :
SP.MV :
GR.API :
RML.OHMM :
RI. :
RXO.OHMM :
CALI.CM :
~A
# ...
  105.2500     2.2020    -7.2450    62.7950     8.9660     7.4930     8.2510    23.6800 
  105.3750     2.2020    -7.5830    63.4020     9.5470     8.0120     8.9050    23.6870 
  105.5000     2.2090    -7.8620    63.2510    10.0190     8.4680     9.8200    23.7220 
  105.6250     2.2180    -8.0820    61.7870    10.2790     8.7700    10.7350    23.7910 
  105.7500     2.2250    -8.2710    60.5310    10.2110     8.8060    10.8870    23.8570 
  105.8750     2.2280    -8.4530    59.7480     9.8880     8.6100    10.1320    23.8570 
  106.0000     2.2260    -8.6610    58.6230     9.4130     8.2540     9.4250    23.7940 
  106.1250     2.2220    -8.8970    58.0930     8.9160     7.8410     9.0980    23.7530 
  106.2500     2.2180    -9.1450    60.5640     8.5320     7.4850     9.0490    23.7900 
  106.3750     2.2160    -9.4030    63.5390     8.2980     7.2350     9.0490    23.8800 
  106.5000     2.2140    -9.6450    64.1970     8.2090     7.1020     9.0340    23.9610 
  106.6250     2.2100    -9.8640    62.6450     8.2310     7.0740     9.1180    24.0070 
  106.7500     2.2050   -10.0380    61.1440     8.3280     7.1370     9.3170    24.0170 
  106.8750     2.2020   -10.1600    60.1270     8.4380     7.2480     9.5650    24.0090 
  107.0000     2.2020   -10.2170    59.7280     8.5270     7.3740     9.7850    23.9970 
  107.1250     2.2050   -10.2190    59.3940     8.5670     7.4860    10.0790    23.9880 
  107.2500     2.2080   -10.1440    57.6090     8.5350     7.5520    10.3350    23.9800 
  107.3750     2.2070    -9.9930    53.3320     8.4480     7.5670    10.2380    23.9650 
  107.5000     2.2000    -9.7770    49.5530     8.3300     7.5410    10.0010    23.9430 
  107.6250     2.1870    -9.4890    48.8850     8.2270     7.4980     9.8490    23.9030 
  107.7500     2.1700    -9.1310    51.1370     8.2080     7.4780     9.7300    23.8370 
  107.8750     2.1530    -8.7250    52.2230     8.2820     7.4950     9.5430    23.7790 
  108.0000     2.1420    -8.2660    52.4030     8.4030     7.5250     9.4080    23.7400 
  108.1250     2.1370    -7.7420    54.7550     8.4530     7.4940     9.3000    23.7020 
  108.2500     2.1420    -7.1580    59.6330     8.2110     7.2530     9.1300    23.6670 
  108.3750     2.1560    -6.5400    64.3150     7.6060     6.7470     8.7230    23.6570 
  108.5000     2.1770    -5.9090    68.1970     6.6790     5.9950     7.7610    23.6720 
  108.6250     2.2040    -5.3090    71.3580     5.6150     5.1210     6.0970    23.7190 
  108.7500     2.2360    -4.8190    73.1460     4.7560     4.3640     4.7360    23.8260 
  108.8750     2.2690    -4.4960    73.0800     4.3330     3.8950     4.5030    24.0020 
  109.0000     2.2990    -4.3780    72.0400     4.4320     3.7910     5.1440    24.2170 
  109.1250     2.3220    -4.4790    72.3900     5.0120     4.0530     7.0760    24.4000 
  109.2500     2.3280    -4.8290    72.6200     5.9400     4.6410     9.7060    24.4290 
  109.3750     2.3170    -5.3420    69.0920     6.8840     5.3490    10.2740    24.3500 
  109.5000     2.2900    -5.9800    62.3700     7.5790     5.9940     9.1140    24.2390 
  109.6250     2.2550    -6.6870    56.2630     7.8450     6.4150     8.0960    24.1780 
  109.7500     2.2260    -7.3830    55.4690     7.6420     6.5050     8.0400    24.2220 
  109.8750     2.2080    -7.9970    57.6390     7.2690     6.4130     8.1670    24.2260 
  110.0000     2.2000    -8.4920    59.9370     6.9570     6.2840     8.2440    24.1580 
  110.1250     2.2010    -8.8560    61.3980     6.8370     6.2250     8.2390    24.0690 
  110.2500     2.2020    -9.0650    61.0590     6.9400     6.2860     8.3310    24.0070 
  110.3750     2.2020    -9.1610    58.8720     7.1500     6.4190     8.6270    23.9850 
  110.5000     2.1980    -9.1540    55.3730     7.3850     6.5820     9.0680    23.9870 
  110.6250     2.1910    -9.0630    53.6930     7.5890     6.7360     9.3670    24.0030 
  110.7500     2.1820    -8.8880    55.3300     7.7280     6.8530     9.4440    24.0320 
  110.8750     2.1720    -8.6680    57.3970     7.8210     6.9360     9.2740    24.0590 
  111.0000     2.1640    -8.4150    59.5930     7.9000     7.0030     9.0380    24.0490 
  111.1250     2.1600    -8.1200    62.0180     7.9890     7.0690     8.9940    24.0180 
  111.2500     2.1620    -7.7650    62.0240     8.0690     7.1250     9.0770    24.0560 
  111.3750     2.1700    -7.3510    59.4970     8.0790     7.1290     9.2850    24.1390 
  111.5000     2.1820    -6.8880    58.0890     7.9550     7.0310     9.5730    24.2670 
  111.6250     2.1950    -6.3690    60.3640     7.6630     6.7960     9.5420    24.4340 
  111.7500     2.2100    -5.8090    65.6180     7.2090     6.4180     8.8220    24.5470 
  111.8750     2.2260    -5.2400    70.2250     6.7060     5.9830     7.6500    24.6210 
  112.0000     2.2440    -4.7060    74.4990     6.2520     5.5730     6.5690    24.6950 
  112.1250     2.2640    -4.2650    78.6610     5.9280     5.2570     6.1450    24.7910 
  112.2500     2.2820    -3.9920    80.7960     5.8110     5.1080     6.1730    24.8600 
  112.3750     2.2930    -3.8930    79.5770     5.8890     5.1230     6.5350    24.8330 
  112.5000     2.2970    -3.9850    76.2630     6.1630     5.3060     7.3550    24.7470 
  112.6250     2.2960    -4.2660    72.5260     6.6200     5.6520     9.1610    24.5960 
  112.7500     2.3040    -4.7090    68.8770     7.2300     6.1500    12.2660    24.3710 
  112.8750     2.3310    -5.2340    66.3260     7.8700     6.7070    17.0140    24.2110 
  113.0000     2.3770    -5.8030    66.5110     8.4140     7.2230    23.9950    24.2180 
  113.1250     2.4340    -6.3760    67.8450     8.7300     7.5820    27.5860    24.3130 
  113.2500     2.4790    -6.9260    67.6260     8.6820     7.6420    25.0930    24.3510 
  113.3750     2.4900    -7.4510    65.7160     8.3490     7.4350    18.6680    24.3380 
  113.5000     2.4580    -7.9250    64.0090     7.8460     7.0350    12.8270    24.2960 
  113.6250     2.3930    -8.3550    63.2200     7.3190     6.5610    10.3000    24.2460 
  113.7500     2.3200    -8.7630    64.4610     6.9300     6.1520     9.5450    24.1970 
  113.8750     2.2630    -9.1570    66.4740     6.7300     5.8780     9.5360    24.1690 
  114.0000     2.2260    -9.5350    65.2910     6.7190     5.7600     9.6230    24.1400 
  114.1250     2.2080    -9.8930    59.8560     6.8590     5.7860     9.5960    24.0860 
  114.2500     2.2040   -10.1840    56.0660     7.0940     5.9330     9.7940    24.0000 
  114.3750     2.2040   -10.4010    56.7960     7.3430     6.1320    10.0060    23.9180 
  114.5000     2.2050   -10.5540    56.9830     7.5600     6.3410    10.0230    23.8500 
  114.6250     2.2060   -10.6580    54.5050     7.7290     6.5320     9.8470    23.7570 
  114.7500     2.2090   -10.7310    53.3390     7.8540     6.6980     9.7010    23.5970 
  114.8750     2.2110   -10.7730    53.9020     7.9710     6.8600     9.6220    23.4150 
  115.0000     2.2130   -10.7670    56.1710     8.1000     7.0350     9.5840    23.2880 
  115.1250     2.2120   -10.6970    59.6220     8.2430     7.2300     9.8220    23.2570 
  115.2500     2.2070   -10.5580    60.0510     8.3820     7.4290    10.2770    23.3430 
  115.3750     2.1980   -10.3570    55.2700     8.4930     7.6030    10.6570    23.4880 
  115.5000     2.1870   -10.0860    48.9330     8.5650     7.7310    10.7610    23.6180 
  115.6250     2.1770    -9.7180    46.6780     8.5960     7.7990    10.5330    23.6870 
  115.7500     2.1710    -9.2230    48.0170     8.5510     7.7740    10.1460    23.7050 
  115.8750     2.1710    -8.6350    49.1490     8.3940     7.6380     9.6770    23.7130 
  116.0000     2.1770    -7.9620    51.0020     8.0770     7.3590     9.1150    23.7310 
  116.1250     2.1890    -7.2450    54.5420     7.5820     6.9250     8.3150    23.7730 
  116.2500     2.2060    -6.5770    60.2370     6.9470     6.3630     7.3340    23.8780 
  116.3750     2.2270    -6.0440    66.7940     6.3220     5.7920     6.2900    24.0650 
