~V
VERS. 2.00: Ver 2.00
~W
STRT.M 56.0000:
STOP.M 214.0000:
STEP.M 0.1250:
NULL. -999.2500:
UWI. F10128:
~C
DEPT.M :
SP.MV :
GR.API :
RML.OHMM :
RI. :
RXO.OHMM :
CALI.CM :
DEN.GM/CC :
~A
# ...
  168.5000   -13.6360    94.3080     9.7310     7.3870     8.3580    25.4120     2.4070 
  168.6250   -14.0680    92.8060     9.5960     7.2690     8.2550    25.2460     2.4050 
  168.7500   -14.5310    95.0130     9.4940     7.1750     7.8310    25.0360     2.3900 
  168.8750   -15.0210    98.4840     9.5100     7.1720     7.6110    24.9760     2.3720 
  169.0000   -15.5480    98.3960     9.6530     7.2730     8.0430    25.1160     2.3640 
  169.1250   -16.0460    96.8520     9.9070     7.4760     8.7300    25.2250     2.3710 
  169.2500   -16.4800    97.6060    10.2410     7.7630     9.1580    25.2440     2.3890 
  169.3750   -16.8120   100.3490    10.6170     8.1110     9.1410    25.2110     2.4100 
  169.5000   -17.0120   101.2250    10.9690     8.4570     9.2510    25.1510     2.4260 
  169.6250   -17.1270    98.6010    11.2420     8.7450     9.3750    25.0720     2.4360 
  169.7500   -17.1320    95.0690    11.3880     8.9190     9.4350    25.0070     2.4430 
  169.8750   -17.0640    97.8890    11.3590     8.9280     9.2070    25.0020     2.4490 
  170.0000   -16.9190   103.5070    11.2000     8.8100     9.5340    25.0470     2.4550 
  170.1250   -16.7190   104.5670    10.9530     8.6100     9.6260    25.1170     2.4580 
  170.2500   -16.5200   101.2480    10.6590     8.3750     9.5380    25.1760     2.4590 
  170.3750   -16.3220   103.4850    10.3410     8.1290     9.3710    25.2040     2.4600 
  170.5000   -16.1170   109.2820    10.0030     7.8670     9.3820    25.2420     2.4590 
  170.6250   -15.8630   111.2580     9.6360     7.5700     9.2590    25.3240     2.4510 
  170.7500   -15.5480   108.6770     9.2420     7.2380     8.7510    25.4740     2.4310 
  170.8750   -15.1480   103.7180     8.8520     6.9020     8.0310    25.7020     2.3970 
  171.0000   -14.7500    96.5680     8.5240     6.6190     7.3250    25.8370     2.3600 
  171.1250   -14.3730    87.1820     8.3030     6.4290     6.8440    25.7740     2.3310 
  171.2500   -14.0720    77.1530     8.2120     6.3490     6.6040    25.5630     2.3170 
  171.3750   -13.8750    67.9900     8.2430     6.3840     6.5790    25.4000     2.3200 
  171.5000   -13.7720    60.8320     8.3220     6.4790     6.8620    25.3390     2.3310 
  171.6250   -13.8090    56.5500     8.4020     6.5920     7.1790    25.3480     2.3420 
  171.7500   -13.9720    54.4810     8.4580     6.6940     7.1840    25.3690     2.3510 
  171.8750   -14.2590    55.5750     8.4960     6.7740     7.2780    25.4760     2.3530 
  172.0000   -14.6040    58.4500     8.5400     6.8520     7.2410    25.5530     2.3510 
  172.1250   -14.9480    59.2290     8.6010     6.9440     7.1980    25.5060     2.3480 
  172.2500   -15.2820    56.8160     8.6770     7.0540     7.3220    25.3330     2.3460 
  172.3750   -15.5400    55.6050     8.7830     7.1890     7.6320    25.1550     2.3470 
  172.5000   -15.7510    56.0370     8.9480     7.3440     8.0130    25.0850     2.3510 
  172.6250   -15.8730    56.4990     9.1570     7.5070     8.3190    25.0590     2.3570 
  172.7500   -15.9080    56.7650     9.3370     7.6460     8.3680    25.0510     2.3640 
  172.8750   -15.8610    59.0330     9.3780     7.6990     8.6900    25.0550     2.3760 
  173.0000   -15.7110    63.0060     9.2610     7.6370     9.2670    25.0560     2.3960 
  173.1250   -15.5020    69.2830     8.9890     7.4470     8.8860    25.0410     2.4260 
  173.2500   -15.2090    78.4380     8.5780     7.1460     7.4730    24.9980     2.4650 
  173.3750   -14.8530    85.6140     8.0760     6.7690     6.8610    24.9460     2.4950 
  173.5000   -14.4010    87.3980     7.5780     6.3790     6.8040    24.8570     2.4940 
  173.6250   -13.8840    83.5890     7.1420     6.0190     6.7440    24.8180     2.4470 
  173.7500   -13.3260    76.2110     6.8010     5.7210     6.0920    24.8150     2.3630 
  173.8750   -12.8190    69.1730     6.5860     5.5190     5.3650    24.8010     2.2770 
  174.0000   -12.4320    64.8640     6.4760     5.4040     5.1440    24.8000     2.2280 
  174.1250   -12.0940    62.7030     6.4580     5.3730     5.0410    24.7770     2.2270 
  174.2500   -11.8100    59.4950     6.5040     5.4080     5.2460    24.8280     2.2580 
  174.3750   -11.6030    57.2960     6.5780     5.4820     5.4100    24.9160     2.2920 
  174.5000   -11.4470    61.4730     6.6490     5.5590     5.5370    25.0200     2.3130 
  174.6250   -11.3460    68.9260     6.7190     5.6340     5.5980    25.0630     2.3270 
  174.7500   -11.3310    73.8610     6.8080     5.7240     5.6610    24.9790     2.3410 
  174.8750   -11.3170    75.1580     6.9440     5.8540     5.7380    24.9850     2.3580 
  175.0000   -11.2970    77.3170     7.1320     6.0250     5.8700    25.0200     2.3720 
  175.1250   -11.3170    82.1770     7.3830     6.2370     6.2520    25.0830     2.3780 
  175.2500   -11.3640    87.3700     7.7210     6.5020     6.8560    25.0950     2.3780 
  175.3750   -11.4770    89.2220     8.2090     6.8680     7.3090    25.0940     2.3780 
  175.5000   -11.6830    87.4210     8.8510     7.3570     7.2850    25.0650     2.3850 
  175.6250   -11.9740    85.4030     9.6260     7.9720     7.5060    24.9620     2.4020 
  175.7500   -12.2620    85.7310    10.4560     8.6740     8.6030    24.8340     2.4220 
  175.8750   -12.5630    86.4160    11.1860     9.3560    10.7880    24.7620     2.4360 
  176.0000   -12.8140    87.5420    11.7020     9.8930    12.9950    24.8450     2.4370 
  176.1250   -13.0500    90.6670    11.9790    10.2230    12.3500    24.9460     2.4290 
  176.2500   -13.2870    93.9310    12.1210    10.3970    11.8860    25.0050     2.4180 
  176.3750   -13.4460    92.2440    12.3730    10.6050    13.3870    25.0280     2.4130 
  176.5000   -13.5990    87.4370    12.9280    11.0480    15.4780    25.0240     2.4150 
  176.6250   -13.6870    82.9730    13.8480    11.8310    16.8100    24.9840     2.4210 
  176.7500   -13.7720    81.0430    15.0460    12.9420    16.8020    24.9330     2.4250 
  176.8750   -13.8940    81.8020    16.2800    14.2480    18.9850    24.8960     2.4250 
  177.0000   -13.9850    83.0730    17.2450    15.4490    19.5530    24.8460     2.4200 
  177.1250   -14.0320    83.8180    17.7370    16.2900    19.0520    24.7980     2.4080 
  177.2500   -14.0720    83.5840    17.6870    16.6170    18.2000    24.7770     2.3910 
  177.3750   -14.0980    83.7880    17.1260    16.3860    16.8950    24.7790     2.3710 
  177.5000   -14.1050    84.5080    16.3360    15.8480    18.4670    24.8080     2.3550 
  177.6250   -14.1410    83.3510    15.4880    15.1650    18.3750    24.8520     2.3460 
  177.7500   -14.1650    81.9810    14.6860    14.4570    15.5760    24.9150     2.3460 
  177.8750   -14.1350    84.7890    13.9880    13.7880    14.6910    24.9510     2.3540 
  178.0000   -14.1250    89.2740    13.4040    13.1850    13.5540    24.9880     2.3630 
  178.1250   -14.0950    90.8220    12.9660    12.7060    12.1410    25.0100     2.3690 
  178.2500   -14.0120    88.8620    12.7070    12.3980    11.6140    24.9820     2.3710 
  178.3750   -13.8820    86.8210    12.6910    12.3060    11.8380    24.9190     2.3690 
  178.5000   -13.7190    86.4170    12.9390    12.4340    12.0970    24.8640     2.3630 
  178.6250   -13.5010    86.5630    13.5640    12.8760    13.0850    24.8060     2.3540 
  178.7500   -13.2670    84.8820    14.8230    13.8000    13.9910    24.7140     2.3430 
  178.8750   -13.0140    81.0960    17.5950    15.7590    15.0640    24.6390     2.3330 
  179.0000   -12.7240    78.4550    22.5290    19.4050    18.5280    24.5580     2.3290 
  179.1250   -12.4650    76.7400    30.3900    25.8040    30.9040    24.4550     2.3350 
  179.2500   -12.1890    72.9810    41.8400    36.1340    40.3210    24.2470     2.3510 
  179.3750   -11.9490    68.0030    57.0740    51.4990    46.4010    23.8280     2.3720 
  179.5000   -11.7500    65.3450    72.4410    68.4870    65.2060    23.5030     2.3850 
  179.6250   -11.5700    64.6340    83.0550    81.3010    89.9970    23.4710     2.3810 
