~V
VERS. 2.00: Ver 2.00
~W
STRT.M 50.0000:
STOP.M 252.0000:
STEP.M 0.1250:
NULL. -999.2500:
UWI. F10101:
~C
DEPT.M :
DEN.GM/CC :
SP.MV :
GR.API :
RML.OHMM :
RI. :
RXO.OHMM :
CALI.CM :
~A
# ...
  173.7500     2.2420   -16.5360    59.3990   311.6270   305.4880   306.3870    24.3980 
  173.8750     2.2400   -16.4840    58.6580   302.8470   304.6620   297.4180    24.3910 
  174.0000     2.2440   -16.5240    57.6710   252.9090   265.2950   278.1430    24.4320 
  174.1250     2.2530   -16.5630    57.0460   186.1320   201.4720   223.5740    24.4680 
  174.2500     2.2730   -16.6340    57.7100   131.2000   142.9120   125.9830    24.4680 
  174.3750     2.3150   -16.7490    59.7610    93.7830   100.4070    62.3020    24.4440 
  174.5000     2.3780   -16.8170    62.6660    71.2860    74.2540    41.7290    24.3970 
  174.6250     2.4270   -17.0040    65.8640    60.6800    61.7930    42.3930    24.4050 
  174.7500     2.4230   -17.1580    68.0500    56.8100    56.7630    43.6610    24.4520 
  174.8750     2.3750   -17.2990    70.8160    57.9830    57.0770    45.8290    24.4820 
  175.0000     2.3220   -17.4450    74.2700    63.1360    61.6570    54.3320    24.4840 
  175.1250     2.2880   -17.5600    75.3060    71.5780    69.9250    69.1650    24.4810 
  175.2500     2.2710   -17.6560    73.6540    81.3470    79.7510    74.4630    24.4800 
  175.3750     2.2650   -17.6920    70.9300    90.9070    89.3840    81.4570    24.4790 
  175.5000     2.2680   -17.7440    69.5520    98.8440    97.2080    92.0120    24.4790 
  175.6250     2.2720   -17.7350    70.3540   103.8230   101.7080   100.5450    24.4790 
  175.7500     2.2740   -17.6590    71.2260   106.5340   103.5700   100.8350    24.4750 
  175.8750     2.2750   -17.6470    70.4600   108.0390   103.8220    99.5210    24.4760 
  176.0000     2.2760   -17.5490    67.9530   109.5510   103.6370    98.2810    24.4820 
  176.1250     2.2740   -17.5030    66.3940   112.4250   104.2760    96.7280    24.4880 
  176.2500     2.2700   -17.4150    67.4630   117.2040   106.5280    99.4850    24.4870 
  176.3750     2.2660   -17.3220    68.0720   123.9130   110.7170   107.9680    24.4850 
  176.5000     2.2630   -17.2560    68.2570   131.8840   116.5690   126.7890    24.4900 
  176.6250     2.2590   -17.0990    69.8040   139.4480   123.0800   136.9910    24.4880 
  176.7500     2.2530   -17.0210    70.8920   144.6480   128.4210   141.9470    24.4800 
  176.8750     2.2450   -16.8880    68.5350   146.3250   131.2480   145.7010    24.4740 
  177.0000     2.2410   -16.7370    65.3610   144.6920   131.2900   139.9470    24.4700 
  177.1250     2.2430   -16.6000    66.0610   140.6230   129.0830   125.2320    24.4630 
  177.2500     2.2460   -16.4500    66.7590   134.6870   125.3990   101.0750    24.4560 
  177.3750     2.2490   -16.3330    64.4430   130.7700   119.4740    83.8040    24.4410 
  177.5000     2.2490   -16.1700    61.6450   118.9880   110.2660    99.3770    24.4170 
  177.6250     2.2490   -16.0310    62.6100   102.7990    97.2620   110.8310    24.3820 
  177.7500     2.2530   -15.8980    65.2600    88.0280    82.6490    91.4990    24.3400 
  177.8750     2.2670   -15.7520    68.8370    71.3750    68.6000    59.1430    24.3150 
  178.0000     2.2850   -15.6630    72.3350    58.3680    56.9510    45.8150    24.3050 
  178.1250     2.3000   -15.5120    74.5930    50.0800    49.1180    45.8340    24.3090 
  178.2500     2.3120   -15.3580    77.5170    45.2810    44.3870    43.0200    24.2950 
  178.3750     2.3240   -15.2080    80.5040    42.9120    41.9710    32.4850    24.2860 
  178.5000     2.3370   -15.0590    80.0410    41.4340    40.5390    26.8260    24.3000 
  178.6250     2.3440   -14.9980    75.9270    38.8800    38.1640    31.4830    24.2900 
  178.7500     2.3470   -14.8880    76.1090    34.6810    34.1540    35.9150    24.2480 
  178.8750     2.3510   -14.8010    82.7210    29.7080    29.3380    30.4660    24.2010 
  179.0000     2.3630   -14.7600    90.4360    25.5340    25.1800    20.5130    24.1740 
  179.1250     2.3770   -14.7400    91.0620    24.0620    23.1950    14.9510    24.1900 
  179.2500     2.3820   -14.8150    85.0440    25.7740    23.7050    16.0190    24.2790 
  179.3750     2.3700   -14.8620    77.2000    30.9990    27.1530    23.9310    24.3990 
  179.5000     2.3420   -14.9980    72.1500    39.7680    34.0180    40.3800    24.4500 
  179.6250     2.3110   -15.0920    71.7860    51.8270    44.8100    73.9440    24.4180 
  179.7500     2.2910   -15.1870    71.7710    60.4230    57.2880    87.0890    24.3910 
  179.8750     2.2850   -15.3550    70.3460    66.9750    68.7850    70.9190    24.3960 
  180.0000     2.2850   -15.4490    69.1690    75.3110    77.5990    56.4310    24.3710 
  180.1250     2.2840   -15.5930    70.2510    82.1680    83.9840    76.6090    24.3510 
  180.2500     2.2770   -15.6780    70.6080    88.6060    89.5440   111.8370    24.3470 
  180.3750     2.2660   -15.7780    68.2880    94.3200    94.3010   128.6420    24.3510 
  180.5000     2.2580   -15.8640    65.0090    98.3870    97.3990   112.4980    24.3450 
  180.6250     2.2570   -15.8860    64.8730   100.1390    97.9020   101.2440    24.3400 
  180.7500     2.2540   -15.9320    67.1560   101.1020    97.1700    99.7750    24.3350 
  180.8750     2.2470   -15.9500    69.0860   102.9770    96.9740    97.2980    24.3270 
  181.0000     2.2380   -15.9500    69.7150   106.8780    98.7380    97.6430    24.3250 
  181.1250     2.2360   -15.9350    69.2930   112.9490   103.0820   107.6360    24.3180 
  181.2500     2.2380   -15.8920    68.8540   119.5250   108.6220   119.1230    24.2970 
  181.3750     2.2420   -15.8540    68.6070   124.9680   113.8650   123.2560    24.2350 
  181.5000     2.2450   -15.7670    67.5710   127.8870   117.3450   117.3490    24.1560 
  181.6250     2.2470   -15.7040    65.7820   127.3900   117.8440   112.6910    24.0700 
  181.7500     2.2500   -15.6600    65.1260   124.8880   116.2360   110.1650    24.0430 
  181.8750     2.2520   -15.5430    64.6860   121.5020   113.4470   100.1500    24.0540 
  182.0000     2.2550   -15.4920    63.7600   117.6410   109.9830    90.2640    24.0920 
  182.1250     2.2610   -15.4070    63.9820   112.5810   105.2740    90.6130    24.1540 
  182.2500     2.2670   -15.3820    65.0620   106.1550    99.1420    93.9170    24.1760 
  182.3750     2.2730   -15.3580    65.6590    99.1270    92.2350    91.7990    24.1560 
  182.5000     2.2810   -15.3270    66.6300    92.8870    85.8450    75.2080    24.0950 
  182.6250     2.2910   -15.4420    69.4130    89.1020    81.5650    62.5160    24.0600 
  182.7500     2.2990   -15.5530    71.2480    87.9090    79.6420    61.4520    24.0840 
  182.8750     2.2980   -15.7060    70.5260    89.0980    79.9860    74.1100    24.1780 
  183.0000     2.2870   -15.9190    68.7520    92.1190    82.1980    90.1730    24.3130 
  183.1250     2.2740   -16.1530    67.9900    96.5520    85.9810    94.5420    24.4240 
  183.2500     2.2700   -16.4110    69.3280   102.0350    90.8780    86.6910    24.4580 
  183.3750     2.2740   -16.6920    71.3860   108.9290    97.0370    86.3220    24.4660 
  183.5000     2.2790   -16.9810    71.9440   117.7150   104.7590    98.6760    24.4670 
  183.6250     2.2760   -17.2580    71.1470   121.8850   114.1700   118.4260    24.4420 
  183.7500     2.2690   -17.5060    70.6250   132.0420   123.6750   138.4210    24.3920 
  183.8750     2.2630   -17.7640    68.6580   139.3460   130.8910   149.1250    24.3580 
  184.0000     2.2590   -17.9640    65.1910   141.3790   133.4960   146.4300    24.3380 
  184.1250     2.2550   -18.1230    64.4820   137.5020   130.3720   129.4400    24.3300 
  184.2500     2.2510   -18.2720    66.8150   131.4530   124.5920   114.6480    24.3300 
  184.3750     2.2510   -18.3580    69.2520   125.7720   118.6350   105.9720    24.3320 
  184.5000     2.2530   -18.4950    69.4900   121.6970   114.0470   102.9900    24.3210 
  184.6250     2.2540   -18.5550    67.9010   119.6280   111.5450   106.0250    24.2970 
  184.7500     2.2540   -18.5870    65.9680   118.9340   110.5150   111.9640    24.3000 
  184.8750     2.2550   -18.6780    64.5370   119.5360   110.6510   112.5410    24.3060 
