~V
VERS. 2.00: Ver 2.00
~W
STRT.M 52.0000:
STOP.M 326.0000:
STEP.M 0.1250:
NULL. -999.2500:
UWI. F10108:
~C
DEPT.M :
DEN.GM/CC :
SP.MV :
GR.API :
RML.OHMM :
RI. :
RXO.OHMM :
CALI.CM :
~A
# ...
  254.5000     2.3530   -10.4580    59.3190    25.0480    22.1320    23.7410    24.9900 
  254.6250     2.3650   -10.3340    57.5560    25.9560    23.0000    25.4580    25.0680 
  254.7500     2.3760   -10.1960    55.3310    26.4090    23.4510    26.3070    25.0870 
  254.8750     2.3790   -10.0440    55.0280    26.0290    23.1840    26.3780    25.0810 
  255.0000     2.3760    -9.8730    56.4850    24.5400    21.9670    27.0380    25.1180 
  255.1250     2.3660    -9.7160    56.4830    21.8740    19.7150    26.7410    25.2200 
  255.2500     2.3560    -9.5650    55.5230    18.7700    17.0480    23.3560    25.3050 
  255.3750     2.3460    -9.4190    57.7420    15.8870    14.5290    18.6650    25.3230 
  255.5000     2.3370    -9.2870    64.4770    13.7270    12.5810    13.9660    25.2690 
  255.6250     2.3290    -9.2060    70.6810    12.6750    11.5300    11.1240    25.1870 
  255.7500     2.3230    -9.1670    72.2130    12.4980    11.2210    10.7460    25.1430 
  255.8750     2.3280    -9.1500    71.0270    12.9470    11.4940    11.4480    25.1320 
  256.0000     2.3500    -9.1440    69.7750    13.6660    12.0960    12.3820    25.1180 
  256.1250     2.3880    -9.1420    68.4390    14.1800    12.6660    13.3480    25.0810 
  256.2500     2.4270    -9.1450    67.6220    14.1940    12.8910    14.7110    25.0330 
  256.3750     2.4470    -9.1570    68.7770    13.6460    12.6480    15.3390    25.0300 
  256.5000     2.4410    -9.1760    71.9290    12.7040    12.0100    14.3460    25.0800 
  256.6250     2.4160    -9.1780    74.0620    11.6770    11.1980    11.8730    25.1150 
  256.7500     2.3930    -9.1510    74.5860    10.8220    10.4590    10.7270    25.0620 
  256.8750     2.3830    -9.1140    75.0500    10.1800     9.8630    10.7280    24.9660 
  257.0000     2.3860    -9.0680    74.3060     9.6800     9.3880    10.6700    24.9160 
  257.1250     2.3920    -9.0220    72.9990     9.2150     8.9720     9.7180    24.9420 
  257.2500     2.3940    -8.9930    75.6900     8.7290     8.5590     9.0400    24.9700 
  257.3750     2.3920    -8.9580    80.9850     8.2600     8.1620     8.4900    24.9460 
  257.5000     2.3900    -8.9020    82.0560     7.8900     7.8300     7.8470    24.8870 
  257.6250     2.3910    -8.8350    77.4010     7.7140     7.6400     7.2630    24.8670 
  257.7500     2.3930    -8.7910    75.0170     7.7040     7.5900     7.0260    24.8970 
  257.8750     2.3960    -8.7630    76.9840     7.8030     7.6480     7.1580    24.9380 
  258.0000     2.3980    -8.7500    79.9030     7.9390     7.7600     7.6620    24.9170 
  258.1250     2.3980    -8.7760    79.9450     8.0320     7.8580     8.0980    24.8300 
  258.2500     2.3930    -8.8260    79.4680     8.0460     7.8980     8.0470    24.7590 
  258.3750     2.3830    -8.9000    81.1380     7.9890     7.8750     7.5340    24.7500 
  258.5000     2.3690    -9.0080    83.6420     7.9110     7.8200     7.1550    24.7740 
  258.6250     2.3540    -9.1530    82.3880     7.9160     7.8140     6.8600    24.7470 
  258.7500     2.3430    -9.3150    76.2440     8.1010     7.9400     6.6010    24.6840 
  258.8750     2.3340    -9.5020    70.0120     8.5290     8.2580     6.7360    24.6570 
  259.0000     2.3260    -9.7140    69.9820     9.1910     8.7810     7.3090    24.7220 
  259.1250     2.3190    -9.9300    73.8430    10.0000     9.4650     8.6100    24.8410 
  259.2500     2.3140   -10.1570    72.9870    10.7670    10.1590    10.6610    24.9280 
  259.3750     2.3140   -10.3900    67.9380    11.3590    10.7400    13.0550    24.9430 
  259.5000     2.3160   -10.6120    64.7940    11.7180    11.1320    13.4070    24.9040 
  259.6250     2.3160   -10.8440    65.8500    11.8830    11.3310    10.1320    24.8920 
  259.7500     2.3120   -11.0870    67.9410    12.0470    11.4860     8.7920    24.9140 
  259.8750     2.3070   -11.3430    71.4530    12.3750    11.7390     9.0250    24.9250 
  260.0000     2.3060   -11.6280    74.7310    13.0070    12.2180    10.0820    24.8800 
  260.1250     2.3140   -11.9360    73.3130    14.1040    13.0800    11.3770    24.7920 
  260.2500     2.3290   -12.2420    70.4310    15.5980    14.2990    13.0860    24.7580 
  260.3750     2.3450   -12.5640    69.4810    17.4140    15.8400    15.8750    24.8030 
  260.5000     2.3560   -12.9120    69.7520    19.4290    17.6140    20.5190    24.8610 
  260.6250     2.3540   -13.2510    69.8250    21.4680    19.4860    27.9500    24.8270 
  260.7500     2.3440   -13.5720    70.1440    23.3740    21.2770    31.2680    24.7390 
  260.8750     2.3320   -13.8730    70.0990    25.1130    22.9090    27.7390    24.6840 
  261.0000     2.3230   -14.1370    67.6600    26.7550    24.4030    25.2200    24.7170 
  261.1250     2.3210   -14.3590    62.4140    28.4220    25.8550    29.5360    24.7890 
  261.2500     2.3230   -14.5600    56.5750    30.1610    27.3610    32.2930    24.8170 
  261.3750     2.3260   -14.7350    53.6000    31.9260    28.9280    32.4020    24.7930 
  261.5000     2.3280   -14.8750    54.5490    33.6170    30.5000    32.0630    24.7560 
  261.6250     2.3310   -14.9840    55.2540    35.1260    31.9910    32.6480    24.7770 
  261.7500     2.3350   -15.0730    53.8130    36.4740    33.3900    34.7840    24.8290 
  261.8750     2.3400   -15.1450    52.0800    37.6900    34.6970    36.9740    24.8360 
  262.0000     2.3440   -15.2010    51.7780    38.7580    35.8650    38.1870    24.7640 
  262.1250     2.3480   -15.2500    50.4060    39.6090    36.7410    39.2370    24.6670 
  262.2500     2.3490   -15.2920    49.6180    40.2760    37.2910    40.5980    24.6370 
  262.3750     2.3450   -15.3410    51.8480    40.8480    37.5240    42.7080    24.6760 
  262.5000     2.3330   -15.3910    54.8060    41.2510    37.5140    44.7120    24.7510 
  262.6250     2.3140   -15.4520    55.9500    41.4530    37.3750    44.0040    24.8620 
  262.7500     2.2920   -15.5400    56.8780    41.6320    37.2500    42.6990    24.9220 
  262.8750     2.2730   -15.6530    58.2450    41.6310    37.1960    43.4180    24.9690 
  263.0000     2.2590   -15.7720    58.2100    41.5120    37.2120    43.5220    25.0350 
  263.1250     2.2550   -15.8810    55.6960    41.3770    37.2440    40.7260    25.0820 
  263.2500     2.2580   -15.9800    52.8700    41.1540    37.2270    38.9610    25.0510 
  263.3750     2.2680   -16.0550    50.7060    40.8240    37.1300    38.1730    24.9860 
  263.5000     2.2840   -16.1100    50.3920    40.4090    36.9530    37.1170    24.9670 
  263.6250     2.3010   -16.1330    52.2920    39.9560    36.7180    36.1760    25.0000 
  263.7500     2.3150   -16.1130    53.1820    39.5200    36.4740    35.5870    25.0070 
  263.8750     2.3230   -16.0450    52.5850    39.1320    36.2500    35.3470    24.9500 
  264.0000     2.3240   -15.9470    52.9650    38.8240    36.0800    35.1290    24.8540 
  264.1250     2.3170   -15.8380    55.6680    38.6440    36.0060    36.7870    24.8120 
  264.2500     2.3090   -15.7180    57.6040    38.5670    36.0160    37.7870    24.8260 
  264.3750     2.3010   -15.5870    56.0640    38.5440    36.0740    38.4990    24.8510 
  264.5000     2.2970   -15.4530    52.1780    38.4990    36.1200    38.9650    24.8250 
  264.6250     2.2950   -15.3240    48.8330    38.3380    36.0710    40.3880    24.7710 
  264.7500     2.2950   -15.1920    48.4090    38.0610    35.9180    41.4020    24.7800 
  264.8750     2.2970   -15.0570    50.9280    37.7300    35.7020    40.5470    24.8480 
  265.0000     2.3010   -14.9290    52.7800    37.4450    35.5020    38.6320    24.9080 
  265.1250     2.3100   -14.7900    51.1150    37.3170    35.4120    37.0020    24.8710 
  265.2500     2.3190   -14.6540    49.8130    37.3560    35.4600    36.0800    24.7810 
  265.3750     2.3210   -14.5160    51.3810    37.5730    35.6790    37.1400    24.7310 
  265.5000     2.3110   -14.3680    53.2740    37.9770    36.1100    40.1180    24.7550 
  265.6250     2.2970   -14.2060    54.1750    38.5850    36.8110    41.5000    24.8000 
