~V
VERS. 2.00: Ver 2.00
~W
STRT.M 55.0000:
STOP.M 215.0000:
STEP.M 0.1250:
NULL. -999.2500:
UWI. F10125:
~C
DEPT.M :
GR.API :
RML.OHMM :
RI. :
RXO.OHMM :
CALI.CM :
DEN.GM/CC :
SP.MV :
~A
# ...
   88.7500    68.5870     9.0590     6.9740     9.6710    24.0670     2.2210   -26.6070 
   88.8750    67.7560     8.6760     6.6230     9.7010    23.9860     2.2390   -26.5300 
   89.0000    69.9520     8.7260     6.5130     9.7520    23.9330     2.2510   -26.4780 
   89.1250    71.9550     9.3110     6.7290     9.2490    23.8920     2.2480   -26.4810 
   89.2500    69.0960    10.2510     7.1980     9.2740    23.8690     2.2370   -26.5290 
   89.3750    64.4090    11.3330     7.8260    10.3460    23.8640     2.2230   -26.6280 
   89.5000    64.2240    12.2850     8.4590    11.9560    23.8890     2.2110   -26.7640 
   89.6250    68.2130    12.8070     8.8960    12.6070    23.9850     2.2000   -26.9130 
   89.7500    69.7980    12.9430     9.0890    12.6330    24.0230     2.1900   -27.0620 
   89.8750    67.6590    12.8570     9.0880    12.7080    23.9900     2.1850   -27.1980 
   90.0000    66.0920    12.7350     8.9950    12.9980    23.9000     2.1880   -27.3060 
   90.1250    68.7400    12.7240     8.9120    13.3740    23.8040     2.1990   -27.3600 
   90.2500    70.4900    12.7970     8.8750    13.8660    23.7630     2.2110   -27.3880 
   90.3750    68.2520    12.8830     8.8650    14.1940    23.7540     2.2190   -27.3830 
   90.5000    64.6210    12.9160     8.8570    14.0800    23.7550     2.2230   -27.3350 
   90.6250    64.1560    12.8600     8.8380    13.7080    23.7570     2.2200   -27.2370 
   90.7500    65.3840    12.7650     8.8100    13.2890    23.7520     2.2110   -27.1180 
   90.8750    66.6000    12.6850     8.7820    13.1170    23.7410     2.1980   -26.9940 
   91.0000    67.9570    12.6330     8.7520    13.0620    23.7280     2.1890   -26.8390 
   91.1250    68.0540    12.5540     8.6950    13.0670    23.7250     2.1900   -26.6390 
   91.2500    66.8650    12.3610     8.5830    13.0370    23.7380     2.1980   -26.4120 
   91.3750    65.9470    12.0250     8.4060    12.9120    23.7450     2.2080   -26.1560 
   91.5000    66.2620    11.5990     8.1820    12.3400    23.7310     2.2140   -25.8800 
   91.6250    68.0080    11.2290     7.9750    11.2910    23.6160     2.2140   -25.6220 
   91.7500    70.9560    11.0270     7.8390    10.5270    23.2980     2.2120   -25.3610 
   91.8750    72.1490    10.9890     7.7880    10.3560    22.7350     2.2110   -25.0990 
   92.0000    70.6110    10.9960     7.7820    10.5930    22.0980     2.2140   -24.8660 
   92.1250    69.3830    10.8190     7.7170    10.9310    21.5440     2.2210   -24.6650 
   92.2500    71.3920    10.3350     7.5210    10.8170    21.3040     2.2300   -24.4680 
   92.3750    76.9040     9.5780     7.1900     9.7500    21.3530     2.2410   -24.2760 
   92.5000    83.5690     8.7370     6.7920     8.1770    21.5100     2.2520   -24.1010 
   92.6250    86.5760     8.1230     6.4590     7.1500    21.6350     2.2590   -23.9390 
   92.7500    85.0640     7.8750     6.2880     7.0300    22.0010     2.2590   -23.8080 
   92.8750    81.6310     8.0000     6.3320     7.7280    22.6160     2.2510   -23.6810 
   93.0000    79.7390     8.4010     6.5880     8.5660    23.2540     2.2410   -23.5570 
   93.1250    80.0900     8.9290     7.0070     8.6000    23.7330     2.2370   -23.4580 
   93.2500    80.9890     9.4010     7.4450     8.9830    24.1260     2.2380   -23.3760 
   93.3750    80.6960     9.7090     7.7920     9.8890    24.3700     2.2430   -23.3090 
   93.5000    77.3630     9.7980     7.9680    10.7770    24.4030     2.2610   -23.2440 
   93.6250    74.7140     9.6340     7.9220    12.2700    24.4030     2.2980   -23.1860 
   93.7500    74.6890     9.3080     7.7190    13.4160    24.6230     2.3280   -23.1040 
   93.8750    75.9310     8.9010     7.4140    11.1990    24.8460     2.3300   -23.0350 
   94.0000    79.4490     8.4890     7.0600     9.1820    24.9500     2.3160   -22.9690 
   94.1250    85.0050     8.1080     6.6910     7.4080    25.0790     2.3100   -22.8900 
   94.2500    89.7970     7.7090     6.3050     6.8730    25.1750     2.3110   -22.8340 
   94.3750    95.5200     7.2340     5.8890     6.8520    25.2640     2.3130   -22.8180 
   94.5000   103.0440     6.7250     5.4780     6.6990    25.3240     2.3200   -22.8510 
   94.6250   107.7440     6.4420     5.2260     6.6840    25.3090     2.3430   -22.9200 
   94.7500   106.1200     6.7480     5.3020     6.5570    25.3840     2.3810   -23.0340 
   94.8750   101.5770     8.0480     5.8830     6.8600    25.4910     2.4380   -23.1800 
   95.0000    94.7940    10.7000     7.1750     9.2850    25.5320     2.5150   -23.3690 
   95.1250    83.3890    15.0450     9.5630    17.2510    25.4930     2.5900   -23.6460 
   95.2500    75.0480    20.2040    12.8660    29.1740    25.4640     2.6250   -23.9970 
   95.3750    73.2420    24.5850    16.3250    32.9450    25.4600     2.6130   -24.4120 
   95.5000    71.3280    26.1040    18.3650    32.0900    25.4620     2.5750   -24.8880 
   95.6250    65.6190    23.4610    17.4710    31.5750    25.3700     2.5190   -25.4370 
   95.7500    63.1940    19.1270    15.0410    28.1890    25.0970     2.4390   -26.0530 
   95.8750    67.1740    15.1210    12.4650    19.8440    24.7010     2.3480   -26.7010 
   96.0000    73.8270    12.3680    10.4470    13.6910    24.4440     2.2740   -27.3580 
   96.1250    77.4520    11.0450     9.2090    12.0260    24.3400     2.2390   -27.9790 
   96.2500    77.8340    10.5870     8.5270    12.0150    24.2030     2.2260   -28.5360 
   96.3750    78.0170    10.6840     8.2910    12.3770    23.9960     2.2190   -29.0050 
   96.5000    80.8370    11.0910     8.3890    12.4790    23.9510     2.2050   -29.4080 
   96.6250    84.5540    11.6560     8.7270    12.3620    24.1200     2.2050   -29.7200 
   96.7500    83.1810    12.2950     9.1620    12.1340    24.3210     2.2470   -29.9500 
   96.8750    76.3040    12.9570     9.6240    11.6330    24.4650     2.3300   -30.1120 
   97.0000    69.5340    13.4970    10.0210    10.6620    24.5860     2.4210   -30.2310 
   97.1250    66.5170    13.6020    10.1620     9.5730    24.5040     2.4530   -30.3320 
   97.2500    65.6190    13.1850     9.9730     9.2780    24.1040     2.4130   -30.4410 
   97.3750    64.9270    12.3440     9.4810     9.4890    23.5760     2.3380   -30.5850 
   97.5000    64.4070    11.3550     8.8260     9.5570    23.0080     2.2690   -30.7360 
   97.6250    66.8640    10.5820     8.2100     9.3960    22.4210     2.2320   -30.9110 
   97.7500    69.6120    10.1620     7.7600     9.3690    22.0500     2.2180   -31.0800 
   97.8750    70.0450    10.0670     7.5050     9.4020    21.8110     2.2130   -31.2630 
   98.0000    69.0890    10.1750     7.4150     9.4740    21.5890     2.2070   -31.4370 
   98.1250    68.9570    10.3140     7.4290     9.7530    21.5190     2.1960   -31.5900 
   98.2500    70.2130    10.3470     7.4510    10.2420    21.7080     2.1810   -31.7230 
   98.3750    69.0740    10.2450     7.4330    10.6210    22.1280     2.1640   -31.8230 
   98.5000    64.6160    10.0600     7.3660    10.8580    22.7070     2.1480   -31.9180 
   98.6250    62.7210     9.9000     7.2820    11.1710    23.3180     2.1360   -31.9950 
   98.7500    67.2220     9.8400     7.2340    11.7250    23.9750     2.1360   -32.0730 
   98.8750    73.1840     9.8920     7.2530    12.3900    24.5800     2.1450   -32.1180 
   99.0000    74.9620    10.0240     7.3420    12.8880    24.9150     2.1550   -32.1540 
   99.1250    72.4380    10.1870     7.4860    13.1640    25.0630     2.1540   -32.1780 
   99.2500    69.4820    10.3350     7.6350    13.4500    25.1920     2.1410   -32.1780 
   99.3750    66.8660    10.4370     7.7500    13.6830    25.3420     2.1250   -32.1460 
   99.5000    63.1250    10.4570     7.7990    13.8530    25.4220     2.1180   -32.0490 
   99.6250    58.9380    10.3430     7.7590    13.9070    25.4860     2.1240   -31.9030 
   99.7500    56.3720    10.1170     7.6580    13.7530    25.5930     2.1330   -31.6950 
   99.8750    58.6520     9.8370     7.5260    13.4770    25.7250     2.1390   -31.4640 
