~V
VERS. 2.00: Ver 2.00
~W
STRT.M 55.0000:
STOP.M 215.0000:
STEP.M 0.1250:
NULL. -999.2500:
UWI. F10125:
~C
DEPT.M :
GR.API :
RML.OHMM :
RI. :
RXO.OHMM :
CALI.CM :
DEN.GM/CC :
SP.MV :
~A
# ...
  156.2500    72.6270    53.4230    50.5170    69.6580    25.7930     2.5180   -26.4240 
  156.3750    73.4760    59.4450    57.0790    66.7940    25.6060     2.5860   -26.3640 
  156.5000    73.8500    62.3840    59.7650    57.8720    25.4510     2.6350   -26.3070 
  156.6250    69.0370    65.1770    61.2130    61.2710    25.3150     2.6580   -26.2470 
  156.7500    60.2390    70.6230    64.3780    69.9990    25.2590     2.6660   -26.1750 
  156.8750    55.0550    79.2540    69.9380    72.4790    25.2270     2.6650   -26.1030 
  157.0000    59.1220    89.2590    76.6340    71.6170    25.1920     2.6630   -26.0310 
  157.1250    65.1020    94.1330    79.6570    90.4110    25.2210     2.6570   -25.9560 
  157.2500    62.7730    88.2240    74.5760   146.1550    25.3180     2.6330   -25.8690 
  157.3750    56.2830    72.2400    61.5330   187.4900    25.4430     2.5810   -25.7730 
  157.5000    55.6560    52.9620    45.6360   127.2490    25.5510     2.5090   -25.6700 
  157.6250    60.5730    37.3220    32.6320    72.7000    25.6060     2.4730   -25.5580 
  157.7500    61.4420    26.4150    23.5170    46.1130    25.6690     2.4800   -25.4680 
  157.8750    57.8780    19.4590    17.5810    37.0330    25.7380     2.4730   -25.3820 
  158.0000    54.4860    15.3340    13.8780    29.3600    25.7640     2.4250   -25.2970 
  158.1250    52.7230    13.2530    11.8240    21.3240    25.7720     2.3780   -25.1990 
  158.2500    51.5510    12.1730    10.6530    14.0920    25.7780     2.3580   -25.1160 
  158.3750    51.9660    11.6630    10.0520    10.5140    25.7860     2.3590   -25.0290 
  158.5000    53.5250    11.4200     9.7860     9.1200    25.7500     2.3650   -24.9410 
  158.6250    52.6100    11.2720     9.6960     9.0200    25.7140     2.3680   -24.8680 
  158.7500    49.5200    11.1710     9.6740     8.9280    25.6670     2.3690   -24.7970 
  158.8750    48.4920    11.1950     9.7400     8.7920    25.6040     2.3700   -24.7270 
  159.0000    50.5530    11.4550     9.9530     9.2200    25.5490     2.3710   -24.6470 
  159.1250    51.2530    12.0560    10.3860    10.4810    25.5160     2.3680   -24.5900 
  159.2500    49.8940    12.8490    10.9540    11.9970    25.5510     2.3650   -24.5310 
  159.3750    49.4590    13.5720    11.4890    12.6750    25.6300     2.3620   -24.4570 
  159.5000    53.7500    13.8710    11.7260    12.7720    25.6340     2.3530   -24.3710 
  159.6250    61.9010    13.3330    11.3190    12.2920    25.6380     2.3400   -24.2520 
  159.7500    68.2330    12.0980    10.3630    11.1290    25.5460     2.3370   -24.1140 
  159.8750    68.7500    10.4870     9.1050     9.5250    25.4280     2.3490   -23.9630 
  160.0000    64.0410     8.9120     7.8540     8.0580    25.3610     2.3660   -23.7900 
  160.1250    59.7910     7.7580     6.8810     7.0670    25.3230     2.3750   -23.5950 
  160.2500    57.0820     7.0630     6.2230     6.4760    25.2800     2.3810   -23.3960 
  160.3750    55.1280     6.7690     5.8530     6.0740    25.2470     2.3890   -23.2110 
  160.5000    54.8590     6.7660     5.7070     5.9920    25.2410     2.4020   -23.0260 
  160.6250    55.4310     6.9380     5.7240     6.0140    25.2450     2.4120   -22.8720 
  160.7500    55.4480     7.1340     5.8060     5.9200    25.2440     2.4160   -22.7350 
  160.8750    53.9750     7.2860     5.9050     5.6850    25.2170     2.4110   -22.6130 
  161.0000    51.5970     7.3620     5.9850     5.5140    25.1120     2.4040   -22.5180 
  161.1250    47.7070     7.3580     6.0200     5.4250    24.9610     2.3970   -22.4550 
  161.2500    45.0810     7.3150     6.0110     5.3820    24.8400     2.3920   -22.4050 
  161.3750    47.7150     7.2560     5.9620     5.3790    24.7350     2.3890   -22.3770 
  161.5000    55.1820     7.1930     5.8830     5.5130    24.6440     2.3870   -22.3890 
  161.6250    61.6540     7.1260     5.7950     5.7550    24.5870     2.3830   -22.4250 
  161.7500    65.1360     7.0460     5.7090     5.8960    24.5600     2.3810   -22.4680 
  161.8750    65.9310     6.9390     5.6180     5.8760    24.5300     2.3860   -22.5330 
  162.0000    65.8330     6.7950     5.5040     5.7010    24.4440     2.3910   -22.6070 
  162.1250    66.4790     6.6290     5.3630     5.5620    24.2660     2.3850   -22.6880 
  162.2500    66.9690     6.4940     5.2240     5.5490    23.9760     2.3700   -22.7750 
  162.3750    66.0460     6.4480     5.1270     5.5150    23.5270     2.3530   -22.8700 
  162.5000    63.8460     6.5350     5.1110     5.3960    22.9690     2.3380   -22.9600 
  162.6250    62.0360     6.7810     5.2090     5.3510    22.6100     2.3230   -23.0470 
  162.7500    58.7520     7.1090     5.3790     5.5580    22.6090     2.3020   -23.1670 
  162.8750    52.8950     7.4380     5.5680     5.8110    22.7060     2.2780   -23.2960 
  163.0000    46.3190     7.6870     5.7190     5.8370    22.5650     2.2570   -23.4410 
  163.1250    42.8960     7.7780     5.7760     5.7560    21.9320     2.2470   -23.5960 
  163.2500    43.7460     7.7340     5.7470     5.7630    21.1730     2.2490   -23.7790 
  163.3750    47.5480     7.6040     5.6590     5.9340    20.5790     2.2580   -23.9760 
  163.5000    50.4750     7.4440     5.5510     5.9480    20.1580     2.2650   -24.1660 
  163.6250    48.3170     7.3010     5.4520     5.6550    19.7780     2.2700   -24.3660 
  163.7500    43.3960     7.1880     5.3700     5.3730    19.5530     2.2870   -24.5500 
  163.8750    40.3550     7.1210     5.3110     5.3630    19.5420     2.3160   -24.7340 
  164.0000    41.6880     7.1400     5.2980     5.3950    19.7760     2.3390   -24.8970 
  164.1250    47.2220     7.3110     5.3790     5.3130    20.3340     2.3380   -25.0570 
  164.2500    51.9560     7.6120     5.5510     5.2660    21.2590     2.3190   -25.1930 
  164.3750    53.2410     7.9750     5.7850     5.3180    22.3800     2.2990   -25.3100 
  164.5000    51.5230     8.2810     6.0140     5.6960    23.0820     2.2920   -25.4270 
  164.6250    50.2350     8.3730     6.1300     6.7700    23.1800     2.3050   -25.5080 
  164.7500    51.5130     8.2490     6.1020     7.6440    23.1530     2.3300   -25.5390 
  164.8750    53.6360     7.9960     5.9630     6.8380    23.1420     2.3560   -25.5250 
  165.0000    55.7840     7.7470     5.7940     5.7130    23.1250     2.3790   -25.5110 
  165.1250    56.7830     7.6560     5.6920     5.2440    23.1230     2.3920   -25.4850 
  165.2500    57.5500     7.7440     5.6970     5.2090    23.1490     2.4010   -25.4590 
  165.3750    57.5870     7.9660     5.8020     5.1820    23.1850     2.4120   -25.4370 
  165.5000    57.1210     8.2240     5.9590     5.1490    23.2160     2.4270   -25.4120 
  165.6250    59.6000     8.3970     6.0860     5.1280    23.2350     2.4330   -25.4340 
  165.7500    64.1990     8.4460     6.1360     5.1190    23.2560     2.4200   -25.5130 
  165.8750    69.0490     8.4020     6.1190     5.1480    23.2960     2.3830   -25.6240 
  166.0000    74.4420     8.3440     6.0820     5.2660    23.3390     2.3250   -25.7230 
  166.1250    80.6120     8.3770     6.0910     5.4950    23.3070     2.2670   -25.8370 
  166.2500    85.1720     8.5240     6.1700     5.7490    23.0190     2.2350   -25.9690 
  166.3750    87.5490     8.7470     6.3040     5.9900    22.2910     2.2380   -26.1020 
  166.5000    90.8910     8.9800     6.4570     6.1580    21.4100     2.2660   -26.2280 
  166.6250    94.5000     9.1620     6.5900     6.3380    21.4960     2.2960   -26.2930 
  166.7500    96.4500     9.3050     6.6970     6.3850    22.3460     2.3140   -26.3040 
  166.8750    96.1050     9.4530     6.8000     6.5610    23.3700     2.3220   -26.2640 
  167.0000    91.1630     9.6450     6.9280     7.0550    24.1210     2.3270   -26.1780 
  167.1250    85.1130     9.8840     7.1010     7.9460    24.5700     2.3380   -25.9820 
  167.2500    86.3170    10.1040     7.2900     8.4450    24.7860     2.3520   -25.6800 
  167.3750    93.4360    10.2170     7.4370     8.5650    24.8840     2.3590   -25.2770 
