~V
VERS. 2.00: Ver 2.00
~W
STRT.M 50.0000:
STOP.M 224.0000:
STEP.M 0.1250:
NULL. -999.2500:
UWI. F10153:
~C
DEPT.M :
GR.API :
RML.OHMM :
RI. :
RXO.OHMM :
CALI.CM :
SP.MV :
DEN.GM/CC :
~A
# ...
  185.0000    96.9190     9.2630     8.2300     7.6990    23.6550    -9.8820     2.4050 
  185.1250    95.1300     9.3170     8.2920     7.7640    23.7480    -9.9210     2.4130 
  185.2500    93.6770     9.3920     8.3580     7.6420    23.8610    -9.9470     2.4200 
  185.3750    93.7510     9.4220     8.3520     7.6460    23.9510    -9.9690     2.4210 
  185.5000    96.0360     9.3990     8.2620     8.0020    24.0030    -9.9560     2.4160 
  185.6250   100.0790     9.3760     8.1270     8.0130    24.0250    -9.8880     2.4070 
  185.7500   103.3100     9.3750     7.9910     7.5800    24.0250    -9.8020     2.3950 
  185.8750   101.4870     9.3520     7.8550     7.6420    24.0000    -9.7770     2.3850 
  186.0000    96.5530     9.2510     7.7020     8.7680    23.9740    -9.8390     2.3810 
  186.1250    93.1490     9.1810     7.6070     9.7270    23.9710    -9.9970     2.3870 
  186.2500    91.7050     9.3670     7.6990     9.7170    23.9830   -10.2410     2.4040 
  186.3750    89.3040    10.6350     8.4330     9.1330    23.9870   -10.6190     2.4300 
  186.5000    83.7460    13.9140    10.3810    11.2730    23.9760   -11.1210     2.4500 
  186.6250    77.0110    19.9660    14.6600    23.7910    23.9580   -11.7040     2.4530 
  186.7500    72.4960    29.2440    21.9870    49.0210    23.9470   -12.3130     2.4320 
  186.8750    71.7830    44.0670    34.7290    74.5250    23.9660   -12.9140     2.3860 
  187.0000    71.1780    63.3190    51.9830    79.8790    24.0090   -13.5100     2.3300 
  187.1250    69.0800    82.6710    69.8540    79.4720    24.0350   -14.0930     2.2790 
  187.2500    67.2150    98.3740    84.9800    90.0090    24.0120   -14.6490     2.2390 
  187.3750    66.9210   107.6380    94.7780   111.5710    23.9400   -15.1220     2.2150 
  187.5000    66.6690   113.0350   101.0040   124.5570    23.8910   -15.5120     2.2050 
  187.6250    66.5300   116.5110   105.2210   124.7380    23.9340   -15.8750     2.2030 
  187.7500    67.3610   118.5290   108.0080   122.0520    24.0700   -16.2620     2.2010 
  187.8750    68.4750   119.0600   109.3650   116.5330    24.2500   -16.6840     2.1960 
  188.0000    68.1400   119.2530   110.2500   108.1930    24.3760   -17.0980     2.1910 
  188.1250    66.6060   120.1990   111.6310   103.1900    24.4240   -17.4800     2.1870 
  188.2500    66.0950   122.0250   113.7430   103.9790    24.4450   -17.8210     2.1880 
  188.3750    69.0670   123.6630   115.9760   110.5890    24.4910   -18.1280     2.1940 
  188.5000    72.5090   122.1750   116.0770   115.8130    24.5590   -18.4510     2.2000 
  188.6250    72.2330   114.7700   111.3920   114.1310    24.6300   -18.7930     2.2040 
  188.7500    68.5450   102.5120   102.1100   107.6040    24.6960   -19.1240     2.2090 
  188.8750    65.0820    88.6100    89.8920    95.9080    24.7490   -19.4540     2.2160 
  189.0000    64.9820    77.6350    79.0540    74.6440    24.7840   -19.8300     2.2240 
  189.1250    67.7140    72.3190    73.0920    54.8260    24.8060   -20.2680     2.2320 
  189.2500    71.4480    72.5480    72.5920    54.9580    24.8290   -20.7700     2.2380 
  189.3750    73.6230    79.9210    79.4970    74.7050    24.8500   -21.3230     2.2380 
  189.5000    73.0650    93.3110    92.5000    98.1730    24.8540   -21.8690     2.2340 
  189.6250    71.6410   110.7920   109.4360   116.5150    24.8390   -22.3940     2.2290 
  189.7500    71.5890   129.6010   127.6300   127.8200    24.8040   -22.9080     2.2220 
  189.8750    73.3160   146.2250   143.9820   126.3370    24.7330   -23.3570     2.2170 
  190.0000    74.0960   159.6360   157.4680   126.1880    24.6540   -23.6930     2.2160 
  190.1250    72.7630   171.1930   168.9850   142.5210    24.6090   -23.9090     2.2220 
  190.2500    70.3650   182.0100   179.4470   169.2790    24.5960   -24.0420     2.2380 
  190.3750    67.1080   191.3230   188.1600   191.8380    24.5700   -24.1420     2.2600 
  190.5000    63.2790   197.9230   194.2200   206.0780    24.5070   -24.2480     2.2750 
  190.6250    60.9820   200.9180   196.9150   213.6820    24.4420   -24.3280     2.2780 
  190.7500    61.7800   201.0540   196.9190   216.1690    24.4160   -24.3530     2.2690 
  190.8750    65.6550   199.5510   195.3000   207.4680    24.4670   -24.3070     2.2520 
  191.0000    69.5960   198.5800   194.1620   195.9770    24.5550   -24.2650     2.2380 
  191.1250    72.0020   199.3000   194.7460   192.5410    24.6240   -24.2830     2.2270 
  191.2500    73.2310   201.3610   196.7930   196.7990    24.6650   -24.3540     2.2200 
  191.3750    72.1820   203.3690   199.1020   210.8170    24.6790   -24.4120     2.2160 
  191.5000    68.7440   207.2590   199.4820   227.5550    24.6720   -24.4140     2.2130 
  191.6250    65.8030   209.6020   196.3710   226.8210    24.6480   -24.3800     2.2120 
  191.7500    64.9430   205.2340   190.3910   208.0900    24.6220   -24.3610     2.2110 
  191.8750    65.4590   196.8370   183.3290   183.1830    24.5990   -24.4120     2.2140 
  192.0000    65.8340   191.2740   178.5690   165.5810    24.5620   -24.5020     2.2260 
  192.1250    66.7280   191.2730   178.9850   160.2920    24.5080   -24.5920     2.2500 
  192.2500    68.2600   196.7700   184.7990   165.1770    24.4610   -24.6770     2.2840 
  192.3750    67.8090   208.4550   197.0500   174.9060    24.3890   -24.7930     2.3110 
  192.5000    64.2940   223.4960   213.2320   183.9160    24.1730   -24.9170     2.3160 
  192.6250    61.3210   237.9000   229.6970   210.9630    23.7760   -24.9820     2.2910 
  192.7500    61.4440   248.9110   243.6610   261.6310    23.3170   -24.9540     2.2470 
  192.8750    63.1390   251.1850   250.0410   314.7840    22.9700   -24.8050     2.2000 
  193.0000    63.1210   240.9160   245.1910   316.0780    22.7690   -24.5850     2.1700 
  193.1250    62.2350   215.5110   225.9310   280.7830    22.7020   -24.3010     2.1650 
  193.2500    62.1090   179.4940   194.9970   232.5130    22.8060   -23.9290     2.1780 
  193.3750    62.7990   141.1090   157.5110   185.0000    23.1940   -23.4170     2.1970 
  193.5000    64.2800   109.1740   122.9490   135.5770    23.6980   -22.8430     2.2090 
  193.6250    67.6780    86.6200    96.7680    88.9140    24.0230   -22.3270     2.2130 
  193.7500    72.6430    71.4240    78.4470    58.2370    24.0650   -21.8970     2.2140 
  193.8750    78.2960    63.4140    68.5400    51.1010    23.8520   -21.5370     2.2180 
  194.0000    83.3080    60.6030    64.7020    53.8540    23.6840   -21.1670     2.2280 
  194.1250    85.4460    62.3990    66.0280    52.7690    23.7520   -20.7590     2.2410 
  194.2500    84.0310    68.4390    72.0840    49.9070    23.9760   -20.3460     2.2490 
  194.3750    79.0540    81.4350    86.0630    59.5840    24.1660   -19.9650     2.2460 
  194.5000    73.6450   102.9670   109.5170    96.8040    24.2290   -19.6080     2.2370 
  194.6250    70.3560   134.5970   142.7410   163.1450    24.2230   -19.2410     2.2250 
  194.7500    69.4800   173.7600   181.5600   231.2520    24.1990   -18.8530     2.2130 
  194.8750    70.6530   209.1130   213.4750   271.9980    24.1160   -18.4750     2.1940 
  195.0000    71.8450   222.1780   223.6890   288.2220    23.8790   -18.1570     2.1650 
  195.1250    71.4040   207.3390   208.6440   261.8880    23.5070   -17.9200     2.1430 
  195.2500    69.6430   177.9330   179.6180   198.0920    23.1660   -17.7550     2.1460 
  195.3750    68.3710   148.9440   149.5810   132.4050    23.1540   -17.6530     2.1940 
  195.5000    68.5580   128.5350   127.3690    88.4020    23.4790   -17.5460     2.2670 
  195.6250    69.2440   118.1730   115.4550    67.1130    23.9440   -17.4020     2.3300 
  195.7500    69.8400   116.0310   112.2100    64.0790    24.3510   -17.2410     2.3670 
  195.8750    70.5580   123.7030   119.2930    78.7300    24.3420   -17.0840     2.3770 
  196.0000    70.3540   139.3670   134.6850   106.4030    23.8310   -16.9190     2.3860 
  196.1250    67.8930   156.6700   152.4840   141.0290    23.1440   -16.7200     2.4140 
