~V
VERS. 2.00: Ver 2.00
~W
STRT.M 50.0000:
STOP.M 200.0000:
STEP.M 0.1250:
NULL. -999.2500:
UWI. F10131:
~C
DEPT.M :
GR.API :
RML.OHMM :
RI. :
RXO.OHMM :
CALI.CM :
SP.MV :
DEN.GM/CC :
~A
# ...
  117.5000    96.5910     6.1200     4.9810     5.0740    24.1560    -6.4890     2.3110 
  117.6250    96.7270     6.1470     5.0460     5.3680    24.1570    -6.7100     2.3000 
  117.7500    94.6910     6.1120     5.0570     5.1220    24.1870    -6.9710     2.2820 
  117.8750    90.9230     6.0270     5.0120     5.0240    24.1960    -7.2500     2.2630 
  118.0000    87.4650     5.9350     4.9360     5.2460    24.1210    -7.5510     2.2520 
  118.1250    88.1560     5.9150     4.8860     5.1140    24.0500    -7.8590     2.2500 
  118.2500    89.8660     6.0140     4.9150     4.8770    24.0380    -8.1430     2.2510 
  118.3750    89.6100     6.2390     5.0460     4.8310    24.0370    -8.4090     2.2460 
  118.5000    89.2420     6.5560     5.2650     5.2680    24.0430    -8.6620     2.2310 
  118.6250    88.9760     6.9050     5.5330     6.5310    24.0730    -8.8720     2.2140 
  118.7500    84.8720     7.2280     5.8020     7.5430    24.0730    -8.9850     2.2080 
  118.8750    78.4420     7.4960     6.0450     7.7050    24.0340    -9.0660     2.2280 
  119.0000    75.3050     7.6910     6.2450     7.1390    23.9850    -9.1560     2.2750 
  119.1250    78.3880     7.7900     6.3750     6.5010    23.9420    -9.2690     2.3340 
  119.2500    82.0190     7.8120     6.4330     7.7710    23.9120    -9.4250     2.3760 
  119.3750    84.3320     7.7760     6.4240    10.3690    23.9080    -9.6450     2.3810 
  119.5000    85.7630     7.7240     6.3740     9.2480    23.9300    -9.9620     2.3480 
  119.6250    84.1180     7.7290     6.3380     7.4230    24.0230   -10.4460     2.2910 
  119.7500    79.1230     7.8590     6.3780     7.0000    24.1090   -11.0570     2.2340 
  119.8750    73.9580     8.1710     6.5570     8.0840    24.0780   -11.6740     2.1860 
  120.0000    71.4620     8.7000     6.9210     8.9770    23.9810   -12.1900     2.1570 
  120.1250    70.2950     9.4570     7.5210     9.3570    23.9370   -12.5350     2.1680 
  120.2500    69.0440    10.3050     8.2770     9.9340    23.9550   -12.6990     2.2240 
  120.3750    68.8810    11.0810     9.0740    11.8800    23.9530   -12.6670     2.3120 
  120.5000    71.0020    11.5730     9.7310    15.2800    23.9640   -12.4400     2.4000 
  120.6250    73.9490    11.4810     9.9440    15.4970    24.0460   -12.0400     2.4400 
  120.7500    76.0410    10.8250     9.6310    12.4020    24.2070   -11.5520     2.4240 
  120.8750    77.8620     9.7530     8.8520    10.1390    24.4650   -11.0590     2.3670 
  121.0000    80.8760     8.5480     7.8250     8.6690    24.6270   -10.6270     2.3000 
  121.1250    85.2920     7.5580     6.8570     6.7320    24.5770   -10.3140     2.2510 
  121.2500    88.2340     6.9170     6.1360     5.3510    24.5370   -10.1360     2.2220 
  121.3750    89.4860     6.6070     5.6980     5.1250    24.6590   -10.0630     2.2080 
  121.5000    90.9670     6.5180     5.4880     5.4060    24.8350   -10.0410     2.2050 
  121.6250    94.3910     6.5050     5.4170     5.7570    24.9610   -10.0050     2.2120 
  121.7500    97.1330     6.4430     5.3630     5.9140    25.0010    -9.9250     2.2250 
  121.8750    96.9390     6.3150     5.2840     5.6320    24.9600    -9.8000     2.2410 
  122.0000    94.3880     6.1790     5.1950     5.1020    24.8740    -9.6570     2.2590 
  122.1250    90.1390     6.1780     5.1750     5.1230    24.8730    -9.4710     2.2850 
  122.2500    87.6260     6.4190     5.3050     5.3870    24.9730    -9.2230     2.3250 
  122.3750    86.3610     6.9930     5.6650     6.0060    25.0760    -8.9350     2.3760 
  122.5000    82.6010     7.9570     6.3290     7.7360    25.0830    -8.6560     2.4300 
  122.6250    75.3880     9.3260     7.3860    10.6650    25.0370    -8.4450     2.4730 
  122.7500    70.0770    10.8210     8.6770    10.7600    24.9710    -8.3080     2.4990 
  122.8750    68.3560    12.0680     9.9200     9.5770    24.8900    -8.2570     2.5030 
  123.0000    66.9240    12.6340    10.7060    10.2860    24.8590    -8.2650     2.4880 
  123.1250    68.5560    12.0830    10.5450    11.5230    24.9860    -8.3510     2.4530 
  123.2500    75.1830    10.7520     9.6150    11.8420    25.1960    -8.5310     2.4120 
  123.3750    84.1910     9.1350     8.2960     6.7520    25.2880    -8.7930     2.3720 
  123.5000    91.6020     7.7610     7.0350     5.3990    25.2620    -9.1200     2.3420 
  123.6250    95.6760     7.1140     6.2490     7.8610    25.2590    -9.4750     2.3200 
  123.7500    96.6010     7.1990     6.0140     6.0930    25.3200    -9.8580     2.2970 
  123.8750    93.7550     7.9680     6.3560     5.7940    25.4220   -10.2640     2.2670 
  124.0000    88.7780     9.3170     7.2600     6.1600    25.5090   -10.6760     2.2320 
  124.1250    83.6570    11.1730     8.7580     6.3400    25.6080   -11.0640     2.2000 
  124.2500    78.7190    13.2880    10.6740     7.3810    25.7230   -11.3870     2.1790 
  124.3750    76.2980    15.4480    12.8560    10.3680    25.8210   -11.6190     2.1660 
  124.5000    77.4190    17.3190    15.0180    15.4220    25.9020   -11.7560     2.1530 
  124.6250    78.8000    18.2110    16.4850    15.3120    26.1200   -11.7730     2.1310 
  124.7500    76.6750    17.7540    16.7170    16.2730    26.3230   -11.6620     2.1070 
  124.8750    73.8520    15.9940    15.4860    19.3640    26.3710   -11.4310     2.0950 
  125.0000    76.8130    13.4720    13.1110    24.2560    26.1770   -11.1220     2.1090 
  125.1250    87.2500    10.9120    10.3580    23.8110    25.6580   -10.7570     2.1560 
  125.2500    99.1870     8.7710     8.0050    12.4080    25.1280   -10.3740     2.2150 
  125.3750   109.5350     7.2320     6.3150     6.4320    24.7250   -10.0180     2.2690 
  125.5000   113.6430     6.3470     5.2700     4.8730    24.5010    -9.6990     2.3050 
  125.6250   108.0870     6.0340     4.7860     4.5880    24.3950    -9.4550     2.3200 
  125.7500   103.1880     5.9550     4.6040     4.4870    24.2980    -9.3030     2.3230 
  125.8750   107.2150     5.9750     4.6000     4.6180    24.1920    -9.2140     2.3180 
  126.0000   117.1920     6.0340     4.6940     4.7950    24.0180    -9.1380     2.3060 
  126.1250   120.8720     6.1630     4.8820     4.8100    23.8170    -9.0920     2.2930 
  126.2500   115.2950     6.4250     5.1820     4.9130    23.7620    -9.0890     2.2930 
  126.3750   105.5800     6.8750     5.6380     5.1350    23.7730    -9.1230     2.3150 
  126.5000    97.2310     7.5250     6.2700     5.4190    23.7080    -9.1810     2.3550 
  126.6250    94.8140     8.3400     7.0700     6.3780    23.6720    -9.2280     2.3950 
  126.7500    93.7110     9.1510     7.8970     8.4390    23.6250    -9.2360     2.4200 
  126.8750    89.3830     9.7780     8.5780    11.0430    23.6310    -9.2200     2.4270 
  127.0000    84.1750    10.0450     8.9190    11.4300    23.8360    -9.2050     2.4220 
  127.1250    84.6030     9.7700     8.7030    10.6870    24.1210    -9.1640     2.4090 
  127.2500    89.2680     9.0800     8.0490    10.2110    24.3330    -9.1040     2.3870 
  127.3750    92.0640     8.1560     7.1350    10.0920    24.4860    -9.0270     2.3530 
  127.5000    91.4810     7.2510     6.2000     9.1540    24.5370    -8.9360     2.3140 
  127.6250    94.4110     6.7150     5.5320     7.7340    24.3390    -8.8360     2.2930 
  127.7500   100.2490     6.7410     5.2760     5.8010    23.9690    -8.7290     2.3060 
  127.8750   101.2930     7.4900     5.5540     4.9660    23.6990    -8.6180     2.3570 
  128.0000    93.1060     9.0510     6.4690     4.8820    23.7270    -8.4970     2.4300 
  128.1250    81.8090    11.4530     8.1900     5.8180    23.9960    -8.3660     2.4960 
  128.2500    74.1460    14.1760    10.4530     8.8120    24.2780    -8.2160     2.5390 
  128.3750    69.2210    16.6360    12.8490    14.3610    24.4580    -8.0260     2.5580 
  128.5000    66.0680    18.2730    14.8210    13.6140    24.5070    -7.8070     2.5620 
  128.6250    66.4300    18.6920    15.7880    12.4640    24.5050    -7.6010     2.5660 
