~V
VERS. 2.00: Ver 2.00
~W
STRT.M 40.0000:
STOP.M 206.0000:
STEP.M 0.1250:
NULL. -999.2500:
UWI. F10149:
~C
DEPT.M :
SP.MV :
DEN.GM/CC :
GR.API :
RML.OHMM :
RI. :
RXO.OHMM :
CALI.CM :
~A
# ...
   73.7500   -46.3070     2.1440    60.4630     8.9850     7.0100    13.7640    24.2810 
   73.8750   -46.5680     2.1530    60.4580     8.9110     7.0240    13.9740    24.4630 
   74.0000   -46.7160     2.1530    59.4390     8.7870     6.9890    13.9200    24.6520 
   74.1250   -46.6990     2.1440    57.9330     8.6390     6.9180    13.5430    24.7660 
   74.2500   -46.5390     2.1330    56.6070     8.5010     6.8390    13.0090    24.7740 
   74.3750   -46.2550     2.1220    55.8010     8.3770     6.7640    12.5280    24.7280 
   74.5000   -45.8370     2.1110    56.4640     8.2280     6.6910    12.1060    24.6510 
   74.6250   -45.2150     2.1020    58.4800     7.9650     6.6020    11.9770    24.5030 
   74.7500   -44.4550     2.0950    59.7180     7.6280     6.4910    12.1010    24.3270 
   74.8750   -43.6400     2.0940    61.4360     7.3580     6.3620    12.0270    24.1270 
   75.0000   -42.8160     2.1000    64.1480     7.2830     6.2210    11.5880    23.9090 
   75.1250   -42.0550     2.1120    65.7170     7.4570     6.0820    10.8700    23.6860 
   75.2500   -41.4120     2.1270    66.9760     7.7270     5.9630    10.5460    23.5900 
   75.3750   -40.9480     2.1420    69.8130     7.9460     5.8800    10.5600    23.5880 
   75.5000   -40.7230     2.1590    72.8680     8.0390     5.8440    10.7330    23.6280 
   75.6250   -40.7560     2.1760    71.5450     8.0260     5.8640    11.1550    23.6830 
   75.7500   -40.9880     2.1920    68.4510     8.0130     5.9250    11.7240    23.7710 
   75.8750   -41.3660     2.2040    67.2800     8.0850     6.0410    12.2790    23.9430 
   76.0000   -41.8030     2.2070    66.5420     8.3130     6.2410    12.6970    24.2240 
   76.1250   -42.2000     2.1900    62.9320     8.7250     6.5650    13.1910    24.4520 
   76.2500   -42.5050     2.1460    59.3700     9.1770     6.9660    15.1100    24.5800 
   76.3750   -42.6960     2.0750    60.1660     9.5080     7.3560    21.8910    24.6580 
   76.5000   -42.6880     1.9900    64.6150     9.5780     7.6100    43.1710    24.7220 
   76.6250   -42.4500     1.9200    66.2830     9.3190     7.5790    42.8590    24.5580 
   76.7500   -42.0930     1.8880    64.1530     8.9140     7.3100    24.2120    24.1470 
   76.8750   -41.7040     1.9020    61.7660     8.5070     6.9160    13.7530    23.6990 
   77.0000   -41.3450     1.9530    61.0540     8.1500     6.5220    11.1000    23.4240 
   77.1250   -41.1040     2.0130    61.3650     7.8580     6.2340    10.8980    23.3900 
   77.2500   -40.9540     2.0550    61.6800     7.6340     6.0540    11.0520    23.5190 
   77.3750   -40.8320     2.0740    60.1760     7.4920     5.9590    11.6040    23.7890 
   77.5000   -40.6920     2.0790    55.0400     7.4660     5.9270    12.1960    24.0650 
   77.6250   -40.4620     2.0800    50.0900     7.7100     6.0220    12.7040    24.2340 
   77.7500   -40.0300     2.0850    49.5300     8.3860     6.3640    13.1900    24.3190 
   77.8750   -39.2500     2.1040    54.0340     9.6800     7.1110    13.8980    24.3510 
   78.0000   -38.0980     2.1440    60.2590    11.6130     8.3620    15.6620    24.3820 
   78.1250   -36.5370     2.2130    63.4520    13.7660    10.0650    21.2390    24.4560 
   78.2500   -34.7140     2.2910    64.3270    15.0600    11.5870    35.9820    24.5420 
   78.3750   -32.7760     2.3520    66.4910    14.5500    12.0990    53.8780    24.5570 
   78.5000   -30.8470     2.3750    74.4380    12.2480    11.1750    37.1170    24.5530 
   78.6250   -29.0770     2.3490    87.5430     9.3920     9.2940    15.8460    24.6210 
   78.7500   -27.5600     2.3020    96.5040     7.2230     7.4940     7.4690    24.7040 
   78.8750   -26.3550     2.2550    97.0270     5.9520     6.1410     5.9910    24.7650 
   79.0000   -25.4520     2.2220    92.2990     5.3810     5.2720     6.7000    24.7790 
   79.1250   -24.9210     2.2120    91.1240     5.2650     4.8500     6.7230    24.7830 
   79.2500   -24.7740     2.2230    94.0530     5.3270     4.7100     5.6820    24.7800 
   79.3750   -24.9940     2.2530    96.9570     5.5530     4.8190     4.8080    24.7330 
   79.5000   -25.5610     2.2960    95.6650     6.0790     5.1930     4.8910    24.6110 
   79.6250   -26.5040     2.3390    88.6920     7.1520     5.9130     6.1910    24.4650 
   79.7500   -27.7470     2.3700    79.5880     8.6690     6.8980     9.1390    24.3260 
   79.8750   -29.2680     2.3830    71.8430    10.2860     7.9960    14.3150    24.1790 
   80.0000   -31.0240     2.3750    66.8420    11.4590     8.9250    17.8920    24.0240 
   80.1250   -32.9700     2.3440    63.2940    11.6270     9.3030    14.7290    23.9090 
   80.2500   -34.9240     2.2990    59.9980    11.1180     9.1850    12.7270    23.8770 
   80.3750   -36.7740     2.2520    59.1480    10.4340     8.7950    12.2930    23.8660 
   80.5000   -38.4220     2.2110    60.4040     9.9700     8.3750    12.5590    23.8580 
   80.6250   -39.7030     2.1870    60.1820     9.8650     8.0980    13.0690    23.9180 
   80.7500   -40.6400     2.1750    58.0380     9.8950     7.9490    13.6020    24.0030 
   80.8750   -41.3070     2.1740    57.2650     9.8850     7.8650    13.8990    24.0490 
   81.0000   -41.7660     2.1790    60.4110     9.7860     7.7900    13.9300    24.0570 
   81.1250   -42.0060     2.1850    64.2200     9.6680     7.7100    13.6990    24.0490 
   81.2500   -42.0680     2.1860    64.6010     9.6140     7.6310    13.4260    24.0360 
   81.3750   -41.9480     2.1770    61.8780     9.6280     7.5400    13.2680    24.0240 
   81.5000   -41.7360     2.1580    57.9990     9.6480     7.4210    13.3710    23.9980 
   81.6250   -41.4640     2.1350    55.7670     9.5940     7.2630    13.6580    23.9460 
   81.7500   -41.1190     2.1170    53.6430     9.4650     7.0920    13.6780    23.8950 
   81.8750   -40.7200     2.1110    51.5740     9.3030     6.9380    13.3980    23.8680 
   82.0000   -40.2770     2.1200    52.1710     9.1620     6.8290    12.9800    23.8500 
   82.1250   -39.7990     2.1450    57.3350     9.0780     6.7960    12.7890    23.8470 
   82.2500   -39.3770     2.1770    63.7070     9.0640     6.8270    12.9620    23.8730 
   82.3750   -39.0910     2.2040    66.8090     9.1320     6.9060    13.5060    23.9510 
   82.5000   -38.9160     2.2180    64.3710     9.2650     7.0030    13.8760    24.0620 
   82.6250   -38.9240     2.2140    58.6560     9.3980     7.0680    13.5640    24.1510 
   82.7500   -39.1540     2.2040    55.2490     9.4870     7.0790    12.8080    24.1550 
   82.8750   -39.5900     2.1970    56.9340     9.5490     7.0370    12.0210    24.0580 
   83.0000   -40.2340     2.1970    62.1620     9.6010     6.9610    11.5680    23.9070 
   83.1250   -41.0840     2.2000    65.2940     9.6110     6.8840    12.4450    23.8780 
   83.2500   -42.0230     2.1980    63.0020     9.5590     6.8310    13.5060    23.9890 
   83.3750   -42.9880     2.1900    56.5890     9.4500     6.8100    14.3500    24.2280 
   83.5000   -43.9270     2.1790    51.0630     9.2980     6.8110    14.8350    24.5400 
   83.6250   -44.7290     2.1700    50.5630     9.1120     6.8120    14.9020    24.8690 
   83.7500   -45.3460     2.1630    54.5090     8.9260     6.8060    14.5890    25.1150 
   83.8750   -45.7290     2.1510    59.2260     8.7560     6.8010    14.1890    25.2040 
   84.0000   -45.8430     2.1310    60.8690     8.5990     6.8130    13.8400    25.0990 
   84.1250   -45.6080     2.1010    58.6360     8.4630     6.8530    13.5750    24.8490 
   84.2500   -45.0800     2.0700    58.0210     8.3910     6.9030    13.3290    24.6170 
   84.3750   -44.3010     2.0450    59.6740     8.4200     6.9400    13.1520    24.4320 
   84.5000   -43.2740     2.0370    60.1340     8.5220     6.9250    13.0690    24.2840 
   84.6250   -41.9590     2.0570    58.5740     8.6040     6.7960    13.0190    24.1780 
   84.7500   -40.4110     2.1010    59.0140     8.5660     6.5470    12.7910    24.1150 
   84.8750   -38.6860     2.1600    61.7810     8.3430     6.2110    12.3190    24.1340 
