~V
VERS. 2.00: Ver 2.00
~W
STRT.M 55.0000:
STOP.M 242.0000:
STEP.M 0.1250:
NULL. -999.2500:
UWI. F10187:
~C
DEPT.M :
GR.API :
RML.OHMM :
RI. :
RXO.OHMM :
CALI.CM :
DEN.GM/CC :
SP.MV :
~A
# ...
  223.7500    82.6450    14.4740    13.0200    17.4620    24.1500     2.4370    -5.0520 
  223.8750    82.2520    15.0810    13.7350    19.4790    24.1690     2.4700    -4.6000 
  224.0000    81.4540    15.2560    14.0530    20.2410    24.2030     2.4960    -4.0950 
  224.1250    78.6850    14.9890    13.8380    18.9360    24.2280     2.5060    -3.6550 
  224.2500    74.6450    14.5560    13.3610    16.1620    24.2470     2.5020    -3.3200 
  224.3750    72.3570    14.1500    12.8760    14.4100    24.2470     2.4880    -2.9990 
  224.5000    72.6520    13.8630    12.5500    14.2280    24.1790     2.4730    -2.6520 
  224.6250    74.2010    13.6340    12.3920    14.4750    24.1140     2.4680    -2.3290 
  224.7500    76.8290    13.2600    12.1730    14.6560    24.1640     2.4730    -2.0910 
  224.8750    80.7040    12.5710    11.6650    14.5500    24.2870     2.4800    -1.9280 
  225.0000    83.4110    11.5240    10.7660    13.3620    24.3550     2.4770    -1.7650 
  225.1250    82.1230    10.2560     9.5790    10.2260    24.4210     2.4550    -1.4750 
  225.2500    80.5080     9.0800     8.4300     7.6850    24.5960     2.4230    -1.0910 
  225.3750    80.3980     8.1990     7.5140     6.3020    24.7600     2.3910    -0.7260 
  225.5000    79.7870     7.6940     6.9160     5.9830    24.6360     2.3650    -0.4630 
  225.6250    76.9650     7.5450     6.6650     6.1770    24.5490     2.3500    -0.2870 
  225.7500    74.2880     7.5420     6.6250     6.4300    24.6940     2.3430    -0.0600 
  225.8750    72.9390     7.5380     6.6870     6.6060    24.8630     2.3430     0.1870 
  226.0000    72.3440     7.4520     6.7390     6.3770    24.8950     2.3540     0.4030 
  226.1250    72.1720     7.2730     6.6690     6.0700    24.8110     2.3780     0.5490 
  226.2500    71.6640     7.0770     6.4880     5.6090    24.7190     2.4060     0.6280 
  226.3750    71.2170     6.9150     6.2620     5.3860    24.7900     2.4250     0.6970 
  226.5000    71.3340     6.8120     6.0710     5.3050    25.0790     2.4250     0.7790 
  226.6250    69.9220     6.7800     5.9910     5.4480    25.3740     2.4050     0.8260 
  226.7500    66.5650     6.8050     6.0160     5.8680    25.3960     2.3780     0.8260 
  226.8750    64.0490     6.8770     6.1150     6.3840    25.1600     2.3540     0.8560 
  227.0000    64.9200     6.9750     6.2380     6.5160    24.9050     2.3400     0.9000 
  227.1250    65.7890     7.0650     6.3280     6.3850    24.7320     2.3330     0.9270 
  227.2500    64.9650     7.1330     6.3550     5.9760    24.7740     2.3280     0.9600 
  227.3750    64.7920     7.1810     6.3140     5.5530    24.8120     2.3260     1.0140 
  227.5000    66.3610     7.2060     6.2190     5.3990    24.7570     2.3300     1.1550 
  227.6250    70.1170     7.1870     6.0960     5.1440    24.6820     2.3440     1.4070 
  227.7500    73.0090     7.1280     5.9760     4.9960    24.5710     2.3650     1.6220 
  227.8750    72.3990     7.0560     5.8810     5.2960    24.3920     2.3870     1.7260 
  228.0000    68.3110     7.0150     5.8220     6.2660    24.2350     2.4060     1.7730 
  228.1250    66.0500     7.0600     5.8140     6.9440    24.2240     2.4150     1.8200 
  228.2500    67.2410     7.1960     5.8580     6.6830    24.2240     2.4150     1.9000 
  228.3750    69.3030     7.4160     5.9620     6.6590    24.2510     2.4080     1.9660 
  228.5000    71.4150     7.7180     6.1260     7.0230    24.4540     2.3980     1.9210 
  228.6250    71.6490     8.1050     6.3590     7.3210    24.7240     2.3920     1.7900 
  228.7500    68.6840     8.5280     6.6430     7.7110    24.7610     2.3910     1.6960 
  228.8750    64.4210     8.9260     6.9670     8.4920    24.5490     2.3970     1.6670 
  229.0000    64.9420     9.2350     7.3050    10.4510    24.2700     2.4070     1.7060 
  229.1250    70.4610     9.4100     7.6080    12.8860    24.0910     2.4210     1.7490 
  229.2500    73.2120     9.4900     7.8330    14.6330    24.1770     2.4340     1.7160 
  229.3750    71.5620     9.5040     7.9480    14.2690    24.3540     2.4400     1.6870 
  229.5000    68.4080     9.4640     7.9450    11.2800    24.5040     2.4350     1.7390 
  229.6250    67.9170     9.3540     7.8420     9.1400    24.5030     2.4220     1.8210 
  229.7500    68.4390     9.1760     7.6990     8.5110    24.4190     2.4100     1.8470 
  229.8750    67.6190     8.9500     7.5470     8.4600    24.2140     2.4080     1.8570 
  230.0000    65.8390     8.7180     7.4040     8.5650    23.9140     2.4180     1.8740 
  230.1250    66.6020     8.5490     7.2760     8.0050    23.7550     2.4320     1.9340 
  230.2500    68.5260     8.4730     7.1620     7.3960    23.7890     2.4370     2.0210 
  230.3750    67.3080     8.4830     7.0630     7.4480    23.8120     2.4300     2.0530 
  230.5000    62.8100     8.5370     6.9770     8.0780    23.8570     2.4110     2.0680 
  230.6250    61.2540     8.5650     6.9050     8.4400    24.0590     2.3880     2.1140 
  230.7500    63.8260     8.5240     6.8330     8.6200    24.2500     2.3670     2.1820 
  230.8750    66.0860     8.3550     6.7430     8.3180    24.3160     2.3540     2.2560 
  231.0000    66.0400     8.0240     6.6140     8.1150    24.2980     2.3470     2.2900 
  231.1250    65.8660     7.6150     6.4350     7.3250    24.1630     2.3490     2.2710 
  231.2500    66.8970     7.2960     6.2440     6.5760    24.0550     2.3580     2.3000 
  231.3750    68.1920     7.1210     6.0850     5.7800    24.0050     2.3710     2.3490 
  231.5000    69.0350     7.0610     6.0110     5.1540    24.0030     2.3860     2.3570 
  231.6250    69.0350     7.1220     6.0730     4.9440    24.0310     2.3980     2.3640 
  231.7500    69.0350     7.2870     6.2400     5.0530    24.1150     2.4070     2.3900 
  231.8750    69.0350     7.5140     6.4660     5.5810    24.2120     2.4120     2.4070 
  232.0000    69.0350     7.7550     6.7010     6.8610    24.2260     2.4120     2.4710 
  232.1250    69.0350     7.9550     6.8930     8.7690    24.0990     2.4010     2.5700 
  232.2500    69.0350     8.0990     7.0240     8.8790    24.0340     2.3860     2.6220 
  232.3750    69.0350     8.1940     7.1010     7.3560    23.9960     2.3740     2.6890 
  232.5000    69.0350     8.2700     7.1580     7.0300    23.9430     2.3750     2.8070 
  232.6250    69.0350     8.3780     7.2470     7.9340    23.8950     2.3910     2.9700 
  232.7500    69.0350     8.5490     7.4020     8.5170    23.9020     2.4130     3.1120 
  232.8750    69.0350     8.7860     7.6290     8.3900    23.9400     2.4330     3.2650 
  233.0000    69.0350     9.0670     7.9050     8.7490    24.0120     2.4470     3.3840 
  233.1250    69.0350     9.3300     8.1670     9.8270    24.0200     2.4560     3.5200 
  233.2500    69.0350     9.5120     8.3500    10.0400    24.0120     2.4620     3.6800 
  233.3750    69.0350     9.5740     8.4090    10.2300    23.9990     2.4640     3.8140 
  233.5000    69.0350     9.5080     8.3370    10.6290    24.0230     2.4550     3.9480 
  233.6250    69.0350     9.3400     8.1610    10.1870    24.0120     2.4310     4.0220 
  233.7500    69.0350     9.1500     7.9670     9.3750    24.0040     2.4030     4.2000 
  233.8750    69.0350     8.9950     7.8130     9.2240    24.0620     2.3840     4.4480 
  234.0000    69.0350     8.9090     7.7340     9.8760    24.1110     2.3840     4.6660 
  234.1250    69.0350     8.9050     7.7410    10.5710    24.1080     2.4040     4.8190 
  234.2500    69.0350     8.9450     7.7880    11.2460    24.0470     2.4280     4.9590 
  234.3750    69.0350     8.9980     7.8440    12.1470    24.0160     2.4420     5.1230 
  234.5000    69.0350     9.0420     7.8860    13.5160    24.1130     2.4410     5.2570 
  234.6250    69.0350     9.0700     7.9070    15.2940    24.1820     2.4320     5.3360 
  234.7500    69.0350     9.1040     7.9280    13.1180    24.1880     2.4270     5.2940 
  234.8750    69.0350     9.1690     7.9800    11.2880    24.1080     2.4330     5.1870 
