~V
VERS. 2.00: Ver 2.00
~W
STRT.M 60.0000:
STOP.M 241.0000:
STEP.M 0.1250:
NULL. -999.2500:
UWI. F10158:
~C
DEPT.M :
SP.MV :
DEN.GM/CC :
GR.API :
RML.OHMM :
RI. :
RXO.OHMM :
CALI.CM :
~A
# ...
  150.0000    79.6810     2.5300    54.1580    16.2070    13.6170    12.8710    26.1170 
  150.1250    79.5470     2.5260    55.7830    16.1730    13.5550    13.3510    26.1210 
  150.2500    79.3600     2.5200    55.6380    16.1610    13.5380    13.5730    26.1370 
  150.3750    79.1520     2.5090    54.5290    16.1550    13.5490    13.4610    26.1540 
  150.5000    78.9470     2.4940    53.9950    16.1730    13.5990    13.1440    26.1600 
  150.6250    78.7540     2.4780    54.8130    16.2570    13.7200    12.6630    26.1600 
  150.7500    78.5700     2.4620    57.0310    16.4070    13.9010    12.1930    26.1620 
  150.8750    78.3860     2.4470    60.7490    16.6140    14.1160    12.3300    26.1620 
  151.0000    78.1840     2.4320    64.9580    16.8530    14.3350    13.6220    26.1590 
  151.1250    77.9490     2.4190    65.7900    17.0820    14.5290    15.6480    26.1590 
  151.2500    77.6900     2.4070    64.0090    17.2540    14.6870    16.6600    26.1640 
  151.3750    77.4230     2.3950    64.4010    17.3310    14.8000    15.9870    26.1780 
  151.5000    77.1690     2.3860    66.6520    17.2970    14.8520    14.9450    26.1970 
  151.6250    76.9600     2.3830    68.5080    17.1600    14.8260    14.9020    26.2150 
  151.7500    76.8030     2.3850    69.2830    16.9950    14.7560    15.4930    26.2370 
  151.8750    76.7020     2.3930    68.9570    16.8610    14.6840    15.8770    26.2840 
  152.0000    76.6460     2.4030    67.4900    16.7920    14.6520    15.6020    26.3500 
  152.1250    76.6130     2.4110    65.6020    16.8020    14.6960    14.6220    26.3960 
  152.2500    76.5760     2.4170    65.0830    16.8620    14.8100    13.3870    26.4110 
  152.3750    76.5440     2.4250    65.9790    16.9620    14.9890    12.5900    26.4090 
  152.5000    76.5380     2.4340    66.6470    17.0910    15.2220    12.6580    26.4120 
  152.6250    76.5750     2.4420    65.3430    17.2270    15.4900    13.2370    26.4390 
  152.7500    76.6500     2.4430    62.6090    17.3490    15.7580    13.5520    26.4970 
  152.8750    76.7490     2.4340    59.8190    17.4580    16.0020    13.8940    26.5810 
  153.0000    76.8500     2.4160    60.2150    17.5670    16.2100    14.6500    26.6720 
  153.1250    76.9070     2.3970    62.9290    17.6920    16.3610    15.3240    26.7390 
  153.2500    76.8850     2.3810    64.2290    17.8020    16.4400    15.4350    26.7680 
  153.3750    76.7660     2.3720    62.7730    17.8160    16.4010    15.2000    26.7840 
  153.5000    76.5520     2.3670    60.1000    17.6280    16.1740    15.1010    26.8270 
  153.6250    76.2660     2.3640    60.0490    17.1460    15.6810    14.8740    26.9000 
  153.7500    75.9540     2.3670    61.7970    16.5560    15.0590    14.1810    26.9660 
  153.8750    75.6420     2.3780    63.1530    16.1750    14.5450    13.2920    27.0260 
  154.0000    75.3430     2.3940    62.4860    16.4200    14.4540    12.5460    27.0910 
  154.1250    75.0450     2.3980    60.7040    17.9180    15.2600    11.8610    27.1490 
  154.2500    74.7220     2.3810    60.7330    20.8310    17.1540    11.0860    27.1960 
  154.3750    74.3490     2.3470    63.4980    25.3110    20.3860    11.7560    27.3160 
  154.5000    73.9230     2.3050    67.8400    31.2630    25.0830    16.2040    27.5750 
  154.6250    73.4550     2.2670    70.7610    38.3370    31.2230    23.8750    27.8970 
  154.7500    72.9990     2.2370    70.7630    45.5980    37.9670    25.7810    28.1650 
  154.8750    72.5970     2.2160    66.9440    52.3520    44.5860    28.8270    28.3780 
  155.0000    72.2790     2.2040    61.2160    57.9070    50.3340    32.6240    28.5520 
  155.1250    72.0790     2.2050    58.2650    60.9490    53.9930    39.4590    28.6470 
  155.2500    71.9640     2.2140    59.3160    61.0100    55.0670    51.2730    28.6780 
  155.3750    71.9050     2.2290    61.2280    58.1240    53.4220    45.9350    28.7250 
  155.5000    71.8530     2.2420    62.4890    53.3000    49.7260    38.8430    28.8330 
  155.6250    71.7750     2.2480    62.6200    48.2140    45.2910    38.7350    28.9590 
  155.7500    71.6730     2.2500    63.8650    44.1530    41.4580    38.1340    29.0410 
  155.8750    71.5510     2.2550    68.2530    41.4920    38.7480    37.6000    29.0800 
  156.0000    71.4270     2.2680    74.3790    40.2580    37.3150    37.1590    29.1270 
  156.1250    71.3290     2.2880    74.3900    40.7760    37.5100    36.4360    29.2440 
  156.2500    71.2570     2.3020    68.2320    43.0200    39.3040    35.7790    29.4410 
  156.3750    71.2100     2.3010    62.5800    47.1180    42.8350    35.5780    29.7240 
  156.5000    71.1880     2.2860    61.6890    52.8540    47.9710    36.1850    30.0410 
  156.6250    71.1760     2.2640    64.0440    59.3740    54.0810    37.2070    30.2680 
  156.7500    71.1570     2.2500    66.2140    65.0020    59.6680    38.5220    30.3670 
  156.8750    71.1390     2.2430    66.9960    68.5410    63.5890    39.9720    30.3950 
  157.0000    71.1330     2.2340    64.8800    69.7980    65.4820    41.4010    30.4340 
  157.1250    71.1400     2.2160    62.7320    69.6280    65.8620    42.6580    30.5240 
  157.2500    71.1520     2.1920    64.1800    69.4140    65.9710    43.7250    30.6560 
  157.3750    71.1570     2.1700    67.0740    69.4450    66.1940    45.2520    30.8040 
  157.5000    71.1440     2.1600    69.6210    68.3190    67.3140    47.5390    30.9100 
  157.6250    71.0960     2.1670    70.5140    67.7400    66.3290    49.6030    30.9230 
  157.7500    71.0110     2.1840    69.8440    66.3170    64.4350    51.3020    30.8990 
  157.8750    70.8780     2.2010    66.4920    64.2930    62.0100    52.7510    30.8880 
  158.0000    70.7110     2.2120    62.7440    62.1440    59.6100    53.1940    30.8890 
  158.1250    70.5270     2.2190    64.1010    60.4340    57.7790    52.3400    30.8830 
  158.2500    70.3440     2.2250    67.9940    59.3450    56.5680    50.6810    30.8780 
  158.3750    70.1770     2.2340    70.8370    58.8570    55.8980    47.1900    30.8770 
  158.5000    70.0360     2.2420    70.7610    58.9040    55.7120    44.2920    30.8800 
  158.6250    69.9300     2.2470    69.3940    59.6070    56.2030    42.5550    30.8850 
  158.7500    69.8630     2.2460    68.4430    61.0050    57.4420    42.3660    30.8890 
  158.8750    69.8360     2.2400    67.6050    63.1500    59.4510    42.8170    30.8910 
  159.0000    69.8520     2.2300    66.1150    65.8740    62.0110    44.1890    30.8930 
  159.1250    69.9220     2.2200    66.0940    68.6730    64.6020    46.3760    30.8940 
  159.2500    70.0650     2.2150    67.9410    70.9190    66.6600    45.6520    30.8900 
  159.3750    70.2690     2.2200    68.2600    72.3410    67.9870    42.2620    30.8860 
  159.5000    70.5140     2.2330    64.8940    73.1710    68.8750    39.3670    30.8920 
  159.6250    70.7750     2.2490    61.4490    74.3810    70.3370    38.5450    30.9090 
  159.7500    71.0270     2.2560    61.6020    77.1360    73.4620    40.0340    30.9390 
  159.8750    71.2490     2.2500    63.8430    82.3920    79.1050    48.4280    31.0060 
  160.0000    71.4320     2.2300    65.3680    90.7010    87.7150    71.0080    31.1600 
  160.1250    71.5440     2.2020    65.7440   102.2810    99.4280   100.9600    31.4560 
  160.2500    71.6120     2.1720    64.2440   115.4590   112.5900   119.7500    31.8010 
  160.3750    71.6580     2.1460    61.6030   128.7350   125.6930   122.2940    32.0560 
  160.5000    71.7070     2.1250    59.1260   140.9910   137.6120   109.5730    32.0850 
  160.6250    71.7680     2.1060    57.5450   152.0250   148.1460    94.3560    31.8780 
  160.7500    71.8310     2.0880    56.8290   162.7710   158.2400    96.0320    31.6560 
  160.8750    71.8870     2.0750    56.5490   173.1920   167.7380   101.9070    31.5240 
  161.0000    71.9450     2.0710    56.4940   181.4110   174.5580   104.6960    31.4580 
  161.1250    72.0010     2.0800    55.7600   182.2900   173.3210   105.0050    31.3950 
