~V
VERS. 2.00: Ver 2.00
~W
STRT.M 40.0000:
STOP.M 206.0000:
STEP.M 0.1250:
NULL. -999.2500:
UWI. F10149:
~C
DEPT.M :
SP.MV :
DEN.GM/CC :
GR.API :
RML.OHMM :
RI. :
RXO.OHMM :
CALI.CM :
~A
# ...
   96.2500   -38.5890     2.1150    57.9460     8.1670     6.5170    13.4040    24.4510 
   96.3750   -38.1830     2.0800    56.6240     8.9370     6.9690    13.5490    24.5170 
   96.5000   -37.5910     2.0590    54.5220    10.4720     7.9820    13.6920    24.5490 
   96.6250   -36.8350     2.0870    51.9310    12.8150     9.7140    16.7430    24.4910 
   96.7500   -36.0930     2.1670    51.1460    15.2590    11.7700    27.4300    24.3370 
   96.8750   -35.4290     2.2800    53.3880    16.7200    13.3670    43.7220    24.1570 
   97.0000   -34.8940     2.3860    56.7510    16.1860    13.5510    45.3490    24.0450 
   97.1250   -34.5440     2.4210    57.8250    13.6720    11.9860    28.6140    23.9980 
   97.2500   -34.3440     2.3840    56.6190    10.9340     9.9070    17.6270    23.9680 
   97.3750   -34.3280     2.3070    55.4060     8.9370     8.0900    12.8460    23.9400 
   97.5000   -34.5520     2.2310    55.8130     7.9070     6.8360    11.4300    23.8960 
   97.6250   -35.0040     2.1890    57.9090     7.7060     6.2320    11.3330    23.8370 
   97.7500   -35.5410     2.1750    60.8370     7.8620     6.0590    11.4980    23.8190 
   97.8750   -36.1050     2.1780    62.5720     8.1440     6.1730    11.7740    23.8460 
   98.0000   -36.6390     2.1790    61.8300     8.4220     6.4240    12.0890    23.8740 
   98.1250   -37.1050     2.1660    61.0540     8.6290     6.6690    12.4680    23.9090 
   98.2500   -37.5240     2.1410    61.5590     8.7500     6.8300    12.9980    23.9780 
   98.3750   -37.8710     2.1170    61.9850     8.7760     6.9010    13.4530    24.0600 
   98.5000   -38.0860     2.1100    60.2440     8.7220     6.9140    13.6490    24.1130 
   98.6250   -38.2200     2.1320    58.1780     8.6720     6.9210    13.8690    24.1300 
   98.7500   -38.3210     2.1700    57.2450     8.7210     6.9600    14.1700    24.1640 
   98.8750   -38.3570     2.2050    57.2390     8.8920     7.0490    14.3760    24.1910 
   99.0000   -38.3180     2.2180    59.9280     9.1320     7.1830    14.6060    24.1030 
   99.1250   -38.2140     2.2000    63.0420     9.3240     7.3330    14.7300    23.9980 
   99.2500   -38.0770     2.1660    61.2400     9.3760     7.4430    14.3820    24.0510 
   99.3750   -37.9030     2.1290    56.1520     9.2500     7.4690    14.0800    24.1990 
   99.5000   -37.7010     2.1000    54.3650     8.9700     7.3920    13.7560    24.3080 
   99.6250   -37.4530     2.0850    57.7100     8.6050     7.2110    13.5630    24.3420 
   99.7500   -37.1730     2.0800    58.1410     8.2650     6.9830    13.6410    24.3570 
   99.8750   -36.8530     2.0820    56.0170     8.0210     6.7560    13.7490    24.3510 
  100.0000   -36.5480     2.0830    57.5400     7.9110     6.5770    13.6100    24.3210 
  100.1250   -36.3340     2.0780    62.9190     7.9530     6.4930    13.3870    24.2750 
  100.2500   -36.1600     2.0680    64.6420     8.0720     6.5000    13.1070    24.2390 
  100.3750   -36.0140     2.0610    60.8900     8.1940     6.5720    13.0590    24.2350 
  100.5000   -35.9190     2.0680    56.0450     8.2550     6.6620    13.2970    24.2300 
  100.6250   -35.8790     2.0930    54.3980     8.2200     6.7140    13.3830    24.2470 
  100.7500   -35.8210     2.1230    56.0690     8.1590     6.7120    12.8820    24.2730 
  100.8750   -35.7500     2.1430    59.4200     8.1520     6.6640    12.4660    24.2940 
  101.0000   -35.6690     2.1460    61.4360     8.2370     6.5940    12.3010    24.3000 
  101.1250   -35.5670     2.1360    61.0600     8.3900     6.5300    12.4840    24.3090 
  101.2500   -35.4830     2.1290    60.9610     8.5130     6.4870    12.6990    24.2870 
  101.3750   -35.4080     2.1320    62.2600     8.5420     6.4680    12.7060    24.2270 
  101.5000   -35.3880     2.1430    63.6410     8.4760     6.4700    12.6020    24.1730 
  101.6250   -35.4080     2.1560    63.0810     8.3630     6.4930    12.4900    24.1610 
  101.7500   -35.4310     2.1650    59.7420     8.2640     6.5390    12.3240    24.2350 
  101.8750   -35.4860     2.1670    55.8580     8.1930     6.6090    11.9590    24.4230 
  102.0000   -35.5100     2.1600    54.6460     8.1570     6.6900    11.4640    24.6510 
  102.1250   -35.4540     2.1430    56.4610     8.1720     6.7540    11.5170    24.8020 
  102.2500   -35.3510     2.1220    57.6120     8.2300     6.7780    11.9720    24.8510 
  102.3750   -35.2130     2.1060    58.0520     8.3100     6.7490    12.3600    24.8710 
  102.5000   -34.9610     2.1000    59.0410     8.3540     6.6760    12.2990    24.9010 
  102.6250   -34.6470     2.1110    60.8740     8.3020     6.5780    11.8380    24.9100 
  102.7500   -34.3470     2.1320    61.5610     8.1870     6.4830    11.5000    24.8610 
  102.8750   -34.0210     2.1550    60.8580     8.0580     6.4020    11.4950    24.7770 
  103.0000   -33.7100     2.1730    59.4570     7.9630     6.3430    11.5590    24.7500 
  103.1250   -33.4750     2.1790    60.2270     7.9280     6.3090    11.4100    24.8280 
  103.2500   -33.2850     2.1760    62.7730     7.9090     6.2940    11.5360    24.9150 
  103.3750   -33.1370     2.1710    63.0030     7.8690     6.2890    12.0630    24.9600 
  103.5000   -33.0260     2.1660    59.9210     7.7960     6.2870    12.5150    24.9670 
  103.6250   -32.8990     2.1650    56.9240     7.7120     6.2840    12.6250    24.9330 
  103.7500   -32.7450     2.1650    55.8170     7.6350     6.2820    12.3780    24.8490 
  103.8750   -32.5500     2.1630    56.4960     7.5810     6.2810    12.0140    24.7330 
  104.0000   -32.3120     2.1560    58.9340     7.5590     6.2770    11.7280    24.6280 
  104.1250   -31.9910     2.1450    62.7490     7.5200     6.2440    11.5160    24.5690 
  104.2500   -31.5370     2.1380    63.6080     7.3860     6.1470    11.4750    24.5390 
  104.3750   -30.9720     2.1410    62.1120     7.1240     5.9640    11.4380    24.5300 
  104.5000   -30.3530     2.1580    62.2240     6.7990     5.7270    11.3040    24.5290 
  104.6250   -29.7580     2.1890    64.3810     6.6360     5.5480    10.5790    24.5310 
  104.7500   -29.2850     2.2180    66.3620     6.8560     5.5570     9.4130    24.5390 
  104.8750   -29.0180     2.2300    67.5610     7.6020     5.8680     9.0010    24.5320 
  105.0000   -28.9670     2.2130    67.5520     8.8830     6.5560    10.5280    24.4660 
  105.1250   -29.0890     2.1730    64.8390    10.5410     7.6470    16.4930    24.3710 
  105.2500   -29.3730     2.1300    60.4590    12.0570     8.8460    21.7230    24.3250 
  105.3750   -29.8630     2.1030    57.3890    12.8840     9.7630    24.6150    24.3050 
  105.5000   -30.4930     2.0970    57.2170    12.6970    10.0450    23.8240    24.2920 
  105.6250   -31.1220     2.1030    58.2970    11.6370     9.5850    20.6060    24.2520 
  105.7500   -31.6500     2.1040    57.4090    10.4620     8.8420    16.5690    24.2030 
  105.8750   -31.9720     2.0920    55.2280     9.5670     8.1250    14.2060    24.1590 
  106.0000   -32.0250     2.0710    54.6880     9.0720     7.5900    13.6500    24.1320 
  106.1250   -31.8540     2.0540    56.3190     8.9350     7.3040    13.9660    24.0970 
  106.2500   -31.5460     2.0470    58.6600     8.9580     7.1890    13.8370    24.0490 
  106.3750   -31.0090     2.0510    61.5000     9.0460     7.1850    13.0880    24.0200 
  106.5000   -30.2180     2.0640    64.3830     9.1420     7.2280    12.7970    24.0190 
  106.6250   -29.1760     2.0870    66.1150     9.1530     7.2420    13.1120    24.0490 
  106.7500   -27.9330     2.1190    67.4450     8.9960     7.1620    13.2880    24.0970 
  106.8750   -26.5380     2.1630    68.3720     8.6320     6.9380    13.0980    24.1390 
  107.0000   -25.0430     2.2130    67.4000     8.1360     6.5630    12.3980    24.1610 
  107.1250   -23.5140     2.2510    67.7520     7.6970     6.0900    10.3320    24.2230 
  107.2500   -22.0430     2.2630    72.5200     7.4070     5.6470     8.1340    24.4040 
  107.3750   -20.7270     2.2450    80.4100     7.2180     5.3170     6.4790    24.6750 
