~V
VERS. 2.00: Ver 2.00
~W
STRT.M 55.0000:
STOP.M 288.0000:
STEP.M 0.1250:
NULL. -999.2500:
UWI. F10106:
~C
DEPT.M :
DEN.GM/CC :
SP.MV :
GR.API :
RML.OHMM :
RI. :
RXO.OHMM :
CALI.CM :
~A
# ...
  111.2500     2.2660   -13.7280    60.4890     8.8000     8.3710     7.2450    22.8800 
  111.3750     2.2150   -13.9160    60.8050     7.9450     7.3340     7.1150    22.8390 
  111.5000     2.1910   -14.1460    59.8130     7.6340     6.8580     7.1080    22.8620 
  111.6250     2.1870   -14.3930    60.0430     7.6290     6.7530     7.0750    22.9330 
  111.7500     2.1860   -14.6500    61.4740     7.7090     6.8000     7.0330    23.0480 
  111.8750     2.1820   -14.9080    61.1800     7.7930     6.9020     7.0260    23.1950 
  112.0000     2.1730   -15.1570    58.9960     7.8470     7.0060     7.0400    23.3390 
  112.1250     2.1660   -15.3770    57.7170     7.8640     7.0810     7.0660    23.4300 
  112.2500     2.1630   -15.5600    57.5730     7.8650     7.1300     7.1130    23.4830 
  112.3750     2.1660   -15.7070    56.3990     7.8630     7.1610     7.1590    23.5100 
  112.5000     2.1740   -15.8160    55.0620     7.8680     7.1810     7.1810    23.5310 
  112.6250     2.1820   -15.8940    56.8530     7.8900     7.1950     7.1680    23.5560 
  112.7500     2.1890   -15.9510    59.5040     7.9270     7.2080     7.1320    23.5870 
  112.8750     2.1930   -16.0030    60.7780     7.9780     7.2250     7.1070    23.6240 
  113.0000     2.1940   -16.0450    60.5560     8.0400     7.2480     7.0940    23.6690 
  113.1250     2.1890   -16.0570    58.9530     8.1120     7.2800     7.0800    23.7160 
  113.2500     2.1790   -16.0430    55.9620     8.1870     7.3190     7.0840    23.7420 
  113.3750     2.1680   -15.9980    53.3970     8.2560     7.3570     7.1070    23.7350 
  113.5000     2.1600   -15.9320    54.4740     8.3080     7.3900     7.1470    23.6990 
  113.6250     2.1600   -15.8370    58.7990     8.3300     7.4060     7.2180    23.6450 
  113.7500     2.1650   -15.7280    60.8980     8.3190     7.4010     7.2820    23.5970 
  113.8750     2.1700   -15.5970    59.6540     8.2820     7.3780     7.2880    23.5740 
  114.0000     2.1730   -15.4390    56.9600     8.2290     7.3420     7.2600    23.5680 
  114.1250     2.1730   -15.2710    57.0540     8.1800     7.3050     7.2550    23.5680 
  114.2500     2.1740   -15.0660    58.7520     8.1460     7.2780     7.2630    23.5680 
  114.3750     2.1760   -14.8420    59.9260     8.1310     7.2660     7.2850    23.5690 
  114.5000     2.1780   -14.5890    60.3240     8.1330     7.2680     7.3230    23.5710 
  114.6250     2.1770   -14.3190    60.0600     8.1430     7.2790     7.3820    23.5790 
  114.7500     2.1750   -13.9980    60.2430     8.1460     7.2840     7.4580    23.5930 
  114.8750     2.1750   -13.6610    59.3880     8.1270     7.2710     7.5520    23.6090 
  115.0000     2.1790   -13.3230    58.1370     8.0710     7.2260     7.6850    23.6250 
  115.1250     2.1890   -12.9860    59.6280     7.9660     7.1360     7.7490    23.6290 
  115.2500     2.2040   -12.6360    63.7620     7.8280     7.0140     7.7940    23.6260 
  115.3750     2.2220   -12.2750    67.5590     7.6780     6.8720     7.6710    23.6210 
  115.5000     2.2420   -11.9130    67.9550     7.5440     6.7340     7.1710    23.6190 
  115.6250     2.2620   -11.5620    67.8440     7.4710     6.6330     6.9650    23.6290 
  115.7500     2.2810   -11.2630    69.8120     7.4730     6.5890     6.9140    23.6410 
  115.8750     2.2960   -10.9950    74.2480     7.5520     6.6110     6.8560    23.6480 
  116.0000     2.3000   -10.7660    79.1580     7.6880     6.6920     6.8020    23.6490 
  116.1250     2.2890   -10.5740    78.7560     7.8380     6.8070     6.8560    23.6420 
  116.2500     2.2690   -10.4520    73.6040     7.9470     6.9100     7.0090    23.6200 
  116.3750     2.2510   -10.3710    69.1810     7.9860     6.9680     7.2180    23.5940 
  116.5000     2.2450   -10.3270    70.3470     7.9540     6.9720     7.3760    23.5650 
  116.6250     2.2540   -10.3310    77.0200     7.8930     6.9410     7.4340    23.5200 
  116.7500     2.2690   -10.3840    84.4590     7.8790     6.9300     7.7140    23.4870 
  116.8750     2.2780   -10.4790    88.4250     7.9620     6.9840     8.6070    23.5120 
  117.0000     2.2710   -10.6000    85.1960     8.1540     7.1200     9.9520    23.5960 
  117.1250     2.2510   -10.7920    77.1580     8.4200     7.3260    11.7230    23.6410 
  117.2500     2.2280   -11.0390    71.4050     8.6610     7.5360    12.7460    23.6060 
  117.3750     2.2090   -11.3790    67.8810     8.8050     7.6930    11.3600    23.5220 
  117.5000     2.1960   -11.8040    63.7670     8.8160     7.7610     9.1060    23.4610 
  117.6250     2.1850   -12.2910    59.0020     8.7010     7.7260     8.0220    23.4400 
  117.7500     2.1760   -12.7900    54.5700     8.5420     7.6380     7.7150    23.4310 
  117.8750     2.1690   -13.2790    51.5310     8.3980     7.5390     7.5120    23.4220 
  118.0000     2.1670   -13.7490    52.8300     8.3060     7.4620     7.3720    23.4150 
  118.1250     2.1720   -14.1680    58.3380     8.2790     7.4260     7.3100    23.4170 
  118.2500     2.1800   -14.5380    60.8700     8.2920     7.4180     7.3110    23.4270 
  118.3750     2.1850   -14.8170    58.9560     8.3280     7.4290     7.3380    23.4440 
  118.5000     2.1850   -15.0110    57.2720     8.3710     7.4470     7.3840    23.4620 
  118.6250     2.1790   -15.1110    58.2450     8.4100     7.4630     7.4140    23.4710 
  118.7500     2.1730   -15.1540    59.2150     8.4370     7.4690     7.4200    23.4660 
  118.8750     2.1700   -15.1560    59.5570     8.4460     7.4630     7.4050    23.4630 
  119.0000     2.1720   -15.1160    59.7520     8.4340     7.4430     7.3740    23.4900 
  119.1250     2.1740   -14.9890    59.0130     8.3910     7.4020     7.3360    23.5650 
  119.2500     2.1690   -14.8040    57.0930     8.3190     7.3410     7.2980    23.6710 
  119.3750     2.1560   -14.5680    54.3140     8.2230     7.2610     7.2640    23.7660 
  119.5000     2.1390   -14.2820    51.8840     8.1160     7.1730     7.2160    23.7900 
  119.6250     2.1290   -13.9400    51.1940     8.0250     7.0960     7.0900    23.6960 
  119.7500     2.1320   -13.5740    53.9580     7.9800     7.0530     6.9820    23.5160 
  119.8750     2.1450   -13.2030    58.1090     7.9980     7.0570     6.9300    23.3300 
  120.0000     2.1630   -12.8730    60.3280     8.0750     7.1100     6.9160    23.2380 
  120.1250     2.1830   -12.6500    59.4500     8.1700     7.1840     6.9230    23.2750 
  120.2500     2.2040   -12.5240    58.9030     8.2170     7.2250     6.9780    23.3850 
  120.3750     2.2310   -12.5170    60.6940     8.1650     7.1910     7.1220    23.5300 
  120.5000     2.2600   -12.6210    63.3900     7.9970     7.0610     7.3250    23.6850 
  120.6250     2.2740   -12.8710    64.5030     7.7300     6.8430     7.5490    23.8160 
  120.7500     2.2610   -13.1920    64.4440     7.4520     6.6030     7.5650    23.8840 
  120.8750     2.2230   -13.5680    63.4010     7.2310     6.3960     7.2300    23.8970 
  121.0000     2.1760   -13.9630    61.8500     7.1070     6.2620     6.8480    23.8760 
  121.1250     2.1480   -14.3570    59.1360     7.1010     6.2300     6.6770    23.8200 
  121.2500     2.1470   -14.7060    57.8170     7.1720     6.2770     6.6160    23.7230 
  121.3750     2.1680   -15.0020    58.5710     7.2950     6.3830     6.6280    23.6320 
  121.5000     2.1980   -15.2480    59.7390     7.4530     6.5290     6.6460    23.6110 
  121.6250     2.2170   -15.4460    59.3760     7.6350     6.6980     6.6500    23.6690 
  121.7500     2.2170   -15.6290    58.7030     7.8120     6.8630     6.6650    23.7520 
  121.8750     2.1980   -15.7920    58.8900     7.9460     6.9940     6.6900    23.8380 
  122.0000     2.1700   -15.9410    60.2730     8.0020     7.0620     6.7050    23.9130 
  122.1250     2.1440   -16.0560    60.8910     7.9490     7.0380     6.7280    23.9390 
  122.2500     2.1290   -16.1680    59.9650     7.8260     6.9460     6.7890    23.9290 
  122.3750     2.1280   -16.2870    59.1580     7.6790     6.8200     6.8100    23.9030 
