~V
VERS. 2.00: Ver 2.00
~W
STRT.M 50.0000:
STOP.M 294.0000:
STEP.M 0.1250:
NULL. -999.2500:
UWI. F10104:
~C
DEPT.M :
GR.API :
RML.OHMM :
RI. :
RXO.OHMM :
CALI.CM :
DEN.GM/CC :
SP.MV :
~A
# ...
   61.2500    78.4190     8.6020     7.2520     9.6080    24.0730     2.1390   -25.0390 
   61.3750    78.8230     8.7500     7.1400     9.6090    24.0720     2.1550   -24.9350 
   61.5000    81.6030     8.8600     7.1160     9.7790    24.0690     2.1680   -24.7320 
   61.6250    85.6990     9.0490     7.2680     9.8190    24.0680     2.1740   -24.4790 
   61.7500    87.1800     9.3770     7.6410     9.3190    24.0660     2.1730   -24.1840 
   61.8750    85.6280     9.9100     8.3130     8.8610    24.0640     2.1710   -23.8380 
   62.0000    83.0740    10.7320     9.3560     9.8190    24.0650     2.1760   -23.4770 
   62.1250    81.3120    11.8400    10.7060    13.9360    24.0680     2.2010   -23.1780 
   62.2500    82.5750    12.6880    11.7760    18.4610    24.0270     2.2430   -22.9890 
   62.3750    86.3550    12.5020    11.8500    15.5930    23.8610     2.2730   -22.9150 
   62.5000    88.6890    10.9990    10.6900    10.8450    23.5430     2.2560   -22.9290 
   62.6250    86.1920     8.9020     8.9310     9.3230    23.2770     2.2010   -23.0520 
   62.7500    83.1180     7.2010     7.5060     9.1600    23.1170     2.1580   -23.2940 
   62.8750    82.1660     6.1580     6.6960     9.2010    23.0480     2.1380   -23.6680 
   63.0000    81.6570     5.6980     6.4430     8.9730    23.0260     2.1290   -24.1280 
   63.1250    80.0220     5.7300     6.5330     9.0400    23.0370     2.1250   -24.5770 
   63.2500    78.8480     6.1390     6.6610     9.4370    23.0670     2.1240   -24.9830 
   63.3750    78.6220     6.8920     6.7520     9.8190    23.0960     2.1270   -25.3350 
   63.5000    79.3240     7.8740     6.8600     9.9360    23.1180     2.1330   -25.6310 
   63.6250    81.3250     8.9850     7.1100    10.2720    23.2250     2.1410   -25.8160 
   63.7500    83.3890    10.1900     7.5760    10.4160    23.5520     2.1520   -25.8790 
   63.8750    81.9860    11.5470     8.3370    11.2950    24.0100     2.1630   -25.7870 
   64.0000    77.4270    13.0640     9.4270    14.5830    24.2370     2.1750   -25.5660 
   64.1250    75.2780    14.3130    10.6280    24.6330    24.2330     2.1930   -25.2800 
   64.2500    77.4280    14.4470    11.2620    28.5590    24.1990     2.2060   -24.9320 
   64.3750    81.0710    13.0410    10.7750    18.9200    24.1810     2.1950   -24.5160 
   64.5000    85.0430    10.7850     9.2990    12.0560    24.1140     2.1550   -24.0670 
   64.6250    88.3420     8.9630     7.6560    10.3180    23.9420     2.1240   -23.7380 
   64.7500    88.8260     8.0280     6.5230     9.8230    23.7600     2.1230   -23.6070 
   64.8750    85.7680     7.9160     6.0380     9.6500    23.6850     2.1400   -23.6680 
   65.0000    81.4860     8.3850     6.0890     9.6970    23.6770     2.1520   -23.8370 
   65.1250    78.6720     9.1150     6.4460     9.8520    23.6750     2.1480   -24.0110 
   65.2500    77.5660     9.7360     6.8020    10.2090    23.6740     2.1400   -24.1580 
   65.3750    78.3460    10.0870     7.0350    10.5310    23.6740     2.1320   -24.3050 
   65.5000    80.6490    10.1490     7.1240    10.6530    23.6740     2.1240   -24.4430 
   65.6250    82.3780     9.9620     7.0920    10.4520    23.7000     2.1190   -24.4630 
   65.7500    83.5580     9.6610     7.0120    10.0930    23.7770     2.1230   -24.3130 
   65.8750    83.6450     9.3450     6.9250     9.9790    23.9080     2.1340   -24.0610 
   66.0000    82.2890     9.1030     6.8640    10.1280    24.0650     2.1470   -23.8410 
   66.1250    80.5020     9.0870     6.8680    10.1760    24.1810     2.1530   -23.7440 
   66.2500    80.4730     9.3250     6.9550    10.2080    24.2520     2.1510   -23.7680 
   66.3750    81.5070     9.8150     7.1420    10.1630    24.3180     2.1400   -23.9220 
   66.5000    79.8080    10.5250     7.4320    10.3060    24.4000     2.1220   -24.1780 
   66.6250    74.5160    11.2820     7.7950    10.6380    24.4250     2.1030   -24.4760 
   66.7500    70.9660    11.7010     8.0890    10.6060    24.0940     2.0930   -24.7750 
   66.8750    73.1570    11.4600     8.1530     9.8660    23.6860     2.0930   -25.0310 
   67.0000    78.5210    10.5640     7.9100     9.0750    23.3440     2.1000   -25.2180 
   67.1250    79.9900     9.4250     7.4310     8.7300    23.1620     2.1100   -25.2990 
   67.2500    76.9370     8.5780     6.9600     8.1860    23.0640     2.1210   -25.3350 
   67.3750    74.3860     8.2360     6.6400     7.7470    22.9740     2.1370   -25.3110 
   67.5000    74.8780     8.3640     6.5190     7.5960    22.8520     2.1530   -25.2260 
   67.6250    77.0900     8.7800     6.5760     7.6640    22.7510     2.1690   -25.1430 
   67.7500    79.5930     9.1720     6.6880     8.1110    22.7030     2.1800   -25.0900 
   67.8750    82.1280     9.4070     6.7870     8.7860    22.7040     2.1750   -25.0690 
   68.0000    82.7750     9.4850     6.8430     9.3540    22.8360     2.1530   -25.0390 
   68.1250    81.1220     9.5320     6.8540     9.6960    23.2110     2.1280   -25.0260 
   68.2500    80.6740     9.6560     6.8570     9.9990    23.7140     2.1130   -25.0000 
   68.3750    83.3520     9.8080     6.8760    10.3360    24.2020     2.1040   -25.0110 
   68.5000    87.7460     9.8680     6.9200    10.6360    24.7780     2.0950   -25.1020 
   68.6250    88.2040     9.7400     6.9800    10.7610    25.1330     2.0840   -25.2380 
   68.7500    82.5730     9.5430     7.0400    10.8700    25.1220     2.0730   -25.4230 
   68.8750    75.5080     9.4150     7.0870    10.9670    24.8100     2.0660   -25.6500 
   69.0000    73.1330     9.4110     7.1100    11.0880    24.3840     2.0630   -25.9280 
   69.1250    77.4310     9.5360     7.0920    11.0810    24.1770     2.0630   -26.2530 
   69.2500    82.5150     9.7290     7.0480    10.9600    24.1010     2.0640   -26.6000 
   69.3750    87.0430     9.9850     6.9960    10.6010    24.0820     2.0730   -26.9150 
   69.5000    90.1650    10.2470     6.9570     9.8130    24.0780     2.0950   -27.1990 
   69.6250    89.7900    10.3440     6.9330     9.1490    24.0880     2.1250   -27.4610 
   69.7500    86.9860    10.2480     6.9160     8.9180    24.1060     2.1460   -27.7100 
   69.8750    82.7580    10.0530     6.8970     8.6600    24.1230     2.1560   -27.9640 
   70.0000    76.8550     9.8990     6.8690     8.0890    24.1480     2.1580   -28.2270 
   70.1250    71.3870     9.8700     6.8210     7.9380    24.2110     2.1510   -28.4900 
   70.2500    69.3080     9.8670     6.7530     7.8800    24.2810     2.1390   -28.7500 
   70.3750    70.0870     9.8120     6.6740     7.7660    24.3230     2.1270   -28.9910 
   70.5000    70.5150     9.7180     6.6010     7.6260    24.3230     2.1170   -29.1750 
   70.6250    68.7490     9.7060     6.5560     7.5310    24.2930     2.1100   -29.2900 
   70.7500    66.4020     9.8540     6.5380     7.5240    24.2720     2.1060   -29.3320 
   70.8750    63.8050    10.1110     6.5320     7.5800    24.2650     2.1050   -29.3050 
   71.0000    62.5060    10.3420     6.5240     7.7010    24.2630     2.1060   -29.2070 
   71.1250    65.0510    10.3870     6.4980     7.8250    24.2390     2.0990   -29.0100 
   71.2500    69.3760    10.2310     6.4500     7.7470    24.1870     2.0850   -28.7570 
   71.3750    72.6010     9.9370     6.3870     7.5370    24.1320     2.0760   -28.5090 
   71.5000    73.3840     9.6400     6.3270     7.4340    24.0940     2.0840   -28.2940 
   71.6250    73.8990     9.4740     6.2990     7.4470    24.0630     2.1040   -28.1420 
   71.7500    75.2770     9.4360     6.3090     7.3350    24.0490     2.1190   -28.0480 
   71.8750    76.2270     9.4650     6.3430     7.1450    24.0450     2.1190   -27.9900 
   72.0000    76.6000     9.4640     6.3860     7.1080    24.0450     2.1040   -27.9480 
   72.1250    77.2320     9.3560     6.4340     7.3240    24.0450     2.0770   -27.9380 
   72.2500    78.1290     9.1860     6.4850     7.7350    24.0450     2.0550   -27.9610 
   72.3750    77.2320     9.0460     6.5250     8.0320    24.0450     2.0510   -27.9800 
