~V
VERS. 2.00: Ver 2.00
~W
STRT.M 50.0000:
STOP.M 294.0000:
STEP.M 0.1250:
NULL. -999.2500:
UWI. F10104:
~C
DEPT.M :
GR.API :
RML.OHMM :
RI. :
RXO.OHMM :
CALI.CM :
DEN.GM/CC :
SP.MV :
~A
   50.0000    49.7820     4.1280     0.0250     2.1560    25.4520     1.9350    72.2740 
   50.1250    48.8470     4.8710     0.0210     2.1450    25.4490     1.9490    71.7090 
   50.2500    48.0170     5.6120     0.0150     2.3510    25.4420     1.9630    71.2300 
   50.3750    47.3590     5.7230     0.0110     2.6110    25.4230     1.9800    70.8870 
   50.5000    46.5100     5.2030     0.0070     2.6470    25.4000     1.9990    70.7340 
   50.6250    45.4550     4.7360     0.0050     2.4930    25.3900     2.0200    70.7990 
   50.7500    44.9940     4.7830     0.0030     2.4690    25.3840     2.0390    71.0570 
   50.8750    46.4860     5.1260     0.0030     2.7000    25.3810     2.0530    71.4970 
   51.0000    49.5100     5.2530     0.0050     2.9520    25.3790     2.0630    72.1120 
   51.1250    51.0550     4.7690     0.0100     2.8480    25.3790     2.0650    72.9820 
   51.2500    49.6440     3.9510     0.0130     2.5170    25.3790     2.0580    74.1000 
   51.3750    47.4080     3.2400     0.0150     2.2910    25.3790     2.0490    75.3920 
   51.5000    46.8720     2.9160     0.0180     2.1970    25.3790     2.0450    76.7730 
   51.6250    47.5050     3.0000     0.0220     2.0710    25.3790     2.0510    78.1440 
   51.7500    47.9660     3.2040     0.0280     1.8470    25.3790     2.0620    79.3720 
   51.8750    50.3650     3.3440     0.0330     1.6970    25.3730     2.0760    80.3980 
   52.0000    54.4410     3.2650     0.0380     1.6800    25.3550     2.0900    81.2140 
   52.1250    56.6990     2.9350     0.0480     1.5580    25.3220     2.1070    81.8210 
   52.2500    55.3220     2.5960     0.0620     1.4400    25.2950     2.1250    82.2690 
   52.3750    51.3310     2.5740     0.0780     1.4620    25.2630     2.1370    82.5980 
   52.5000    47.8620     3.2140     0.0890     1.6150    25.2420     2.1380    82.8290 
   52.6250    47.0770     4.5590     0.0910     1.8260    25.2330     2.1260    83.0270 
   52.7500    46.7730     5.9380     0.0870     1.8240    25.2280     2.1110    83.3260 
   52.8750    45.6200     6.8550     0.0780     1.7170    25.2250     2.0960    83.7750 
   53.0000    44.2150     7.0130     0.0680     1.6700    25.2230     2.0820    84.3230 
   53.1250    45.1120     6.3420     0.0590     1.5800    25.2250     2.0650    84.8880 
   53.2500    47.7570     5.2790     0.0500     1.4430    25.2260     2.0510    85.4880 
   53.3750    48.7730     4.2470     0.0440     1.3600    25.2270     2.0390    86.1320 
   53.5000    47.9620     3.4220     0.0400     1.3590    25.2270     2.0290    86.8900 
   53.6250    48.1140     2.6700     0.0430     1.3900    25.2250     2.0230    87.8390 
   53.7500    50.7840     1.9380     0.0550     1.4560    25.2140     2.0260    88.9740 
   53.8750    54.3690     1.3340     0.0760     1.5380    25.1930     2.0390    90.3280 
   54.0000    57.7910     0.9830     0.1010     1.6170    25.1740     2.0540    91.9050 
   54.1250    60.1860     1.0140     0.1210     1.6420    25.1630     2.0610    93.5500 
   54.2500    59.8090     1.3860     0.1290     1.6500    25.1610     2.0580    94.9560 
   54.3750    57.2900     2.0450     0.1280     1.7450    25.1600     2.0540    95.9460 
   54.5000    55.4490     2.7420     0.1210     1.7190    25.1530     2.0580    96.4260 
   54.6250    55.4660     3.0020     0.1120     1.4890    25.1280     2.0710    96.2490 
   54.7500    55.5340     2.7950     0.1020     1.2680    25.0840     2.0750    95.4420 
   54.8750    56.0250     2.4420     0.0910     1.1230    25.0350     2.0660    94.0410 
   55.0000    58.2670     2.3740     0.0790     1.0300    24.9940     2.0460    92.2070 
   55.1250    61.6790     2.8890     0.0680     0.9970    24.9380     2.0160    90.2010 
   55.2500    63.0270     3.6620     0.0600     0.9750    24.8590     1.9730    88.4030 
   55.3750    61.1700     4.3240     0.0580     0.9850    24.7160     1.9120    87.0260 
   55.5000    59.7110     4.6830     0.0610     1.0070    24.5250     1.8320    86.1190 
   55.6250    60.9380     4.8340     0.0670     1.1000    24.2880     1.7370    85.7250 
   55.7500    63.5520     5.3660     0.0660     1.2380    24.0480     1.6590    85.7160 
   55.8750    65.7410     6.6510     0.0560     1.3920    23.8330     1.6200    85.9390 
   56.0000    65.8810     8.3660     0.0380     1.4930    23.6440     1.6270    86.1660 
   56.1250    64.3120     9.4250     0.0200     1.5610    23.4270     1.6830    85.9670 
   56.2500    64.6780     9.3810     0.0080     1.6220    23.1600     1.7740    84.8650 
   56.3750    68.6570     8.7860     0.0160     1.7470    22.8590     1.9000    82.3210 
   56.5000    71.5800     8.7340     0.1010     1.9660    22.5470     2.0540    77.8690 
   56.6250    69.8350    10.9270     0.4930     2.5380    22.3300     2.2050    70.8940 
   56.7500    69.9960    17.3760     1.7080     4.0180    22.3210     2.2980    62.1180 
   56.8750    75.2810    33.5450     5.4000     6.4850    22.4410     2.3100    52.1710 
   57.0000    81.3710    70.4400    15.6550     8.5090    22.5810     2.2630    41.5210 
   57.1250    80.9840    67.3160    34.3540     8.5370    22.7990     2.2040    30.6370 
   57.2500    77.4340    28.5590    36.1710     8.4410    23.5070     2.1620    20.1550 
   57.3750    75.9140    13.4810    23.6380     8.7750    24.6950     2.1360    10.6850 
   57.5000    77.6520     8.7900    14.4570     9.2740    25.1560     2.1190     2.7680 
   57.6250    79.6340     7.4070    10.2840     9.1450    25.6320     2.1040    -2.9710 
   57.7500    81.1260     6.9470     8.3740     8.7870    28.7330     2.0920    -7.1300 
   57.8750    81.9170     7.0180     7.7240     8.5030    32.1040     2.0880   -10.2720 
   58.0000    79.5680     7.5190     7.6260     8.3820    33.9330     2.0940   -12.7370 
   58.1250    73.6690     8.2110     7.6680     8.1620    33.6500     2.1030   -14.6100 
   58.2500    70.3400     8.4740     7.7230     8.0750    33.2330     2.1050   -16.0950 
   58.3750    72.4720     7.8960     7.7690     7.8240    33.0170     2.0990   -17.2960 
   58.5000    75.5220     6.5460     7.7940     7.5850    33.0000     2.0940   -18.2690 
   58.6250    75.3280     5.2370     7.7890     7.5910    32.8500     2.0950   -18.9300 
   58.7500    75.3040     4.8630     7.7510     7.7330    32.3000     2.1020   -19.2580 
   58.8750    77.5870     5.4200     7.6620     7.8400    31.9000     2.1100   -19.2210 
   59.0000    81.5130     6.2260     7.4890     7.7730    32.2670     2.1130   -18.8200 
   59.1250    86.5190     6.4940     7.1870     7.2920    32.2830     2.1120   -18.1230 
   59.2500    93.5710     6.3390     6.8030     6.6750    32.3330     2.1180   -17.3740 
   59.3750    99.9140     6.2300     6.4250     6.3250    32.4830     2.1350   -16.6620 
   59.5000   102.1640     6.4210     6.1630     6.4090    33.6000     2.1570   -16.0140 
   59.6250   102.0060     6.8100     6.1260     6.7970    34.0000     2.1740   -15.5010 
   59.7500   102.9720     7.1500     6.2810     6.9930    34.2670     2.1920   -15.2220 
   59.8750   103.0040     7.4240     6.6020     7.2800    34.2330     2.2140   -15.3320 
   60.0000   100.0440     7.9130     7.0910     8.1220    34.0000     2.2340   -15.9070 
   60.1250    94.7310     9.0000     7.8010     9.6530    33.9330     2.2300   -16.9630 
   60.2500    89.2590    10.3340     8.6040    11.2880    33.8330     2.2020   -18.2300 
   60.3750    83.2530    11.2070     9.2520    11.5200    33.6330     2.1620   -19.5560 
   60.5000    77.3740    11.0160     9.4590    10.9370    33.2670     2.1260   -20.8710 
   60.6250    75.1410     9.9150     9.0860    10.5130    27.9310     2.1040   -22.1180 
   60.7500    76.0940     8.8620     8.4940    10.5500    24.8450     2.0940   -23.2310 
   60.8750    77.8060     8.2430     7.9640    10.6860    24.0740     2.0960   -24.1100 
   61.0000    78.8110     8.1290     7.6140    10.4950    24.0740     2.1080   -24.7120 
   61.1250    78.6800     8.3640     7.4100     9.9630    24.0740     2.1240   -24.9880 
