~V
VERS. 2.00: Ver 2.00
~W
STRT.M 50.0000:
STOP.M 222.0000:
STEP.M 0.1250:
NULL. -999.2500:
UWI. F10145:
~C
DEPT.M :
DEN.GM/CC :
GR.API :
RML.OHMM :
RI. :
RXO.OHMM :
CALI.CM :
SP.MV :
~A
# ...
   83.7500     2.2820    83.4790     8.6830     6.4380     8.8470    20.5300    -9.0150 
   83.8750     2.3590    85.2370     9.1210     6.9260     9.5940    20.9510    -9.0670 
   84.0000     2.4080    91.5270     9.3530     7.2680     8.4300    21.3320    -9.1320 
   84.1250     2.4120    95.6610     9.3690     7.4230     8.3400    21.3280    -9.1540 
   84.2500     2.3810    93.5570     9.2390     7.4450     9.1540    20.9360    -9.1190 
   84.3750     2.3350    87.8160     8.9830     7.3570     8.6950    20.3020    -8.9960 
   84.5000     2.2910    82.3000     8.5990     7.1640     7.7590    19.8550    -8.7560 
   84.6250     2.2620    81.1370     8.0680     6.8370     7.6710    19.8670    -8.4090 
   84.7500     2.2450    86.4130     7.4550     6.4070     7.8420    20.2890    -7.9540 
   84.8750     2.2340    98.5080     6.8360     5.9210     6.9430    21.1700    -7.3730 
   85.0000     2.2290   112.9000     6.2990     5.4500     5.4520    22.4250    -6.6800 
   85.1250     2.2360   120.9620     5.9380     5.0820     4.7740    23.4210    -5.9310 
   85.2500     2.2540   120.3170     5.7490     4.8400     4.7770    23.8000    -5.2080 
   85.3750     2.2800   113.8040     5.7180     4.7320     5.0040    23.8490    -4.5570 
   85.5000     2.3040   110.6140     5.8140     4.7440     5.1990    23.8150    -4.0140 
   85.6250     2.3130   115.2420     5.9990     4.8550     5.2400    23.7620    -3.6160 
   85.7500     2.3020   119.8590     6.2070     5.0040     5.2730    23.6630    -3.4190 
   85.8750     2.2730   120.0860     6.3940     5.1500     5.3350    23.4630    -3.4590 
   86.0000     2.2370   117.6300     6.5350     5.2640     5.6060    23.0990    -3.6970 
   86.1250     2.2130   114.0740     6.6580     5.3450     6.0110    22.7380    -4.0510 
   86.2500     2.2100   108.6400     6.8670     5.4540     6.3110    22.6660    -4.4310 
   86.3750     2.2290   104.9930     7.2880     5.6740     6.3450    22.9210    -4.8210 
   86.5000     2.2600   105.2860     8.0120     6.0830     6.0740    23.2760    -5.3010 
   86.6250     2.2850   106.4590     9.0450     6.7310     6.2340    23.3580    -5.9890 
   86.7500     2.2920   106.0510    10.1010     7.4810     7.4000    22.9510    -6.7990 
   86.8750     2.2770   103.4840    10.8530     8.1390     9.4190    22.0220    -7.6680 
   87.0000     2.2430    98.9650    11.0360     8.4920     9.8510    21.0520    -8.5820 
   87.1250     2.1990    93.6110    10.5400     8.3750     8.3310    20.6870    -9.5230 
   87.2500     2.1560    90.4150     9.7520     7.9640     7.4530    20.7000   -10.4290 
   87.3750     2.1220    88.9130     9.0080     7.4680     7.2700    20.8290   -11.2710 
   87.5000     2.0990    87.6230     8.5300     7.0650     7.3820    20.9120   -11.9910 
   87.6250     2.0870    87.3170     8.4040     6.8690     7.5940    20.9080   -12.4940 
   87.7500     2.0810    88.2690     8.4720     6.8220     7.7750    20.9020   -12.8130 
   87.8750     2.0790    89.4800     8.6060     6.8530     7.9010    20.9220   -12.9420 
   88.0000     2.0790    90.5250     8.7130     6.8960     7.9220    20.9610   -12.8970 
   88.1250     2.0790    90.6420     8.7360     6.9040     7.8010    20.9500   -12.7450 
   88.2500     2.0810    90.3490     8.6860     6.8730     7.6340    20.8830   -12.5640 
   88.3750     2.0870    90.8220     8.5860     6.8110     7.4700    20.7760   -12.3730 
   88.5000     2.0970    91.8240     8.4620     6.7290     7.2870    20.6960   -12.1590 
   88.6250     2.1110    91.3610     8.3410     6.6360     7.3140    20.6370   -11.8930 
   88.7500     2.1270    90.7070     8.2400     6.5400     7.5030    20.5880   -11.5840 
   88.8750     2.1420    92.2130     8.1630     6.4440     7.5530    20.5600   -11.2650 
   89.0000     2.1550    94.8350     8.1130     6.3530     7.4430    20.6020   -10.9880 
   89.1250     2.1610    94.9690     8.0980     6.2800     7.3410    20.7130   -10.7680 
   89.2500     2.1570    91.8380     8.1150     6.2350     7.3990    20.8540   -10.5810 
   89.3750     2.1420    86.5250     8.1590     6.2260     7.4620    21.0330   -10.4130 
   89.5000     2.1210    83.6350     8.2170     6.2500     7.4730    21.1960   -10.2770 
   89.6250     2.1010    87.5080     8.2590     6.2950     7.6790    21.2700   -10.1960 
   89.7500     2.0860    92.6880     8.2600     6.3330     8.0790    21.2420   -10.1670 
   89.8750     2.0760    93.4040     8.2060     6.3430     8.3440    21.2230   -10.1960 
   90.0000     2.0670    92.1460     8.1030     6.3170     8.2560    21.2980   -10.2440 
   90.1250     2.0570    94.1190     7.9780     6.2590     7.8380    21.4020   -10.2360 
   90.2500     2.0460    95.5590     7.8720     6.1930     7.4310    21.4630   -10.1890 
   90.3750     2.0390    92.2250     7.8150     6.1410     7.2040    21.4880   -10.1180 
   90.5000     2.0350    86.6840     7.8120     6.1120     7.1750    21.5100   -10.0180 
   90.6250     2.0360    84.2350     7.8490     6.1130     7.2570    21.5370    -9.9060 
   90.7500     2.0400    84.7650     7.8910     6.1300     7.3450    21.5510    -9.8210 
   90.8750     2.0450    86.1920     7.9300     6.1570     7.3130    21.5480    -9.7880 
   91.0000     2.0490    88.1930     7.9790     6.1890     7.2180    21.5300    -9.7790 
   91.1250     2.0520    89.7760     8.0690     6.2350     7.2520    21.5080    -9.7880 
   91.2500     2.0550    90.5750     8.2050     6.3040     7.3730    21.5210    -9.8080 
   91.3750     2.0600    91.9950     8.3770     6.4030     7.4580    21.5450    -9.8460 
   91.5000     2.0710    93.1990     8.5640     6.5310     7.3750    21.5230    -9.9270 
   91.6250     2.0920    89.8370     8.7340     6.6780     7.4260    21.3340   -10.0860 
   91.7500     2.1160    85.2370     8.8690     6.8150     7.4900    21.0800   -10.2990 
   91.8750     2.1390    83.6280     8.9560     6.9190     7.4810    20.9430   -10.4980 
   92.0000     2.1550    85.4130     8.9860     6.9690     7.4500    20.9730   -10.6650 
   92.1250     2.1610    85.4200     8.9360     6.9440     7.5230    21.0320   -10.8380 
   92.2500     2.1570    83.9460     8.8090     6.8640     7.9100    21.0580   -11.0760 
   92.3750     2.1420    84.3150     8.6110     6.7480     9.0020    21.1420   -11.3470 
   92.5000     2.1200    88.0530     8.3760     6.6210    10.5260    21.3310   -11.5970 
   92.6250     2.0960    92.2320     8.1680     6.5090    10.2970    21.4900   -11.7530 
   92.7500     2.0790    92.5900     8.0300     6.4200     8.7800    21.5710   -11.8420 
   92.8750     2.0710    89.8730     7.9530     6.3490     8.2340    21.6240   -11.9020 
   93.0000     2.0680    88.0390     7.8950     6.2840     8.0720    21.6550   -11.9780 
   93.1250     2.0670    87.1660     7.8080     6.2140     7.9460    21.7030   -12.0720 
   93.2500     2.0620    86.5930     7.7080     6.1410     7.8190    21.8450   -12.1430 
   93.3750     2.0560    88.2950     7.6440     6.0810     7.6780    22.0190   -12.1900 
   93.5000     2.0530    92.6390     7.6680     6.0580     7.5370    22.1550   -12.2180 
   93.6250     2.0570    95.9130     7.8100     6.0960     7.4740    22.2360   -12.1970 
   93.7500     2.0650    96.0170     8.0100     6.1820     7.6050    22.2200   -12.1080 
   93.8750     2.0710    93.5520     8.2090     6.2910     7.9630    22.1880   -11.9900 
   94.0000     2.0740    89.4340     8.3470     6.3880     8.2490    22.1570   -11.8750 
   94.1250     2.0740    88.5070     8.3730     6.4350     8.2460    22.1820   -11.7840 
   94.2500     2.0740    91.3930     8.3100     6.4300     8.0450    22.3300   -11.6770 
   94.3750     2.0760    93.7820     8.1930     6.3890     7.8810    22.4720   -11.5370 
   94.5000     2.0780    92.3110     8.0690     6.3370     7.8760    22.5370   -11.3640 
   94.6250     2.0780    88.6220     7.9890     6.3040     7.9530    22.6220   -11.1910 
   94.7500     2.0780    86.0190     7.9700     6.3040     8.0540    22.7410   -11.0500 
   94.8750     2.0760    85.7750     8.0240     6.3430     8.1300    22.8040   -10.9430 
