~V
VERS. 2.00: Ver 2.00
~W
STRT.M 55.0000:
STOP.M 228.0000:
STEP.M 0.1250:
NULL. -999.2500:
UWI. F10142:
~C
DEPT.M :
DEN.GM/CC :
GR.API :
RML.OHMM :
RI. :
RXO.OHMM :
CALI.CM :
SP.MV :
~A
# ...
   66.2500     2.2840    96.1780     8.1600     6.0420     6.1020    24.6390   -12.0540 
   66.3750     2.2800    94.9030     8.3700     6.1430     6.1010    24.4620   -12.0070 
   66.5000     2.2740    96.5060     8.5650     6.2710     6.1070    24.3590   -11.9990 
   66.6250     2.2630    94.9820     8.6830     6.3800     6.1810    24.3590   -12.0480 
   66.7500     2.2500    87.7720     8.7190     6.4500     6.1490    24.3930   -12.1120 
   66.8750     2.2390    80.8160     8.7050     6.4880     6.1420    24.4470   -12.1950 
   67.0000     2.2400    78.7360     8.6950     6.5260     6.0980    24.5600   -12.2740 
   67.1250     2.2560    81.0760     8.7470     6.6050     6.1050    24.7210   -12.3370 
   67.2500     2.2800    84.4120     8.8690     6.7330     6.3110    24.8530   -12.4050 
   67.3750     2.3010    86.8240     9.0430     6.8970     7.1340    24.8870   -12.4920 
   67.5000     2.3130    86.8120     9.2190     7.0700     8.9620    24.7880   -12.6160 
   67.6250     2.3120    84.8270     9.3270     7.2050     8.5070    24.5380   -12.7560 
   67.7500     2.3040    83.8140     9.3460     7.2720     7.8950    24.3200   -12.9240 
   67.8750     2.2900    84.0350     9.2780     7.2530     8.3070    24.2380   -13.1190 
   68.0000     2.2700    83.6530     9.1350     7.1510     8.8360    24.2330   -13.3240 
   68.1250     2.2460    83.4660     8.9270     6.9760     7.6690    24.2450   -13.5480 
   68.2500     2.2220    84.4870     8.6910     6.7730     6.9990    24.2890   -13.7480 
   68.3750     2.2020    85.3950     8.4590     6.5750     6.7300    24.3610   -13.9210 
   68.5000     2.1900    85.7200     8.2650     6.4100     6.5230    24.4230   -14.0380 
   68.6250     2.1830    84.6340     8.1550     6.3070     6.3530    24.4460   -14.1360 
   68.7500     2.1780    81.8240     8.1250     6.2640     6.3540    24.4620   -14.2180 
   68.8750     2.1730    78.2830     8.1520     6.2730     6.4290    24.4760   -14.2780 
   69.0000     2.1660    77.8770     8.2000     6.3190     6.5590    24.4740   -14.3190 
   69.1250     2.1610    81.8400     8.2270     6.3810     6.6950    24.4600   -14.3460 
   69.2500     2.1620    85.6660     8.2060     6.4330     6.7820    24.4280   -14.3520 
   69.3750     2.1700    87.2150     8.1160     6.4560     6.7190    24.3660   -14.3490 
   69.5000     2.1810    86.2520     7.9630     6.4390     6.5390    24.2990   -14.3490 
   69.6250     2.1880    85.0270     7.7760     6.3850     6.5100    24.2770   -14.3260 
   69.7500     2.1860    85.0820     7.6040     6.3180     6.5750    24.2780   -14.2940 
   69.8750     2.1770    85.6650     7.4770     6.2530     6.6750    24.2780   -14.2350 
   70.0000     2.1650    85.6530     7.4030     6.1930     6.7660    24.2740   -14.1660 
   70.1250     2.1570    84.6020     7.3840     6.1390     6.7670    24.2750   -14.0760 
   70.2500     2.1560    84.5070     7.3910     6.0930     6.7280    24.2810   -13.9950 
   70.3750     2.1620    84.4160     7.4090     6.0600     6.6780    24.2770   -13.9050 
   70.5000     2.1710    83.1330     7.4330     6.0440     6.6610    24.2740   -13.7940 
   70.6250     2.1780    82.3910     7.4680     6.0480     6.6800    24.2890   -13.6520 
   70.7500     2.1790    82.5780     7.5120     6.0640     6.7020    24.3320   -13.4920 
   70.8750     2.1760    83.6480     7.5600     6.0780     6.7260    24.3970   -13.3270 
   71.0000     2.1720    84.8760     7.6020     6.0810     6.6880    24.4650   -13.1470 
   71.1250     2.1710    85.5640     7.6140     6.0640     6.4940    24.5810   -12.9530 
   71.2500     2.1720    85.8830     7.5850     6.0300     6.2530    24.7740   -12.7470 
   71.3750     2.1760    85.3570     7.5110     5.9800     6.1290    24.9770   -12.5550 
   71.5000     2.1800    84.5850     7.3970     5.9140     5.8730    25.0610   -12.3960 
   71.6250     2.1830    85.7910     7.2490     5.8310     5.8270    25.0270   -12.2960 
   71.7500     2.1840    88.1060     7.0920     5.7430     5.8000    24.9780   -12.2250 
   71.8750     2.1820    89.3940     6.9520     5.6690     5.7130    24.9440   -12.1870 
   72.0000     2.1760    87.7440     6.8680     5.6400     5.7020    24.9030   -12.1890 
   72.1250     2.1740    85.0990     6.9210     5.7110     5.7850    24.8550   -12.2310 
   72.2500     2.1850    82.9840     7.1460     5.9010     5.9610    24.7980   -12.2890 
   72.3750     2.2160    80.0890     7.5350     6.2010     6.3550    24.7570   -12.3380 
   72.5000     2.2630    78.3030     7.9950     6.5480     7.3060    24.7690   -12.3720 
   72.6250     2.3100    81.4130     8.3090     6.8010     9.2440    24.8740   -12.3430 
   72.7500     2.3380    88.6830     8.3070     6.8420    10.1980    25.0560   -12.2860 
   72.8750     2.3410    98.1340     7.9380     6.6240     7.6080    25.2220   -12.2120 
   73.0000     2.3270   107.2740     7.2990     6.1930     5.1770    25.2830   -12.1280 
   73.1250     2.3130   112.2760     6.6040     5.6670     4.2470    25.2690   -12.0530 
   73.2500     2.3070   114.2540     6.0390     5.1860     4.1910    25.2470   -11.9930 
   73.3750     2.3070   115.3870     5.6460     4.8100     4.2050    25.2340   -11.9570 
   73.5000     2.3050   116.3050     5.3900     4.5590     4.1300    25.2250   -11.9570 
   73.6250     2.3010   116.3110     5.2910     4.4760     4.2060    25.2260   -12.0530 
   73.7500     2.3090   113.8620     5.4710     4.6100     4.3860    25.2170   -12.2130 
   73.8750     2.3440   107.1040     6.2110     5.1100     4.7980    25.1740   -12.4240 
   74.0000     2.4120    95.5010     7.8860     6.2070     6.7720    25.1350   -12.6770 
   74.1250     2.5010    81.6390    11.0550     8.3340    16.2210    25.1280   -12.9680 
   74.2500     2.5740    69.4060    15.2430    11.3140    44.4120    25.1330   -13.3120 
   74.3750     2.6000    61.0910    19.1690    14.4240    72.9460    25.1080   -13.7010 
   74.5000     2.5670    58.2730    20.9890    16.4020    51.5430    25.0040   -14.1230 
   74.6250     2.4800    60.7570    19.1940    15.9100    25.2640    24.7540   -14.5420 
   74.7500     2.3780    62.9650    15.4400    13.6960    12.0870    24.4860   -14.9510 
   74.8750     2.2850    62.5310    11.6060    10.9460     7.6940    24.3220   -15.3460 
   75.0000     2.2130    61.5870     8.9020     8.6400     6.7020    24.2880   -15.7230 
   75.1250     2.1660    62.5650     7.6820     7.2510     6.6840    24.3490   -16.0580 
   75.2500     2.1350    63.2510     7.3140     6.5140     6.7150    24.4230   -16.3510 
   75.3750     2.1150    62.8300     7.4070     6.2180     6.7390    24.5100   -16.6030 
   75.5000     2.1020    63.2580     7.6590     6.1790     6.9390    24.6040   -16.8030 
   75.6250     2.0960    64.1100     7.8640     6.2600     7.1140    24.6280   -16.9570 
   75.7500     2.0930    63.0330     7.9770     6.3540     7.3120    24.6210   -17.0810 
   75.8750     2.0900    62.5140     8.0310     6.4340     7.4810    24.6530   -17.1810 
   76.0000     2.0870    64.7410     8.0630     6.4960     7.5210    24.6690   -17.2420 
   76.1250     2.0830    65.1550     8.0730     6.5290     7.3890    24.6410   -17.2740 
   76.2500     2.0830    61.3140     8.0480     6.5250     7.2640    24.5310   -17.2730 
   76.3750     2.0860    58.4990     7.9820     6.4720     7.2090    24.4130   -17.2480 
   76.5000     2.0930    60.8440     7.8820     6.3730     7.1480    24.2920   -17.2000 
   76.6250     2.1000    64.0280     7.7710     6.2450     7.0640    24.2270   -17.1370 
   76.7500     2.1070    63.6970     7.6800     6.1200     6.9900    24.2130   -17.0560 
   76.8750     2.1130    63.3230     7.6250     6.0170     6.9250    24.2720   -16.9480 
   77.0000     2.1190    66.7840     7.6100     5.9410     6.8700    24.3750   -16.8330 
   77.1250     2.1260    72.7550     7.6300     5.8880     6.7380    24.4450   -16.7140 
   77.2500     2.1340    74.6260     7.6650     5.8450     6.5190    24.4820   -16.6110 
   77.3750     2.1430    71.4740     7.7080     5.8120     6.3670    24.5130   -16.5210 
