~V
VERS. 2.00: Ver 2.00
~W
STRT.M 50.0000:
STOP.M 233.0000:
STEP.M 0.1250:
NULL. -999.2500:
UWI. F10166:
~C
DEPT.M :
SP.MV :
DEN.GM/CC :
GR.API :
RML.OHMM :
RI. :
RXO.OHMM :
CALI.CM :
~A
# ...
  106.2500   -19.4750     2.3030    73.7650    14.2720    10.6100    12.9280    24.7130 
  106.3750   -19.8630     2.4110    68.6680    16.3180    12.2130    18.8790    24.6560 
  106.5000   -20.3530     2.4470    62.3210    17.2850    13.2180    22.4430    24.5630 
  106.6250   -20.9200     2.3890    58.4900    16.4280    12.9470    19.0010    24.4630 
  106.7500   -21.5120     2.3010    59.8750    14.6080    11.8700    14.6160    24.3960 
  106.8750   -22.0700     2.2270    63.1920    12.7550    10.6050    12.1460    24.3700 
  107.0000   -22.5610     2.1820    64.6200    11.4510     9.5900    11.1830    24.3630 
  107.1250   -22.9230     2.1640    64.7260    10.8730     9.0210    10.6120    24.3610 
  107.2500   -23.1760     2.1510    65.0600    10.6750     8.7480    10.0520    24.3560 
  107.3750   -23.3210     2.1340    66.4520    10.6290     8.6430     9.8450    24.3340 
  107.5000   -23.3690     2.1180    69.8700    10.6030     8.6090     9.8860    24.2970 
  107.6250   -23.3230     2.1120    73.9460    10.5740     8.5980     9.8020    24.2600 
  107.7500   -23.2130     2.1180    75.1540    10.5710     8.6020     9.4980    24.2410 
  107.8750   -23.0660     2.1310    72.7690    10.6100     8.6270     9.1710    24.2340 
  108.0000   -22.8930     2.1450    69.7470    10.6830     8.6750     8.9750    24.2310 
  108.1250   -22.7730     2.1550    68.9740    10.7670     8.7350     9.0010    24.2310 
  108.2500   -22.7120     2.1590    68.7250    10.8330     8.7860     8.9180    24.2360 
  108.3750   -22.7380     2.1590    67.7170    10.8700     8.8120     8.5880    24.2400 
  108.5000   -22.8510     2.1560    66.8360    10.8820     8.8120     8.3440    24.2440 
  108.6250   -23.0560     2.1510    68.8070    10.8890     8.7980     8.4670    24.2660 
  108.7500   -23.3010     2.1460    71.0680    10.9150     8.7930     8.7410    24.3150 
  108.8750   -23.5510     2.1430    70.7110    10.9680     8.8070     8.9470    24.3760 
  109.0000   -23.7680     2.1460    68.7100    11.0360     8.8410     9.0530    24.4220 
  109.1250   -23.9420     2.1550    68.3770    11.0860     8.8730     9.1260    24.4380 
  109.2500   -24.0430     2.1660    68.7620    11.0930     8.8810     9.2510    24.4400 
  109.3750   -24.0870     2.1700    68.8090    11.0460     8.8540     9.6030    24.4370 
  109.5000   -24.0830     2.1650    68.2560    10.9610     8.7950    10.0740    24.4300 
  109.6250   -24.0420     2.1510    68.0560    10.8790     8.7300    10.2090    24.4230 
  109.7500   -24.0050     2.1390    69.0490    10.8370     8.6940     9.9880    24.4220 
  109.8750   -23.9770     2.1370    71.1770    10.8450     8.6990     9.7140    24.4250 
  110.0000   -23.9900     2.1430    72.3480    10.8910     8.7400     9.6250    24.4270 
  110.1250   -24.0170     2.1530    71.5050    10.9460     8.8000     9.6860    24.4260 
  110.2500   -24.0790     2.1600    70.6910    10.9860     8.8520     9.5240    24.4270 
  110.3750   -24.1670     2.1620    68.6450    11.0120     8.8890     9.1930    24.4310 
  110.5000   -24.2740     2.1600    64.3900    11.0330     8.9130     9.1140    24.4350 
  110.6250   -24.3660     2.1560    62.0180    11.0500     8.9250     9.5720    24.4460 
  110.7500   -24.4660     2.1500    63.6220    11.0360     8.9200    10.1130    24.4770 
  110.8750   -24.5500     2.1430    64.4840    10.9690     8.8910    10.3530    24.5370 
  111.0000   -24.6300     2.1380    61.8280    10.8490     8.8340    10.3430    24.6110 
  111.1250   -24.7030     2.1370    60.6050    10.7050     8.7540    10.2910    24.6670 
  111.2500   -24.7800     2.1390    63.8750    10.5870     8.6740    10.1890    24.6870 
  111.3750   -24.8460     2.1450    67.4180    10.5250     8.6160    10.1270    24.6710 
  111.5000   -24.9080     2.1510    68.8530    10.5230     8.5940    10.2590    24.6230 
  111.6250   -24.9490     2.1570    69.1100    10.5660     8.6060    10.5210    24.5610 
  111.7500   -24.9660     2.1610    68.3690    10.6150     8.6220    10.7150    24.5230 
  111.8750   -24.9580     2.1650    65.9720    10.6310     8.6110    10.8370    24.5220 
  112.0000   -24.9260     2.1690    62.4690    10.5800     8.5540    10.8780    24.5510 
  112.1250   -24.8660     2.1730    61.4050    10.4510     8.4490    10.6030    24.5810 
  112.2500   -24.7930     2.1790    62.9350    10.2960     8.3290     9.9590    24.6020 
  112.3750   -24.7180     2.1850    67.1080    10.1770     8.2310     9.4590    24.6140 
  112.5000   -24.6400     2.1880    72.4780    10.1480     8.1890     9.5630    24.6200 
  112.6250   -24.5920     2.1820    75.6400    10.2480     8.2370    10.2080    24.6170 
  112.7500   -24.5600     2.1680    75.0800    10.4240     8.3560    10.7410    24.6000 
  112.8750   -24.5450     2.1450    71.4720    10.6290     8.5220    10.9100    24.5620 
  113.0000   -24.5210     2.1190    67.7620    10.8310     8.7050    10.9120    24.5000 
  113.1250   -24.5020     2.0990    66.6460    11.0090     8.8820    10.9950    24.4220 
  113.2500   -24.4540     2.0910    66.7490    11.1660     9.0440    11.1770    24.3570 
  113.3750   -24.3930     2.0960    66.6770    11.3020     9.1810    11.3620    24.3220 
  113.5000   -24.3040     2.1100    65.7600    11.4020     9.2790    11.3920    24.3100 
  113.6250   -24.2120     2.1250    65.5450    11.4430     9.3120    11.3410    24.3120 
  113.7500   -24.0920     2.1320    66.4750    11.4450     9.2940    11.3390    24.3290 
  113.8750   -23.9630     2.1310    67.8760    11.4270     9.2490    11.3090    24.3630 
  114.0000   -23.8110     2.1310    67.7230    11.3920     9.1950    11.3340    24.3990 
  114.1250   -23.6250     2.1410    64.4910    11.3220     9.1330    11.7360    24.4040 
  114.2500   -23.3730     2.1650    62.8700    11.2010     9.0530    12.1410    24.3860 
  114.3750   -23.0460     2.1940    65.9800    11.0290     8.9430    11.6130    24.3730 
  114.5000   -22.6390     2.2180    72.3550    10.8530     8.8200    10.2640    24.3760 
  114.6250   -22.2370     2.2250    77.5500    10.7960     8.7470     9.3780    24.3860 
  114.7500   -21.8760     2.2220    82.2240    10.9180     8.7780     9.4100    24.3990 
  114.8750   -21.6200     2.2190    86.3990    11.2060     8.9270     9.9480    24.4150 
  115.0000   -21.4710     2.2160    86.1310    11.5630     9.1560    10.4920    24.4310 
  115.1250   -21.4750     2.2090    80.3240    11.8060     9.3660    10.7420    24.4420 
  115.2500   -21.5570     2.1920    74.3660    11.8290     9.4570    10.6020    24.4500 
  115.3750   -21.6770     2.1660    72.3080    11.6420     9.3890    10.2380    24.4570 
  115.5000   -21.7580     2.1410    73.6790    11.3310     9.1860     9.8430    24.4630 
  115.6250   -21.7130     2.1280    77.0560    10.9840     8.9020     9.3550    24.4480 
  115.7500   -21.5420     2.1260    81.4690    10.6510     8.6100     8.8580    24.3910 
  115.8750   -21.2670     2.1310    84.3190    10.3620     8.3520     8.5160    24.3090 
  116.0000   -20.9540     2.1360    84.5550    10.1380     8.1530     8.4060    24.2460 
  116.1250   -20.6670     2.1380    82.8820    10.0090     8.0330     8.4840    24.2300 
  116.2500   -20.4600     2.1390    81.3160     9.9620     7.9770     8.5680    24.2290 
  116.3750   -20.3600     2.1420    78.8200     9.9770     7.9740     8.4810    24.2360 
  116.5000   -20.3800     2.1460    75.8000    10.0310     8.0130     8.2570    24.2570 
  116.6250   -20.5260     2.1470    75.0360    10.1270     8.1040     8.3720    24.2880 
  116.7500   -20.7600     2.1430    75.9290    10.2570     8.2410     8.8550    24.3070 
  116.8750   -21.0130     2.1360    76.3920    10.4070     8.4100     9.3680    24.3100 
  117.0000   -21.2190     2.1260    75.3940    10.5700     8.5950     9.6420    24.3090 
  117.1250   -21.2800     2.1100    75.0640    10.8110     8.8140     9.7440    24.3080 
  117.2500   -21.1640     2.0890    74.7560    11.1890     9.1090     9.7820    24.3090 
  117.3750   -20.8310     2.0780    73.3180    11.7070     9.4990     9.9180    24.3240 
