~V
VERS. 2.00: Ver 2.00
~W
STRT.M 52.0000:
STOP.M 236.0000:
STEP.M 0.1250:
NULL. -999.2500:
UWI. F10181:
~C
DEPT.M :
GR.API :
RML.OHMM :
RI. :
RXO.OHMM :
CALI.CM :
DEN.GM/CC :
SP.MV :
~A
# ...
  108.2500    61.0420     8.3760     7.1930     8.0290    21.1900     2.1720    -8.0880 
  108.3750    62.5820     8.3770     7.1700     8.3510    21.0590     2.1690    -8.1340 
  108.5000    65.2000     8.4720     7.2300     8.5140    20.9880     2.1670    -8.1850 
  108.6250    64.1110     8.7160     7.4130     8.7560    21.1310     2.1640    -8.2450 
  108.7500    61.7590     9.0580     7.6820     9.8890    21.5170     2.1600    -8.2860 
  108.8750    61.3580     9.4080     7.9710    12.7070    22.0290     2.1540    -8.3090 
  109.0000    62.9430     9.6500     8.1930    17.6100    22.4700     2.1450    -8.3130 
  109.1250    64.9530     9.6540     8.2380    25.8030    22.6500     2.1350    -8.2980 
  109.2500    66.2390     9.4510     8.1090    25.9870    22.6620     2.1260    -8.2730 
  109.3750    66.3290     9.1260     7.8500    16.9650    22.6010     2.1200    -8.2580 
  109.5000    64.8710     8.7900     7.5390    10.1010    22.5410     2.1170    -8.2520 
  109.6250    62.5360     8.5380     7.2580     8.4740    22.5190     2.1170    -8.2330 
  109.7500    61.7890     8.3720     7.0390     8.1600    22.4740     2.1210    -8.2270 
  109.8750    64.6620     8.2610     6.8810     7.9460    22.3970     2.1260    -8.2120 
  110.0000    68.9070     8.1730     6.7690     7.3970    22.3620     2.1300    -8.1840 
  110.1250    69.6920     8.0970     6.6940     6.9010    22.3760     2.1340    -8.1260 
  110.2500    68.8810     8.0390     6.6430     6.6400    22.4140     2.1390    -8.0440 
  110.3750    70.2820     7.9990     6.6140     6.5600    22.4450     2.1440    -7.9520 
  110.5000    73.0900     7.9670     6.6000     6.5490    22.4590     2.1520    -7.8360 
  110.6250    73.0980     7.9150     6.5880     6.5350    22.4600     2.1600    -7.7030 
  110.7500    70.3040     7.8320     6.5630     6.4780    22.4850     2.1680    -7.5520 
  110.8750    67.2030     7.7190     6.5210     6.5140    22.5390     2.1740    -7.3960 
  111.0000    65.3710     7.5890     6.4640     6.6490    22.6070     2.1770    -7.2250 
  111.1250    65.8340     7.4590     6.4020     6.6880    22.6670     2.1760    -7.0780 
  111.2500    67.6790     7.3480     6.3490     6.7100    22.6940     2.1710    -6.9410 
  111.3750    68.4300     7.2780     6.3230     6.7990    22.6880     2.1640    -6.7580 
  111.5000    65.2380     7.2720     6.3420     6.9120    22.6710     2.1580    -6.5350 
  111.6250    59.6810     7.3550     6.4230     6.8610    22.7030     2.1600    -6.2860 
  111.7500    57.4730     7.4770     6.5310     6.7450    22.7470     2.1720    -6.0040 
  111.8750    60.1740     7.5590     6.6080     6.7280    22.7900     2.1930    -5.7030 
  112.0000    65.7100     7.5060     6.5800     6.9570    22.8250     2.2190    -5.3990 
  112.1250    70.5090     7.2150     6.3590     7.3680    22.9080     2.2430    -5.0850 
  112.2500    74.4560     6.7390     5.9790     7.5430    23.1260     2.2620    -4.7700 
  112.3750    79.4570     6.1760     5.5090     7.0800    23.4980     2.2760    -4.5150 
  112.5000    86.3750     5.6560     5.0500     5.9490    23.9160     2.2910    -4.3430 
  112.6250    93.0630     5.3270     4.7190     5.2670    24.1720     2.3090    -4.2660 
  112.7500    96.1830     5.2120     4.5520     5.1290    24.3100     2.3280    -4.2630 
  112.8750    95.2960     5.3060     4.5550     5.4400    24.3620     2.3450    -4.3200 
  113.0000    90.8020     5.5680     4.7120     5.7920    24.3640     2.3550    -4.4710 
  113.1250    86.2460     5.9410     4.9940     5.8720    24.2670     2.3540    -4.7100 
  113.2500    83.3980     6.3360     5.3290     5.8600    23.9830     2.3400    -4.9950 
  113.3750    79.3240     6.7000     5.6710     6.1120    23.5520     2.3120    -5.2850 
  113.5000    72.3050     7.0030     5.9880     6.6670    23.2510     2.2750    -5.5440 
  113.6250    65.9630     7.2290     6.2480     6.9550    23.1510     2.2430    -5.7520 
  113.7500    62.2820     7.3950     6.4530     7.0420    23.1100     2.2240    -5.9100 
  113.8750    59.6890     7.5000     6.6030     7.0430    23.0540     2.2190    -6.0090 
  114.0000    57.8790     7.5400     6.6960     7.0800    22.9770     2.2230    -6.0320 
  114.1250    57.3150     7.5030     6.7260     7.2550    22.9130     2.2230    -5.9790 
  114.2500    55.9270     7.4280     6.7160     7.3200    22.8930     2.2120    -5.8700 
  114.3750    54.7130     7.3620     6.6940     7.1930    22.9000     2.1950    -5.7160 
  114.5000    55.5790     7.3500     6.6940     7.0300    22.9310     2.1810    -5.5190 
  114.6250    57.9920     7.4110     6.7340     7.0070    22.9670     2.1870    -5.2690 
  114.7500    59.9330     7.4820     6.7820     6.9540    23.0030     2.2150    -4.9760 
  114.8750    61.3400     7.4890     6.7860     6.8760    23.0560     2.2610    -4.6550 
  115.0000    63.9860     7.3660     6.6920     6.8670    23.2040     2.3120    -4.3160 
  115.1250    71.0410     7.0550     6.4380     6.7370    23.5030     2.3460    -3.9800 
  115.2500    79.7890     6.6050     6.0540     6.3890    23.7370     2.3580    -3.6780 
  115.3750    86.6130     6.0720     5.5820     5.9970    23.7120     2.3510    -3.4080 
  115.5000    90.0380     5.5290     5.0870     5.7430    23.4980     2.3390    -3.1810 
  115.6250    90.8700     5.0900     4.6640     5.4740    23.5570     2.3340    -2.9940 
  115.7500    89.7240     4.8580     4.3980     5.0460    23.9340     2.3350    -2.8810 
  115.8750    86.1600     4.9240     4.3620     4.6370    24.2360     2.3370    -2.8600 
  116.0000    80.4220     5.3610     4.6030     4.6380    24.3120     2.3320    -2.9360 
  116.1250    74.3490     6.1820     5.1660     5.2670    24.1390     2.3140    -3.0960 
  116.2500    70.8300     7.2050     5.9340     6.5080    23.8200     2.2860    -3.3020 
  116.3750    70.3180     8.2360     6.7730     8.3960    23.4170     2.2550    -3.5540 
  116.5000    68.4620     8.9600     7.5120    10.1980    23.0880     2.2260    -3.8140 
  116.6250    64.5300     9.2070     7.9440     9.0560    22.9340     2.2050    -4.0970 
  116.7500    63.4250     9.1080     8.0730     8.2350    22.8910     2.1920    -4.3610 
  116.8750    65.4480     8.8410     7.9950     7.8620    22.8820     2.1860    -4.5830 
  117.0000    66.8630     8.6160     7.8680     7.7810    22.8730     2.1880    -4.7420 
  117.1250    64.7900     8.6360     7.8670     7.7700    22.8530     2.1970    -4.8420 
  117.2500    62.6860     8.9080     8.0430     7.7870    22.8270     2.2110    -4.8880 
  117.3750    61.1530     9.3770     8.3810     7.8870    22.8340     2.2230    -4.8790 
  117.5000    59.4450     9.9290     8.8120     8.2180    22.8900     2.2300    -4.8510 
  117.6250    58.8650    10.3950     9.2170     8.8300    22.9850     2.2260    -4.8110 
  117.7500    61.5260    10.6540     9.4900     9.8350    23.0050     2.2160    -4.7560 
  117.8750    64.6800    10.6650     9.5820    11.1150    23.0040     2.2030    -4.6830 
  118.0000    65.0390    10.4800     9.5170    11.9510    23.0060     2.1940    -4.5820 
  118.1250    63.6660    10.2170     9.3690    10.1330    23.0090     2.1910    -4.4600 
  118.2500    64.1020    10.0050     9.2400     8.9460    22.9830     2.1940    -4.3350 
  118.3750    64.1180     9.8810     9.1650     8.7730    22.9300     2.2010    -4.2190 
  118.5000    61.3550     9.8150     9.1300     9.4040    22.8840     2.2070    -4.1120 
  118.6250    57.8970     9.7340     9.0790     9.9450    22.8420     2.2090    -4.0160 
  118.7500    56.2210     9.5900     8.9670     9.4730    22.7940     2.2060    -3.9380 
  118.8750    57.1290     9.3810     8.7840     8.4220    22.7600     2.2000    -3.8960 
  119.0000    60.2140     9.1440     8.5510     7.8080    22.7520     2.1920    -3.8670 
  119.1250    63.6840     8.9280     8.3060     7.5820    22.7700     2.1870    -3.8380 
  119.2500    64.8310     8.7560     8.0790     7.4900    22.7970     2.1830    -3.8120 
  119.3750    62.7700     8.6170     7.8750     7.5300    22.8090     2.1800    -3.8130 
