~V
VERS. 2.00: Ver 2.00
~W
STRT.M 64.0000:
STOP.M 235.0000:
STEP.M 0.1250:
NULL. -999.2500:
UWI. F10178:
~C
DEPT.M :
GR.API :
RML.OHMM :
RI. :
RXO.OHMM :
CALI.CM :
DEN.GM/CC :
SP.MV :
~A
# ...
   86.5000    79.1590     7.7040     6.3100     7.2560    23.6300     2.1730   -18.3730 
   86.6250    81.0180     7.7190     6.2040     6.7110    23.4550     2.1580   -18.3480 
   86.7500    78.2950     7.9530     6.2900     6.5440    23.3800     2.1520   -18.4890 
   86.8750    73.0750     8.3420     6.5270     7.0690    23.2940     2.1540   -18.7500 
   87.0000    70.5070     8.7930     6.8490     7.7630    23.6300     2.1560   -19.1170 
   87.1250    70.0970     9.2170     7.1860     8.1170    24.2210     2.1560   -19.5830 
   87.2500    67.8790     9.5750     7.4870     8.2930    24.4870     2.1560   -20.0300 
   87.3750    65.2120     9.8620     7.7270     8.3490    23.9130     2.1640   -20.4000 
   87.5000    65.2480    10.0790     7.8950     8.5480    23.4650     2.1830   -20.7190 
   87.6250    69.2860    10.2080     7.9740     9.3990    23.4300     2.2090   -20.9670 
   87.7500    71.7290    10.2500     7.9780    10.3770    23.4220     2.2320   -21.1320 
   87.8750    70.6620    10.2100     7.9180     9.9870    23.4300     2.2430   -21.2730 
   88.0000    69.0820    10.1160     7.8160     9.0810    23.3810     2.2400   -21.4110 
   88.1250    70.0050    10.0110     7.7020     8.6510    23.3080     2.2270   -21.5340 
   88.2500    70.9550     9.9280     7.6030     8.6090    23.2710     2.2110   -21.7350 
   88.3750    69.9110     9.8750     7.5360     8.5870    23.2640     2.1970   -21.9880 
   88.5000    68.2330     9.8420     7.5100     8.7220    23.2640     2.1870   -22.2250 
   88.6250    66.3700     9.8190     7.5300     8.8380    23.2550     2.1830   -22.4590 
   88.7500    65.3880     9.8020     7.5730     8.7750    23.2420     2.1830   -22.6960 
   88.8750    66.5890     9.7990     7.6290     8.5560    23.2370     2.1850   -22.9330 
   89.0000    68.2160     9.8190     7.6960     8.4050    23.2260     2.1850   -23.1670 
   89.1250    70.2200     9.8670     7.7820     8.1970    23.2070     2.1810   -23.2610 
   89.2500    71.2940     9.9080     7.8790     8.0820    23.1890     2.1730   -23.1570 
   89.3750    69.2840     9.8840     7.9510     8.0030    23.1730     2.1660   -22.8510 
   89.5000    64.4920     9.7240     7.9310     7.9480    23.1700     2.1650   -22.2890 
   89.6250    61.7620     9.3530     7.7230     8.0840    23.2000     2.1810   -21.4090 
   89.7500    65.9800     8.8360     7.3620     7.9810    23.2530     2.2130   -20.3090 
   89.8750    75.6230     8.2760     6.9350     7.5770    23.3810     2.2520   -19.0440 
   90.0000    85.2300     7.7940     6.5510     6.6520    23.6020     2.2830   -17.7320 
   90.1250    89.8810     7.5110     6.3180     6.1240    23.9180     2.2920   -16.5240 
   90.2500    88.7560     7.3970     6.2180     6.1980    23.9600     2.2820   -15.3770 
   90.3750    85.3890     7.3780     6.1910     6.7030    23.8750     2.2640   -14.2060 
   90.5000    82.2630     7.3530     6.1530     6.8190    23.8300     2.2500   -13.1180 
   90.6250    81.1800     7.2210     6.0250     6.2160    23.9100     2.2510   -12.2580 
   90.7500    83.2180     6.9830     5.8200     5.5660    24.0820     2.2640   -11.5350 
   90.8750    87.4070     6.6830     5.5750     5.0260    24.3100     2.2860   -10.8610 
   91.0000    91.9500     6.3910     5.3380     4.8720    24.5110     2.3040   -10.2340 
   91.1250    94.6800     6.1980     5.1650     5.0190    24.5390     2.3030    -9.5960 
   91.2500    94.2410     6.1280     5.0770     5.0300    24.4210     2.2840    -8.9840 
   91.3750    89.9610     6.1750     5.0700     4.9960    24.3290     2.2610    -8.5550 
   91.5000    84.2070     6.3040     5.1200     4.9460    24.2150     2.2530    -8.3370 
   91.6250    83.0530     6.4640     5.1940     5.2930    24.0930     2.2740    -8.3320 
   91.7500    86.8180     6.6090     5.2580     6.0880    24.0370     2.3090    -8.5550 
   91.8750    90.6460     6.7390     5.3090     6.0800    24.0680     2.3360    -9.0130 
   92.0000    91.4530     6.8860     5.3800     5.5760    24.0420     2.3400    -9.6770 
   92.1250    89.7870     7.1170     5.5460     5.6000    23.8050     2.3210   -10.5660 
   92.2500    86.9660     7.4470     5.8300     6.1760    23.5370     2.2950   -11.5860 
   92.3750    80.8910     7.8490     6.2230     6.6850    23.4830     2.2710   -12.6790 
   92.5000    73.6470     8.2520     6.6680     6.8650    23.7510     2.2520   -13.7650 
   92.6250    71.1330     8.5490     7.0440     6.8990    23.8200     2.2340   -14.7630 
   92.7500    73.4730     8.7080     7.2750     6.9190    23.6940     2.2170   -15.6330 
   92.8750    76.9960     8.7580     7.3620     6.9860    23.6510     2.2000   -16.3540 
   93.0000    78.6480     8.7680     7.3660     7.0840    23.6860     2.1880   -16.9180 
   93.1250    78.6510     8.8220     7.3580     7.2560    23.6740     2.1840   -17.2980 
   93.2500    77.6630     8.9480     7.3800     7.3640    23.6060     2.1870   -17.5980 
   93.3750    75.9230     9.1290     7.4320     7.4070    23.5050     2.1930   -17.7820 
   93.5000    74.2700     9.3150     7.4880     7.4460    23.4060     2.1990   -17.8220 
   93.6250    73.2370     9.4250     7.5020     7.2270    23.4160     2.2020   -17.7100 
   93.7500    76.5900     9.4200     7.4460     7.0330    23.5000     2.2070   -17.5050 
   93.8750    82.6930     9.3010     7.3130     7.0130    23.6320     2.2170   -17.1800 
   94.0000    85.9650     9.1210     7.1350     7.1500    23.7440     2.2310   -16.7260 
   94.1250    84.8070     8.9940     6.9820     7.0650    23.7130     2.2430   -16.2700 
   94.2500    84.0470     9.0130     6.9250     6.7400    23.6300     2.2440   -15.8320 
   94.3750    84.3210     9.2170     7.0090     6.4240    23.5670     2.2310   -15.5290 
   94.5000    82.3230     9.5830     7.2390     6.4710    23.5000     2.2100   -15.4510 
   94.6250    78.0210    10.0190     7.5770     6.9030    23.4140     2.1890   -15.5890 
   94.7500    77.4550    10.3810     7.9060     7.4990    23.3810     2.1760   -15.8710 
   94.8750    80.2620    10.5840     8.1360     7.8310    23.3920     2.1700   -16.2390 
   95.0000    82.3580    10.6040     8.2220     7.8510    23.4080     2.1690   -16.6240 
   95.1250    80.4190    10.4780     8.1670     7.8430    23.4220     2.1680   -17.0030 
   95.2500    76.6700    10.3290     8.0730     7.9910    23.4220     2.1660   -17.3250 
   95.3750    74.8170    10.2390     8.0160     8.1840    23.3800     2.1660   -17.4980 
   95.5000    75.1720    10.2570     8.0340     8.1960    23.3050     2.1730   -17.5020 
   95.6250    75.8260    10.4020     8.1420     8.0990    23.2790     2.1910   -17.3940 
   95.7500    75.9620    10.6100     8.3010     8.1680    23.3010     2.2120   -17.2770 
   95.8750    75.6150    10.8130     8.4690     8.2950    23.3620     2.2280   -17.1890 
   96.0000    76.0160    10.9390     8.5910     8.3160    23.4600     2.2300   -17.1490 
   96.1250    76.3480    10.9210     8.6020     8.1370    23.5550     2.2170   -17.0450 
   96.2500    75.1020    10.7750     8.4980     8.0960    23.6250     2.2000   -16.9340 
   96.3750    72.5530    10.5230     8.2950     7.9910    23.6890     2.1870   -16.8820 
   96.5000    69.4530    10.1900     8.0190     7.7420    23.7330     2.1800   -16.8160 
   96.6250    68.9030     9.7920     7.6940     7.5090    23.7310     2.1820   -16.6520 
   96.7500    70.8570     9.3730     7.3580     7.6290    23.6910     2.1890   -16.4060 
   96.8750    75.2720     8.9880     7.0510     7.6780    23.6580     2.1980   -16.1690 
   97.0000    80.0000     8.7110     6.8260     7.5210    23.6530     2.2080   -15.9380 
   97.1250    81.7540     8.6500     6.7580     7.2020    23.6630     2.2130   -15.7740 
   97.2500    81.4040     8.8100     6.8550     6.9410    23.6620     2.2110   -15.6560 
   97.3750    78.7710     9.1610     7.1120     7.3150    23.6280     2.2040   -15.5180 
   97.5000    74.4990     9.5990     7.4820     7.8550    23.5720     2.1940   -15.3740 
   97.6250    71.7410     9.9180     7.8250     7.9570    23.5240     2.1900   -15.1900 
