~V
VERS. 2.00: Ver 2.00
~W
STRT.M 55.0000:
STOP.M 228.0000:
STEP.M 0.1250:
NULL. -999.2500:
UWI. F10142:
~C
DEPT.M :
DEN.GM/CC :
GR.API :
RML.OHMM :
RI. :
RXO.OHMM :
CALI.CM :
SP.MV :
~A
# ...
   88.7500     2.2040    96.1690     8.1580     6.1210     6.2610    24.7120   -12.0180 
   88.8750     2.1890    93.5750     8.2630     6.2140     6.7260    24.7310   -12.1200 
   89.0000     2.1800    90.7120     8.3410     6.2810     6.8790    24.7290   -12.2070 
   89.1250     2.1790    89.8620     8.3500     6.2990     6.5960    24.7580   -12.2860 
   89.2500     2.1850    91.2400     8.2950     6.2790     6.2990    24.8360   -12.3720 
   89.3750     2.1940    93.7270     8.2020     6.2340     6.2460    24.8760   -12.4440 
   89.5000     2.2000    95.1720     8.1130     6.1860     6.5500    24.7760   -12.5120 
   89.6250     2.2050    94.6670     8.1120     6.1910     7.1330    24.6310   -12.5560 
   89.7500     2.2180    92.9380     8.2710     6.3020     7.3530    24.6650   -12.5920 
   89.8750     2.2470    91.3140     8.6470     6.5580     7.3760    24.8520   -12.6130 
   90.0000     2.2850    90.0410     9.2290     6.9600     8.4000    25.0770   -12.6460 
   90.1250     2.3110    87.3440     9.8790     7.4280    12.5180    25.2440   -12.6940 
   90.2500     2.3080    83.7410    10.3310     7.7910    16.7110    25.2690   -12.7590 
   90.3750     2.2770    83.2420    10.3730     7.9060    14.3900    25.1920   -12.8430 
   90.5000     2.2370    88.1680     9.9500     7.7170     9.2260    25.0580   -12.9270 
   90.6250     2.2130    94.1560     9.2230     7.2810     6.9250    24.8920   -13.0400 
   90.7500     2.2080    94.3730     8.5750     6.8280     6.5140    24.7230   -13.1900 
   90.8750     2.2120    90.5710     8.2360     6.5180     6.3930    24.6430   -13.3710 
   91.0000     2.2080    88.6920     8.2860     6.4380     6.0730    24.6980   -13.5740 
   91.1250     2.1900    90.3220     8.6840     6.6200     6.3170    24.7630   -13.7970 
   91.2500     2.1670    88.6940     9.1810     6.9320     6.8560    24.7680   -14.0200 
   91.3750     2.1480    83.6030     9.6000     7.2620     7.6560    24.7400   -14.2330 
   91.5000     2.1390    79.0080     9.8270     7.5110     8.4000    24.7430   -14.4530 
   91.6250     2.1400    77.3610     9.8250     7.6110     8.8300    24.7360   -14.6260 
   91.7500     2.1460    76.1090     9.7040     7.6050     8.9950    24.7300   -14.7460 
   91.8750     2.1560    75.3280     9.5420     7.5390     9.0950    24.7310   -14.8390 
   92.0000     2.1700    75.8900     9.3760     7.4500     9.2020    24.7350   -14.8990 
   92.1250     2.1870    75.8910     9.2000     7.3450     9.0610    24.7010   -14.9120 
   92.2500     2.2010    75.1400     8.9930     7.2130     8.7180    24.6430   -14.8830 
   92.3750     2.2060    75.1110     8.7580     7.0520     7.9520    24.6210   -14.8360 
   92.5000     2.2010    76.1690     8.5360     6.8800     6.9780    24.6970   -14.7770 
   92.6250     2.1860    77.0650     8.3950     6.7360     6.4040    24.8630   -14.7510 
   92.7500     2.1700    77.7970     8.3470     6.6430     6.8550    24.9540   -14.7520 
   92.8750     2.1610    78.7580     8.3680     6.6070     7.4620    24.8870   -14.7770 
   93.0000     2.1590    78.9180     8.4150     6.6180     7.7700    24.7920   -14.8070 
   93.1250     2.1630    76.5690     8.4470     6.6560     7.6160    24.7470   -14.8540 
   93.2500     2.1670    73.4680     8.4520     6.6940     7.3660    24.7260   -14.9110 
   93.3750     2.1690    70.1940     8.4390     6.7190     7.2090    24.7120   -14.9810 
   93.5000     2.1680    67.2750     8.4230     6.7290     7.3330    24.7040   -15.0390 
   93.6250     2.1660    66.3210     8.4220     6.7280     7.6100    24.7160   -15.0770 
   93.7500     2.1650    68.4890     8.4390     6.7270     7.7330    24.7150   -15.1060 
   93.8750     2.1640    71.3010     8.4770     6.7300     7.6590    24.7220   -15.1210 
   94.0000     2.1610    71.8370     8.5360     6.7460     7.7080    24.7460   -15.1370 
   94.1250     2.1580    70.9580     8.6180     6.7920     8.0860    24.7630   -15.1410 
   94.2500     2.1570    70.5360     8.7150     6.8730     8.2330    24.7690   -15.1610 
   94.3750     2.1590    70.2540     8.8210     6.9870     8.2230    24.7800   -15.1670 
   94.5000     2.1650    69.4740     8.9350     7.1170     8.4130    24.8030   -15.1860 
   94.6250     2.1720    67.8080     9.0520     7.2440     8.6740    24.7940   -15.1990 
   94.7500     2.1760    66.5400     9.1650     7.3570     8.7490    24.7800   -15.2070 
   94.8750     2.1760    65.7080     9.2670     7.4500     8.7680    24.7750   -15.2050 
   95.0000     2.1730    65.4970     9.3410     7.5180     8.8430    24.7690   -15.2040 
   95.1250     2.1700    65.8530     9.3530     7.5420     8.8830    24.7220   -15.2070 
   95.2500     2.1690    66.7700     9.2980     7.5170     8.7630    24.6650   -15.1950 
   95.3750     2.1700    69.3640     9.1920     7.4470     8.4160    24.6520   -15.1920 
   95.5000     2.1700    73.1500     9.0760     7.3570     7.9500    24.6670   -15.1980 
   95.6250     2.1680    75.6400     9.0130     7.2930     7.7970    24.6390   -15.2430 
   95.7500     2.1670    75.3730     9.0380     7.2850     8.0920    24.5390   -15.2920 
   95.8750     2.1700    72.8410     9.1550     7.3470     8.4990    24.4400   -15.3590 
   96.0000     2.1760    71.4310     9.3300     7.4680     8.7620    24.3830   -15.4300 
   96.1250     2.1810    71.9150     9.4950     7.6130     8.8130    24.3740   -15.5180 
   96.2500     2.1790    70.4970     9.5870     7.7300     8.8080    24.3980   -15.6220 
   96.3750     2.1700    66.3980     9.5850     7.7890     8.9810    24.4330   -15.7260 
   96.5000     2.1590    63.0040     9.5050     7.7850     9.0390    24.4470   -15.8260 
   96.6250     2.1550    64.8850     9.4010     7.7350     8.9450    24.4600   -15.8870 
   96.7500     2.1580    68.3210     9.3320     7.6870     8.8860    24.4770   -15.9480 
   96.8750     2.1640    69.6770     9.3200     7.6700     9.1100    24.4940   -15.9910 
   97.0000     2.1680    68.0050     9.3580     7.6920     9.4100    24.5090   -16.0160 
   97.1250     2.1640    67.9430     9.4130     7.7370     9.5030    24.5060   -16.0340 
   97.2500     2.1570    71.4470     9.4370     7.7620     9.4600    24.4920   -16.0310 
   97.3750     2.1510    73.6610     9.3940     7.7360     9.3670    24.4560   -16.0230 
   97.5000     2.1500    70.8800     9.2730     7.6450     9.3330    24.4300   -16.0030 
   97.6250     2.1580    66.6820     9.0790     7.4910     9.0810    24.4270   -15.9880 
   97.7500     2.1700    66.2450     8.8570     7.3140     8.6850    24.4320   -15.9640 
   97.8750     2.1850    68.1750     8.6490     7.1500     8.3220    24.4190   -15.9350 
   98.0000     2.2010    67.9130     8.5000     7.0310     8.5080    24.3940   -15.9120 
   98.1250     2.2150    64.5080     8.4900     7.0110     8.7080    24.3590   -15.8580 
   98.2500     2.2230    60.4920     8.6390     7.1040     8.9220    24.3490   -15.8020 
   98.3750     2.2190    59.2690     8.9490     7.3130     9.0970    24.3570   -15.7320 
   98.5000     2.2050    62.6810     9.3710     7.6100     9.4880    24.4040   -15.6550 
   98.6250     2.1830    67.0040     9.7920     7.9320     9.7850    24.5190   -15.5900 
   98.7500     2.1640    67.5030    10.0800     8.1880     9.7270    24.6220   -15.5430 
   98.8750     2.1500    65.5990    10.1550     8.3180     9.5440    24.6650   -15.5090 
   99.0000     2.1420    65.8620    10.0110     8.3020     9.5470    24.6770   -15.4910 
   99.1250     2.1360    67.9770     9.7000     8.1540     9.5640    24.6760   -15.4850 
   99.2500     2.1320    67.2700     9.3660     7.9600     9.3730    24.6530   -15.4940 
   99.3750     2.1330    65.0250     9.1010     7.7820     9.1730    24.6270   -15.5170 
   99.5000     2.1460    64.5720     8.9520     7.6560     9.1100    24.6400   -15.5460 
   99.6250     2.1690    67.1390     8.9280     7.6030     9.2340    24.6150   -15.5700 
   99.7500     2.1930    69.6560     8.9660     7.6000     9.2690    24.5720   -15.5670 
   99.8750     2.2080    69.4640     9.0260     7.6300     9.1940    24.5520   -15.5550 
