~V
VERS. 2.00: Ver 2.00
~W
STRT.M 62.0000:
STOP.M 275.0000:
STEP.M 0.1250:
NULL. -999.2500:
UWI. F10141:
~C
DEPT.M :
GR.API :
RML.OHMM :
RI. :
RXO.OHMM :
CALI.CM :
DEN.GM/CC :
SP.MV :
~A
# ...
  208.2500    58.8900    70.5210    65.9250    91.9840    24.8510     2.6250   -13.4460 
  208.3750    58.8380    67.5470    62.7550    92.4260    24.9780     2.6530   -12.6120 
  208.5000    58.0360    61.5680    57.0970    78.6810    24.9940     2.6690   -11.7720 
  208.6250    58.2200    52.2780    48.5610    60.1340    24.9380     2.6590   -10.9000 
  208.7500    61.3240    41.7370    38.9110    41.5660    24.8810     2.6240   -10.0800 
  208.8750    62.4800    31.7020    29.7950    32.6390    24.7850     2.5720    -9.3710 
  209.0000    59.9630    23.4100    22.3650    24.3780    24.5790     2.5140    -8.8310 
  209.1250    60.1740    17.6930    17.2970    16.4600    24.4040     2.4670    -8.5240 
  209.2500    67.2050    13.9760    13.9670    11.7980    24.5060     2.4380    -8.3500 
  209.3750    77.1970    11.8180    11.9550    10.7910    24.6570     2.4270    -8.2660 
  209.5000    85.4470    10.7610    10.8790    10.7940    24.6960     2.4310    -8.2550 
  209.6250    88.3590    10.4650    10.4910    10.8630    24.6590     2.4460    -8.2240 
  209.7500    86.5380    10.4430    10.3940    10.7230    24.6220     2.4650    -8.1820 
  209.8750    84.2030    10.4420    10.3620    10.4770    24.5790     2.4820    -8.1820 
  210.0000    85.5060    10.3200    10.2390    10.1730    24.5390     2.4920    -8.1990 
  210.1250    89.7670    10.0550     9.9680     9.4640    24.4980     2.4910    -8.1620 
  210.2500    93.7480     9.7590     9.6360     8.8870    24.4650     2.4840    -8.0730 
  210.3750    94.9790     9.5200     9.3200     8.6040    24.4110     2.4780    -7.9570 
  210.5000    92.2330     9.3960     9.0810     8.3340    24.3670     2.4770    -7.8550 
  210.6250    88.0000     9.4470     8.9770     8.2350    24.3190     2.4830    -7.8900 
  210.7500    87.9950     9.6390     8.9910     8.4000    24.3130     2.4880    -7.9960 
  210.8750    90.0890     9.9210     9.0910     8.7600    24.3230     2.4890    -8.0740 
  211.0000    89.1090    10.2290     9.2310     9.2100    24.3260     2.4890    -8.1080 
  211.1250    84.7970    10.5520     9.3990     9.4530    24.2840     2.5010    -8.1150 
  211.2500    83.0750    10.9640     9.6280     9.9930    24.2920     2.5290    -8.1110 
  211.3750    85.1660    11.6010     9.9920    10.5970    24.3580     2.5680    -8.0870 
  211.5000    88.5130    12.5710    10.5550    11.0960    24.4530     2.6020    -7.9960 
  211.6250    89.5250    13.8460    11.3210    12.8380    24.4960     2.6090    -7.7550 
  211.7500    87.5370    14.9860    12.0330    16.2380    24.5200     2.5930    -7.4130 
  211.8750    83.9310    15.4470    12.3230    19.6410    24.5100     2.5640    -7.0440 
  212.0000    81.8550    14.8240    11.8870    19.5040    24.4700     2.5380    -6.6690 
  212.1250    82.3940    13.1130    10.6980    16.2390    24.4560     2.5280    -6.2990 
  212.2500    83.2460    11.1880     9.3470    11.4870    24.4230     2.5320    -5.9780 
  212.3750    82.9480     9.7450     8.2740     8.7740    24.3430     2.5460    -5.7090 
  212.5000    83.9230     9.2020     7.7360     7.6620    24.2600     2.5640    -5.4760 
  212.6250    86.9960     9.8120     7.9210     8.2140    24.2290     2.5800    -5.2670 
  212.7500    88.4120    11.1920     8.6750    10.1900    24.2720     2.5890    -5.0020 
  212.8750    85.1260    12.8750     9.7870    14.0130    24.3310     2.5910    -4.6740 
  213.0000    78.9620    14.1590    10.8200    16.6860    24.4010     2.5890    -4.3390 
  213.1250    76.9640    14.1390    11.0450    16.0920    24.4050     2.5860    -4.0190 
  213.2500    79.7130    12.9250    10.3740    13.8630    24.4510     2.5860    -3.6680 
  213.3750    79.9750    11.0600     9.1380    11.7360    24.5670     2.5850    -3.2750 
  213.5000    73.0570     9.2020     7.8070     8.4180    24.7300     2.5770    -2.8650 
  213.6250    63.6580     7.8810     6.7650     6.6380    24.7660     2.5580    -2.4350 
  213.7500    59.3020     7.1150     6.0790     5.8090    24.7530     2.5340    -2.0750 
  213.8750    59.6550     6.8040     5.7190     5.6530    24.7410     2.5140    -1.8150 
  214.0000    61.7130     6.8060     5.6150     5.6510    24.7420     2.5060    -1.6430 
  214.1250    65.8300     6.9810     5.6920     5.5330    24.7440     2.5110    -1.5330 
  214.2500    72.3640     7.1570     5.8210     5.5030    24.7440     2.5180    -1.4330 
  214.3750    79.3830     7.2430     5.9250     5.5780    24.7440     2.5190    -1.3120 
  214.5000    84.1330     7.2120     5.9590     5.6470    24.7420     2.5080    -1.1730 
  214.6250    82.8650     7.0750     5.9100     5.4730    24.7440     2.4870    -1.0780 
  214.7500    79.1730     6.8920     5.8100     5.0670    24.7440     2.4630    -0.9870 
  214.8750    76.7330     6.7010     5.6910     4.9280    24.7450     2.4420    -0.8750 
  215.0000    77.1080     6.5470     5.5810     5.4980    24.7440     2.4260    -0.7030 
  215.1250    78.2590     6.4810     5.5160     6.0990    24.7450     2.4170    -0.4640 
  215.2500    78.5240     6.4890     5.4970     5.8680    24.7480     2.4130    -0.2290 
  215.3750    79.2180     6.5380     5.5140     5.4920    24.7650     2.4120    -0.0460 
  215.5000    78.8100     6.5780     5.5410     5.5020    24.8060     2.4090     0.0550 
  215.6250    73.3680     6.5690     5.5560     5.6650    24.8480     2.4030     0.0570 
  215.7500    67.6440     6.5320     5.5560     5.6200    24.8620     2.3970    -0.0180 
  215.8750    67.9280     6.5070     5.5550     5.4660    24.8540     2.3940    -0.1150 
  216.0000    73.0840     6.5250     5.5660     5.4190    24.8290     2.3950    -0.2250 
  216.1250    75.6130     6.5960     5.5950     5.5280    24.8130     2.3980    -0.4290 
  216.2500    75.6170     6.6830     5.6280     5.7020    24.8070     2.3990    -0.7450 
  216.3750    76.8900     6.7480     5.6480     5.8970    24.8050     2.3970    -1.1290 
  216.5000    79.4320     6.7690     5.6420     6.0720    24.8010     2.3930    -1.5310 
  216.6250    80.9520     6.7540     5.6130     6.0090    24.7990     2.3910    -1.9080 
  216.7500    81.4170     6.7510     5.5910     5.9990    24.7990     2.3910    -2.2500 
  216.8750    82.5450     6.8150     5.6140     5.9670    24.8010     2.3910    -2.6140 
  217.0000    84.4890     7.0060     5.7280     6.1940    24.7990     2.3880    -3.0190 
  217.1250    85.6420     7.4070     6.0060     6.9350    24.7920     2.3790    -3.4350 
  217.2500    84.5360     8.0200     6.4580     7.6580    24.7890     2.3720    -3.8160 
  217.3750    82.8590     8.8700     7.1010     8.2390    24.8000     2.3710    -4.1700 
  217.5000    82.7230     9.9920     7.9580     9.4690    24.8070     2.3810    -4.5070 
  217.6250    82.5120    11.3780     9.0530    12.1000    24.8160     2.3970    -4.7980 
  217.7500    81.3660    12.7770    10.2390    13.5350    24.8370     2.4080    -5.0480 
  217.8750    80.8510    13.8680    11.2900    14.1750    24.8580     2.4110    -5.2490 
  218.0000    81.1420    14.3330    11.9250    15.0250    24.8610     2.4080    -5.4050 
  218.1250    81.6000    13.9230    11.8520    15.7730    24.8450     2.4040    -5.5040 
  218.2500    80.8990    12.9880    11.2710    14.0030    24.8310     2.4050    -5.5670 
  218.3750    78.9400    11.8950    10.4490    10.6830    24.8450     2.4110    -5.6040 
  218.5000    77.3630    10.9280     9.6250     9.6290    24.8610     2.4180    -5.6020 
  218.6250    78.2190    10.2260     8.9470     9.9500    24.8580     2.4200    -5.6270 
  218.7500    80.3650     9.7040     8.4190    10.2740    24.8400     2.4140    -5.7320 
  218.8750    81.2630     9.3130     8.0390     9.7630    24.8310     2.4040    -5.8740 
  219.0000    80.9740     9.0730     7.8300     8.9650    24.8470     2.3940    -6.0020 
  219.1250    80.3310     9.2120     7.9250     8.4970    24.8490     2.3880    -6.0550 
  219.2500    79.3070     9.9580     8.4380     8.7910    24.8320     2.3810    -6.0720 
  219.3750    77.3570    11.5290     9.5380     9.9830    24.8080     2.3690    -6.1060 
