~V
VERS. 2.00: Ver 2.00
~W
STRT.M 60.0000:
STOP.M 245.0000:
STEP.M 0.1250:
NULL. -999.2500:
UWI. F10162:
~C
DEPT.M :
SP.MV :
DEN.GM/CC :
GR.API :
RML.OHMM :
RI. :
RXO.OHMM :
CALI.CM :
~A
# ...
  116.2500    -2.3940     2.5930    70.3590     8.9270     7.3610    11.2180    24.9250 
  116.3750    -2.7630     2.5910    65.8320     9.2340     7.8320    15.2720    24.9710 
  116.5000    -3.1490     2.5360    69.6200     9.0550     7.8100    12.6590    24.8990 
  116.6250    -3.6380     2.4550    78.5410     8.6290     7.4480     9.0430    24.7760 
  116.7500    -4.2500     2.3860    84.5510     8.3520     7.1250     6.8510    24.6210 
  116.8750    -4.9220     2.3410    85.0070     8.4020     7.0280     7.0860    24.4110 
  117.0000    -5.6040     2.3120    80.4270     8.7610     7.1970     9.3640    24.1980 
  117.1250    -6.2910     2.2860    73.5520     9.2620     7.5620    10.3680    24.0840 
  117.2500    -6.9540     2.2600    70.0030     9.6890     7.9320     9.6310    24.0000 
  117.3750    -7.5880     2.2390    69.8300     9.9690     8.2000     8.7760    23.8690 
  117.5000    -8.1780     2.2260    69.8880    10.1380     8.3530     8.4000    23.7660 
  117.6250    -8.7140     2.2170    70.3000    10.3010     8.4660     8.5190    23.8850 
  117.7500    -9.1500     2.2070    71.2170    10.5120     8.6180     8.5330    24.0710 
  117.8750    -9.4410     2.1940    71.4880    10.7410     8.8020     8.5830    24.1660 
  118.0000    -9.6020     2.1810    70.7810    10.9430     8.9660     8.6320    24.2330 
  118.1250    -9.6400     2.1800    70.8540    11.1380     9.1040     8.4850    24.3580 
  118.2500    -9.6320     2.1900    72.0260    11.4550     9.3180     8.5040    24.4320 
  118.3750    -9.6390     2.2080    73.5470    12.0390     9.7390     8.5880    24.4670 
  118.5000    -9.6290     2.2260    74.4770    12.9850    10.4780     8.8030    24.4960 
  118.6250    -9.5160     2.2380    73.6220    14.2870    11.6170    10.1870    24.5650 
  118.7500    -9.4160     2.2450    71.4640    15.6330    12.9530    13.6700    24.6160 
  118.8750    -9.3760     2.2520    69.2170    16.6390    14.1940    17.5120    24.6090 
  119.0000    -9.2830     2.2580    66.5950    16.9410    14.9610    17.3460    24.4940 
  119.1250    -9.2180     2.2600    65.5560    16.3290    14.7460    14.5900    24.4450 
  119.2500    -9.1630     2.2520    67.2660    15.0500    13.6190    12.5450    24.5130 
  119.3750    -9.0530     2.2360    69.3970    13.2400    11.8690    11.4940    24.5110 
  119.5000    -8.9830     2.2170    69.3550    11.1510     9.9430    11.3300    24.4250 
  119.6250    -8.9020     2.2000    69.3450     9.3140     8.3000     9.7290    24.6220 
  119.7500    -8.8500     2.1830    71.2600     8.1130     7.1310     6.7190    24.9170 
  119.8750    -8.8540     2.1680    74.4620     7.5850     6.5000     5.3020    25.0340 
  120.0000    -8.9100     2.1570    76.9170     7.6000     6.3730     5.3110    24.9280 
  120.1250    -9.0120     2.1620    76.5540     7.9370     6.6640     6.1760    24.5120 
  120.2500    -9.1500     2.1870    74.3750     8.2110     7.0610     7.1810    24.0440 
  120.3750    -9.3530     2.2300    73.8170     8.1730     7.2740     7.7540    23.8550 
  120.5000    -9.5290     2.2840    75.8500     7.7390     7.0950     7.3090    23.8910 
  120.6250    -9.7140     2.3320    79.4060     7.0280     6.5270     5.9120    23.9410 
  120.7500    -9.8650     2.3630    82.8210     6.3800     5.9120     5.0180    23.9480 
  120.8750    -9.9460     2.3750    87.3130     6.0090     5.4780     4.7380    23.9420 
  121.0000   -10.0740     2.3730    91.4390     6.0010     5.3350     4.8740    23.9290 
  121.1250   -10.1970     2.3640    88.6270     6.3360     5.5250     5.2400    23.8900 
  121.2500   -10.3240     2.3550    79.1010     6.7840     5.8900     5.8030    23.8470 
  121.3750   -10.4450     2.3510    68.9240     7.1490     6.2560     6.3700    23.8040 
  121.5000   -10.5600     2.3500    64.8580     7.2790     6.4370     6.5520    23.7780 
  121.6250   -10.6980     2.3480    66.9190     7.1070     6.2890     6.3430    23.7630 
  121.7500   -10.7030     2.3360    67.8750     6.8350     5.9610     6.1620    23.7940 
  121.8750   -10.5780     2.3160    67.1390     6.7070     5.6660     6.1210    23.9560 
  122.0000   -10.3210     2.2970    67.9270     6.9860     5.6220     6.0390    24.2990 
  122.1250    -9.9110     2.3060    69.0310     8.0340     6.1150     6.1230    24.7370 
  122.2500    -9.4560     2.3510    65.8330     9.8980     7.2370     7.6630    24.8980 
  122.3750    -9.0300     2.4240    59.5130    12.5490     9.0870    11.6510    24.7580 
  122.5000    -8.6770     2.5060    54.2850    15.7160    11.6400    18.3540    24.3620 
  122.6250    -8.3800     2.5700    51.2660    18.7350    14.5740    21.0020    24.0140 
  122.7500    -8.2550     2.6110    49.1970    20.9000    17.0620    20.3770    23.8480 
  122.8750    -8.2750     2.6350    48.9110    21.8900    18.4870    18.9200    23.7840 
  123.0000    -8.3510     2.6500    51.7990    21.8780    18.8000    19.2290    23.6880 
  123.1250    -8.4230     2.6600    55.4980    21.4350    18.4680    19.8090    23.5410 
  123.2500    -8.5140     2.6610    56.4110    21.2680    18.1970    19.1910    23.4610 
  123.3750    -8.5610     2.6530    54.1830    21.7130    18.3240    17.9210    23.4540 
  123.5000    -8.5710     2.6370    52.2580    22.8600    19.0290    17.1660    23.4440 
  123.6250    -8.4580     2.6190    53.1590    24.6160    20.4080    18.5380    23.3550 
  123.7500    -8.2320     2.6000    54.3080    26.4610    22.1220    21.3750    23.2890 
  123.8750    -8.0150     2.5820    52.8080    27.8880    23.7510    23.7660    23.2960 
  124.0000    -7.7660     2.5610    49.0580    28.4750    24.8070    24.1590    23.3250 
  124.1250    -7.6060     2.5410    47.3040    27.9600    24.8290    20.9480    23.3740 
  124.2500    -7.4760     2.5240    48.2680    26.8230    24.1380    18.1890    23.4680 
  124.3750    -7.3420     2.5170    49.4830    25.5120    23.1510    17.8820    23.5750 
  124.5000    -7.2000     2.5180    49.3280    24.3710    22.2260    18.7570    23.6370 
  124.6250    -7.1740     2.5220    50.5480    23.5770    21.5690    18.4470    23.6370 
  124.7500    -7.1700     2.5230    54.6990    23.0170    21.1250    17.4390    23.6970 
  124.8750    -7.1820     2.5160    58.3000    22.5950    20.8020    16.9360    23.8820 
  125.0000    -7.2140     2.5030    58.8020    22.2730    20.5240    17.0730    24.1510 
  125.1250    -7.2850     2.4870    58.2640    22.0950    20.3330    17.3780    24.2380 
  125.2500    -7.3570     2.4740    58.5670    22.2310    20.3410    17.2440    23.9960 
  125.3750    -7.4280     2.4720    58.2510    22.8830    20.6610    15.9380    23.5910 
  125.5000    -7.5000     2.4850    55.3330    24.0000    21.3300    15.3420    23.3440 
  125.6250    -7.4910     2.5100    53.0560    25.1920    22.2850    16.6760    23.2340 
  125.7500    -7.5460     2.5320    53.9110    26.0750    23.2370    19.0240    23.1840 
  125.8750    -7.5860     2.5420    55.6680    26.5330    23.9090    20.6680    23.1280 
  126.0000    -7.6660     2.5360    55.8310    26.5550    24.1070    20.3750    23.0870 
  126.1250    -7.6610     2.5230    56.0290    26.1600    23.7910    18.6690    23.0990 
  126.2500    -7.6560     2.5180    57.0510    25.6610    23.2930    17.3550    23.1090 
  126.3750    -7.6710     2.5270    57.3040    25.2730    22.8660    16.5890    23.0670 
  126.5000    -7.7530     2.5460    56.6670    25.0800    22.6430    16.6360    23.0410 
  126.6250    -7.8940     2.5680    56.2350    25.0100    22.6070    17.2710    23.1430 
  126.7500    -7.9690     2.5810    56.2960    24.8750    22.5590    18.9050    23.3910 
  126.8750    -8.0040     2.5840    55.9770    24.5910    22.3660    20.2560    23.6860 
  127.0000    -7.9390     2.5770    54.2130    24.2040    22.0270    19.6110    23.9780 
  127.1250    -7.8690     2.5680    52.3600    23.9000    21.7090    18.1470    24.2210 
  127.2500    -7.7530     2.5670    53.1220    23.8400    21.5960    17.5160    24.3480 
  127.3750    -7.6310     2.5780    56.2620    24.0820    21.7740    18.0810    24.4000 
