~V
VERS. 2.00: Ver 2.00
~W
STRT.M 50.0000:
STOP.M 252.0000:
STEP.M 0.1250:
NULL. -999.2500:
UWI. F10101:
~C
DEPT.M :
DEN.GM/CC :
SP.MV :
GR.API :
RML.OHMM :
RI. :
RXO.OHMM :
CALI.CM :
~A
# ...
  106.2500     2.1200   -13.5850    71.7990     8.3220     6.1840     7.9350    22.3090 
  106.3750     2.1370   -13.2930    73.8410     8.3720     6.2480     7.8320    22.3740 
  106.5000     2.1540   -12.9780    74.4080     8.4020     6.2900     7.6960    22.4450 
  106.6250     2.1710   -12.6820    75.5310     8.4230     6.3150     7.6270    22.4710 
  106.7500     2.1860   -12.3550    77.1020     8.3880     6.3050     7.6380    22.4900 
  106.8750     2.2000   -12.0470    75.8300     8.2270     6.2180     7.6180    22.5290 
  107.0000     2.2140   -11.7260    73.2990     7.8990     6.0260     7.5420    22.5990 
  107.1250     2.2270   -11.4290    76.1020     7.4250     5.7310     6.9950    22.7720 
  107.2500     2.2370   -11.1280    83.6840     6.9420     5.4130     6.0550    22.9480 
  107.3750     2.2400   -10.8690    90.1040     6.5680     5.1440     5.4040    23.0770 
  107.5000     2.2370   -10.5970    91.1580     6.3980     4.9860     5.5460    23.0940 
  107.6250     2.2380   -10.3520    90.3000     6.5230     5.0170     6.2450    23.0900 
  107.7500     2.2440   -10.1360    89.1320     6.8700     5.2170     6.8790    23.1030 
  107.8750     2.2520    -9.9030    85.3340     7.3240     5.5320     6.8840    23.0900 
  108.0000     2.2590    -9.7120    79.2790     7.6980     5.8410     6.8880    23.0310 
  108.1250     2.2650    -9.4820    77.9870     7.7230     5.9430     7.3980    23.0700 
  108.2500     2.2690    -9.2480    84.3950     7.3650     5.7640     7.4910    23.2340 
  108.3750     2.2720    -8.9510    93.6910     6.7320     5.3440     6.6890    23.5950 
  108.5000     2.2750    -8.7050   100.8200     6.0290     4.8160     5.4810    24.0470 
  108.6250     2.2710    -8.4180   102.9030     5.4910     4.3440     4.8890    24.2510 
  108.7500     2.2590    -8.2020   102.6240     5.1840     4.0110     4.7540    24.2620 
  108.8750     2.2470    -8.0670   102.6660     5.0770     3.8330     4.7990    24.2180 
  109.0000     2.2490    -7.9910   103.1090     5.0890     3.7850     5.0190    24.2080 
  109.1250     2.2730    -8.0440   103.7530     5.1490     3.8310     5.2080    24.2220 
  109.2500     2.3010    -8.1860   103.5790     5.2500     3.9340     5.2560    24.1950 
  109.3750     2.3140    -8.4330   102.2510     5.4570     4.1110     5.1650    24.0850 
  109.5000     2.3030    -8.7110   100.2010     5.8350     4.3950     5.2030    23.7470 
  109.6250     2.2800    -9.0790    98.2810     6.4280     4.8400     5.9450    23.1480 
  109.7500     2.2540    -9.4100    96.4060     7.1210     5.4040     7.5640    22.6990 
  109.8750     2.2230    -9.7230    92.6060     7.7680     6.0030     8.8430    22.5410 
  110.0000     2.1890    -9.9810    86.8250     8.2420     6.5230     9.1540    22.4630 
  110.1250     2.1710   -10.1610    82.3850     8.5360     6.8900     8.9700    22.2140 
  110.2500     2.1770   -10.2370    80.8080     8.8870     7.2210     8.8300    22.0500 
  110.3750     2.2020   -10.2450    80.6980     9.4820     7.6540     8.5460    22.0400 
  110.5000     2.2380   -10.1150    80.3430    10.3340     8.2490     8.7630    22.1350 
  110.6250     2.2870    -9.8890    78.1260    11.1490     8.8580    10.3920    22.1850 
  110.7500     2.3510    -9.6270    76.4460    11.4540     9.1550    12.9620    22.2290 
  110.8750     2.4150    -9.2820    79.1980    10.9690     8.9000    13.0400    22.3530 
  111.0000     2.4520    -8.9740    87.4410     9.8010     8.1120     9.1920    22.6030 
  111.1250     2.4290    -8.6550    96.8010     8.4090     7.0650     6.4420    22.9600 
  111.2500     2.3800    -8.4060   102.0720     7.2700     6.1180     6.0180    23.0940 
  111.3750     2.3480    -8.1710   104.0390     6.5260     5.4110     6.4910    22.8900 
  111.5000     2.3490    -8.0520   106.1070     6.1490     4.9740     6.7240    22.5690 
  111.6250     2.3650    -7.9450   106.8160     6.0470     4.7970     5.5460    22.4220 
  111.7500     2.3700    -7.8900   105.8410     6.0390     4.7600     5.0300    22.3540 
  111.8750     2.3580    -7.9090   104.3790     6.0630     4.8000     4.9970    22.2610 
  112.0000     2.3380    -7.9180   102.0570     6.1470     4.9040     5.1970    22.1530 
  112.1250     2.3290    -7.9570    98.6310     6.3750     5.1160     5.3130    22.0940 
  112.2500     2.3370    -7.9880    96.1380     6.7370     5.4310     5.2170    22.0610 
  112.3750     2.3620    -8.0320    95.7630     7.1770     5.8130     5.4550    22.0110 
  112.5000     2.3950    -8.0520    95.3240     7.5840     6.1870     6.3020    21.9870 
  112.6250     2.4190    -8.1470    95.4550     7.7670     6.4070     7.1080    22.0370 
  112.7500     2.4200    -8.2050    96.8540     7.6630     6.4020     6.5200    22.1540 
  112.8750     2.3920    -8.2810    95.9170     7.3180     6.1770     5.6850    22.2670 
  113.0000     2.3480    -8.3570    93.6550     6.8650     5.8140     5.3050    22.3290 
  113.1250     2.3180    -8.4620    94.9780     6.4830     5.4370     5.1870    22.3020 
  113.2500     2.3110    -8.5770    98.9180     6.2690     5.1440     5.0910    22.2500 
  113.3750     2.3190    -8.7280   100.6980     6.2270     4.9600     5.0300    22.2720 
  113.5000     2.3320    -8.9000    99.7710     6.2890     4.8650     5.0410    22.3880 
  113.6250     2.3390    -9.0450    97.9510     6.3750     4.8290     5.1830    22.5410 
  113.7500     2.3350    -9.2820    94.6490     6.4400     4.8210     5.4200    22.6980 
  113.8750     2.3250    -9.4910    91.8450     6.4640     4.8310     5.5860    22.8750 
  114.0000     2.3140    -9.7730    91.7720     6.4300     4.8460     5.7640    23.0330 
  114.1250     2.3020   -10.0680    94.1340     6.3500     4.8610     6.1580    23.1060 
  114.2500     2.2910   -10.4020    94.4890     6.3570     4.9310     6.7410    23.1170 
  114.3750     2.2880   -10.7130    92.9290     6.6820     5.1750     7.1680    23.1120 
  114.5000     2.3010   -11.0370    90.7450     7.6190     5.7650     7.4250    23.1560 
  114.6250     2.3390   -11.3970    86.8490     9.5840     7.0010     8.4680    23.3150 
  114.7500     2.3900   -11.6930    82.2220    12.4140     8.9100    12.1280    23.5500 
  114.8750     2.4430   -12.0620    78.4390    15.5680    11.2970    19.9680    23.7240 
  115.0000     2.4750   -12.3920    76.1990    17.8670    13.4140    28.2230    23.6380 
  115.1250     2.4550   -12.7500    74.0710    17.5780    13.8010    22.1260    23.0670 
  115.2500     2.3870   -13.1060    71.7840    15.2160    12.4700    13.4670    22.3310 
  115.3750     2.2980   -13.4800    70.3530    12.2070    10.3600     9.3530    21.9020 
  115.5000     2.2220   -13.8020    70.2600     9.7820     8.4160     8.1750    21.7920 
  115.6250     2.1830   -14.1110    73.5600     8.5120     7.1550     7.8210    21.7800 
  115.7500     2.1720   -14.4090    77.2290     8.0320     6.4570     7.6650    21.7450 
  115.8750     2.1740   -14.6380    77.1040     8.0330     6.1750     7.4250    21.7010 
  116.0000     2.1780   -14.8210    74.4520     8.2450     6.1550     7.1950    21.6680 
  116.1250     2.1780   -14.9350    73.7450     8.4840     6.2830     7.1960    21.6490 
  116.2500     2.1790   -14.9920    75.6870     8.6760     6.4550     7.3540    21.6530 
  116.3750     2.1840   -15.0250    76.4590     8.8240     6.6350     7.6280    21.6620 
  116.5000     2.1880   -15.0710    74.4380     8.9390     6.7990     7.9610    21.6910 
  116.6250     2.1890   -15.0160    73.4660     9.0000     6.9090     8.3790    21.7900 
  116.7500     2.1850   -15.0010    75.4050     8.9880     6.9450     8.7330    21.8710 
  116.8750     2.1800   -14.9540    80.2220     8.8880     6.9000     9.0630    21.8440 
  117.0000     2.1730   -14.9000    83.9450     8.7170     6.7880     9.1660    21.7570 
  117.1250     2.1660   -14.8480    83.0120     8.5250     6.6470     8.9770    21.6830 
  117.2500     2.1610   -14.7870    80.4320     8.3740     6.5260     8.6880    21.6340 
  117.3750     2.1560   -14.6900    77.8790     8.2950     6.4500     8.4070    21.6240 
