~V
VERS. 2.00: Ver 2.00
~W
STRT.M 50.0000:
STOP.M 233.0000:
STEP.M 0.1250:
NULL. -999.2500:
UWI. F10166:
~C
DEPT.M :
SP.MV :
DEN.GM/CC :
GR.API :
RML.OHMM :
RI. :
RXO.OHMM :
CALI.CM :
~A
# ...
   72.5000   -34.4940     2.1060    64.8240    10.3700     7.7630     8.8010    24.8960 
   72.6250   -34.7970     2.1040    64.3830    10.3120     7.7270     8.8930    24.8870 
   72.7500   -35.0890     2.1000    65.9040    10.2700     7.6860     9.1970    24.8750 
   72.8750   -35.3720     2.0980    66.8520    10.2560     7.6580     9.5430    24.8880 
   73.0000   -35.6220     2.1000    64.4120    10.2640     7.6480     9.7620    24.9680 
   73.1250   -35.8520     2.1050    62.2180    10.2660     7.6420     9.7600    25.1370 
   73.2500   -36.0240     2.1080    62.2720    10.2300     7.6120     9.4840    25.3300 
   73.3750   -36.1250     2.1060    61.9640    10.1440     7.5450     9.0260    25.5050 
   73.5000   -36.1370     2.1010    59.3270    10.0200     7.4440     8.6010    25.6520 
   73.6250   -36.0310     2.0960    59.5900     9.8850     7.3300     8.3260    25.7930 
   73.7500   -35.8340     2.0920    62.9970     9.7690     7.2300     8.0520    25.9290 
   73.8750   -35.5780     2.0890    65.9140     9.6920     7.1620     7.7330    26.0440 
   74.0000   -35.2840     2.0860    66.6130     9.6660     7.1400     7.5760    26.1200 
   74.1250   -34.9820     2.0860    65.8290     9.6990     7.1740     7.7200    26.1420 
   74.2500   -34.7060     2.0880    65.2650     9.7730     7.2440     8.1990    26.1420 
   74.3750   -34.4630     2.0910    64.9810     9.8660     7.3260     8.7050    26.1290 
   74.5000   -34.2510     2.0900    64.4250     9.9470     7.3930     8.5330    26.1120 
   74.6250   -34.0410     2.0770    63.5780     9.9910     7.4210     7.4940    26.0860 
   74.7500   -33.7980     2.0600    62.3740    10.0180     7.4230     6.5900    26.0100 
   74.8750   -33.5000     2.0450    62.7200    10.0530     7.4160     6.2870    25.8330 
   75.0000   -33.1500     2.0440    65.0560    10.1060     7.4180     6.3990    25.5610 
   75.1250   -32.7690     2.0620    69.1100    10.1750     7.4450     6.5900    25.3060 
   75.2500   -32.3660     2.0950    72.2660    10.2420     7.4930     6.7980    25.1530 
   75.3750   -31.9630     2.1320    73.0180    10.2940     7.5560     6.9870    25.0940 
   75.5000   -31.5730     2.1670    73.0020    10.3440     7.6310     7.1450    25.0880 
   75.6250   -31.2300     2.1910    73.4490    10.4360     7.7250     7.1830    25.1060 
   75.7500   -30.9570     2.2010    72.5880    10.5700     7.8320     7.0440    25.1230 
   75.8750   -30.7240     2.1920    69.7980    10.7060     7.9240     7.2350    25.1190 
   76.0000   -30.5220     2.1690    65.7960    10.7650     7.9580     8.9950    25.0890 
   76.1250   -30.2910     2.1420    63.5400    10.6270     7.8690    11.6180    25.0360 
   76.2500   -30.0280     2.1270    64.0180    10.2820     7.6620    11.7360    24.9840 
   76.3750   -29.7110     2.1260    66.4550     9.8100     7.3770     9.5550    24.9580 
   76.5000   -29.3580     2.1340    69.4630     9.3600     7.0900     7.9230    24.9560 
   76.6250   -29.0020     2.1390    71.9490     9.0960     6.8880     7.3450    24.9580 
   76.7500   -28.7140     2.1380    73.1930     9.0100     6.7950     5.9320    24.9400 
   76.8750   -28.5340     2.1340    72.2060     9.0360     6.8030     3.8360    24.8950 
   77.0000   -28.5090     2.1340    70.0320     9.0850     6.8810     2.7150    24.8280 
   77.1250   -28.7030     2.1390    69.7480     9.1150     6.9960     4.0580    24.7590 
   77.2500   -29.0660     2.1420    70.9200     9.1810     7.1300     6.8810    24.7250 
   77.3750   -29.5340     2.1410    70.4220     9.3340     7.2820     9.7900    24.7650 
   77.5000   -30.0140     2.1370    67.1290     9.5660     7.4390    11.3170    24.8920 
   77.6250   -30.4100     2.1350    64.2810     9.8030     7.5560    10.9970    25.0750 
   77.7500   -30.6310     2.1320    63.2840     9.9640     7.5950    10.4800    25.2260 
   77.8750   -30.6460     2.1270    63.2920    10.0080     7.5290    10.1690    25.3060 
   78.0000   -30.4130     2.1190    63.4200     9.9110     7.3500     9.8260    25.3290 
   78.1250   -29.8760     2.1100    62.1300     9.6300     7.0490     9.4150    25.3290 
   78.2500   -29.1000     2.1020    61.4190     9.1930     6.6750     9.2440    25.3310 
   78.3750   -28.1090     2.0900    63.7590     8.6840     6.2980     9.3320    25.3410 
   78.5000   -26.9470     2.0680    68.5520     8.3200     6.0430     9.3010    25.3630 
   78.6250   -25.6290     2.0420    69.8340     8.6560     6.2020     8.9750    25.3510 
   78.7500   -24.2180     2.0350    67.8810    10.3010     7.0820     9.1970    25.2620 
   78.8750   -22.7460     2.0750    66.2890    14.0690     9.2410    11.9230    25.1270 
   79.0000   -21.2120     2.1800    67.2310    20.7560    13.4490    20.5230    25.0270 
   79.1250   -19.6990     2.3430    71.4620    30.9310    20.7420    44.1630    25.0060 
   79.2500   -18.2420     2.4980    75.6950    41.1710    29.2330    87.5870    25.0080 
   79.3750   -16.8890     2.5880    76.9380    45.0970    34.2460   129.8560    25.0030 
   79.5000   -15.6700     2.6020    77.0010    38.6980    31.6460    96.9700    25.0160 
   79.6250   -14.6580     2.5640    80.6710    27.0270    23.6910    40.5540    25.0610 
   79.7500   -13.8540     2.5100    86.4890    17.7270    16.4670    15.3610    25.1110 
   79.8750   -13.2680     2.4520    92.0760    11.9750    11.4800     5.9000    25.1660 
   80.0000   -12.8770     2.3950    98.7610     8.8790     8.4290     3.3740    25.2610 
   80.1250   -12.6860     2.3450   106.4440     7.5480     6.8090     4.5780    25.4390 
   80.2500   -12.6250     2.3030   109.6340     6.9580     5.9100     5.6890    25.6090 
   80.3750   -12.7010     2.2720   106.1420     6.6920     5.4400     5.5720    25.6590 
   80.5000   -12.9110     2.2590   100.2550     6.5400     5.2060     4.7970    25.5560 
   80.6250   -13.2680     2.2620    99.0450     6.5070     5.1540     4.3090    25.3810 
   80.7500   -13.7590     2.2630   100.8260     6.7120     5.2970     4.2950    25.2490 
   80.8750   -14.3790     2.2530    98.2350     7.3320     5.7340     4.9650    25.1710 
   81.0000   -15.1190     2.2380    88.4720     8.5490     6.5880     6.4710    25.1280 
   81.1250   -15.9500     2.2460    77.0950    10.5650     8.0410     8.9930    25.1330 
   81.2500   -16.7830     2.2930    68.4060    13.0360     9.9060    12.1450    25.1720 
   81.3750   -17.6090     2.3700    62.4510    15.3510    11.7530    15.2950    25.2220 
   81.5000   -18.4050     2.4410    59.2260    16.6450    12.9020    16.9360    25.2570 
   81.6250   -19.1850     2.4530    59.7310    16.0830    12.6690    15.3600    25.2780 
   81.7500   -19.9660     2.4080    61.9580    14.3850    11.5610    12.5440    25.3080 
   81.8750   -20.7360     2.3360    63.8820    12.4520    10.2200    10.3800    25.3450 
   82.0000   -21.4900     2.2600    64.6880    10.9520     9.1200     9.4090    25.3720 
   82.1250   -22.1560     2.1980    64.0880    10.2330     8.5210     9.3230    25.3760 
   82.2500   -22.7300     2.1510    63.1910    10.1000     8.3270     9.2420    25.3620 
   82.3750   -23.1450     2.1200    63.3200    10.3830     8.4400     9.2410    25.3300 
   82.5000   -23.3770     2.1040    63.8270    10.8890     8.7340     9.5400    25.2890 
   82.6250   -23.3330     2.0990    62.0620    11.3890     9.0480    10.0770    25.2800 
   82.7500   -23.0590     2.0980    59.6190    11.6800     9.2180    10.4990    25.3240 
   82.8750   -22.5370     2.0940    59.9910    11.6060     9.1200    10.3560    25.4050 
   83.0000   -21.7860     2.0870    66.3310    11.0760     8.6850     9.2570    25.4800 
   83.1250   -20.8400     2.0820    75.1730    10.1100     7.9230     7.7440    25.4930 
   83.2500   -19.8020     2.0870    81.0920     9.0260     7.0690     6.5740    25.4520 
   83.3750   -18.7660     2.1120    84.1150     8.0930     6.3100     5.6670    25.3860 
   83.5000   -17.8810     2.1530    86.2630     7.5720     5.8100     4.9590    25.2820 
   83.6250   -17.3300     2.1900    87.6810     7.8800     5.8070     5.2880    25.0990 
