~V
VERS. 2.00: Ver 2.00
~W
STRT.M 49.0000:
STOP.M 223.0000:
STEP.M 0.1250:
NULL. -999.2500:
UWI. F10156:
~C
DEPT.M :
SP.MV :
GR.API :
RML.OHMM :
RI. :
RXO.OHMM :
CALI.CM :
DEN.GM/CC :
~A
# ...
   94.0000   -17.4220    61.3150     9.9520     7.5750     8.1200    22.5350     2.2310 
   94.1250   -17.3280    65.2760     9.7560     7.4670     8.2730    22.5770     2.2270 
   94.2500   -17.2470    68.4390     9.6140     7.3750     8.4690    22.6070     2.2170 
   94.3750   -17.1510    66.8310     9.5630     7.3200     8.5540    22.6230     2.2070 
   94.5000   -17.0590    64.3560     9.5990     7.3040     8.6610    22.5740     2.2000 
   94.6250   -16.9310    65.4340     9.6710     7.3080     8.7930    22.5010     2.1980 
   94.7500   -16.7910    68.9170     9.6850     7.2840     8.9240    22.6580     2.1970 
   94.8750   -16.6290    69.6150     9.5780     7.1950     8.7900    22.9620     2.1980 
   95.0000   -16.4950    67.5000     9.3460     7.0330     8.1590    23.1780     2.2020 
   95.1250   -16.4060    68.3000     9.0530     6.8270     7.4890    23.2780     2.2080 
   95.2500   -16.2670    73.3220     8.8220     6.6400     7.1910    23.2180     2.2170 
   95.3750   -16.1710    75.8930     8.7310     6.5250     7.1320    23.1270     2.2270 
   95.5000   -16.0980    73.7140     8.7970     6.5010     7.1770    23.0180     2.2350 
   95.6250   -16.0640    70.8770     8.9800     6.5590     7.3750    22.9690     2.2390 
   95.7500   -16.0840    71.2810     9.1950     6.6670     7.5960    23.0150     2.2410 
   95.8750   -16.0920    72.5850     9.3530     6.7720     7.7640    23.1150     2.2410 
   96.0000   -16.1040    74.2410     9.4220     6.8530     7.9320    23.1350     2.2400 
   96.1250   -16.1130    75.9700     9.4230     6.9080     8.1110    23.0980     2.2330 
   96.2500   -16.1300    74.4100     9.4330     6.9700     8.1920    23.1060     2.2230 
   96.3750   -16.1380    70.0160     9.5310     7.0810     8.0610    23.1240     2.2150 
   96.5000   -16.1000    65.4420     9.7500     7.2600     7.9530    23.1410     2.2100 
   96.6250   -16.0460    62.3450    10.0620     7.4970     8.1010    23.1760     2.2080 
   96.7500   -15.9510    59.2830    10.3620     7.7410     8.5510    23.2100     2.2140 
   96.8750   -15.8600    57.6100    10.5240     7.9180     8.9680    23.2460     2.2220 
   97.0000   -15.7460    58.1840    10.4830     7.9790     8.9450    23.2570     2.2260 
   97.1250   -15.5520    58.7590    10.2620     7.9250     8.4500    23.2360     2.2210 
   97.2500   -15.3690    57.1860     9.9830     7.8030     7.9850    23.1490     2.2070 
   97.3750   -15.1370    54.7830     9.7870     7.6940     7.8200    23.0970     2.1980 
   97.5000   -14.8910    53.2320     9.7010     7.6200     7.8360    23.0860     2.2000 
   97.6250   -14.6180    56.2260     9.6420     7.5490     7.9040    23.1180     2.2150 
   97.7500   -14.2900    64.9130     9.4200     7.3800     7.9350    23.1730     2.2430 
   97.8750   -13.9860    74.7120     8.9450     7.0620     8.0710    23.2080     2.2750 
   98.0000   -13.6780    83.2360     8.2500     6.6110     7.6670    23.2610     2.3030 
   98.1250   -13.4340    91.1760     7.4730     6.1040     6.1900    23.4050     2.3210 
   98.2500   -13.2250    99.3220     6.8120     5.6560     5.3050    23.5630     2.3260 
   98.3750   -13.0680   104.2070     6.3580     5.3260     4.8470    23.6020     2.3250 
   98.5000   -12.9700   103.1430     6.1330     5.1360     4.7320    23.5340     2.3200 
   98.6250   -12.9030    98.7360     6.1260     5.0920     4.8630    23.4440     2.3160 
   98.7500   -12.9410    95.2050     6.3500     5.2150     5.1260    23.4430     2.3180 
   98.8750   -12.9940    93.0480     6.7310     5.4640     5.5220    23.4790     2.3250 
   99.0000   -13.1120    90.8870     7.1950     5.7990     6.0030    23.5090     2.3350 
   99.1250   -13.2260    89.4260     7.6310     6.1540     6.4930    23.5150     2.3450 
   99.2500   -13.3530    90.6840     7.8620     6.4130     6.9570    23.4450     2.3460 
   99.3750   -13.5190    91.9540     7.8240     6.4930     6.7530    23.3280     2.3300 
   99.5000   -13.6720    92.1980     7.5340     6.3730     6.4140    23.3070     2.3040 
   99.6250   -13.8550    93.4410     7.1140     6.1150     6.0430    23.4020     2.2870 
   99.7500   -14.0060    95.4720     6.8020     5.8620     5.7330    23.4740     2.2870 
   99.8750   -14.1600    95.5950     6.7920     5.7530     5.5470    23.4950     2.2880 
  100.0000   -14.3330    93.6500     7.1760     5.8610     5.4660    23.5390     2.2830 
  100.1250   -14.5080    90.5260     7.8990     6.1850     5.5090    23.5190     2.2710 
  100.2500   -14.6790    83.5780     8.6740     6.6100     5.8320    23.3910     2.2550 
  100.3750   -14.8220    76.5680     9.0390     6.8650     6.1520    23.1440     2.2390 
  100.5000   -14.9520    76.9870     8.7080     6.7460     6.3460    22.9240     2.2330 
  100.6250   -15.0700    84.5150     7.8080     6.2810     6.4170    22.9520     2.2460 
  100.7500   -15.1730    93.3590     6.9880     5.7930     6.2240    23.3080     2.2860 
  100.8750   -15.2980   100.2490     6.9100     5.6380     5.6900    23.8650     2.3410 
  101.0000   -15.4140   103.4550     7.8740     5.9950     5.9500    24.3980     2.4000 
  101.1250   -15.5640    98.4970     9.8390     6.9380     8.2490    24.6240     2.4560 
  101.2500   -15.7700    85.3850    12.3490     8.4270    16.1750    24.3180     2.5010 
  101.3750   -15.9970    72.8240    14.2870     9.8800    26.2610    23.9170     2.5170 
  101.5000   -16.2800    65.3660    14.7200    10.5930    23.3210    23.4620     2.4730 
  101.6250   -16.5530    64.2400    13.5150    10.2570    13.1880    23.1790     2.3710 
  101.7500   -16.8490    65.1240    11.5790     9.2780     9.3660    23.1370     2.2680 
  101.8750   -17.1050    64.7410    10.0870     8.4030     8.8330    23.1370     2.2080 
  102.0000   -17.3160    66.8920     9.3740     7.8790     9.4770    23.1530     2.1870 
  102.1250   -17.5170    72.8220     9.3220     7.7160     9.9480    23.2290     2.1890 
  102.2500   -17.6060    73.5230     9.6310     7.8170     9.8290    23.3700     2.1960 
  102.3750   -17.6390    68.0810     9.9250     7.9750     9.8680    23.4830     2.1980 
  102.5000   -17.6310    63.9420    10.0610     8.0830     9.9040    23.5150     2.1920 
  102.6250   -17.6270    65.3210    10.0480     8.1140     9.8470    23.4730     2.1800 
  102.7500   -17.6150    69.9530     9.9770     8.0920     9.8710    23.4460     2.1720 
  102.8750   -17.5960    73.2200     9.9340     8.0660     9.9730    23.4760     2.1760 
  103.0000   -17.5830    74.8520     9.9300     8.0470    10.0790    23.5290     2.1870 
  103.1250   -17.5290    75.0100     9.9270     8.0230    10.0680    23.5550     2.1970 
  103.2500   -17.5230    72.9420     9.8500     7.9510    10.0380    23.5220     2.2000 
  103.3750   -17.5480    67.0670     9.6810     7.8140     9.7950    23.4370     2.2010 
  103.5000   -17.5630    60.1530     9.4400     7.6260     9.6770    23.3460     2.2020 
  103.6250   -17.5780    57.3710     9.1790     7.4190     9.7430    23.3290     2.2010 
  103.7500   -17.5700    60.3870     8.9670     7.2390     9.8770    23.3990     2.1960 
  103.8750   -17.5690    63.5220     8.8330     7.1070     9.8780    23.4550     2.1890 
  104.0000   -17.5770    64.5600     8.7760     7.0270     9.8490    23.4740     2.1870 
  104.1250   -17.5720    63.2480     8.7660     6.9860     9.8260    23.4810     2.1910 
  104.2500   -17.5510    60.9470     8.7700     6.9700     9.7890    23.4930     2.1960 
  104.3750   -17.5020    59.8030     8.7700     6.9630     9.7480    23.5070     2.2000 
  104.5000   -17.4620    60.7210     8.7780     6.9670     9.6980    23.5050     2.2010 
  104.6250   -17.4250    62.8690     8.8130     6.9860     9.6640    23.5000     2.2020 
  104.7500   -17.4000    64.8720     8.8910     7.0250     9.6040    23.4790     2.2060 
  104.8750   -17.3800    65.6850     8.9860     7.0730     9.7420    23.4150     2.2090 
  105.0000   -17.3370    66.3450     9.0630     7.1110    10.0070    23.2900     2.2100 
  105.1250   -17.3220    67.1060     9.0810     7.1170    10.1990    23.2190     2.2030 
