~V
VERS. 2.00: Ver 2.00
~W
STRT.M 49.0000:
STOP.M 243.0000:
STEP.M 0.1250:
NULL. -999.2500:
UWI. F10196:
~C
DEPT.M :
SP.MV :
DEN.GM/CC :
GR.API :
RML.OHMM :
RI. :
RXO.OHMM :
CALI.CM :
~A
# ...
  195.2500   -36.4900     2.1960    70.4220   117.2200   105.3010   113.4650    24.6920 
  195.3750   -36.3870     2.1990    72.0570   116.0960   104.2900   120.0690    24.6220 
  195.5000   -36.2800     2.2030    71.1790   114.5560   102.7740   109.3510    24.5940 
  195.6250   -36.1610     2.2070    66.3280   114.0720   102.0400    91.5100    24.6390 
  195.7500   -36.0640     2.2080    63.1220   116.3580   103.7830    89.0160    24.7210 
  195.8750   -35.9670     2.2080    63.4130   121.4350   108.2990   118.2990    24.7770 
  196.0000   -35.8660     2.2110    64.1260   128.6200   115.2570   154.1250    24.8080 
  196.1250   -35.7620     2.2160    62.6470   136.1590   123.3220   176.6640    24.8280 
  196.2500   -35.5910     2.2220    59.8750   140.4180   129.4180   184.5710    24.8300 
  196.3750   -35.3490     2.2290    57.2470   138.8520   130.7060   181.6200    24.8260 
  196.5000   -35.0620     2.2360    57.1260   130.8630   125.8540   168.0700    24.8040 
  196.6250   -34.7780     2.2440    59.0900   118.3640   115.8320   161.3870    24.7730 
  196.7500   -34.4600     2.2530    58.7170   104.5710   103.1970   119.2580    24.7420 
  196.8750   -34.1240     2.2610    56.4680    91.9990    90.9400    84.7010    24.7140 
  197.0000   -33.7930     2.2680    55.9050    81.2910    80.1460    64.8810    24.6610 
  197.1250   -33.4830     2.2770    58.5080    72.4270    71.0370    54.5400    24.5420 
  197.2500   -33.2490     2.2850    62.3900    65.7860    63.9430    54.7550    24.4010 
  197.3750   -33.0820     2.2890    66.2250    61.6570    58.9860    51.5750    24.3450 
  197.5000   -32.9930     2.2850    70.0020    60.9470    56.8740    46.8100    24.3630 
  197.6250   -32.9010     2.2780    71.6430    64.6480    58.5150    41.4490    24.2700 
  197.7500   -32.7770     2.2670    69.5260    74.7030    65.9330    46.1060    24.2050 
  197.8750   -32.6290     2.2500    64.3350    90.8560    79.1910    65.5680    24.2990 
  198.0000   -32.4530     2.2340    58.0750   112.6250    97.8220   101.4040    24.5160 
  198.1250   -32.2530     2.2330    54.4590   137.3540   119.1480   135.8480    24.7280 
  198.2500   -32.0260     2.2560    55.3590   158.6260   137.2340   147.7100    24.7220 
  198.3750   -31.7940     2.3030    56.3330   172.7950   148.7560   141.8810    24.5670 
  198.5000   -31.5070     2.3690    55.0240   182.6800   155.7770   131.9630    24.3960 
  198.6250   -31.1830     2.4410    52.8750   195.5740   164.6420   127.9750    24.3030 
  198.7500   -30.8590     2.5010    50.4580   221.2690   184.7040   164.2860    24.2450 
  198.8750   -30.5570     2.5540    48.1720   262.5060   218.8830   245.9940    24.2530 
  199.0000   -30.2680     2.6110    47.6170   316.5150   264.8420   374.7810    24.2630 
  199.1250   -29.9730     2.6660    51.4220   363.6430   308.7370   528.0370    24.2440 
  199.2500   -29.6690     2.6940    57.1250   347.4760   311.9700   608.9670    24.2680 
  199.3750   -29.3280     2.6900    58.8750   265.3190   259.7860   541.3920    24.3770 
  199.5000   -28.9970     2.6650    57.7310   168.3580   177.3400   352.8510    24.4080 
  199.6250   -28.6900     2.6310    56.9540    96.3150   103.8250   179.1690    24.0320 
  199.7500   -28.4250     2.5920    60.7370    65.7900    59.8100   101.3080    23.4090 
  199.8750   -28.2250     2.5320    66.3250    38.9820    35.4380    61.7500    23.1100 
  200.0000   -28.1210     2.4410    72.8590    24.9890    22.7180    35.3640    23.2690 
  200.1250   -28.1020     2.3490    79.0140    17.8440    16.2220    18.8620    23.5260 
  200.2500   -28.1250     2.3020    79.7230    14.5510    13.2280    12.2000    23.6190 
  200.3750   -28.1810     2.3020    77.0280    12.8860    11.7150     9.9480    23.6200 
  200.5000   -28.2550     2.3270    76.6890    12.1430    11.0390     9.2780    23.6960 
  200.6250   -28.3510     2.3520    82.4960    11.8770    10.7970     8.9350    23.9490 
  200.7500   -28.5000     2.3640    88.2230    11.7740    10.7040     8.8050    24.2350 
  200.8750   -28.7070     2.3680    89.1720    11.6200    10.5640     8.6070    24.3880 
  201.0000   -28.9550     2.3690    88.6060    11.3550    10.3230     8.4970    24.3850 
  201.1250   -29.2530     2.3650    89.4860    10.9740     9.9760     8.2980    24.2730 
  201.2500   -29.6020     2.3570    90.9870    10.4810     9.5280     8.0670    24.0150 
  201.3750   -29.9750     2.3520    92.1010     9.9380     9.0340     7.6300    23.6940 
  201.5000   -30.3850     2.3550    94.7480     9.4070     8.5520     7.3520    23.4690 
  201.6250   -30.8560     2.3640    96.8220     8.9530     8.1390     7.4000    23.3460 
  201.7500   -31.3500     2.3800    94.3090     8.6470     7.8610     7.9110    23.2050 
  201.8750   -31.8290     2.4040    91.3320     8.4660     7.6970     9.3190    23.0450 
  202.0000   -32.2940     2.4200    89.3650     8.3730     7.6120    11.6370    22.9120 
  202.1250   -32.7410     2.4080    87.7580     8.3240     7.5670    14.5340    22.8200 
  202.2500   -33.1770     2.3650    86.9890     8.3190     7.5630    16.7620    22.7930 
  202.3750   -33.6250     2.3220    89.4660     8.4000     7.6360    16.9240    22.8690 
  202.5000   -34.0960     2.2940    93.8430     8.6210     7.8370    15.1250    23.0290 
  202.6250   -34.5520     2.2800    94.3200     9.0120     8.1920    14.2130    23.0440 
  202.7500   -34.9390     2.2780    88.1360     9.5460     8.6780    16.7860    22.8060 
  202.8750   -35.2040     2.2840    80.5860    10.0670     9.1520    17.6990    22.6060 
  203.0000   -35.3500     2.2930    76.2400    10.4150     9.4690    16.7010    22.5750 
  203.1250   -35.4290     2.2980    76.7720    10.4960     9.5420    14.9510    22.7010 
  203.2500   -35.4320     2.3020    77.5840    10.3430     9.4020    12.8070    22.9600 
  203.3750   -35.3430     2.3080    77.3210    10.1950     9.2680    11.0490    23.2500 
  203.5000   -35.1350     2.3160    77.0680    10.2490     9.3170    10.7760    23.4200 
  203.6250   -34.7810     2.3240    78.3540    10.6610     9.6910    12.8950    23.3320 
  203.7500   -34.2550     2.3380    80.9710    11.5860    10.5330    18.0050    23.0870 
  203.8750   -33.6570     2.3570    80.4320    12.8750    11.7050    21.2670    22.9670 
  204.0000   -33.0170     2.3760    76.3790    14.2370    12.9430    22.7710    23.0300 
  204.1250   -32.3320     2.3920    71.8490    15.1660    13.7870    24.2570    23.2990 
  204.2500   -31.6460     2.4080    71.6460    14.9310    13.5740    24.4600    23.7290 
  204.3750   -31.0060     2.4200    75.2750    13.6480    12.4080    20.2270    24.0350 
  204.5000   -30.4170     2.4180    79.8290    11.8410    10.7650    13.8130    24.0320 
  204.6250   -29.9070     2.3970    83.1340     9.2320     9.2340     9.3620    23.9020 
  204.7500   -29.5220     2.3660    83.3120     8.4490     8.3120     8.2570    23.8800 
  204.8750   -29.2350     2.3450    83.9230     8.4670     8.0540     8.8480    23.9220 
  205.0000   -28.9890     2.3390    88.1650     9.1930     8.4650    11.0890    23.9810 
  205.1250   -28.7270     2.3480    92.3180    11.0380     9.4640    14.9780    24.0190 
  205.2500   -28.3700     2.3710    88.6720    12.3800    10.7990    17.4150    24.0060 
  205.3750   -27.8720     2.4000    80.7110    13.1320    11.8630    16.9390    24.0090 
  205.5000   -27.2320     2.4260    76.0980    12.8960    12.1400    15.4830    24.0250 
  205.6250   -26.4490     2.4400    77.9330    11.7080    11.4570    13.4950    23.9730 
  205.7500   -25.4970     2.4350    84.1140    10.0120    10.0720    11.5430    23.8180 
  205.8750   -24.4160     2.4210    88.7700     8.4560     8.6250     9.5770    23.6280 
  206.0000   -23.2620     2.4020    87.6630     7.3090     7.4280     8.0160    23.5490 
  206.1250   -22.1140     2.3810    79.6990     6.6180     6.6050     6.9380    23.6440 
  206.2500   -21.0470     2.3640    69.3060     6.3690     6.2130     6.5940    23.9320 
  206.3750   -20.0720     2.3550    62.4300     6.3710     6.1150     6.6830    24.1890 
