~V
VERS. 2.00: Ver 2.00
~W
STRT.M 56.0000:
STOP.M 221.0000:
STEP.M 0.1250:
NULL. -999.2500:
UWI. F10169:
~C
DEPT.M :
GR.API :
RML.OHMM :
RI. :
RXO.OHMM :
CALI.CM :
SP.MV :
DEN.GM/CC :
~A
# ...
  157.2500    75.8490    11.7680     9.7390     7.4640    25.2170   -14.2560     2.2650 
  157.3750    75.7400    11.9340     9.8160     8.5970    25.1170   -14.2520     2.2590 
  157.5000    74.9020    12.2340    10.0220     9.3880    25.0720   -14.2650     2.2480 
  157.6250    74.6510    12.4650    10.2280     9.2790    25.0830   -14.3070     2.2390 
  157.7500    73.4120    12.4240    10.2770     9.1170    25.1280   -14.3370     2.2380 
  157.8750    71.3920    12.1850    10.1800     8.6250    25.1450   -14.4100     2.2420 
  158.0000    75.1890    11.9300    10.0500     8.0090    25.1260   -14.5160     2.2470 
  158.1250    84.2710    11.8370    10.0190     7.6360    25.0970   -14.6480     2.2490 
  158.2500    87.3820    12.0160    10.1930     7.9990    25.1090   -14.7800     2.2470 
  158.3750    82.5370    12.3700    10.5240     8.7690    25.1180   -14.9260     2.2430 
  158.5000    77.2930    12.7840    10.9310     9.5600    25.1140   -15.0860     2.2370 
  158.6250    76.4190    13.1240    11.3000     9.5810    25.0970   -15.2590     2.2290 
  158.7500    74.4460    13.2240    11.4670     8.9330    25.0940   -15.4850     2.2250 
  158.8750    71.2080    13.0350    11.3610     8.7540    25.1350   -15.7040     2.2300 
  159.0000    71.3590    12.5480    10.9540     8.7670    25.1740   -15.9150     2.2400 
  159.1250    76.0320    11.8340    10.3050     8.3950    25.1990   -16.1070     2.2490 
  159.2500    80.4880    11.0660     9.5650     7.3360    25.2340   -16.2900     2.2560 
  159.3750    82.0920    10.4600     8.9310     6.3300    25.2940   -16.4460     2.2610 
  159.5000    82.2340    10.1570     8.5210     6.0150    25.3280   -16.5790     2.2630 
  159.6250    81.2610    10.2310     8.4030     6.6040    25.3300   -16.6750     2.2650 
  159.7500    79.9510    10.7830     8.6730     7.8670    25.3160   -16.6990     2.2660 
  159.8750    79.2500    11.7990     9.3240     8.9180    25.3090   -16.6720     2.2660 
  160.0000    79.0020    13.4180    10.4420     9.3890    25.3330   -16.5760     2.2650 
  160.1250    77.5520    15.9140    12.1990    10.6740    25.3930   -16.4550     2.2610 
  160.2500    73.4420    19.9520    15.0970    14.6930    25.5270   -16.2750     2.2570 
  160.3750    68.6590    25.7270    19.4120    22.8600    25.7010   -16.1040     2.2510 
  160.5000    65.4030    33.3350    25.4310    33.9510    25.8810   -15.9420     2.2390 
  160.6250    63.6970    42.2600    32.9760    46.1280    26.0260   -15.7960     2.2190 
  160.7500    63.6700    50.6380    40.7420    57.2550    26.0990   -15.6540     2.1980 
  160.8750    63.8110    56.0340    46.4920    64.2580    26.1320   -15.5790     2.1850 
  161.0000    63.6150    57.1510    48.8410    63.4520    26.1420   -15.5640     2.1820 
  161.1250    62.2840    54.5820    47.9090    60.7040    26.1430   -15.6070     2.1860 
  161.2500    61.6530    50.2250    44.9660    52.6610    26.1310   -15.7090     2.1950 
  161.3750    63.0110    46.1920    41.8970    45.5970    26.0960   -15.8450     2.2050 
  161.5000    64.3650    43.2480    39.4900    37.0580    26.0530   -16.0220     2.2120 
  161.6250    63.8990    41.5760    38.0470    32.8640    26.0470   -16.2480     2.2120 
  161.7500    64.6100    40.9410    37.5490    36.2900    26.1060   -16.5300     2.2070 
  161.8750    67.5830    40.2150    37.1310    41.7670    26.1590   -16.8210     2.1990 
  162.0000    70.8440    38.3490    35.8350    38.2190    26.1650   -17.1260     2.1920 
  162.1250    69.9610    34.7760    33.0090    33.2930    26.1570   -17.4130     2.1900 
  162.2500    66.2000    29.8140    28.7820    33.7180    26.1410   -17.6880     2.1900 
  162.3750    64.9430    24.9700    24.4990    26.3400    26.0750   -17.9470     2.1920 
  162.5000    66.9690    21.2890    21.1230    16.9270    25.9840   -18.1840     2.2000 
  162.6250    70.6190    19.2670    19.1340    13.1280    25.9340   -18.3780     2.2150 
  162.7500    73.2770    19.1970    18.8540    13.5680    25.9460   -18.5150     2.2310 
  162.8750    73.9320    20.5770    19.9590    16.6070    25.9910   -18.6000     2.2380 
  163.0000    72.2280    23.6950    22.2970    21.3540    26.0390   -18.6540     2.2390 
  163.1250    69.7430    27.1420    25.5250    24.9320    26.0810   -18.6830     2.2370 
  163.2500    69.5200    30.2620    28.9490    26.8000    26.1320   -18.7390     2.2360 
  163.3750    70.2250    32.6190    31.7590    29.2120    26.1680   -18.7620     2.2330 
  163.5000    70.0060    34.0100    33.5880    29.3320    26.1360   -18.7760     2.2270 
  163.6250    69.1580    34.4740    34.3790    28.4190    26.0690   -18.8110     2.2190 
  163.7500    68.8250    33.9160    33.9830    29.4700    26.0690   -18.9160     2.2110 
  163.8750    67.6260    32.5260    32.5970    30.2290    26.1660   -19.0920     2.2080 
  164.0000    65.3470    30.5640    30.4800    28.1610    26.2350   -19.3180     2.2110 
  164.1250    64.0780    28.5690    28.1800    24.7310    26.2330   -19.5980     2.2200 
  164.2500    65.9010    27.4180    26.5010    21.5800    26.2070   -19.9190     2.2330 
  164.3750    68.6560    27.7230    25.9690    19.7220    26.1840   -20.3250     2.2460 
  164.5000    69.8770    30.0490    27.0620    21.6280    26.1980   -20.7950     2.2550 
  164.6250    69.3330    34.9010    30.2880    26.6960    26.2950   -21.3320     2.2540 
  164.7500    68.3690    43.3800    36.8680    36.6590    26.4350   -21.9050     2.2380 
  164.8750    66.7330    55.5510    47.2010    47.5010    26.5360   -22.4910     2.2170 
  165.0000    63.7800    71.4720    61.5800    71.6490    26.5980   -23.1050     2.1990 
  165.1250    60.0900    89.8640    78.8370   118.2970    26.6470   -23.7550     2.1890 
  165.2500    58.0090   106.3130    94.9670   148.3240    26.6510   -24.4090     2.1900 
  165.3750    57.8730   115.9640   105.5670   137.1130    26.6230   -25.0120     2.1960 
  165.5000    58.2040   117.1740   108.8480   112.8210    26.6350   -25.5510     2.2030 
  165.6250    59.5040   112.1990   106.0860    96.0940    26.7030   -26.0070     2.2090 
  165.7500    62.0220   104.7800   100.1010    93.9180    26.7620   -26.3900     2.2150 
  165.8750    63.6840    97.6780    93.8380    94.0630    26.7850   -26.7180     2.2200 
  166.0000    63.0030    91.3970    88.0910    90.1930    26.7900   -27.0000     2.2240 
  166.1250    61.4850    86.1690    83.1910    80.9000    26.7900   -27.1850     2.2290 
  166.2500    61.8130    83.0300    80.0900    63.5840    26.7900   -27.2770     2.2350 
  166.3750    61.6510    82.5690    79.4350    54.5850    26.7910   -27.3350     2.2370 
  166.5000    59.4850    85.0810    81.6190    56.5110    26.7900   -27.3700     2.2350 
  166.6250    56.8460    90.1600    86.3400    71.8970    26.7880   -27.3930     2.2310 
  166.7500    56.0390    96.8070    92.7030    90.1450    26.7760   -27.3820     2.2330 
  166.8750    57.5000   103.3540    99.0860   101.5410    26.7430   -27.3740     2.2500 
  167.0000    60.6010   109.2290   104.8400    91.5870    26.7040   -27.3300     2.2800 
  167.1250    62.9060   115.2270   110.5250    76.4970    26.7030   -27.3250     2.3110 
  167.2500    61.6830   124.1420   118.6140    80.6900    26.7330   -27.3640     2.3300 
  167.3750    58.0070   137.9770   131.0890   108.5200    26.8160   -27.4500     2.3330 
  167.5000    55.7460   157.8110   148.8950   137.8530    26.9670   -27.5740     2.3220 
  167.6250    55.2730   183.2480   171.4310   158.4010    27.1480   -27.7470     2.2950 
  167.7500    55.7700   211.9180   196.3950   171.1260    27.2810   -27.9600     2.2540 
  167.8750    57.5490   238.9470   219.8940   193.4370    27.3840   -28.1680     2.2180 
  168.0000    59.6510   261.5800   239.8740   214.2590    27.4940   -28.4390     2.1960 
  168.1250    60.3450   279.8990   256.3970   212.5610    27.5870   -28.7170     2.1850 
  168.2500    58.1640   295.6770   270.9550   217.0980    27.6520   -28.9860     2.1770 
  168.3750    55.1790   310.9010   285.4170   240.2270    27.6940   -29.2300     2.1700 
