~V
VERS. 2.00: Ver 2.00
~W
STRT.M 56.0000:
STOP.M 352.0000:
STEP.M 0.1250:
NULL. -999.2500:
UWI. F10109:
~C
DEPT.M :
DEN.GM/CC :
SP.MV :
GR.API :
RML.OHMM :
RI. :
RXO.OHMM :
CALI.CM :
~A
# ...
  247.2500     2.3300   -26.6920    52.4190    91.0260    84.9650    69.4460    24.8550 
  247.3750     2.3190   -26.6650    53.6550    89.3540    83.6820    70.0690    24.7700 
  247.5000     2.2980   -26.6370    53.6470    86.4100    81.0980    63.2980    24.7750 
  247.6250     2.2780   -26.6050    53.4840    83.0090    77.8280    58.1670    24.8060 
  247.7500     2.2670   -26.5910    54.7480    80.3050    74.9770    55.4940    24.8330 
  247.8750     2.2640   -26.6110    56.5090    79.0610    73.3250    53.9480    24.8330 
  248.0000     2.2640   -26.6380    56.9950    79.6320    73.3180    53.3340    24.7980 
  248.1250     2.2610   -26.6520    54.9240    82.1000    75.1980    54.1500    24.7660 
  248.2500     2.2530   -26.6690    52.7730    85.5330    78.2150    56.3520    24.7450 
  248.3750     2.2440   -26.6840    52.2080    89.1730    81.7280    59.7950    24.7210 
  248.5000     2.2380   -26.7150    51.3470    92.3680    85.1150    65.5190    24.7040 
  248.6250     2.2370   -26.7110    48.8470    94.7090    87.9150    66.9780    24.6920 
  248.7500     2.2400   -26.6870    48.2280    96.5710    90.3000    65.1020    24.6680 
  248.8750     2.2400   -26.6620    50.6920    98.2490    92.4990    63.4800    24.6610 
  249.0000     2.2360   -26.5920    53.7890    99.5370    94.3610    63.9410    24.6670 
  249.1250     2.2280   -26.5050    53.8050    99.0470    94.6960    65.2530    24.6500 
  249.2500     2.2230   -26.4120    52.2580    95.5860    92.3380    67.0340    24.6320 
  249.3750     2.2270   -26.2910    52.3980    88.5920    86.5660    70.0140    24.5880 
  249.5000     2.2430   -26.1380    54.3810    78.8790    77.8860    71.5770    24.4620 
  249.6250     2.2730   -25.9760    55.5950    68.6580    68.1720    64.7720    24.2330 
  249.7500     2.3090   -25.8010    56.3170    59.9980    59.5750    53.0180    23.9520 
  249.8750     2.3390   -25.6120    58.6970    53.4620    52.8270    43.7560    23.7220 
  250.0000     2.3560   -25.4730    62.3870    48.8000    47.8550    40.7760    23.6140 
  250.1250     2.3550   -25.3690    62.1950    45.6440    44.4130    43.5400    23.5960 
  250.2500     2.3450   -25.2750    60.5010    43.3860    41.8970    44.9180    23.5630 
  250.3750     2.3320   -25.2140    60.0790    42.0110    40.2310    39.0640    23.5110 
  250.5000     2.3230   -25.2150    59.8270    41.7420    39.5560    32.5230    23.4610 
  250.6250     2.3180   -25.3040    58.2790    43.1030    40.3550    32.2640    23.4180 
  250.7500     2.3140   -25.4520    57.4310    45.9060    42.6300    35.1080    23.4040 
  250.8750     2.3090   -25.6460    59.0920    50.1130    46.3990    37.7320    23.4230 
  251.0000     2.3030   -25.8580    61.6770    55.4380    51.4560    39.3870    23.4530 
  251.1250     2.2930   -26.1030    61.1780    61.1650    57.3930    41.5280    23.5230 
  251.2500     2.2830   -26.3840    58.7570    67.4350    63.3710    45.3680    23.6710 
  251.3750     2.2740   -26.6710    57.1610    72.9810    68.7740    49.9770    23.8400 
  251.5000     2.2670   -26.9070    57.3340    77.2900    73.1030    52.6050    23.9110 
  251.6250     2.2640   -27.0660    57.3390    79.7140    75.7530    52.4070    23.8730 
  251.7500     2.2630   -27.1890    55.4240    80.4230    76.8380    50.5680    23.8990 
  251.8750     2.2630   -27.2590    53.8240    79.5520    76.4220    48.7660    24.0200 
  252.0000     2.2620   -27.2890    53.0500    77.3650    74.6660    48.1250    24.1650 
  252.1250     2.2540   -27.2430    52.3290    74.1090    71.6840    47.5240    24.2870 
  252.2500     2.2400   -27.1180    51.5510    70.3380    68.0080    45.0010    24.4150 
  252.3750     2.2220   -26.9290    51.9520    66.2490    63.8750    41.3840    24.6170 
  252.5000     2.2070   -26.7190    54.3810    61.8170    59.3490    37.7570    24.8380 
  252.6250     2.2030   -26.5150    57.0600    56.8180    54.3170    33.6250    24.8610 
  252.7500     2.2110   -26.3060    58.1290    51.3890    48.9590    31.2430    24.6760 
  252.8750     2.2310   -26.0770    57.2470    45.9340    43.6560    29.6270    24.4090 
  253.0000     2.2620   -25.8050    56.5370    41.1460    39.0020    27.3570    24.1770 
  253.1250     2.3000   -25.5530    58.9100    38.1280    35.9200    24.8480    24.0340 
  253.2500     2.3380   -25.3390    62.1530    37.1790    34.6260    23.5410    23.9820 
  253.3750     2.3660   -25.1630    63.3030    38.3510    35.2040    24.2860    23.9530 
  253.5000     2.3740   -25.0060    60.9630    41.2750    37.4580    26.2010    23.9270 
  253.6250     2.3530   -24.8350    56.8420    45.1290    40.8910    29.7630    23.9250 
  253.7500     2.3140   -24.6410    54.5740    48.4220    44.1940    34.3520    23.9360 
  253.8750     2.2730   -24.4270    54.5910    49.9510    46.1620    39.3190    23.9410 
  254.0000     2.2450   -24.2230    55.4620    48.9530    45.8520    41.6630    23.9710 
  254.1250     2.2390   -24.0530    56.8830    45.2130    42.7550    39.3160    24.0050 
  254.2500     2.2520   -23.9010    58.2270    40.2940    38.2640    34.5570    23.9990 
  254.3750     2.2740   -23.7450    58.0890    35.5210    33.6720    30.2650    23.9710 
  254.5000     2.2960   -23.5710    56.6860    31.8750    29.9620    26.6960    23.9380 
  254.6250     2.3100   -23.4180    57.4240    29.9910    27.7590    23.7990    23.8880 
  254.7500     2.3140   -23.3030    60.3260    29.3920    26.7160    22.4770    23.8730 
  254.8750     2.3110   -23.2530    63.1240    29.6020    26.4830    22.9980    23.9200 
  255.0000     2.3070   -23.2740    64.5020    30.1340    26.6840    24.7560    23.9710 
  255.1250     2.3060   -23.3000    63.9370    30.6580    27.0330    27.8170    24.0200 
  255.2500     2.3070   -23.3130    61.3980    31.2100    27.4450    29.3080    24.0770 
  255.3750     2.3060   -23.3220    58.8730    31.8450    28.0830    28.2510    24.1110 
  255.5000     2.2990   -23.3460    58.7410    32.9500    29.1850    26.6740    24.1320 
  255.6250     2.2870   -23.3970    59.0250    34.5350    31.0030    28.2480    24.1790 
  255.7500     2.2740   -23.4570    58.3430    36.2720    33.2980    32.0650    24.2300 
  255.8750     2.2640   -23.5100    57.5560    38.3890    35.6900    35.7460    24.2540 
  256.0000     2.2580   -23.5460    56.7150    40.5050    37.6680    37.6200    24.2750 
  256.1250     2.2560   -23.5820    55.9850    41.3810    38.5650    38.5980    24.2830 
  256.2500     2.2580   -23.6080    55.5860    41.0930    38.3560    39.5720    24.2750 
  256.3750     2.2620   -23.6060    55.3390    39.9230    37.2620    40.1920    24.2820 
  256.5000     2.2670   -23.5700    56.4550    38.3550    35.7320    39.9940    24.3090 
  256.6250     2.2760   -23.4650    60.4100    37.0390    34.3690    38.7060    24.3350 
  256.7500     2.2900   -23.3240    63.5230    36.4600    33.6430    36.4200    24.3630 
  256.8750     2.3130   -23.1670    62.0030    36.8770    33.8230    34.7160    24.4010 
  257.0000     2.3440   -22.9670    57.2530    38.2930    34.9620    36.1180    24.4130 
  257.1250     2.3750   -22.7100    54.1240    40.4710    36.9390    41.3980    24.4040 
  257.2500     2.3960   -22.4020    53.1030    42.6630    39.0940    48.6180    24.4150 
  257.3750     2.4070   -22.0770    53.0140    44.1260    40.7210    55.9540    24.4250 
  257.5000     2.4130   -21.7560    53.6130    44.0690    41.0140    57.4660    24.4350 
  257.6250     2.4260   -21.4730    55.9550    41.4640    38.8920    51.7450    24.4880 
  257.7500     2.4460   -21.1880    58.2070    36.6630    34.5880    43.5430    24.5170 
  257.8750     2.4640   -20.8700    58.8210    30.4250    28.8140    39.0080    24.5020 
  258.0000     2.4690   -20.5550    59.2050    23.9540    22.7640    35.1760    24.4720 
  258.1250     2.4530   -20.2790    64.6720    18.6320    17.7540    25.4710    24.4510 
  258.2500     2.4290   -20.0650    72.2340    14.8670    14.1250    15.5870    24.4120 
  258.3750     2.4090   -19.9120    74.6070    12.6140    11.8090    10.8870    24.3720 
