~V
VERS. 2.00: Ver 2.00
~W
STRT.M 50.0000:
STOP.M 223.0000:
STEP.M 0.1250:
NULL. -999.2500:
UWI. F10135:
~C
DEPT.M :
SP.MV :
DEN.GM/CC :
GR.API :
RML.OHMM :
RI. :
RXO.OHMM :
CALI.CM :
~A
# ...
   72.5000    -7.6250     2.6530    71.1020    17.9190    12.5690    29.4110    24.9330 
   72.6250    -8.2790     2.6750    65.2810    21.0350    15.7940    47.1140    24.9330 
   72.7500    -9.0740     2.6300    65.7730    21.2970    17.1600    43.1100    24.9370 
   72.8750   -10.0060     2.5360    71.6180    18.6680    16.1240    25.2560    24.9560 
   73.0000   -10.9990     2.4300    78.1460    14.5640    13.4230    12.1670    25.0800 
   73.1250   -11.9670     2.3460    80.9120    10.9600    10.5150     8.9950    25.4790 
   73.2500   -12.9570     2.2910    79.4710     8.6200     8.3300     8.1060    25.5240 
   73.3750   -13.9790     2.2540    75.1360     7.3880     6.9480     8.0470    25.6350 
   73.5000   -15.0010     2.2250    71.8970     6.8780     6.1850     8.1840    25.8840 
   73.6250   -16.0030     2.2000    71.4800     6.7950     5.8860     8.4890    26.2470 
   73.7500   -16.9720     2.1830    71.9360     6.8530     5.8120     8.5780    26.4810 
   73.8750   -17.8620     2.1800    71.0920     6.9400     5.8490     8.5680    26.5590 
   74.0000   -18.6550     2.1920    69.0500     7.0040     5.9200     8.6230    26.5660 
   74.1250   -19.3070     2.2150    69.1380     7.0270     5.9800     8.5080    26.5660 
   74.2500   -19.8390     2.2310    70.6510     7.0220     6.0140     8.5010    26.5660 
   74.3750   -20.2290     2.2290    71.1700     6.9970     6.0190     8.5700    26.5630 
   74.5000   -20.5090     2.2010    69.7220     6.9530     5.9930     8.5530    26.5940 
   74.6250   -20.6490     2.1530    68.2890     6.8940     5.9330     8.2860    26.7770 
   74.7500   -20.6700     2.1090    69.6820     6.8330     5.8500     7.4190    27.0870 
   74.8750   -20.6730     2.0890    72.2130     6.7810     5.7580     6.1790    27.1960 
   75.0000   -20.6790     2.1010    72.5850     6.7460     5.6740     5.4880    26.8400 
   75.1250   -20.7470     2.1350    69.3690     6.7240     5.6080     6.2000    26.0560 
   75.2500   -20.8580     2.1680    65.5880     6.7000     5.5570     7.6260    25.0170 
   75.3750   -20.9970     2.1860    63.3630     6.6650     5.5120     8.6380    24.3680 
   75.5000   -21.1660     2.1890    62.9880     6.6180     5.4660     8.9200    24.4130 
   75.6250   -21.3390     2.1810    64.2980     6.5590     5.4090     8.8710    24.6090 
   75.7500   -21.4730     2.1740    66.4510     6.4950     5.3420     9.0190    24.8360 
   75.8750   -21.4610     2.1710    69.2840     6.4280     5.2670     8.9410    24.9200 
   76.0000   -21.3660     2.1750    72.7090     6.3590     5.1900     8.5240    24.9330 
   76.1250   -21.2230     2.1790    74.0750     6.2920     5.1210     8.2820    24.9440 
   76.2500   -20.9650     2.1800    71.5310     6.2320     5.0630     8.1210    25.0000 
   76.3750   -20.5690     2.1740    66.9720     6.1840     5.0210     8.0340    25.0560 
   76.5000   -20.0580     2.1650    65.1150     6.1520     4.9970     8.0540    25.0670 
   76.6250   -19.5270     2.1580    68.5920     6.1450     4.9980     8.1710    25.0670 
   76.7500   -18.9620     2.1600    71.8620     6.1690     5.0240     8.2390    25.0670 
   76.8750   -18.3280     2.1720    71.6040     6.2290     5.0800     8.2500    25.0620 
   77.0000   -17.5660     2.1910    69.2670     6.3160     5.1600     8.2220    25.0460 
   77.1250   -16.6320     2.2120    70.8910     6.3930     5.2440     8.2790    24.9510 
   77.2500   -15.5850     2.2300    75.5890     6.4050     5.2930     8.1820    24.9370 
   77.3750   -14.3910     2.2460    82.3530     6.3070     5.2690     7.9450    24.9330 
   77.5000   -13.0480     2.2650    91.5050     6.0840     5.1530     7.5250    24.9270 
   77.6250   -11.5230     2.2920   100.1480     5.7520     4.9400     6.7640    24.8890 
   77.7500    -9.9860     2.3230   104.0740     5.3940     4.6820     5.6910    24.8110 
   77.8750    -8.5730     2.3520   103.1180     5.0680     4.4220     4.9230    24.7830 
   78.0000    -7.2910     2.3710   102.2400     4.8190     4.1980     4.6050    24.7560 
   78.1250    -6.1830     2.3780   106.5880     4.6770     4.0480     4.5160    24.7260 
   78.2500    -5.2790     2.3780   112.8210     4.6190     3.9690     4.2550    24.6920 
   78.3750    -4.6140     2.3780   117.2890     4.6200     3.9510     4.1080    24.6700 
   78.5000    -4.1400     2.3810   119.3610     4.6490     3.9730     4.1810    24.6670 
   78.6250    -3.8990     2.3880   122.0310     4.6730     4.0070     4.5070    24.6770 
   78.7500    -3.7850     2.3960   124.6660     4.6800     4.0350     4.8150    24.7330 
   78.8750    -3.7590     2.4000   124.1380     4.6860     4.0600     4.7920    24.7900 
   79.0000    -3.8700     2.3940   122.0890     4.7340     4.1050     4.5660    24.8000 
   79.1250    -4.0990     2.3780   121.3880     4.9170     4.2300     4.6570    24.8000 
   79.2500    -4.4340     2.3570   119.7000     5.2800     4.4780     5.0090    24.8000 
   79.3750    -4.9020     2.3390   114.0510     5.8420     4.8840     5.8030    24.8000 
   79.5000    -5.5290     2.3260   103.9930     6.5630     5.4470     7.1720    24.8000 
   79.6250    -6.2760     2.3130    93.4870     7.3190     6.1200     8.4510    24.7980 
   79.7500    -7.0810     2.2950    86.0520     7.9410     6.7640     9.6170    24.7860 
   79.8750    -7.9280     2.2710    81.1550     8.3160     7.2630     9.3650    24.7110 
   80.0000    -8.7870     2.2430    78.2320     8.4050     7.5310     8.4300    24.6730 
   80.1250    -9.5840     2.2160    76.8500     8.2120     7.5080     7.8570    24.6550 
   80.2500   -10.1560     2.1910    76.1370     7.8480     7.2720     7.8350    24.5860 
   80.3750   -10.4390     2.1700    76.1100     7.3580     6.8730     7.8090    24.4710 
   80.5000   -10.4390     2.1610    77.8600     6.7800     6.3590     7.7900    24.8490 
   80.6250   -10.1320     2.1720    82.8880     6.1970     5.7980     7.2630    24.8110 
   80.7500    -9.5960     2.1990    90.0460     5.7710     5.3070     6.2760    24.6950 
   80.8750    -8.8590     2.2410    98.8850     5.6990     5.0150     5.2890    24.5310 
   81.0000    -8.0020     2.3020   107.4230     6.1780     5.0690     5.0400    24.4360 
   81.1250    -7.2050     2.3860   110.4700     7.4520     5.7000     5.3840    24.4170 
   81.2500    -6.6010     2.4770   105.7330     9.3240     6.8880     6.7380    24.4220 
   81.3750    -6.2340     2.5470    94.8140    11.4140     8.4880    10.9700    24.4230 
   81.5000    -6.1450     2.5640    84.0890    13.0590    10.0690    21.1660    24.4200 
   81.6250    -6.4520     2.5080    78.5720    13.3500    10.8510    25.9260    24.4880 
   81.7500    -7.0420     2.4090    76.1940    12.3590    10.6030    17.8620    24.7220 
   81.8750    -7.8610     2.3060    73.6780    10.6260     9.5670    11.1190    25.1340 
   82.0000    -8.7440     2.2260    70.7660     8.8960     8.2740     8.6110    25.5570 
   82.1250    -9.5170     2.1870    70.9160     7.7980     7.2630     7.8780    25.8340 
   82.2500   -10.2350     2.1740    74.5740     7.3140     6.6720     7.5910    25.9600 
   82.3750   -10.9130     2.1770    78.6220     7.2750     6.4540     7.6530    26.0030 
   82.5000   -11.5200     2.1860    79.6880     7.4720     6.4920     8.0070    26.0270 
   82.6250   -11.8960     2.1970    78.5830     7.7290     6.6650     8.3440    26.0560 
   82.7500   -12.1080     2.2040    79.5450     7.9200     6.8400     8.3360    26.0680 
   82.8750   -12.2420     2.2060    80.4170     8.0020     6.9540     8.3440    26.0720 
   83.0000   -12.3420     2.2040    79.2570     7.9730     6.9810     8.4190    26.0880 
   83.1250   -12.4180     2.1990    79.3720     7.8540     6.9160     8.4130    26.1350 
   83.2500   -12.4210     2.1970    81.3290     7.7090     6.8050     8.2650    26.1910 
   83.3750   -12.3820     2.1980    81.4300     7.5790     6.6780     8.1310    26.2160 
   83.5000   -12.3220     2.2010    79.7580     7.4910     6.5600     8.0890    26.2200 
   83.6250   -12.3040     2.2020    80.5150     7.4690     6.4770     8.3070    26.2320 
