~V
VERS. 2.00: Ver 2.00
~W
STRT.M 59.0000:
STOP.M 202.0000:
STEP.M 0.1250:
NULL. -999.2500:
UWI. F10133:
~C
DEPT.M :
GR.API :
RML.OHMM :
RI. :
RXO.OHMM :
CALI.CM :
SP.MV :
DEN.GM/CC :
~A
# ...
  149.0000    74.7550    57.4720    55.2730    73.4650    28.0630    -9.8230     2.2660 
  149.1250    74.5360    57.3490    54.7780    69.7370    28.1140   -10.2150     2.2680 
  149.2500    75.7190    58.2420    55.0740    63.6320    28.1670   -10.5900     2.2750 
  149.3750    76.9980    60.8600    56.9060    61.6850    28.2270   -10.8860     2.2830 
  149.5000    77.4330    65.3240    60.8290    70.1660    28.3330   -11.1980     2.2850 
  149.6250    76.9010    72.5100    67.5050    84.5000    28.4560   -11.5110     2.2780 
  149.7500    77.0920    83.0220    76.0220    99.4500    28.5410   -11.6990     2.2640 
  149.8750    79.3660    94.9750    84.7760   114.8060    28.6280   -11.8550     2.2480 
  150.0000    81.9900   103.6010    91.2340   132.9130    28.6380   -12.0110     2.2370 
  150.1250    81.0930   104.0300    92.1980   121.7930    28.5480   -12.0600     2.2370 
  150.2500    78.5430    99.1980    88.6110   105.0870    28.4060   -12.0700     2.2500 
  150.3750    78.0300    93.1260    82.9740    90.5670    28.3370   -12.1250     2.2700 
  150.5000    77.9400    88.5170    78.2420    80.6870    28.3490   -12.1590     2.2880 
  150.6250    75.9190    87.3280    76.9080    72.1140    28.4270   -12.1370     2.2920 
  150.7500    74.1560    88.6540    78.4950    65.4570    28.5140   -12.2090     2.2830 
  150.8750    73.6280    90.9150    81.5220    61.1120    28.6030   -12.2990     2.2720 
  151.0000    71.7090    92.3920    83.9590    84.2880    28.6450   -12.3010     2.2720 
  151.1250    67.0580    91.9430    84.0250   122.9820    28.6090   -12.3320     2.2950 
  151.2500    66.0510    90.6460    82.5390    86.1910    28.5190   -12.4120     2.3240 
  151.3750    69.5780    90.1870    81.2360    78.7690    28.5440   -12.4090     2.3400 
  151.5000    73.6260    92.1640    81.9790    95.6810    28.9300   -12.3940     2.3300 
  151.6250    73.9730    97.8240    86.4330   123.0900    29.6640   -12.4950     2.2920 
  151.7500    71.9460   105.9190    93.6970   164.7350    30.2200   -12.5290     2.2480 
  151.8750    70.7280   114.8170   102.2320   166.3930    30.5680   -12.5130     2.2110 
  152.0000    71.3790   122.7020   109.9960   125.9110    30.7970   -12.6030     2.1850 
  152.1250    73.4810   128.1060   115.0180   115.2340    31.0600   -12.6790     2.1690 
  152.2500    75.4970   131.8530   118.0200   120.2200    31.1120   -12.6530     2.1630 
  152.3750    75.9160   135.2280   120.6050   122.6050    30.7980   -12.6920     2.1720 
  152.5000    74.6110   139.2260   124.1530   109.7800    30.1600   -12.7880     2.1960 
  152.6250    73.6760   143.8430   128.8860   102.8430    29.7600   -12.7670     2.2280 
  152.7500    75.1730   147.9440   133.4520   114.8110    29.7130   -12.7610     2.2510 
  152.8750    78.3390   150.5900   136.7350   140.3530    29.7940   -12.8570     2.2580 
  153.0000    80.8290   151.4090   138.2510   151.5720    29.7900   -12.9360     2.2520 
  153.1250    80.8290   150.5210   138.0880   133.7840    29.7520   -12.9950     2.2400 
  153.2500    79.4400   148.9230   137.2810   121.5690    29.6440   -13.1780     2.2310 
  153.3750    78.5060   147.1590   136.5330   117.7170    29.5930   -13.4170     2.2250 
  153.5000    77.9280   145.3490   136.2190   130.0760    29.5660   -13.5730     2.2220 
  153.6250    75.5390   142.8950   135.9880   159.4970    29.5330   -13.7590     2.2190 
  153.7500    71.3900   139.1020   134.7830   165.9290    29.4390   -14.0010     2.2180 
  153.8750    68.5100   133.6330   131.7660   114.1300    29.0540   -14.1320     2.2200 
  154.0000    68.9470   126.8580   126.8340    66.8370    28.2260   -14.2150     2.2260 
  154.1250    70.9730   119.8970   120.7920    52.0010    27.5170   -14.3790     2.2330 
  154.2500    71.5180   113.9790   115.1870    60.4160    27.5990   -14.4810     2.2350 
  154.3750    70.9680   109.6980   110.8640    79.7420    28.1740   -14.4920     2.2270 
  154.5000    70.8180   107.2070   108.0650    96.9440    28.6730   -14.5890     2.2140 
  154.6250    72.1430   106.8500   107.0150   103.0750    28.4160   -14.7480     2.2040 
  154.7500    73.5050   108.6980   107.6960   106.7290    27.8420   -14.7940     2.2040 
  154.8750    73.7080   113.5930   110.7540   103.9930    27.3400   -14.9000     2.2150 
  155.0000    72.0860   122.9080   117.3780   102.3240    27.0400   -15.1090     2.2310 
  155.1250    70.2590   140.0700   130.9010   105.1910    26.8360   -15.2650     2.2450 
  155.2500    70.5550   167.0720   153.6570   117.3930    26.4680   -15.4340     2.2540 
  155.3750    71.3820   207.3170   189.0540   116.3990    25.8080   -15.7160     2.2490 
  155.5000    68.7050   264.2890   240.2350    84.7340    25.1080   -16.0020     2.2220 
  155.6250    63.8630   342.5310   310.8570    77.2900    24.9120   -16.2360     2.1660 
  155.7500    62.5400   433.7370   392.3460    96.4740    25.2100   -16.6440     2.1050 
  155.8750    64.1330   525.3080   471.7590   162.7690    25.5160   -17.1250     2.0680 
  156.0000    64.5460   600.8260   533.2570   319.9490    25.3060   -17.4810     2.0710 
  156.1250    63.1980   641.4830   561.5930   461.7770    24.8490   -17.7620     2.1090 
  156.2500    62.6260   650.1590   563.1700   407.9060    24.6340   -18.0160     2.1440 
  156.3750    62.7880   634.2360   546.0150   345.1700    25.0130   -18.1550     2.1530 
  156.5000    61.6420   604.3800   518.9760   363.4470    25.9370   -18.1110     2.1360 
  156.6250    59.0930   571.4400   490.2080   339.9880    26.8260   -17.9800     2.1170 
  156.7500    56.9160   544.1850   466.6780   238.6310    27.0930   -17.7390     2.1160 
  156.8750    56.3140   526.9650   452.5840   190.4020    26.9960   -17.3020     2.1360 
  157.0000    57.8020   521.6030   450.0510   200.9700    26.8790   -16.8370     2.1610 
  157.1250    60.3410   529.2580   460.8290   237.6450    27.0610   -16.4310     2.1610 
  157.2500    62.9370   544.8690   480.8360   233.9290    27.1880   -15.9310     2.1260 
  157.3750    64.0400   562.2090   506.1250   205.8550    26.9460   -15.3630     2.0700 
  157.5000    64.1260   569.5990   528.9150   158.9120    26.0270   -14.9650     2.0220 
  157.6250    65.9210   544.2060   527.9830   135.8840    24.6300   -14.4910     2.0190 
  157.7500    67.7290   480.5320   486.7550   116.1990    23.7840   -13.8820     2.0610 
  157.8750    67.7380   388.1080   405.5790    98.5350    23.4270   -13.3880     2.1330 
  158.0000    68.9760   289.8900   307.8120    96.7660    23.3450   -12.8970     2.2080 
  158.1250    73.7850   212.6260   225.4850    94.4690    23.3800   -12.2960     2.2590 
  158.2500    77.4110   161.8670   168.5950    56.4630    23.3830   -11.8180     2.2750 
  158.3750    77.4310   134.6190   135.5810    29.8290    23.1510   -11.5080     2.2610 
  158.5000    76.2270   125.8690   122.0050    20.5310    22.8070   -11.1350     2.2290 
  158.6250    75.8790   134.3330   126.6890    18.0350    22.7470   -10.8190     2.1990 
  158.7500    74.2780   156.0300   145.5440    16.5620    22.7640   -10.6840     2.1880 
  158.8750    70.6980   190.0610   178.0200    15.8010    22.5310   -10.6360     2.1970 
  159.0000    65.5600   233.5880   221.6340    16.2760    22.1300   -10.6360     2.2190 
  159.1250    62.3990   278.5750   267.8790    18.0470    21.8150   -10.7550     2.2450 
  159.2500    63.3730   313.1070   302.5560    19.8570    21.7100   -11.0120     2.2670 
  159.3750    66.1980   329.0620   316.9130    21.6090    21.8470   -11.2920     2.2820 
  159.5000    68.3800   324.0010   310.8780    24.1030    22.2040   -11.5410     2.2890 
  159.6250    69.9460   297.9070   288.0160    30.3330    22.6040   -11.9300     2.2860 
  159.7500    71.5120   258.6390   255.0110    41.3130    22.9670   -12.3900     2.2830 
  159.8750    70.7820   211.3050   213.7790    62.4110    23.2900   -12.7630     2.2900 
  160.0000    66.7800   162.5910   168.5370   104.7500    23.5900   -13.1290     2.3110 
  160.1250    64.9850   121.4700   127.9700   124.5760    23.8830   -13.5590     2.3330 
