~V
VERS. 2.00: Ver 2.00
~W
STRT.M 58.0000:
STOP.M 228.0000:
STEP.M 0.1250:
NULL. -999.2500:
UWI. F10151:
~C
DEPT.M :
SP.MV :
GR.API :
RML.OHMM :
RI. :
RXO.OHMM :
CALI.CM :
DEN.GM/CC :
~A
# ...
  193.0000   -26.6140    59.3850   186.0410   183.0310   155.5100    26.7820     2.2060 
  193.1250   -26.7890    60.7750   169.4250   166.4730   131.2960    25.8970     2.2040 
  193.2500   -26.8960    61.3610   155.6340   152.1870   115.8640    25.1850     2.2060 
  193.3750   -26.9650    61.9060   146.9320   142.6710   106.6550    25.0420     2.2130 
  193.5000   -27.1010    62.9160   144.2380   139.1460    96.0320    25.0430     2.2230 
  193.6250   -27.1970    63.7550   148.2850   142.7970    93.3690    25.0290     2.2290 
  193.7500   -27.2970    64.5530   156.7860   151.4870   118.6140    24.8850     2.2170 
  193.8750   -27.4490    64.8960   167.6970   163.1040   154.3080    24.9650     2.1800 
  194.0000   -27.4920    64.1060   178.4890   174.8470   170.3150    25.1680     2.1250 
  194.1250   -27.4350    63.4040   186.0420   183.1360   176.7090    25.2920     2.0780 
  194.2500   -27.4090    64.0140   189.1910   186.6330   157.4170    25.2550     2.0680 
  194.3750   -27.3590    64.8770   187.5650   185.1080   113.3820    24.9680     2.1010 
  194.5000   -27.2810    64.0120   181.4320   178.9650    87.0830    24.3950     2.1660 
  194.6250   -27.2050    63.2800   171.0640   168.3590    90.7230    24.0590     2.2300 
  194.7500   -27.0820    64.0840   158.5630   155.3900   115.8070    24.0900     2.2690 
  194.8750   -26.9920    64.4490   145.6750   141.9620   122.4080    24.2380     2.2780 
  195.0000   -27.0050    64.1480   134.1320   129.8980    98.7470    24.3750     2.2650 
  195.1250   -27.1970    65.0100   125.7790   121.1000    84.7850    24.6090     2.2440 
  195.2500   -27.4790    64.9100   120.7170   115.7660    92.9290    24.9920     2.2250 
  195.3750   -27.8290    63.0310   118.7770   113.7110   101.6200    25.2350     2.2130 
  195.5000   -28.1330    63.1770   119.4110   114.3040    99.6140    25.2310     2.2140 
  195.6250   -28.4380    67.9240   121.9040   117.0060    85.8590    24.9900     2.2400 
  195.7500   -28.7840    71.6800   124.4910   120.2310    87.2450    25.0000     2.2930 
  195.8750   -29.0480    71.8150   125.4060   122.1340    95.6700    24.8360     2.3620 
  196.0000   -29.2480    70.0470   123.0220   120.7800    92.3860    24.6060     2.4230 
  196.1250   -29.2990    67.9940   116.1610   114.5500    93.2050    24.3790     2.4410 
  196.2500   -29.1810    67.0400   106.7990   105.2240   100.6760    24.2450     2.4160 
  196.3750   -28.9370    66.7120    97.1990    95.1740    79.9800    24.2230     2.3660 
  196.5000   -28.6780    66.6280    89.5280    86.9130    58.3890    24.4220     2.3130 
  196.6250   -28.3330    68.0140    85.6550    82.5570    52.3170    24.7850     2.2800 
  196.7500   -27.8830    70.4510    85.1000    81.6120    58.1800    25.1310     2.2650 
  196.8750   -27.4190    69.3580    87.1390    83.3970    67.9310    25.2140     2.2610 
  197.0000   -26.9090    64.5590    90.6110    86.7960    79.8850    25.1740     2.2630 
  197.1250   -26.3960    62.7950    93.9060    90.0600    77.8580    25.1890     2.2660 
  197.2500   -26.0210    64.6790    95.6470    91.6700    70.0220    25.2390     2.2690 
  197.3750   -25.7190    65.2450    95.0690    91.0330    64.7240    25.2180     2.2720 
  197.5000   -25.4610    64.4710    91.8700    87.9940    69.9000    25.1530     2.2670 
  197.6250   -25.2810    66.2090    85.9990    82.3600    73.5630    25.1790     2.2380 
  197.7500   -25.1180    67.6900    79.0130    75.4980    70.1620    25.3950     2.1850 
  197.8750   -24.9110    66.3130    72.5740    69.0260    65.6890    25.8660     2.1330 
  198.0000   -24.6280    65.6190    68.4750    64.6380    61.4800    26.7400     2.1200 
  198.1250   -24.1930    68.5800    69.1400    64.5440    47.3280    25.9150     2.1920 
  198.2500   -23.5380    70.1790    75.0660    69.4910    42.5180    25.2910     2.3280 
  198.3750   -22.7720    67.2150    85.9670    80.0180    68.7250    24.7110     2.4850 
  198.5000   -21.8970    62.7760    98.3950    94.3830   124.8140    24.3330     2.6170 
  198.6250   -20.9200    63.7380   102.6470   103.5750   142.1250    24.1720     2.6830 
  198.7500   -19.9270    67.6030    92.9200    96.2420   124.4990    24.1950     2.6820 
  198.8750   -18.8810    71.0270    71.2920    71.9840   122.5630    24.3110     2.6180 
  199.0000   -17.7450    74.9200    46.4010    43.8830    89.7920    24.3910     2.5050 
  199.1250   -16.4240    78.5120    27.6750    24.8450    39.5240    24.2950     2.3750 
  199.2500   -15.0210    78.1190    15.9150    14.1370    15.4890    24.2270     2.2750 
  199.3750   -13.5310    73.8490     9.1750     8.6800     7.1380    24.2090     2.2310 
  199.5000   -12.0540    70.0520     5.7110     6.0200     4.7520    24.1380     2.2450 
  199.6250   -10.6520    69.9690     4.6090     4.9540     4.5320    24.0360     2.2990 
  199.7500    -9.1990    71.9530     4.5050     4.6460     5.0550    24.0220     2.3580 
  199.8750    -7.7550    77.2300     4.7930     4.8330     6.1370    24.1000     2.4030 
  200.0000    -6.4530    85.4210     5.2500     5.3070     6.2820    24.1780     2.4290 
  200.1250    -5.3570    93.2070     5.6990     5.8680     5.9870    24.2040     2.4320 
  200.2500    -4.4790    98.0590     6.0260     6.3300     5.6930    24.1770     2.4270 
  200.3750    -3.7980   101.9390     6.2040     6.6220     5.5860    24.1950     2.4200 
  200.5000    -3.1840   107.4590     6.2510     6.7470     5.7460    24.2130     2.4170 
  200.6250    -2.6620   111.4900     6.1920     6.7100     5.8650    24.2130     2.4130 
  200.7500    -2.2230   109.0690     6.0690     6.5500     5.6890    24.2240     2.4060 
  200.8750    -1.8700   102.8840     5.9100     6.2850     5.5060    24.2450     2.3940 
  201.0000    -1.5820    98.7450     5.7670     5.9740     5.5160    24.3100     2.3850 
  201.1250    -1.4010    98.8220     5.7770     5.7560     5.4730    24.2890     2.3870 
  201.2500    -1.2970    98.9810     6.0600     5.7610     5.5160    24.2280     2.4000 
  201.3750    -1.2070    96.8710     6.7120     6.0910     5.9590    24.2460     2.4160 
  201.5000    -1.1780    91.6170     7.7290     6.7820     7.1020    24.2590     2.4280 
  201.6250    -1.1750    85.3650     8.9550     7.7760     8.6840    24.2170     2.4290 
  201.7500    -1.2070    80.0610    10.0340     8.7630    10.1740    24.1580     2.4240 
  201.8750    -1.2820    76.9830    10.6900     9.4410    11.2820    24.1880     2.4160 
  202.0000    -1.4090    76.7180    10.8010     9.6200    11.8210    24.2470     2.4070 
  202.1250    -1.4990    79.6430    10.3980     9.2760    10.1300    24.1980     2.4010 
  202.2500    -1.5310    82.2110     9.7860     8.6970     8.9810    24.1640     2.3940 
  202.3750    -1.5390    82.6860     9.1320     8.0430     8.7710    24.1010     2.3840 
  202.5000    -1.4350    81.9060     8.5180     7.3890     9.4770    23.9480     2.3700 
  202.6250    -1.2550    79.6780     8.0060     6.8080     7.2600    23.7090     2.3560 
  202.7500    -1.0980    74.3950     7.6350     6.3620     5.9660    23.5910     2.3460 
  202.8750    -0.9220    69.3420     7.4480     6.0930     5.6190    23.8160     2.3460 
  203.0000    -0.7420    68.4850     7.4590     6.0120     5.9530    24.0560     2.3520 
  203.1250    -0.6780    71.5490     7.6510     6.1310     6.8510    24.1520     2.3570 
  203.2500    -0.6460    72.8600     7.9100     6.3640     7.6980    24.1650     2.3560 
  203.3750    -0.6670    71.9460     8.1450     6.6260     7.6400    24.1670     2.3510 
  203.5000    -0.7870    72.6650     8.2940     6.8360     7.3450    24.1520     2.3460 
  203.6250    -0.9330    79.1440     8.3280     6.9420     7.4020    24.1030     2.3410 
  203.7500    -1.0760    89.2420     8.2990     6.9540     7.3870    24.0270     2.3340 
  203.8750    -1.1800    96.5850     8.2460     6.8900     7.1250    23.9960     2.3240 
  204.0000    -1.2230    96.0090     8.1990     6.7760     6.7300    23.9480     2.3180 
  204.1250    -1.1400    89.1590     8.1730     6.6400     6.5550    23.8630     2.3260 
