~V
VERS. 2.00: Ver 2.00
~W
STRT.M 50.0000:
STOP.M 251.0000:
STEP.M 0.1250:
NULL. -999.2500:
UWI. F10193:
~C
DEPT.M :
DEN.GM/CC :
GR.API :
RML.OHMM :
RI. :
RXO.OHMM :
CALI.CM :
SP.MV :
~A
# ...
  140.0000     2.4810    73.7110    24.0330    20.9940    23.8000    25.7320     1.4720 
  140.1250     2.4660    74.1470    24.6180    21.6030    24.0130    25.8270     1.4610 
  140.2500     2.4650    76.1980    25.2670    22.2460    22.8040    25.8640     1.4590 
  140.3750     2.4860    76.2860    25.5810    22.6670    24.1750    25.8270     1.4920 
  140.5000     2.5120    73.8350    24.9230    22.3440    24.7320    25.7230     1.5660 
  140.6250     2.5100    71.9950    22.5100    20.5140    22.2580    25.5890     1.6650 
  140.7500     2.4710    73.9300    18.7810    17.4600    22.3980    25.4640     1.7620 
  140.8750     2.4060    78.1660    14.5280    13.8490    20.2710    25.3510     1.8470 
  141.0000     2.3410    81.2690    10.6740    10.4650    13.2690    25.2540     1.9250 
  141.1250     2.3050    82.2340     7.9950     7.9600     7.0060    25.2050     2.0180 
  141.2500     2.3030    83.8170     6.3590     6.2940     5.0290    25.1980     2.1480 
  141.3750     2.3250    86.5130     5.5410     5.3420     4.5630    25.1980     2.3220 
  141.5000     2.3530    88.2850     5.3040     4.9460     4.5700    25.1940     2.5270 
  141.6250     2.3700    87.3810     5.4630     4.9800     4.6460    25.2390     2.7340 
  141.7500     2.3720    85.8220     5.7330     5.1840     4.6910    25.3310     2.9170 
  141.8750     2.3640    85.0660     5.9640     5.4040     4.6990    25.4350     3.0660 
  142.0000     2.3530    86.0890     6.0940     5.5580     4.6760    25.5170     3.1850 
  142.1250     2.3480    87.0450     6.1290     5.6170     4.6540    25.5660     3.2840 
  142.2500     2.3520    87.4130     6.1230     5.6170     4.6230    25.5950     3.3790 
  142.3750     2.3590    87.5380     6.1090     5.5810     4.6410    25.6040     3.4820 
  142.5000     2.3650    88.8770     6.1130     5.5310     4.6920    25.6040     3.5990 
  142.6250     2.3640    90.0220     6.1560     5.4830     4.7260    25.5660     3.7230 
  142.7500     2.3590    88.9950     6.2290     5.4490     4.7090    25.4660     3.8280 
  142.8750     2.3540    88.3310     6.3170     5.4310     4.7550    25.2810     3.8940 
  143.0000     2.3500    89.6510     6.4020     5.4230     4.8420    25.0080     3.9060 
  143.1250     2.3490    90.0490     6.4700     5.4130     4.9420    24.7130     3.8580 
  143.2500     2.3460    88.8130     6.5180     5.3890     5.0190    24.4970     3.7770 
  143.3750     2.3410    88.9880     6.5450     5.3520     5.0600    24.4230     3.6880 
  143.5000     2.3320    91.2510     6.5580     5.3090     5.0830    24.5040     3.6090 
  143.6250     2.3240    93.5270     6.5670     5.2720     5.0490    24.7210     3.5470 
  143.7500     2.3190    94.4390     6.5810     5.2500     5.0430    24.9720     3.4870 
  143.8750     2.3210    93.5860     6.6090     5.2430     5.0980    25.2000     3.4170 
  144.0000     2.3320    92.0130     6.6530     5.2460     5.2000    25.3710     3.3310 
  144.1250     2.3490    91.9620     6.7080     5.2570     5.1970    25.4570     3.2360 
  144.2500     2.3690    93.2390     6.7640     5.2710     5.1600    25.4700     3.1540 
  144.3750     2.3850    94.0370     6.8200     5.2900     5.1550    25.4210     3.1060 
  144.5000     2.3930    94.2070     6.8770     5.3150     5.2120    25.3280     3.1080 
  144.6250     2.3920    93.3750     6.9280     5.3410     5.2730    25.2800     3.1670 
  144.7500     2.3870    92.9100     6.9600     5.3610     5.3040    25.3370     3.2570 
  144.8750     2.3830    94.2430     6.9620     5.3660     5.3070    25.4700     3.3530 
  145.0000     2.3800    95.3020     6.9370     5.3520     5.3040    25.6060     3.4290 
  145.1250     2.3780    95.4690     6.9070     5.3220     5.1830    25.6920     3.4790 
  145.2500     2.3740    95.6130     6.9010     5.2860     5.0440    25.7310     3.5200 
  145.3750     2.3670    95.8560     6.9220     5.2510     4.9540    25.7360     3.5650 
  145.5000     2.3570    94.2480     6.9410     5.2150     4.9610    25.7290     3.6210 
  145.6250     2.3470    90.4550     6.9100     5.1710     5.0680    25.7350     3.6890 
  145.7500     2.3420    89.5620     6.8140     5.1120     5.1180    25.7890     3.7500 
  145.8750     2.3470    92.9420     6.6670     5.0350     4.9680    25.8890     3.7960 
  146.0000     2.3610    97.5510     6.5070     4.9470     4.7290    25.9780     3.8230 
  146.1250     2.3780    99.1660     6.4010     4.8700     4.6420    26.0050     3.8330 
  146.2500     2.3880    99.0910     6.3750     4.8210     4.6150    26.0010     3.8270 
  146.3750     2.3860    99.0940     6.4220     4.8080     4.6430    26.0000     3.7960 
  146.5000     2.3740    97.9670     6.5150     4.8290     4.7000    26.0000     3.7230 
  146.6250     2.3550    96.8770     6.6210     4.8740     4.7210    26.0000     3.5820 
  146.7500     2.3360    97.5250     6.7090     4.9210     4.7370    26.0000     3.3960 
  146.8750     2.3230    99.1940     6.7620     4.9560     4.7250    26.0000     3.2060 
  147.0000     2.3210   100.3740     6.7690     4.9670     4.7540    26.0000     3.0530 
  147.1250     2.3300   100.1310     6.7260     4.9450     4.8190    26.0000     2.9660 
  147.2500     2.3410    98.5980     6.6590     4.8990     4.7650    26.0000     2.9170 
  147.3750     2.3480    94.1360     6.5940     4.8390     4.6240    25.9970     2.8850 
  147.5000     2.3450    88.1560     6.5540     4.7780     4.5860    26.0070     2.8570 
  147.6250     2.3350    86.4620     6.5340     4.7290     4.6530    26.0740     2.8500 
  147.7500     2.3250    91.7810     6.5030     4.6940     4.6850    26.2040     2.8730 
  147.8750     2.3190    99.2680     6.4490     4.6760     4.6680    26.3610     2.9150 
  148.0000     2.3220    99.7350     6.3810     4.6710     4.6380    26.4810     2.9470 
  148.1250     2.3320    93.8120     6.3350     4.6770     4.5860    26.5330     2.9420 
  148.2500     2.3470    90.5560     6.3310     4.6890     4.5690    26.5310     2.9080 
  148.3750     2.3600    91.1650     6.3620     4.7050     4.5570    26.4560     2.8650 
  148.5000     2.3690    93.3870     6.4060     4.7210     4.5520    26.3010     2.8290 
  148.6250     2.3670    94.5670     6.4370     4.7350     4.5440    26.1290     2.8020 
  148.7500     2.3570    94.6910     6.4560     4.7480     4.5370    26.0270     2.7820 
  148.8750     2.3430    93.3690     6.4730     4.7620     4.5120    25.9980     2.7770 
  149.0000     2.3300    91.4750     6.4910     4.7830     4.5350    25.9990     2.7910 
  149.1250     2.3210    91.2430     6.4930     4.8150     4.6340    26.0000     2.8220 
  149.2500     2.3150    93.6990     6.4780     4.8520     4.7900    26.0000     2.8510 
  149.3750     2.3140    97.9750     6.4570     4.8910     4.8530    26.0000     2.8620 
  149.5000     2.3180    99.9630     6.4490     4.9250     4.8010    26.0000     2.8430 
  149.6250     2.3260    97.2850     6.4630     4.9480     4.7840    26.0000     2.7860 
  149.7500     2.3320    95.2500     6.4890     4.9600     4.8090    26.0000     2.6970 
  149.8750     2.3300    96.4560     6.5220     4.9650     4.8310    26.0030     2.5830 
  150.0000     2.3190    98.7210     6.5660     4.9680     4.7730    25.9940     2.4610 
  150.1250     2.3050    98.5890     6.6320     4.9740     4.6940    25.9240     2.3630 
  150.2500     2.2970    97.1650     6.7250     4.9820     4.6040    25.8010     2.2900 
  150.3750     2.3000    95.8290     6.8390     4.9830     4.5680    25.6780     2.2190 
  150.5000     2.3110    94.1660     6.9600     4.9620     4.6350    25.5960     2.1160 
  150.6250     2.3230    91.2710     7.0240     4.8870     4.7100    25.5390     1.9630 
  150.7500     2.3300    88.7010     6.9850     4.7570     4.8130    25.4960     1.7870 
  150.8750     2.3310    90.3350     6.8760     4.6100     4.9340    25.5120     1.6120 
  151.0000     2.3260    93.8140     6.8440     4.5420     5.0450    25.5940     1.4500 
  151.1250     2.3150    90.7380     7.2450     4.7550     5.3020    25.6930     1.2950 
