~V
VERS. 2.00: Ver 2.00
~W
STRT.M 49.0000:
STOP.M 251.0000:
STEP.M 0.1250:
NULL. -999.2500:
UWI. F10165:
~C
DEPT.M :
GR.API :
RML.OHMM :
RI. :
RXO.OHMM :
CALI.CM :
SP.MV :
DEN.GM/CC :
~A
   49.0000  -999.2500  -999.2500  -999.2500  -999.2500  -999.2500  -999.2500     1.7830 
   49.1250  -999.2500  -999.2500  -999.2500  -999.2500  -999.2500  -999.2500     1.7270 
   49.2500  -999.2500  -999.2500  -999.2500  -999.2500  -999.2500  -999.2500     1.7040 
   49.3750  -999.2500  -999.2500  -999.2500  -999.2500  -999.2500  -999.2500     1.6970 
   49.5000  -999.2500  -999.2500  -999.2500  -999.2500  -999.2500  -999.2500     1.7060 
   49.6250  -999.2500  -999.2500  -999.2500  -999.2500  -999.2500  -999.2500     1.7400 
   49.7500  -999.2500  -999.2500  -999.2500  -999.2500  -999.2500  -999.2500     1.7880 
   49.8750  -999.2500  -999.2500  -999.2500  -999.2500  -999.2500  -999.2500     1.8450 
   50.0000  -999.2500  -999.2500  -999.2500  -999.2500  -999.2500  -999.2500     1.8970 
   50.1250  -999.2500  -999.2500  -999.2500  -999.2500  -999.2500  -999.2500     1.9170 
   50.2500  -999.2500  -999.2500  -999.2500  -999.2500  -999.2500  -999.2500     1.9020 
   50.3750  -999.2500  -999.2500  -999.2500  -999.2500  -999.2500  -999.2500     1.8800 
   50.5000  -999.2500  -999.2500  -999.2500  -999.2500  -999.2500  -999.2500     1.8820 
   50.6250  -999.2500  -999.2500  -999.2500  -999.2500  -999.2500  -999.2500     1.9090 
   50.7500  -999.2500  -999.2500  -999.2500  -999.2500  -999.2500  -999.2500     1.9330 
   50.8750  -999.2500  -999.2500  -999.2500  -999.2500  -999.2500  -999.2500     1.9460 
   51.0000  -999.2500  -999.2500  -999.2500  -999.2500  -999.2500  -999.2500     1.9590 
   51.1250  -999.2500  -999.2500  -999.2500  -999.2500  -999.2500  -999.2500     1.9650 
   51.2500  -999.2500  -999.2500  -999.2500  -999.2500  -999.2500  -999.2500     1.9540 
   51.3750  -999.2500  -999.2500  -999.2500  -999.2500  -999.2500  -999.2500     1.9410 
   51.5000  -999.2500  -999.2500  -999.2500  -999.2500  -999.2500  -999.2500     1.9400 
   51.6250  -999.2500  -999.2500  -999.2500  -999.2500  -999.2500  -999.2500     1.9510 
   51.7500  -999.2500  -999.2500  -999.2500  -999.2500  -999.2500  -999.2500     1.9570 
   51.8750  -999.2500  -999.2500  -999.2500  -999.2500  -999.2500  -999.2500     1.9540 
   52.0000  -999.2500  -999.2500  -999.2500  -999.2500  -999.2500    90.0790     1.9430 
   52.1250  -999.2500  -999.2500  -999.2500  -999.2500  -999.2500    90.0790     1.9250 
   52.2500  -999.2500  -999.2500  -999.2500  -999.2500  -999.2500    89.9160     1.9140 
   52.3750  -999.2500  -999.2500  -999.2500  -999.2500  -999.2500    89.5230     1.9210 
   52.5000  -999.2500  -999.2500  -999.2500  -999.2500  -999.2500    89.1540     1.9380 
   52.6250  -999.2500  -999.2500  -999.2500  -999.2500  -999.2500    88.8040     1.9420 
   52.7500  -999.2500  -999.2500  -999.2500  -999.2500  -999.2500    88.4550     1.9340 
   52.8750  -999.2500  -999.2500  -999.2500  -999.2500  -999.2500    88.0930     1.9280 
   53.0000  -999.2500  -999.2500  -999.2500  -999.2500  -999.2500    87.7050     1.9320 
   53.1250  -999.2500  -999.2500  -999.2500  -999.2500  -999.2500    87.2780     1.9460 
   53.2500  -999.2500  -999.2500  -999.2500  -999.2500  -999.2500    86.8060     1.9600 
   53.3750  -999.2500  -999.2500  -999.2500  -999.2500  -999.2500    86.2910     1.9670 
   53.5000  -999.2500  -999.2500  -999.2500  -999.2500  -999.2500    85.7480     1.9660 
   53.6250  -999.2500  -999.2500  -999.2500  -999.2500  -999.2500    85.2000     1.9640 
   53.7500  -999.2500  -999.2500  -999.2500  -999.2500  -999.2500    84.6540     1.9650 
   53.8750  -999.2500  -999.2500  -999.2500  -999.2500  -999.2500    84.1060     1.9640 
   54.0000  -999.2500  -999.2500  -999.2500  -999.2500  -999.2500    83.5440     1.9570 
   54.1250  -999.2500  -999.2500  -999.2500  -999.2500  -999.2500    82.9460     1.9400 
   54.2500  -999.2500  -999.2500  -999.2500  -999.2500  -999.2500    82.3160     1.9190 
   54.3750  -999.2500  -999.2500  -999.2500  -999.2500  -999.2500    81.6660     1.9050 
   54.5000  -999.2500  -999.2500  -999.2500  -999.2500  -999.2500    80.9870     1.9090 
   54.6250  -999.2500  -999.2500  -999.2500  -999.2500  -999.2500    80.2430     1.9320 
   54.7500  -999.2500  -999.2500  -999.2500  -999.2500  -999.2500    79.4410     1.9540 
   54.8750  -999.2500  -999.2500  -999.2500  -999.2500  -999.2500    78.5920     1.9640 
   55.0000    36.5470     0.1250     1.0040     0.0060    25.7020    77.7240     1.9640 
   55.1250    36.5470     0.1250     1.0040     0.0060    25.7020    76.8720     1.9650 
   55.2500    34.7820     0.1300     1.0160     0.0050    25.7020    76.0540     1.9690 
   55.3750    33.5250     0.1150     1.0290     0.0040    25.7020    75.2560     1.9680 
   55.5000    33.3180     0.0750     1.0380     0.0030    25.7000    74.4500     1.9580 
   55.6250    34.6570     0.0330     1.0410     0.0010    25.7020    73.6100     1.9470 
   55.7500    36.9560     0.0140     1.0410     0.0000    25.7040    72.7410     1.9500 
   55.8750    38.4270     0.0560     1.0420     0.0000    25.7070    71.8460     1.9680 
   56.0000    38.6750     0.2570     1.0460     0.0020    25.7040    70.9300     1.9890 
   56.1250    38.1590     0.7860     1.0570     0.0050    25.7020    69.9860     2.0010 
   56.2500    36.6000     1.5960     1.0760     0.0080    25.7010    69.0110     2.0070 
   56.3750    34.1110     2.5470     1.1010     0.0090    25.7010    68.0000     2.0110 
   56.5000    32.8870     3.4180     1.1300     0.0070    25.6990    66.9590     2.0110 
   56.6250    34.8070     3.8770     1.1590     0.0050    25.6970    65.8890     2.0070 
   56.7500    37.3600     3.8000     1.1800     0.0020    25.6970    64.7850     2.0000 
   56.8750    40.2780     3.2120     1.1890     0.0030    25.6970    63.6260     1.9840 
   57.0000    43.7840     2.3450     1.1870     0.0020    25.6960    62.3940     1.9570 
   57.1250    46.1490     1.5610     1.1760     0.0010    25.7000    61.0810     1.9230 
   57.2500    46.5500     1.0260     1.1620     0.0010    25.7170    59.7150     1.9030 
   57.3750    46.8340     0.6940     1.1490     0.0010    25.7430    58.3050     1.9070 
   57.5000    48.8820     0.4350     1.1430     0.0010    25.7570    56.8460     1.9330 
   57.6250    50.3160     0.2010     1.1450     0.0000    25.7630    55.3240     1.9640 
   57.7500    48.9320     0.0530     1.1550     0.0000    25.7680    53.7570     1.9860 
   57.8750    46.6010     0.0040     1.1670     0.0000    25.7720    52.1580     1.9960 
   58.0000    45.4370     0.0000     1.1740     0.0000    25.7710    50.5360     2.0020 
   58.1250    44.4670     0.0000     1.1720     0.0000    25.7740    48.8760     2.0080 
   58.2500    41.5990     0.0000     1.1670     0.0000    25.7800    47.1510     2.0160 
   58.3750    39.2740     0.0000     1.1630     0.0010    25.7820    45.3310     2.0250 
   58.5000    39.5190     0.0000     1.1620     0.0020    25.7810    43.4100     2.0390 
   58.6250    40.9430     0.0000     1.1570     0.0010    25.7820    41.3730     2.0640 
   58.7500    41.1950     0.0020     1.1370     0.0000    25.7830    39.2300     2.0950 
   58.8750    39.8380     0.0300     1.0860     0.0000    25.7830    36.9880     2.1260 
   59.0000    37.9590     0.1150     0.9810     0.0000    25.7830    34.6580     2.1600 
   59.1250    36.9630     0.1960     0.8170     0.0000    25.7830    32.2160     2.2120 
   59.2500    36.8450     0.2240     0.6560     0.0000    25.7830    29.6750     2.2860 
   59.3750    37.3200     0.2250     0.5440     0.0020    25.7830    27.0360     2.3790 
   59.5000    37.9600     0.2260     0.4900     0.0180    25.7830    24.2910     2.4560 
   59.6250    39.2700     0.2520     0.4900     0.2530    25.7630    21.3870     2.4170 
   59.7500    42.5850     0.3120     0.5410     1.3330    25.6720    18.3030     2.2860 
   59.8750    49.2120     0.4280     0.6810     3.6070    25.4500    15.0040     2.1560 
   60.0000    56.7270     0.6590     0.9910     7.0580    25.1330    11.4870     2.0760 
   60.1250    61.5860     1.2250     1.6510     9.4660    24.8120     7.8170     2.0590 
