~V
VERS. 2.00: Ver 2.00
~W
STRT.M 50.0000:
STOP.M 236.0000:
STEP.M 0.1250:
NULL. -999.2500:
UWI. F10144:
~C
DEPT.M :
DEN.GM/CC :
GR.API :
RML.OHMM :
RI. :
RXO.OHMM :
CALI.CM :
SP.MV :
~A
   50.0000  -999.2500    38.7210    21.2460     0.9540     1.5130    25.6610  -999.2500 
   50.1250     2.0400    42.5470    21.4760     0.9230     2.4780    25.6680  -999.2500 
   50.2500     2.0400    51.2810    22.1270     0.8750     4.5040    25.6750  -999.2500 
   50.3750     2.0400    59.5470    23.5350     0.8230    66.1960    25.6810  -999.2500 
   50.5000     2.0400    62.6820    25.9180     0.7820    14.4180    25.6850  -999.2500 
   50.6250     2.0400    60.7070    29.1630     0.7710     4.6320    25.6890  -999.2500 
   50.7500     2.0400    57.1190    32.0860     0.7890     4.8530    25.6850  -999.2500 
   50.8750     2.0400    53.4510    33.2390     0.8250     6.8580    25.6630  -999.2500 
   51.0000     2.0400    50.3070    31.9040     0.8670     8.9790    25.6180    33.9390 
   51.1250     2.0400    50.0340    29.0790     0.8980     7.6580    25.5750    33.9390 
   51.2500     2.0400    51.5850    26.8690     0.9160     7.9260    25.5490    33.9390 
   51.3750     2.0400    53.3880    26.3080     0.9250     6.9280    25.4830    33.9390 
   51.5000     2.0400    54.1900    28.0580     0.9240     5.3940    25.3370    33.9390 
   51.6250     2.0400    54.9520    33.5450     0.9150     6.3290    25.2400    33.6270 
   51.7500     2.0330    55.7160    42.8800     0.9000     9.6230    25.3070    33.4430 
   51.8750     2.0150    55.8870    53.1170     0.8860    10.2620    25.4590    33.4040 
   52.0000     1.9880    55.9550    55.7590     0.8790     9.4350    25.5520    33.5190 
   52.1250     1.9530    54.1900    46.5550     0.8810     6.2410    25.5540    33.5760 
   52.2500     1.9080    50.8250    36.2220     0.8870     4.9030    25.5540    33.9090 
   52.3750     1.8630    47.8230    29.0410     0.8950     4.1950    25.5610    34.3680 
   52.5000     1.8340    48.2230    24.8590     0.8990     4.5470    25.5640    34.9270 
   52.6250     1.8340    52.2770    22.9670     0.9000     4.9070    25.5640    35.5380 
   52.7500     1.8690    53.4410    22.6470     0.8960     5.0180    25.5640    36.1640 
   52.8750     1.9200    50.7330    24.1640     0.8840     4.6930    25.5610    36.7790 
   53.0000     1.9730    46.8470    27.7820     0.8610     3.8800    25.5590    37.3570 
   53.1250     2.0230    44.3810    32.5450     0.8350     3.1730    25.5560    37.8380 
   53.2500     2.0640    41.4820    34.8930     0.8160     3.0640    25.5510    38.2000 
   53.3750     2.0970    38.6380    33.2180     0.8120     4.1710    25.5480    38.4090 
   53.5000     2.1170    38.2540    29.7830     0.8200     7.8590    25.5510    38.4140 
   53.6250     2.1240    40.5960    27.3940     0.8320    10.1120    25.5550    38.0840 
   53.7500     2.1150    42.8390    26.3130     0.8380     8.2000    25.5530    37.4170 
   53.8750     2.0930    44.8000    25.9100     0.8390     7.2370    25.5480    36.3900 
   54.0000     2.0650    45.9380    25.5690     0.8330     7.2470    25.5490    35.0330 
   54.1250     2.0420    46.0380    25.3120     0.8250     7.5850    25.5520    33.3910 
   54.2500     2.0400    45.3590    25.6750     0.8150    13.8870    25.5520    31.6230 
   54.3750     2.0570    44.6810    27.0120     0.8060    23.5940    25.5520    29.8430 
   54.5000     2.0780    44.1900    29.2270     0.7960    28.5500    25.5530    28.1760 
   54.6250     2.0860    44.2350    31.5660     0.7860    28.7140    25.5520    26.7500 
   54.7500     2.0640    44.5400    32.5060     0.7780    27.0280    25.5520    25.5880 
   54.8750     2.0270    44.6550    30.7870     0.7750    21.6670    25.5570    24.6880 
   55.0000     1.9890    45.8620    26.8840     0.7790    18.6120    25.5630    24.0300 
   55.1250     1.9640    49.4710    22.9560     0.7930    13.5550    25.5670    23.5970 
   55.2500     1.9580    51.4290    20.3060     0.8080    10.3360    25.5650    23.3140 
   55.3750     1.9690    48.7750    18.9010     0.8180     8.1860    25.5600    23.1440 
   55.5000     1.9990    44.0950    18.3480     0.8180     9.5630    25.5580    23.0490 
   55.6250     2.0490    43.0700    18.3190     0.8070    16.7820    25.5590    22.9970 
   55.7500     2.1070    43.5540    18.6190     0.7910    20.6250    25.5610    22.9730 
   55.8750     2.1500    43.0090    19.4710     0.7750    19.6390    25.5600    22.9750 
   56.0000     2.1610    42.7550    21.2390     0.7590    17.2940    25.5560    23.0100 
   56.1250     2.1430    44.3960    23.9230     0.7480    19.8960    25.5550    23.0980 
   56.2500     2.1080    46.3800    26.0160     0.7410    23.9150    25.5550    23.2430 
   56.3750     2.0810    47.4810    25.7580     0.7420    23.2710    25.5540    23.4440 
   56.5000     2.0730    47.2880    23.0350     0.7500    19.3430    25.5520    23.7070 
   56.6250     2.0820    45.8420    19.8360     0.7630    14.3320    25.5480    24.0310 
   56.7500     2.0910    44.5430    17.6300     0.7720    13.0750    25.5430    24.3900 
   56.8750     2.0840    43.9830    16.4480     0.7740    20.0070    25.5390    24.7650 
   57.0000     2.0590    43.1720    15.8900     0.7680    53.2360    25.5380    25.1500 
   57.1250     2.0260    42.1610    15.5220     0.7590   152.3300    25.5390    25.5330 
   57.2500     2.0060    41.3850    15.1380     0.7510   328.2420    25.5410    25.9060 
   57.3750     2.0060    41.3200    14.7560     0.7470   524.7670    25.5460    26.2650 
   57.5000     2.0200    43.0490    14.4300     0.7460   463.5400    25.5560    26.6010 
   57.6250     2.0350    46.8750    14.1280     0.7460   377.2630    25.5600    26.8990 
   57.7500     2.0420    49.9380    13.7040     0.7460  1024.2510    25.5580    27.1730 
   57.8750     2.0450    51.0790    13.0760     0.7460 18791.9390    25.5550    27.4240 
   58.0000     2.0450    51.0090    12.3000     0.7450 24583.8090    25.5550    27.6520 
   58.1250     2.0450    52.4020    11.5530     0.7440  1354.3660    25.5580    27.8580 
   58.2500     2.0480    54.6050    10.9570     0.7420   666.5440    25.5590    28.0660 
   58.3750     2.0570    55.1560    10.5290     0.7390   848.1200    25.5610    28.2860 
   58.5000     2.0720    52.9010    10.2460     0.7380  1980.4510    25.5610    28.5260 
   58.6250     2.0900    50.5200    10.0510     0.7380 24583.8090    25.5600    28.7910 
   58.7500     2.1010    51.3790     9.8530     0.7390 24583.8090    25.5560    29.0650 
   58.8750     2.1000    53.6800     9.5850     0.7400 24583.8090    25.5520    29.3310 
   59.0000     2.0880    55.5290     9.1990     0.7420 24583.8090    25.5490    29.5820 
   59.1250     2.0720    56.5480     8.7680     0.7450 24583.8090    25.5460    29.7980 
   59.2500     2.0570    58.0350     8.5160     0.7460 24583.8090    25.5430    29.9710 
   59.3750     2.0440    60.3480     8.6300     0.7450 24583.8090    25.5380    30.0820 
   59.5000     2.0370    61.7080     9.1380     0.7380 24583.8090    25.5290    30.1070 
   59.6250     2.0400    60.1870     9.7960     0.7290 24583.8090    25.5130    29.9840 
   59.7500     2.0460    58.1650    10.2540     0.7200 24583.8090    25.5010    29.6720 
   59.8750     2.0500    56.9960    10.5700     0.7110  8602.4210    25.4890    29.1230 
   60.0000     2.0480    54.9640    11.2490     0.6960   482.2970    25.4630    28.2830 
   60.1250     2.0460    52.7710    13.3600     0.6680   159.4150    25.4190    27.0560 
   60.2500     2.0530    54.4930    17.4470     0.6200    77.7030    25.3820    25.4910 
   60.3750     2.0730    57.4180    20.7330     0.5370    55.3820    25.3620    23.5880 
   60.5000     2.1010    55.2490    14.8130     0.4110    43.0860    25.3570    21.3470 
   60.6250     2.1300    49.0470     6.2690     0.2620    35.7040    25.3530    18.6910 
   60.7500     2.1870    47.2090     2.3850     0.1390    21.3090    25.3460    15.6750 
   60.8750     2.2980    50.8690     0.9170     0.0620     8.5170    25.3510    12.3280 
   61.0000     2.4320    56.9340     0.4070     0.0290     2.7920    25.3130     8.6970 
   61.1250     2.5040    62.0890     0.3690     0.0480     1.8970    25.0490     4.8460 
