~V
VERS. 2.00: Ver 2.00
~W
STRT.M 43.0000:
STOP.M 249.0000:
STEP.M 0.1250:
NULL. -999.2500:
UWI. F10197:
~C
DEPT.M :
GR.API :
RML.OHMM :
RI. :
RXO.OHMM :
CALI.CM :
SP.MV :
DEN.GM/CC :
~A
# ...
   99.2500    56.0650    12.3670    10.6780    14.4150    22.7350   -36.4470     2.1330 
   99.3750    55.1960    11.9270    10.4120    14.1260    22.8890   -35.4400     2.1350 
   99.5000    58.9810    10.9920     9.7120    13.5930    23.0210   -34.2590     2.1470 
   99.6250    68.4410     9.7670     8.6990    12.4140    23.0980   -32.9820     2.1640 
   99.7500    77.7430     8.6540     7.7070    10.2590    23.1220   -31.7720     2.1790 
   99.8750    82.3480     7.8800     6.9360     7.9610    23.0830   -30.7400     2.1920 
  100.0000    81.4490     7.5310     6.4810     7.2290    22.9350   -29.8890     2.1990 
  100.1250    74.7250     7.6390     6.4100     8.2120    22.7720   -29.2430     2.1930 
  100.2500    68.4000     8.0280     6.6200     9.4130    22.6460   -28.8630     2.1820 
  100.3750    66.9140     8.5480     7.0300     9.5970    22.5760   -28.7580     2.1810 
  100.5000    71.2960     9.0410     7.5160     8.9210    22.5420   -28.8390     2.1960 
  100.6250    75.5680     9.3700     7.9360     9.5760    22.5870   -29.0390     2.2120 
  100.7500    74.8060     9.5660     8.2400    10.9590    22.6160   -29.2140     2.2100 
  100.8750    71.2960     9.7070     8.4590    11.1840    22.5760   -29.2800     2.1920 
  101.0000    66.2220     9.8460     8.6360    10.4390    22.5230   -29.2420     2.1730 
  101.1250    61.3350     9.9240     8.7420    10.4210    22.4820   -29.0910     2.1630 
  101.2500    59.3650     9.8160     8.6920    10.9340    22.3940   -28.8090     2.1600 
  101.3750    62.5860     9.4250     8.3980    11.2200    22.2270   -28.3750     2.1660 
  101.5000    70.1990     8.7550     7.8490    10.5220    22.0340   -27.7770     2.1840 
  101.6250    80.1580     7.9470     7.1470     9.0230    21.9060   -27.0430     2.2100 
  101.7500    88.3920     7.2720     6.5120     7.5380    21.9390   -26.2630     2.2320 
  101.8750    91.0060     6.9300     6.1030     6.8140    22.0770   -25.4470     2.2390 
  102.0000    87.5820     7.0120     6.0130     6.6820    22.1860   -24.5730     2.2230 
  102.1250    81.4930     7.5470     6.3170     7.1590    22.1390   -23.5820     2.1820 
  102.2500    75.4470     8.3150     6.8900     7.9530    21.8220   -22.4610     2.1400 
  102.3750    69.9110     9.1150     7.5920     8.6230    21.1550   -21.2070     2.1070 
  102.5000    67.6190     9.7310     8.2340     8.7120    20.0960   -19.8730     2.0840 
  102.6250    70.1890     9.9330     8.5760     8.9230    19.2450   -18.5650     2.0770 
  102.7500    73.1200     9.7480     8.5700     9.1720    18.7120   -17.3370     2.0920 
  102.8750    74.5720     9.2760     8.2630     9.2570    18.5390   -16.2050     2.1220 
  103.0000    75.7810     8.6730     7.7730     8.7650    18.8490   -15.1790     2.1460 
  103.1250    78.8770     8.1140     7.2490     7.9110    19.7200   -14.3940     2.1450 
  103.2500    81.5660     7.7160     6.8140     7.2160    20.4390   -13.9430     2.1370 
  103.3750    81.4260     7.5440     6.5430     7.2550    20.5880   -13.8820     2.1370 
  103.5000    80.1180     7.6330     6.4760     7.6970    20.6270   -14.2090     2.1380 
  103.6250    81.5710     8.0080     6.6590     8.0840    21.0610   -14.8410     2.1250 
  103.7500    80.5700     8.5670     7.0280     8.4510    21.9200   -15.6340     2.1010 
  103.8750    75.3630     9.2180     7.5290     9.2010    22.9060   -16.5470     2.0800 
  104.0000    68.8800     9.8610     8.0910    10.4980    23.5140   -17.5410     2.0750 
  104.1250    65.6190    10.4000     8.6320    11.9000    23.5610   -18.5520     2.0910 
  104.2500    63.5100    10.8460     9.1170    12.6300    23.4860   -19.4730     2.1200 
  104.3750    61.2800    11.2640     9.5630    12.8060    23.5330   -20.2710     2.1500 
  104.5000    61.3930    11.7430    10.0190    12.8120    23.7050   -20.9290     2.1740 
  104.6250    62.6950    12.3550    10.5420    12.8180    23.9090   -21.3990     2.1890 
  104.7500    63.7220    13.0150    11.0990    12.7800    24.0240   -21.7250     2.1950 
  104.8750    65.7410    13.5510    11.5840    12.7000    23.9060   -21.9600     2.1940 
  105.0000    67.1110    13.7560    11.8490    12.6640    23.5730   -22.1370     2.1850 
  105.1250    66.2420    13.4350    11.7170    12.7110    23.2280   -22.2730     2.1750 
  105.2500    64.6520    12.7660    11.2750    12.8490    23.0390   -22.3970     2.1740 
  105.3750    65.3030    11.9750    10.6650    12.9850    22.9710   -22.4840     2.1800 
  105.5000    67.2100    11.2840    10.0540    12.9920    22.9660   -22.5160     2.1840 
  105.6250    64.9560    10.8640     9.6010    12.9540    22.9950   -22.5080     2.1820 
  105.7500    59.9190    10.6750     9.3320    12.9950    23.0420   -22.4520     2.1790 
  105.8750    57.5660    10.6480     9.2230    13.1070    23.0960   -22.3270     2.1760 
  106.0000    60.1020    10.7020     9.2160    13.2630    23.1490   -22.1310     2.1730 
  106.1250    64.3810    10.7630     9.2430    13.4420    23.1690   -21.8470     2.1700 
  106.2500    65.5490    10.7830     9.2440    13.5420    23.1600   -21.4780     2.1660 
  106.3750    64.1400    10.7330     9.1930    13.4280    23.1190   -21.0810     2.1630 
  106.5000    62.6620    10.6060     9.0810    13.1870    23.0580   -20.6910     2.1610 
  106.6250    62.8540    10.4110     8.9180    13.0120    22.9440   -20.3170     2.1630 
  106.7500    64.1950    10.2040     8.7480    12.8440    22.7340   -19.9920     2.1640 
  106.8750    64.5350    10.0320     8.6020    12.6190    22.4170   -19.7310     2.1630 
  107.0000    63.3530     9.9320     8.5080    12.2250    22.0290   -19.5430     2.1630 
  107.1250    63.0600     9.9290     8.4890    11.8140    21.6830   -19.4180     2.1670 
  107.2500    63.3330     9.9920     8.5290    11.8480    21.5870   -19.2960     2.1720 
  107.3750    62.8990    10.0890     8.6070    12.2030    21.7530   -19.0960     2.1710 
  107.5000    61.0020    10.1820     8.6980    12.2870    22.0450   -18.7930     2.1650 
  107.6250    58.3370    10.2240     8.7600    12.2530    22.1860   -18.3750     2.1590 
  107.7500    57.8610    10.1890     8.7630    11.6650    22.0460   -17.8190     2.1550 
  107.8750    59.5630    10.0590     8.6910    10.8290    21.6420   -17.0990     2.1500 
  108.0000    62.1420     9.8270     8.5310    10.1490    21.0490   -16.2050     2.1400 
  108.1250    65.5330     9.4730     8.2580     9.4710    20.1960   -15.1640     2.1330 
  108.2500    70.3200     9.0350     7.8950     8.6310    19.3840   -14.0900     2.1360 
  108.3750    75.8590     8.5610     7.4740     7.8690    18.7950   -13.0800     2.1510 
  108.5000    79.5610     8.1200     7.0470     7.1210    18.5450   -12.1700     2.1690 
  108.6250    80.2030     7.8140     6.6950     6.7000    18.6230   -11.3970     2.1840 
  108.7500    80.1420     7.6800     6.4600     6.6600    18.8680   -10.8030     2.1950 
  108.8750    81.5410     7.7230     6.3580     6.8660    19.3160   -10.4390     2.2020 
  109.0000    83.2660     7.8830     6.3640     7.0250    19.9320   -10.3150     2.2080 
  109.1250    82.4990     8.0190     6.4020     7.2780    20.7100   -10.4510     2.2130 
  109.2500    81.5260     7.9840     6.3640     7.5710    21.2740   -10.7970     2.2200 
  109.3750    82.3870     7.7380     6.2010     7.7550    21.3540   -11.3170     2.2290 
  109.5000    83.1550     7.3900     5.9600     7.7200    21.1360   -11.9930     2.2390 
  109.6250    82.1520     7.2230     5.8070     7.3000    20.8050   -12.8950     2.2520 
  109.7500    82.7850     7.4410     5.8840     6.7160    20.5790   -13.9770     2.2620 
  109.8750    83.5800     8.1150     6.2670     6.5350    20.5150   -15.1920     2.2630 
  110.0000    81.3910     9.1720     6.9570     7.4510    20.6490   -16.5100     2.2510 
  110.1250    76.1750    10.3660     7.8560    10.4110    21.1680   -17.8910     2.2250 
  110.2500    68.7690    11.2970     8.6780    13.8850    21.8310   -19.2600     2.1950 
  110.3750    61.2570    11.6910     9.1800    14.6170    22.4130   -20.5730     2.1670 
