~V
VERS. 2.00: Ver 2.00
~W
STRT.M 50.0000:
STOP.M 223.0000:
STEP.M 0.1250:
NULL. -999.2500:
UWI. F10135:
~C
DEPT.M :
SP.MV :
DEN.GM/CC :
GR.API :
RML.OHMM :
RI. :
RXO.OHMM :
CALI.CM :
~A
# ...
  173.7500   -15.4980     2.2240    74.0400   127.6530   109.4940    38.6230    22.3170 
  173.8750   -15.3340     2.2240    75.1530   147.7190   127.0280    54.6320    22.3980 
  174.0000   -15.1830     2.2290    77.1880   164.3240   141.0750    75.0470    22.5940 
  174.1250   -15.0790     2.2300    78.8200   177.0880   151.0420    92.5790    22.8430 
  174.2500   -14.9870     2.2230    77.3060   188.5130   159.2390   117.5050    22.9480 
  174.3750   -14.8950     2.2090    73.9690   200.1190   167.1340   143.2370    22.9710 
  174.5000   -14.8700     2.1930    70.9210   211.9840   175.0410   166.9210    22.9700 
  174.6250   -14.9460     2.1860    70.4990   222.1670   181.6930   189.0800    22.9420 
  174.7500   -15.0650     2.1900    71.0840   228.7000   185.7120   196.5220    22.8540 
  174.8750   -15.1740     2.2030    70.5380   230.6100   186.3770   193.5840    22.7130 
  175.0000   -15.2350     2.2230    69.4450   228.5040   184.1260   203.3480    22.5900 
  175.1250   -15.2800     2.2440    69.8250   224.2350   180.4510   196.9620    22.5480 
  175.2500   -15.3290     2.2590    72.1120   220.1310   177.3210   177.0320    22.5390 
  175.3750   -15.3410     2.2700    73.5090   216.5170   175.2640   158.3220    22.5550 
  175.5000   -15.3070     2.2790    71.6170   212.1480   173.5340   161.1320    22.6460 
  175.6250   -15.2570     2.2930    68.6690   204.1970   170.0610   162.8750    22.9040 
  175.7500   -15.1590     2.3120    67.2640   191.6000   163.4840   164.5210    23.1980 
  175.8750   -15.0480     2.3370    67.1340   174.4960   153.3210   136.8680    23.3460 
  176.0000   -14.8900     2.3690    67.1580   154.2420   140.0210    92.9300    23.3520 
  176.1250   -14.5800     2.4080    66.3800   132.8790   124.5350    52.1010    23.2920 
  176.2500   -14.1840     2.4440    64.2170   112.5360   108.6340    39.7470    23.2720 
  176.3750   -13.7930     2.4600    61.8260    94.3210    93.3960    45.4490    23.3300 
  176.5000   -13.3930     2.4460    61.1170    78.7750    79.5910    57.2600    23.4930 
  176.6250   -12.8340     2.3990    61.8490    66.4540    68.0180    52.1090    23.7110 
  176.7500   -12.2110     2.3480    61.5150    56.6970    58.4840    39.6800    23.8030 
  176.8750   -11.6160     2.3170    59.7020    49.2560    50.9100    34.3860    23.8240 
  177.0000   -11.1460     2.3190    57.6410    43.9390    45.1880    30.4820    23.8240 
  177.1250   -10.7670     2.3520    56.3960    41.0310    41.5980    24.1560    23.8240 
  177.2500   -10.4160     2.3870    57.0720    40.3080    39.9510    22.4430    23.8240 
  177.3750   -10.0690     2.4040    59.4220    42.0420    40.5080    21.7210    23.8240 
  177.5000    -9.7460     2.3920    60.8930    46.6120    43.6770    25.4900    23.8240 
  177.6250    -9.5860     2.3510    61.4160    54.9840    50.4800    33.1280    23.8240 
  177.7500    -9.5410     2.2970    63.1500    66.7570    60.5610    46.6060    23.8290 
  177.8750    -9.4830     2.2390    67.3010    81.4740    73.3300    71.0070    23.8450 
  178.0000    -9.3480     2.1850    72.1020    97.9950    87.4200    99.9870    23.8740 
  178.1250    -9.2870     2.1510    75.0220   114.7650   100.9430    95.6890    23.8660 
  178.2500    -9.2470     2.1490    74.8360   131.1170   113.3420    72.8010    23.8290 
  178.3750    -9.1560     2.1890    72.8700   148.9820   125.9650    58.8030    23.8120 
  178.5000    -9.0170     2.2690    71.7010   170.9410   141.6590    59.1010    23.8910 
  178.6250    -8.8550     2.3680    71.3140   195.2150   165.3910    90.9610    24.0630 
  178.7500    -8.6960     2.4550    68.4340   221.4680   198.5850   160.7470    24.2410 
  178.8750    -8.5640     2.5160    64.1780   252.5060   239.2470   243.2500    24.2980 
  179.0000    -8.4540     2.5570    61.6300   279.6850   276.2080   276.9990    24.1860 
  179.1250    -8.2860     2.5960    60.3150   269.6320   280.7480   179.7570    23.7540 
  179.2500    -8.1020     2.6390    57.4630   214.6080   241.8650   115.5320    23.1490 
  179.3750    -7.9600     2.6750    53.3970   138.0430   171.6680    81.7120    22.7110 
  179.5000    -7.8670     2.6890    50.8990    72.5100    98.9670    63.2750    22.5520 
  179.6250    -7.7400     2.6650    52.0810    36.7150    51.0460    37.6540    22.5580 
  179.7500    -7.5210     2.6180    56.6940    19.2160    25.5470    17.3390    22.5960 
  179.8750    -7.2840     2.5660    62.3150    11.1270    13.7730     8.7260    22.6930 
  180.0000    -7.0900     2.5240    65.4330     7.5170     8.6880     6.0240    22.9290 
  180.1250    -6.9580     2.4970    64.1090     6.1890     6.7640     5.5420    23.3700 
  180.2500    -6.8240     2.4760    60.5330     5.6890     5.9180     5.5650    23.8120 
  180.3750    -6.7030     2.4560    56.7080     5.5810     5.6160     5.7340    24.0900 
  180.5000    -6.6370     2.4370    53.9500     5.6370     5.5940     5.7750    24.1810 
  180.6250    -6.6750     2.4270    52.2970     5.7250     5.6910     5.7730    24.1760 
  180.7500    -6.7980     2.4260    52.4210     5.7820     5.7890     5.7210    24.1590 
  180.8750    -6.9670     2.4310    55.5850     5.8040     5.8580     5.7340    24.1260 
  181.0000    -7.1850     2.4390    60.5020     5.8050     5.8960     5.8180    24.0680 
  181.1250    -7.4710     2.4410    62.9110     5.8070     5.9110     5.8560    23.9740 
  181.2500    -7.8250     2.4370    62.6310     5.8280     5.9220     5.8860    23.8750 
  181.3750    -8.1830     2.4270    62.2650     5.8780     5.9420     5.8960    23.8310 
  181.5000    -8.5200     2.4140    62.5390     5.9670     5.9790     6.0750    23.8240 
  181.6250    -8.8380     2.4010    61.8250     6.0930     6.0380     6.2490    23.8240 
  181.7500    -9.1630     2.3900    60.4180     6.2310     6.1040     6.3440    23.8240 
  181.8750    -9.5010     2.3810    59.3210     6.3510     6.1550     6.6090    23.8240 
  182.0000    -9.8000     2.3760    58.8420     6.4230     6.1680     6.7910    23.8240 
  182.1250    -9.9810     2.3760    58.5950     6.4150     6.1130     6.7510    23.8240 
  182.2500   -10.0800     2.3840    58.2050     6.3430     5.9990     6.6750    23.8240 
  182.3750   -10.1420     2.3990    58.1330     6.2280     5.8380     6.6520    23.8130 
  182.5000   -10.1710     2.4200    57.9940     6.0280     5.6500     6.4850    23.7800 
  182.6250   -10.1050     2.4410    58.3230     5.7090     5.4660     6.1410    23.7160 
  182.7500    -9.9810     2.4540    59.0350     5.4130     5.3130     5.8650    23.6900 
  182.8750    -9.8430     2.4560    58.5720     5.2830     5.2150     5.6000    23.6810 
  183.0000    -9.7850     2.4460    58.2980     5.3470     5.1960     5.4210    23.6800 
  183.1250    -9.8910     2.4310    61.2740     5.5450     5.2900     5.4260    23.6790 
  183.2500   -10.1530     2.4190    66.9350     5.8140     5.4780     5.6320    23.6800 
  183.3750   -10.5800     2.4120    75.5050     6.1280     5.7310     6.0280    23.6780 
  183.5000   -11.1570     2.4060    89.2380     6.4320     6.0020     6.5220    23.6770 
  183.6250   -11.9570     2.3960   104.8360     6.6600     6.2240     7.1230    23.6770 
  183.7500   -12.9320     2.3850   113.7600     6.8020     6.3690     7.6260    23.6770 
  183.8750   -14.0070     2.3770   115.8970     6.8800     6.4400     7.3840    23.6780 
  184.0000   -15.1530     2.3750   117.2710     6.9360     6.4690     6.4550    23.7220 
  184.1250   -16.4110     2.3760   117.4230     7.0170     6.5020     5.9980    23.8570 
  184.2500   -17.6850     2.3770   113.6190     7.1320     6.5640     6.3000    24.0370 
  184.3750   -18.8540     2.3750   109.3610     7.2650     6.6550     7.0500    24.1270 
  184.5000   -19.8760     2.3700   107.5410     7.3910     6.7560     7.6940    24.1440 
  184.6250   -20.7270     2.3650   107.4800     7.4930     6.8430     7.9750    24.1260 
  184.7500   -21.4310     2.3610   107.2190     7.5960     6.9230     8.0280    24.0870 
  184.8750   -21.9940     2.3600   107.1970     7.7400     7.0260     7.9880    24.0530 
