~V
VERS. 2.00: Ver 2.00
~W
STRT.M 55.0000:
STOP.M 215.0000:
STEP.M 0.1250:
NULL. -999.2500:
UWI. F10125:
~C
DEPT.M :
GR.API :
RML.OHMM :
RI. :
RXO.OHMM :
CALI.CM :
DEN.GM/CC :
SP.MV :
~A
# ...
  178.7500    90.4890    11.1300     8.8130    12.5050    24.7010     2.3860   -19.0570 
  178.8750    89.9180    11.2520     8.8490    12.7290    24.7630     2.3890   -19.0020 
  179.0000    88.6140    11.3350     8.8660    11.1500    24.8470     2.3950   -18.9530 
  179.1250    87.8680    11.3750     8.8590    10.4550    24.8760     2.4010   -18.9050 
  179.2500    87.6800    11.3960     8.8400    10.2250    24.7940     2.4010   -18.8570 
  179.3750    88.2970    11.4030     8.8100    10.0570    24.6070     2.3930   -18.7820 
  179.5000    88.5600    11.3810     8.7540     9.4730    24.4090     2.3830   -18.7010 
  179.6250    86.2000    11.2760     8.6370     9.3130    24.2950     2.3800   -18.6340 
  179.7500    82.1650    11.0630     8.4540     9.1610    24.2260     2.3860   -18.5480 
  179.8750    79.3210    10.7470     8.2130     8.8070    24.2140     2.3980   -18.4580 
  180.0000    78.8840    10.3800     7.9460     8.2160    24.2470     2.4050   -18.3520 
  180.1250    79.2980    10.0630     7.7180     7.7470    24.3530     2.4010   -18.2280 
  180.2500    79.1420     9.8730     7.5740     7.5510    24.5540     2.3930   -18.1190 
  180.3750    79.4690     9.8380     7.5340     7.7190    24.8380     2.3850   -18.0380 
  180.5000    80.7370     9.9320     7.5840     8.3600    25.0990     2.3780   -17.9540 
  180.6250    82.7200    10.0940     7.6940     8.7330    25.2190     2.3700   -17.8900 
  180.7500    83.3950    10.2480     7.8070     8.5740    25.2290     2.3620   -17.8650 
  180.8750    81.1600    10.3610     7.8940     8.2230    25.2230     2.3600   -17.8400 
  181.0000    77.2130    10.4250     7.9430     8.1640    25.2230     2.3640   -17.8190 
  181.1250    76.5880    10.4360     7.9480     8.2030    25.2270     2.3680   -17.8040 
  181.2500    80.6020    10.4050     7.9130     8.0460    25.1740     2.3660   -17.7780 
  181.3750    85.1250    10.3300     7.8360     7.7750    25.1220     2.3610   -17.7520 
  181.5000    85.3340    10.2080     7.7250     7.5490    25.1990     2.3600   -17.7380 
  181.6250    80.1510    10.0350     7.5910     7.3460    25.2790     2.3650   -17.7190 
  181.7500    75.9140     9.8330     7.4500     7.1530    25.3170     2.3680   -17.6700 
  181.8750    76.4290     9.6280     7.3130     7.0880    25.2760     2.3660   -17.6210 
  182.0000    79.5010     9.4590     7.1940     7.0530    25.0990     2.3620   -17.5780 
  182.1250    80.5470     9.3830     7.1190     7.1100    25.0380     2.3590   -17.5440 
  182.2500    80.7810     9.4140     7.1020     7.1710    25.3380     2.3580   -17.5100 
  182.3750    81.7650     9.5550     7.1540     7.4180    25.6420     2.3620   -17.4760 
  182.5000    82.6450     9.7820     7.2760     7.7350    25.7650     2.3710   -17.4360 
  182.6250    83.1120    10.0450     7.4480     8.1340    25.6770     2.3850   -17.3520 
  182.7500    84.3440    10.2680     7.6150     8.5970    25.6220     2.3980   -17.2470 
  182.8750    84.8060    10.3940     7.7300     8.9850    25.6070     2.4030   -17.1410 
  183.0000    84.1100    10.3920     7.7610     8.9560    25.6080     2.3960   -17.0260 
  183.1250    82.2860    10.2560     7.6870     7.9540    25.6010     2.3840   -16.8870 
  183.2500    79.4270    10.0630     7.5550     7.4920    25.5940     2.3790   -16.7450 
  183.3750    76.6520     9.8720     7.4100     7.4770    25.6010     2.3810   -16.5660 
  183.5000    75.4300     9.7230     7.2900     7.7130    25.6110     2.3870   -16.3720 
  183.6250    74.5760     9.6260     7.2160     7.7930    25.6070     2.3960   -16.2020 
  183.7500    74.0000     9.5500     7.1690     7.6140    25.5890     2.4030   -16.0420 
  183.8750    73.9420     9.4700     7.1310     7.3600    25.5990     2.4080   -15.8900 
  184.0000    74.8440     9.3790     7.0840     7.1030    25.6250     2.4080   -15.7300 
  184.1250    75.7210     9.2790     7.0150     6.9790    25.6310     2.4030   -15.5860 
  184.2500    77.4230     9.1660     6.9230     7.1230    25.6560     2.3970   -15.4390 
  184.3750    80.2120     9.0240     6.8080     7.2140    25.6920     2.3960   -15.3250 
  184.5000    81.7160     8.8380     6.6760     7.2370    25.6960     2.4000   -15.1980 
  184.6250    78.4850     8.6050     6.5350     6.7270    25.4610     2.4040   -15.1000 
  184.7500    75.1890     8.3650     6.4020     5.9700    25.1750     2.4030   -15.0140 
  184.8750    78.0860     8.1640     6.2930     5.4200    24.8740     2.3970   -14.9190 
  185.0000    85.7540     8.0330     6.2120     5.4070    24.6600     2.3910   -14.8420 
  185.1250    85.8780     7.9870     6.1650     5.7220    24.5530     2.3850   -14.7660 
  185.2500    78.8230     8.0190     6.1570     5.9280    24.5890     2.3760   -14.6680 
  185.3750    72.2950     8.1420     6.2080     6.0450    24.8150     2.3640   -14.5700 
  185.5000    69.0050     8.3740     6.3410     6.3490    25.0970     2.3530   -14.4690 
  185.6250    66.5680     8.7240     6.5650     6.3120    25.2580     2.3490   -14.3600 
  185.7500    66.6480     9.1180     6.8300     6.2170    25.2750     2.3540   -14.2580 
  185.8750    70.2060     9.4530     7.0690     6.6830    25.2680     2.3650   -14.1510 
  186.0000    75.5100     9.6260     7.2120     7.5530    25.3420     2.3770   -14.0470 
  186.1250    79.4820     9.5720     7.2050     7.9720    25.4140     2.3860   -13.9520 
  186.2500    79.7270     9.3920     7.1060     7.4200    25.4740     2.3950   -13.8660 
  186.3750    76.2320     9.2030     6.9810     6.6070    25.5120     2.4080   -13.8030 
  186.5000    73.8610     9.1140     6.8970     6.4550    25.5140     2.4230   -13.7830 
  186.6250    77.3350     9.1900     6.9060     7.1270    25.4260     2.4310   -13.7660 
  186.7500    80.6120     9.3460     6.9800     8.0240    25.3820     2.4360   -13.7370 
  186.8750    79.9140     9.5090     7.0780     8.6030    25.4310     2.4430   -13.7300 
  187.0000    77.9660     9.6440     7.1760     9.0340    25.4810     2.4510   -13.7080 
  187.1250    79.3990     9.7730     7.2830     8.4350    25.4560     2.4550   -13.6960 
  187.2500    83.2310     9.9560     7.4300     7.0690    25.3460     2.4520   -13.7020 
  187.3750    87.0230    10.2300     7.6360     6.4440    25.1890     2.4450   -13.6850 
  187.5000    88.1330    10.5760     7.8920     6.4900    24.9710     2.4400   -13.6580 
  187.6250    85.0680    10.9050     8.1470     7.3540    24.7320     2.4430   -13.6310 
  187.7500    78.8730    11.1080     8.3340     8.6580    24.5630     2.4520   -13.5850 
  187.8750    72.3180    11.1130     8.4040     9.4000    24.5340     2.4580   -13.5340 
  188.0000    68.6100    10.9030     8.3340     8.9180    24.5320     2.4580   -13.5050 
  188.1250    69.0670    10.5230     8.1380     7.8360    24.5830     2.4560   -13.4660 
  188.2500    69.5030    10.1260     7.9110     7.1760    24.7030     2.4600   -13.4340 
  188.3750    67.1840     9.8110     7.7150     6.8390    24.8720     2.4700   -13.4060 
  188.5000    66.4860     9.6170     7.5810     6.5740    25.0070     2.4760   -13.3870 
  188.6250    71.4940     9.5310     7.5020     6.7850    25.0800     2.4700   -13.3790 
  188.7500    78.0900     9.4710     7.4370     7.3340    25.0750     2.4600   -13.4140 
  188.8750    80.1400     9.3980     7.3680     7.7940    24.9280     2.4460   -13.4400 
  189.0000    78.6710     9.3170     7.2990     8.3200    24.6910     2.4310   -13.4590 
  189.1250    78.2190     9.2810     7.2650     9.9620    24.5350     2.4170   -13.4850 
  189.2500    77.6460     9.3240     7.2910    10.8080    24.4680     2.4060   -13.5080 
  189.3750    76.3050     9.4470     7.3800    10.1810    24.4350     2.4020   -13.5440 
  189.5000    76.1730     9.6180     7.5140     8.8400    24.3580     2.4070   -13.5740 
  189.6250    77.4850     9.7960     7.6590     8.2760    24.3180     2.4160   -13.5950 
  189.7500    75.8130     9.9660     7.7870     8.3680    24.1760     2.4180   -13.6160 
  189.8750    72.4950    10.1400     7.8960     8.1670    23.6340     2.4080   -13.6240 
