~V
VERS. 2.00: Ver 2.00
~W
STRT.M 50.0000:
STOP.M 237.0000:
STEP.M 0.1250:
NULL. -999.2500:
UWI. F10163:
~C
DEPT.M :
DEN.GM/CC :
GR.API :
RML.OHMM :
RI. :
RXO.OHMM :
CALI.CM :
SP.MV :
~A
# ...
  230.0000     2.2490    77.9310     9.3470     8.2150     8.8570    22.7440     5.6090 
  230.1250     2.2740    77.9310     9.2750     8.1800    10.1230    22.2580     5.6440 
  230.2500     2.3010    77.9310     9.1880     8.1670    10.8900    21.9710     5.7280 
  230.3750     2.3270    77.9310     9.0970     8.1630     9.5120    21.6670     5.7750 
  230.5000     2.3510    77.9310     9.0330     8.1700     8.3000    21.9200     5.7550 
  230.6250     2.3680    77.9310     9.0390     8.1890     8.4420    22.5930     5.7140 
  230.7500     2.3750    77.9310     9.1020     8.2150     8.8490    22.6130     5.6520 
  230.8750     2.3630    77.9310     9.1970     8.2340     9.3110    22.4580     5.5660 
  231.0000     2.3320    77.9310     9.2920     8.2360     9.9350    22.2220     5.4750 
  231.1250     2.2870    77.9310     9.3530     8.2160    10.5510    22.4620     5.3280 
  231.2500     2.2470    77.9310     9.3720     8.1840    10.3530    22.9470     5.2000 
  231.3750     2.2290    77.9310     9.3420     8.1520     9.3480    23.4370     5.1360 
  231.5000     2.2390    77.9310     9.2670     8.1300     8.2620    23.5330     5.1210 
  231.6250     2.2730    77.9310     9.1940     8.1200     7.7280    23.6330     5.1180 
  231.7500     2.3130    77.9310     9.2020     8.1160     7.5780    23.8470     5.1150 
  231.8750     2.3430    77.9310     9.3400     8.1150     7.5580    23.9250     5.1340 
  232.0000     2.3600    77.9310     9.5680     8.1220     7.5870    23.9460     5.1450 
  232.1250     2.3680    77.9310     9.7470     8.1400     7.7000    24.2700     5.1710 
  232.2500     2.3730    77.9310     9.7760     8.1670     7.8290    24.2610     5.1630 
  232.3750     2.3740    77.9310     9.6570     8.1940     8.0110    24.2670     5.1420 
  232.5000     2.3710    77.9310     9.4750     8.2110     8.2590    24.2710     5.0900 
  232.6250     2.3630    77.9310     9.3380     8.2130     8.5090    24.2310     5.0350 
  232.7500     2.3520    77.9310     9.2740     8.2030     8.6430    24.0950     4.9740 
  232.8750     2.3420    77.9310     9.2620     8.1980     8.5720    23.9730     4.8580 
  233.0000     2.3350    77.9310     9.2620     8.1980     8.2890    23.9810     4.7360 
  233.1250     2.3300    77.9310     9.2620     8.1980     7.8940    23.9250     4.5760 
  233.2500     2.3260    77.9310     9.2620     8.1980     7.5450    23.9090     4.4160 
  233.3750     2.3190    77.9310     9.2620     8.1980     7.2990    23.8120     4.2740 
  233.5000     2.3070    77.9310     9.2620     8.1980     7.1580    23.7020     4.1750 
  233.6250     2.2830    77.9310     9.2620     8.1980     7.1330    23.6940     4.0660 
  233.7500     2.2480    77.9310     9.2620     8.1980     7.2110    23.6190     3.9980 
  233.8750     2.2060    77.9310     9.2620     8.1980     7.3990    23.8650     3.9980 
  234.0000     2.1660    77.9310     9.2620     8.1980     7.6150    24.4940     3.9980 
  234.1250     2.1410    77.9310     9.2620     8.1980     7.6880    24.5220  -999.2500 
  234.2500     2.1310    77.9310     9.2620     8.1980     7.6110    23.9080  -999.2500 
  234.3750     2.1270    77.9310     9.2620     8.1980     7.5140    23.1330  -999.2500 
  234.5000     2.1220    77.9310     9.2620     8.1980     7.5490    22.2510  -999.2500 
  234.6250     2.1060    77.9310     9.2620     8.1980     8.0050    19.1910  -999.2500 
  234.7500     2.0860    77.9310     9.2620     8.1980     8.7190    17.1940  -999.2500 
  234.8750     2.0680    77.9310     9.2620     8.1980     8.6280    16.8220  -999.2500 
  235.0000     2.0550    77.9310     9.2620     8.1980     8.5950    16.7790  -999.2500 
  235.1250     2.0490    77.9310     9.2620     8.1980     8.5950    16.7780  -999.2500 
  235.2500     2.0480    77.9310     9.2620     8.1980     8.5980    16.7780  -999.2500 
  235.3750     2.0490    77.9310     9.2620     8.1980     8.5980    16.7780  -999.2500 
  235.5000     2.0490    77.9310     9.2620     8.1980     8.5970    16.7780  -999.2500 
  235.6250     2.0500    77.9310     9.2620     8.1980     8.5960    16.7780  -999.2500 
  235.7500     2.0490    77.9310     9.2620     8.1980     8.5960    16.7780  -999.2500 
  235.8750     2.0470    77.9310     9.2620     8.1980     8.5960    16.7780  -999.2500 
  236.0000     2.0440    77.9310     9.2620     8.1980     8.5970    16.7780  -999.2500 
  236.1250     2.0420    77.9310     9.2620     8.1980     8.5960    16.7780  -999.2500 
  236.2500     2.0430    77.9310     9.2620     8.1980     8.5950    16.7780  -999.2500 
  236.3750     2.0450    77.9310     9.2620     8.1980     8.5940    16.7780  -999.2500 
  236.5000     2.0480    77.9310     9.2620     8.1980     8.5940    16.7780  -999.2500 
  236.6250     2.0490    77.9310     9.2620     8.1980     8.5950    16.7780  -999.2500 
  236.7500     2.0480    77.9310     9.2620     8.1980     8.5950    16.7780  -999.2500 
  236.8750     2.0480    77.9310     9.2620     8.1980     8.5940    16.7780  -999.2500 
  237.0000     2.0480    77.9310     9.2620     8.1980     8.5920    16.7770  -999.2500 
