~V
VERS. 2.00: Ver 2.00
~W
STRT.M 55.0000:
STOP.M 248.0000:
STEP.M 0.1250:
NULL. -999.2500:
UWI. F10184:
~C
DEPT.M :
SP.MV :
GR.API :
RML.OHMM :
RI. :
RXO.OHMM :
CALI.CM :
DEN.GM/CC :
~A
# ...
  235.0000    -1.4000    62.9750     8.9040     7.6340     9.7160    24.1320     2.4600 
  235.1250    -1.4040    61.6400     9.1520     7.8500     8.8040    24.1510     2.4690 
  235.2500    -1.4610    63.3470     9.3730     8.0470     8.2690    24.1350     2.4760 
  235.3750    -1.4850    65.4150     9.5220     8.1800     7.8980    24.1050     2.4790 
  235.5000    -1.5400    65.4530     9.5920     8.2400     7.9640    24.1000     2.4780 
  235.6250    -1.5980    64.6510     9.6070     8.2440     7.8730    24.1280     2.4790 
  235.7500    -1.6500    64.6610     9.6160     8.2390     7.7190    24.1500     2.4840 
  235.8750    -1.6610    65.6050     9.6530     8.2550     7.9850    24.1350     2.4910 
  236.0000    -1.6690    67.2490     9.7310     8.3050     8.4550    24.1300     2.4950 
  236.1250    -1.6290    66.9200     9.8620     8.3950     8.4710    24.1630     2.4970 
  236.2500    -1.5950    64.5730    10.0300     8.5110     8.2200    24.1650     2.4990 
  236.3750    -1.5940    62.4910    10.2180     8.6450     8.1690    24.1310     2.5010 
  236.5000    -1.5590    62.0450    10.4040     8.7870     8.5430    24.1110     2.4980 
  236.6250    -1.5440    61.9080    10.5660     8.9350     8.9000    24.1300     2.4910 
  236.7500    -1.5280    62.0390    10.7060     9.0860     8.7230    24.1520     2.4840 
  236.8750    -1.5640    63.0190    10.8280     9.2350     8.3220    24.1380     2.4800 
  237.0000    -1.6320    64.0270    10.9250     9.3620     8.2090    24.1320     2.4770 
  237.1250    -1.6960    63.5190    10.9640     9.4260     8.5040    24.1510     2.4740 
  237.2500    -1.7420    62.4390    10.9300     9.4130     9.2000    24.1400     2.4740 
  237.3750    -1.7190    62.1130    10.8320     9.3330    10.0930    24.1210     2.4750 
  237.5000    -1.7180    62.1130    10.7120     9.2260    10.3080    24.1250     2.4790 
  237.6250    -1.7730    62.1130    10.6370     9.1550     9.4460    24.1660     2.4830 
  237.7500    -1.8030    62.1130    10.6450     9.1550     9.0330    24.1960     2.4920 
  237.8750    -1.7650    62.1130    10.7400     9.2330     8.8530    24.2290     2.5010 
  238.0000    -1.7240    62.1130    10.8880     9.3660     8.8540    24.2490     2.5030 
  238.1250    -1.7780    62.1130    11.0290     9.5130    10.0710    24.2490     2.4900 
  238.2500    -1.8070    62.1130    11.1080     9.6260    11.9220    24.2480     2.4720 
  238.3750    -1.8360    62.1130    11.0960     9.6790    12.6940    24.2510     2.4590 
  238.5000    -1.8590    62.1130    10.9930     9.6670    12.2100    24.2490     2.4530 
  238.6250    -1.8210    62.1130    10.8270     9.5940    11.1550    24.2400     2.4550 
  238.7500    -1.7830    62.1130    10.6470     9.4910    11.0860    24.2310     2.4640 
  238.8750    -1.7760    62.1130    10.4860     9.3720    12.3630    24.2380     2.4770 
  239.0000    -1.7310    62.1130    10.3730     9.2610    14.4470    24.2490     2.4870 
  239.1250    -1.6390    62.1130    10.3500     9.2010    15.9980    24.2500     2.4880 
  239.2500    -1.6090    62.1130    10.4190     9.2130    12.7160    24.2490     2.4860 
  239.3750    -1.5920    62.1130    10.5680     9.3060     9.7100    24.2510     2.4860 
  239.5000    -1.6030    62.1130    10.7560     9.4590     8.7090    24.2490     2.4930 
  239.6250    -1.6560    62.1130    10.9210     9.6350     9.3130    24.2340     2.5030 
  239.7500    -1.7160    62.1130    11.0280     9.7860    11.0240    24.2040     2.5120 
  239.8750    -1.7250    62.1130    11.0820     9.8940    12.1920    24.1780     2.5180 
  240.0000    -1.7250    62.1130    11.1060     9.9560    12.2010    24.1540     2.5160 
  240.1250    -1.7860    62.1130    11.1180     9.9790    10.8220    24.1610     2.5060 
  240.2500    -1.8070    62.1130    11.1200     9.9870     9.8480    24.1500     2.4920 
  240.3750    -1.8750    62.1130    11.1050     9.9950     9.4220    24.1560     2.4780 
  240.5000    -1.9080    62.1130    11.0750    10.0040     9.6330    24.2140     2.4690 
  240.6250    -1.9240    62.1130    11.0480    10.0120    10.5410    24.2450     2.4660 
  240.7500    -1.9240    62.1130    11.0360    10.0160    11.9870    24.2510     2.4640 
  240.8750    -1.9790    62.1130    11.0340    10.0180    14.2950    24.2510     2.4580 
  241.0000    -2.0790    62.1130    11.0360    10.0180    16.0020    24.2480     2.4510 
  241.1250    -2.0930    62.1130    11.0380    10.0170    17.3820    24.2490     2.4480 
  241.2500    -2.0950    62.1130    11.0460    10.0120    15.7880    24.2850     2.4440 
  241.3750    -2.1190    62.1130    11.0600    10.0050    14.0860    24.3860     2.4320 
  241.5000    -2.1890    62.1130    11.0780     9.9970    12.0430    24.5230     2.4110 
  241.6250    -2.2000    62.1130    11.0940     9.9910    10.0310    24.6050     2.3840 
  241.7500    -2.1410    62.1130    11.1050     9.9880     9.3730    24.5820     2.3640 
  241.8750    -2.0630    62.1130    11.1090     9.9890     9.9030    24.3960     2.3650 
  242.0000    -2.0000    62.1130    11.1020     9.9940    10.6510    24.2120     2.3950 
  242.1250    -1.9200    62.1130    11.0840    10.0020    10.6290    24.1800     2.4340 
  242.2500    -1.8850    62.1130    11.0650    10.0080    10.9740    24.1980     2.4570 
  242.3750    -1.8170    62.1130    11.0590    10.0090    12.1290    24.2150     2.4590 
  242.5000    -1.6710    62.1130    11.0710    10.0040    13.0070    24.2450     2.4530 
  242.6250    -1.6970    62.1130    11.0950     9.9950    14.0130    24.2840     2.4500 
  242.7500    -1.7230    62.1130    11.1120     9.9900    16.0130    24.3250     2.4520 
  242.8750  -999.2500    62.1130    11.1170     9.9890    15.9320    24.3280     2.4600 
  243.0000  -999.2500    62.1130    11.1080     9.9930    14.3220    24.2860     2.4730 
  243.1250  -999.2500    62.1130    11.0920     9.9980    13.4050    24.2730     2.4860 
  243.2500  -999.2500    62.1130    11.0820    10.0000    12.1270    24.2820     2.4910 
  243.3750  -999.2500    62.1130    11.0820    10.0000     9.4920    24.2830     2.4850 
  243.5000  -999.2500    62.1130    11.0820    10.0000     8.3090    24.2820     2.4730 
  243.6250  -999.2500    62.1130    11.0820    10.0000     8.0970    24.2870     2.4580 
  243.7500  -999.2500    62.1130    11.0820    10.0000     8.0700    24.2390     2.4490 
  243.8750  -999.2500    62.1130    11.0820    10.0000     9.0120    24.1600     2.4510 
  244.0000  -999.2500    62.1130    11.0820    10.0000    10.7960    24.0920     2.4640 
  244.1250  -999.2500    62.1130    11.0820    10.0000    12.2200    24.0530     2.4810 
  244.2500  -999.2500    62.1130    11.0820    10.0000    12.7750    23.9710     2.4930 
  244.3750  -999.2500    62.1130    11.0820    10.0000    11.3600    23.4730     2.5000 
  244.5000  -999.2500    62.1130    11.0820    10.0000     8.0470    21.7400     2.5030 
  244.6250  -999.2500    62.1130    11.0820    10.0000     5.1160    18.5330     2.5030 
  244.7500  -999.2500    62.1130    11.0820    10.0000     3.9130    15.8920     2.4990 
  244.8750  -999.2500    62.1130    11.0820    10.0000     3.6300    14.8450     2.4960 
  245.0000  -999.2500    62.1130    11.0820    10.0000     3.6110    14.6890     2.4960 
  245.1250  -999.2500    62.1130    11.0820    10.0000     3.6120    14.6880     2.4980 
  245.2500  -999.2500    62.1130    11.0820    10.0000     3.6120    14.6860     2.5000 
  245.3750  -999.2500    62.1130    11.0820    10.0000     3.6080    14.6840     2.5000 
  245.5000  -999.2500    62.1130    11.0820    10.0000     3.6060    14.6820     2.5010 
  245.6250  -999.2500    62.1130    11.0820    10.0000     3.6080    14.6830     2.5050 
  245.7500  -999.2500    62.1130    11.0820    10.0000     3.6100    14.6840     2.5090 
  245.8750  -999.2500    62.1130    11.0820    10.0000     3.6100    14.6830     2.5130 
  246.0000  -999.2500    62.1130    11.0820    10.0000     3.6080    14.6820     2.5150 
  246.1250  -999.2500    62.1130    11.0820    10.0000     3.6080    14.6820     2.5110 
