~V
VERS. 2.00: Ver 2.00
~W
STRT.M 53.0000:
STOP.M 242.0000:
STEP.M 0.1250:
NULL. -999.2500:
UWI. F10177:
~C
DEPT.M :
SP.MV :
GR.API :
RML.OHMM :
RI. :
RXO.OHMM :
CALI.CM :
DEN.GM/CC :
~A
# ...
   98.0000    -4.9570   103.4730     5.3950     5.1140     5.5790    23.6500     2.3420 
   98.1250    -4.1260   111.0030     4.5090     4.2730     4.6610    23.6820     2.3480 
   98.2500    -3.3770   116.0920     4.0630     3.7810     4.1960    23.6240     2.3440 
   98.3750    -2.7590   119.2630     3.9930     3.6150     4.1860    23.5460     2.3360 
   98.5000    -2.2600   121.9560     4.0880     3.6270     4.4490    23.4790     2.3290 
   98.6250    -1.8680   122.3600     4.2280     3.7270     4.7420    23.4010     2.3260 
   98.7500    -1.5680   118.3600     4.3370     3.8400     4.7660    23.3450     2.3260 
   98.8750    -1.3470   110.2050     4.3850     3.9170     4.7920    23.3780     2.3240 
   99.0000    -1.1690   104.3110     4.4100     3.9630     4.8710    23.5180     2.3170 
   99.1250    -1.0010   105.2880     4.4470     4.0010     5.0250    23.7120     2.3100 
   99.2500    -0.8430   108.3060     4.5190     4.0560     4.8170    23.8730     2.3090 
   99.3750    -0.7430   106.0820     4.6110     4.1250     4.5750    23.8740     2.3220 
   99.5000    -0.6860   102.1960     4.6610     4.1650     4.9300    23.7870     2.3420 
   99.6250    -0.6880   100.5080     4.6120     4.1310     5.5490    23.7130     2.3620 
   99.7500    -0.7320   103.3720     4.4440     3.9970     5.8730    23.6840     2.3720 
   99.8750    -0.7890   110.5920     4.2040     3.7890     4.9930    23.7180     2.3720 
  100.0000    -0.8620   116.3760     4.0200     3.6040     4.3150    23.7540     2.3710 
  100.1250    -1.0190   116.8950     3.9850     3.5200     4.0860    23.7750     2.3740 
  100.2500    -1.2340   112.6720     4.1340     3.5720     4.2550    23.8050     2.3820 
  100.3750    -1.3780   108.3100     4.4190     3.7580     4.6970    23.9180     2.3830 
  100.5000    -1.4500   105.9490     4.6820     3.9660     5.2750    24.1160     2.3700 
  100.6250    -1.4240   103.2990     4.8020     4.0920     6.0410    24.3410     2.3460 
  100.7500    -1.2800   101.2340     4.7270     4.0640     5.9810    24.2030     2.3200 
  100.8750    -1.0500   102.0780     4.4870     3.8860     5.1930    24.2370     2.3040 
  101.0000    -0.8170   105.4270     4.2310     3.6780     4.5320    24.3370     2.3010 
  101.1250    -0.6080   110.4980     4.0700     3.5260     4.2570    24.3370     2.3040 
  101.2500    -0.5030   114.0750     4.0700     3.4820     4.2940    24.3370     2.3050 
  101.3750    -0.6420   111.8930     4.2640     3.5770     4.6530    24.3530     2.2970 
  101.5000    -0.9570   105.1520     4.5660     3.7600     5.1740    24.3350     2.2830 
  101.6250    -1.4040    97.4360     4.8870     3.9710     5.5480    24.1990     2.2660 
  101.7500    -1.9720    91.9190     5.1380     4.1420     5.6970    24.1520     2.2510 
  101.8750    -2.6170    88.5930     5.2390     4.1990     5.7480    24.1490     2.2430 
  102.0000    -3.2330    87.8340     5.2300     4.1600     5.8920    24.1450     2.2450 
  102.1250    -3.7110    90.3010     5.1850     4.0780     5.8680    24.1370     2.2530 
  102.2500    -4.0040    93.8540     5.1980     4.0240     5.4430    24.1270     2.2620 
  102.3750    -4.1650    95.0950     5.3700     4.0730     5.0620    24.1050     2.2580 
  102.5000    -4.3430    94.3760     5.7020     4.2320     5.6120    23.9770     2.2380 
  102.6250    -4.5950    91.1440     6.1590     4.4900     6.5790    23.8680     2.2070 
  102.7500    -4.9180    87.2560     6.6850     4.8170     7.1970    23.8280     2.1750 
  102.8750    -5.3000    86.5010     7.2180     5.1830     7.4220    23.8550     2.1540 
  103.0000    -5.7340    86.9960     7.7200     5.5550     7.6150    23.8800     2.1480 
  103.1250    -6.2620    86.1690     8.1650     5.9150     8.0500    23.8700     2.1530 
  103.2500    -6.8570    84.2610     8.5220     6.2390     8.5510    23.8360     2.1650 
  103.3750    -7.4010    85.6150     8.7260     6.4760     9.3360    23.8910     2.1830 
  103.5000    -7.8240    87.5500     8.7870     6.6080     9.7450    24.0370     2.2070 
  103.6250    -8.1390    87.0090     8.7600     6.6470     9.6020    24.1750     2.2380 
  103.7500    -8.3860    87.5750     8.7440     6.6550     9.2560    24.1790     2.2670 
  103.8750    -8.5850    93.0270     8.8480     6.7110     9.0540    24.0160     2.2800 
  104.0000    -8.7510    98.9500     9.0510     6.8280     8.9850    23.9440     2.2700 
  104.1250    -8.8790    99.0210     9.2610     6.9650     9.1690    24.1580     2.2400 
  104.2500    -8.9860    92.8420     9.3590     7.0460     9.9240    24.3110     2.1980 
  104.3750    -9.1320    86.4900     9.2240     6.9770    10.6620    24.1120     2.1600 
  104.5000    -9.3030    82.5190     8.9010     6.7710    10.5300    23.8530     2.1350 
  104.6250    -9.4600    78.7030     8.4740     6.4760     9.6390    23.7120     2.1240 
  104.7500    -9.5940    76.1160     8.0590     6.1670     9.2800    23.6550     2.1240 
  104.8750    -9.7290    78.1150     7.7990     5.9450     9.5990    23.6380     2.1300 
  105.0000    -9.9140    81.1420     7.7620     5.8700     9.5180    23.6660     2.1350 
  105.1250   -10.1910    81.1660     7.9950     5.9790     8.9120    23.2760     2.1330 
  105.2500   -10.5080    80.2160     8.5030     6.2920     8.5980    23.1370     2.1230 
  105.3750   -10.7640    81.5570     9.2480     6.8250     9.6690    23.2700     2.1080 
  105.5000   -11.0180    81.4310    10.0190     7.4680    11.1330    23.3370     2.0980 
  105.6250   -11.3340    78.6470    10.6060     8.0890    11.9080    23.4030     2.0970 
  105.7500   -11.6970    75.1960    10.8350     8.5320    12.2490    23.4030     2.1060 
  105.8750   -11.9990    72.5590    10.6150     8.6530    12.2170    23.9370     2.1210 
  106.0000   -12.1830    70.4580    10.1720     8.5510    12.3610    24.0700     2.1320 
  106.1250   -12.2060    70.9210     9.7120     8.3640    12.6850    24.1030     2.1350 
  106.2500   -12.1080    74.8250     9.3700     8.2090    12.6280    24.0700     2.1330 
  106.3750   -11.8750    77.4520     9.1340     8.1030    12.4430    24.0700     2.1320 
  106.5000   -11.4450    76.5250     8.8300     7.9300    12.4340    24.0700     2.1370 
  106.6250   -10.7660    74.0760     8.3120     7.5650    12.7670    24.0700     2.1530 
  106.7500    -9.8420    72.9730     7.5270     6.9490    13.0960    24.0700     2.1780 
  106.8750    -8.7300    74.8680     6.5370     6.1190    10.4500    24.0700     2.2100 
  107.0000    -7.5300    80.2330     5.5570     5.2630     6.8760    24.0700     2.2410 
  107.1250    -6.3110    88.4570     4.7380     4.5160     4.8150    24.0700     2.2680 
  107.2500    -5.0940    97.0600     4.1570     3.9470     4.3770    24.0700     2.2880 
  107.3750    -3.8860   102.0850     3.8350     3.5900     4.4280    24.2030     2.3020 
  107.5000    -2.7500   106.0300     3.6530     3.3690     4.1800    24.2030     2.3130 
  107.6250    -1.7600   109.5420     3.5270     3.2290     3.9870    24.2030     2.3230 
  107.7500    -0.9670   111.0470     3.4030     3.1200     3.8580    24.3370     2.3310 
  107.8750    -0.4130   110.9260     3.2830     3.0230     3.6680    24.3420     2.3390 
  108.0000    -0.0690   110.4890     3.2160     2.9570     3.5140    24.3700     2.3440 
  108.1250     0.0750   108.6070     3.2450     2.9480     3.4470    24.3980     2.3460 
  108.2500     0.0320   104.3220     3.3780     3.0080     3.5280    24.4260     2.3420 
  108.3750    -0.2240   100.3620     3.5790     3.1280     3.7480    24.4700     2.3320 
  108.5000    -0.5680    98.1520     3.7470     3.2500     4.2300    24.0760     2.3220 
  108.6250    -0.9280    96.0600     3.8100     3.3170     4.6680    23.6510     2.3180 
  108.7500    -1.3000    94.1570     3.7480     3.2990     4.7320    23.6080     2.3220 
  108.8750    -1.7670    93.3490     3.6310     3.2230     4.3420    23.5970     2.3280 
  109.0000    -2.3250    92.5820     3.6140     3.1880     4.0840    23.6100     2.3280 
  109.1250    -2.9420    90.8550     3.8190     3.2760     4.1290    23.6410     2.3220 
