~V
VERS. 2.00: Ver 2.00
~W
STRT.M 55.0000:
STOP.M 224.0000:
STEP.M 0.1250:
NULL. -999.2500:
UWI. F10137:
~C
DEPT.M :
DEN.GM/CC :
SP.MV :
GR.API :
RML.OHMM :
RI. :
RXO.OHMM :
CALI.CM :
~A
# ...
  111.2500     2.1800   -24.1560    79.4010     6.8580     5.9800     6.1100    26.9350 
  111.3750     2.1710   -24.3240    77.5760     6.9630     6.0810     6.3660    26.7780 
  111.5000     2.1670   -24.4880    77.8380     7.0000     6.1230     6.6650    26.7620 
  111.6250     2.1670   -24.6270    78.4170     6.9550     6.0890     6.6030    26.8590 
  111.7500     2.1680   -24.7670    79.4280     6.8500     5.9920     6.1930    26.9630 
  111.8750     2.1650   -24.9170    80.9590     6.7180     5.8550     5.9820    26.9620 
  112.0000     2.1600   -25.0710    81.7250     6.5510     5.6870     5.9840    26.8110 
  112.1250     2.1630   -25.2230    81.5380     6.3050     5.4700     6.1270    26.5820 
  112.2500     2.1800   -25.3680    81.9430     5.9770     5.2040     6.0800    26.4950 
  112.3750     2.2030   -25.5170    83.8120     5.6950     4.9700     5.6890    26.6940 
  112.5000     2.2220   -25.6880    85.4830     5.6600     4.8990     5.3040    26.9980 
  112.6250     2.2380   -25.9040    84.7050     6.0480     5.1080     5.4630    27.1700 
  112.7500     2.2620   -26.1790    80.8440     6.9520     5.6740     7.1950    27.1770 
  112.8750     2.3000   -26.5200    75.0430     8.3350     6.6130    12.4150    27.0690 
  113.0000     2.3320   -26.9130    69.3320     9.8340     7.7280    19.4340    26.8780 
  113.1250     2.3230   -27.3500    65.6060    10.9040     8.6610    19.6640    26.5710 
  113.2500     2.2660   -27.8220    64.8720    11.1660     9.1080    14.3440    26.1790 
  113.3750     2.2030   -28.2880    66.3440    10.6480     8.9840    10.8400    25.8780 
  113.5000     2.1700   -28.7120    67.0900     9.8450     8.5530     9.8290    25.7450 
  113.6250     2.1630   -29.0820    65.1490     9.2160     8.1290     9.5260    25.7050 
  113.7500     2.1640   -29.4060    62.1820     8.9100     7.8620     9.4280    25.6810 
  113.8750     2.1640   -29.6660    60.6980     8.8650     7.7740     9.4650    25.6590 
  114.0000     2.1590   -29.8420    60.5750     8.9090     7.7860     9.4280    25.6460 
  114.1250     2.1530   -29.9240    60.3450     8.9230     7.8240     9.2960    25.6400 
  114.2500     2.1480   -29.8990    59.4760     8.9010     7.8630     9.1990    25.6300 
  114.3750     2.1450   -29.7790    59.6050     8.9050     7.9200     9.0230    25.6050 
  114.5000     2.1430   -29.6040    61.3810     9.0180     8.0310     8.8040    25.5730 
  114.6250     2.1420   -29.4120    63.2020     9.2810     8.2200     8.7380    25.5390 
  114.7500     2.1430   -29.2030    63.8230     9.6540     8.4710     8.9930    25.5140 
  114.8750     2.1450   -28.9440    62.6840     9.9320     8.6550     9.3660    25.5030 
  115.0000     2.1430   -28.6270    60.3390     9.8240     8.5700     9.6590    25.5110 
  115.1250     2.1350   -28.2660    58.9990     9.1630     8.0820     9.6220    25.5530 
  115.2500     2.1230   -27.8890    60.9740     8.0590     7.2460     8.8260    25.6800 
  115.3750     2.1010   -27.5240    66.0470     6.8960     6.3180     7.2360    25.9880 
  115.5000     2.0660   -27.1870    70.8710     6.0480     5.5720     5.5410    26.4590 
  115.6250     2.0290   -26.8910    72.9330     5.6870     5.1560     4.9520    26.9160 
  115.7500     2.0190   -26.6520    71.9200     5.8260     5.1070     6.2720    27.1640 
  115.8750     2.0610   -26.5290    68.1870     6.3840     5.4160     9.1160    27.1130 
  116.0000     2.1260   -26.5410    64.1120     7.1520     5.9660    10.2120    26.8140 
  116.1250     2.1600   -26.6660    61.8010     7.8950     6.5990     9.1780    26.3830 
  116.2500     2.1510   -26.8680    61.2040     8.4690     7.1880     8.4010    25.9760 
  116.3750     2.1380   -27.1020    62.6250     8.8390     7.6570     8.4300    25.7490 
  116.5000     2.1460   -27.3310    65.9590     9.1050     8.0240     8.7080    25.6990 
  116.6250     2.1630   -27.5280    68.6920     9.3660     8.3390     9.1740    25.7320 
  116.7500     2.1750   -27.6660    67.4060     9.6150     8.6020     9.7410    25.7690 
  116.8750     2.1770   -27.6730    62.3280     9.7510     8.7470    10.1320    25.7940 
  117.0000     2.1680   -27.5150    58.2680     9.7020     8.7310    10.1580    25.8480 
  117.1250     2.1520   -27.2370    57.7840     9.4650     8.5610    10.0060    25.9890 
  117.2500     2.1370   -26.8890    59.2800     9.0900     8.2870     9.8690    26.2360 
  117.3750     2.1330   -26.4940    61.0560     8.7110     8.0120     9.8130    26.5050 
  117.5000     2.1460   -26.0640    63.5040     8.5270     7.8760     9.9120    26.7160 
  117.6250     2.1750   -25.5940    67.1540     8.7440     8.0260    10.3130    26.8470 
  117.7500     2.2180   -25.0700    69.9170     9.5740     8.6180    11.5690    26.9190 
  117.8750     2.2780   -24.4970    68.0670    11.2950     9.8960    15.1680    27.0120 
  118.0000     2.3510   -23.9170    61.5820    13.8680    11.9320    21.3280    27.1680 
  118.1250     2.4230   -23.3570    53.4960    16.7830    14.4620    26.5570    27.3600 
  118.2500     2.4750   -22.8250    47.0080    19.0280    16.7410    31.3880    27.5550 
  118.3750     2.4980   -22.3300    45.0160    19.1550    17.4220    34.7530    27.6640 
  118.5000     2.4970   -21.8670    47.8010    16.9840    16.0680    31.9860    27.6830 
  118.6250     2.4730   -21.4320    53.1200    13.6820    13.4930    22.1100    27.6740 
  118.7500     2.4240   -21.0390    58.4100    10.5230    10.7760    12.4220    27.6720 
  118.8750     2.3680   -20.7170    62.2660     8.3090     8.6710     8.1470    27.6890 
  119.0000     2.3270   -20.4670    63.4800     7.0500     7.3080     6.9740    27.7320 
  119.1250     2.3100   -20.2860    61.6640     6.4400     6.5270     6.5490    27.7790 
  119.2500     2.3080   -20.1590    59.0160     6.2300     6.1700     6.7980    27.8030 
  119.3750     2.3120   -20.0720    58.0340     6.2740     6.1340     7.5670    27.8020 
  119.5000     2.3220   -20.0120    58.6870     6.5570     6.3670     7.9520    27.7980 
  119.6250     2.3330   -19.9670    59.9160     7.2180     6.9250     7.6990    27.7950 
  119.7500     2.3490   -19.9230    60.2220     8.5110     7.9760     8.5360    27.7760 
  119.8750     2.3860   -19.8970    57.7510    10.7930     9.8250    13.8180    27.7280 
  120.0000     2.4530   -19.9050    52.3470    14.0510    12.5680    24.0470    27.6870 
  120.1250     2.5300   -19.9110    46.3900    17.7560    15.9090    33.1920    27.6720 
  120.2500     2.5850   -19.8780    42.7380    20.8990    19.0520    36.8880    27.6690 
  120.3750     2.5990   -19.8030    42.6410    22.2000    20.7530    36.2260    27.6690 
  120.5000     2.5800   -19.7120    44.5330    21.6500    20.7560    31.5670    27.6640 
  120.6250     2.5460   -19.6350    46.0050    20.3690    19.8820    24.8620    27.6440 
  120.7500     2.5080   -19.5890    46.1080    19.4210    19.0500    20.5990    27.6030 
  120.8750     2.4850   -19.5690    45.6630    19.4080    18.8450    20.2120    27.5910 
  121.0000     2.4820   -19.5550    45.6200    20.2170    19.3090    22.1290    27.6200 
  121.1250     2.4930   -19.5280    45.8390    21.3970    20.1800    25.4510    27.6400 
  121.2500     2.5040   -19.4890    45.4680    22.4920    21.1260    26.0730    27.6170 
  121.3750     2.5000   -19.4480    44.3600    23.1100    21.7870    24.4320    27.5660 
  121.5000     2.4820   -19.4020    43.6510    23.2310    22.0490    22.8830    27.5170 
  121.6250     2.4620   -19.3530    44.1720    23.0760    22.0290    22.3510    27.5040 
  121.7500     2.4470   -19.3040    45.6130    22.7960    21.8520    22.4900    27.5410 
  121.8750     2.4370   -19.2450    47.0940    22.2950    21.4630    22.4630    27.5670 
  122.0000     2.4220   -19.1740    48.0680    21.3680    20.7020    22.1210    27.5600 
  122.1250     2.4020   -19.1200    48.8950    19.9610    19.5100    21.7120    27.5710 
  122.2500     2.3840   -19.1000    50.4740    18.3000    18.0590    20.4510    27.6190 
  122.3750     2.3720   -19.0900    52.1360    16.8780    16.7460    17.4100    27.6660 
