~V
VERS. 2.00: Ver 2.00
~W
STRT.M 50.0000:
STOP.M 230.0000:
STEP.M 0.1250:
NULL. -999.2500:
UWI. F10167:
~C
DEPT.M :
DEN.GM/CC :
GR.API :
RML.OHMM :
RI. :
RXO.OHMM :
CALI.CM :
SP.MV :
~A
# ...
   72.5000     2.2240    65.6120     7.1330     5.8420     8.0960    22.2440   -22.9390 
   72.6250     2.2220    66.0080     7.4710     5.9400     8.0830    22.2530   -22.7660 
   72.7500     2.2280    67.9340     8.2750     6.3520     8.2300    22.2980   -22.6650 
   72.8750     2.2540    69.9650     9.5520     7.1590     8.7710    22.4920   -22.6700 
   73.0000     2.3010    69.8150    11.1010     8.3160    10.9270    22.8930   -22.7600 
   73.1250     2.3510    66.4640    12.3970     9.5410    19.1860    23.3900   -22.9290 
   73.2500     2.3800    63.3270    12.9540    10.3710    28.9520    23.5600   -23.1530 
   73.3750     2.3830    60.7280    12.5910    10.5130    21.9750    23.2290   -23.3760 
   73.5000     2.3780    58.0750    11.5250     9.9810    11.6030    22.6480   -23.5770 
   73.6250     2.3930    57.7470    10.2610     9.0600     9.0690    22.4360   -23.8120 
   73.7500     2.4190    58.5440     9.2510     8.1790     8.6180    22.4620   -24.0240 
   73.8750     2.4300    59.0780     8.5960     7.4980     8.6280    22.5230   -24.0940 
   74.0000     2.4020    59.8050     8.2030     7.0240     8.4790    22.5390   -24.0590 
   74.1250     2.3320    62.5050     7.9290     6.6930     8.1790    22.5410   -23.9440 
   74.2500     2.2570    63.1190     7.6630     6.4090     8.1490    22.5280   -23.7150 
   74.3750     2.2000    60.9610     7.4110     6.1530     8.2500    22.4650   -23.4290 
   74.5000     2.1690    60.2430     7.2140     5.9440     8.2950    22.3370   -23.1690 
   74.6250     2.1560    61.3460     7.1070     5.8130     8.2910    22.2630   -22.8960 
   74.7500     2.1490    62.1460     7.0580     5.7460     8.7850    22.2210   -22.6480 
   74.8750     2.1450    62.3270     7.0340     5.7210     9.8530    22.2010   -22.5280 
   75.0000     2.1460    62.2560     7.0100     5.7120    10.6520    22.1840   -22.4760 
   75.1250     2.1530    60.8360     6.9740     5.6950     9.1540    22.1410   -22.4400 
   75.2500     2.1600    58.4830     6.9340     5.6680     8.3070    22.0990   -22.4780 
   75.3750     2.1610    57.6550     6.9000     5.6340     8.2340    22.0730   -22.5260 
   75.5000     2.1580    57.8160     6.8810     5.6030     8.6190    22.0430   -22.5130 
   75.6250     2.1550    59.3730     6.8800     5.5850     8.9480    21.9630   -22.5310 
   75.7500     2.1580    61.7240     6.8880     5.5750     8.8600    21.8550   -22.5690 
   75.8750     2.1670    62.1730     6.8900     5.5690     8.6970    21.7930   -22.5310 
   76.0000     2.1790    61.3080     6.8780     5.5560     8.6480    21.7750   -22.5180 
   76.1250     2.1840    62.6030     6.8470     5.5310     8.6400    21.7950   -22.6130 
   76.2500     2.1800    64.9850     6.8060     5.4950     8.5370    21.8580   -22.6880 
   76.3750     2.1680    65.4030     6.7660     5.4550     8.3570    21.9040   -22.7550 
   76.5000     2.1530    63.4160     6.7360     5.4170     8.2700    21.8300   -22.8910 
   76.6250     2.1440    62.3720     6.7170     5.3860     8.2130    21.7470   -22.9780 
   76.7500     2.1460    62.5540     6.7020     5.3640     8.1870    21.7120   -22.9660 
   76.8750     2.1600    61.6530     6.6870     5.3470     8.1110    21.7070   -22.9500 
   77.0000     2.1790    59.6080     6.6660     5.3330     8.0680    21.7070   -22.8010 
   77.1250     2.1930    57.3450     6.6370     5.3190     8.0740    21.7080   -22.4230 
   77.2500     2.1960    55.8010     6.6050     5.3030     8.1000    21.7100   -22.0350 
   77.3750     2.1890    56.3120     6.5730     5.2890     8.0470    21.7140   -21.6140 
   77.5000     2.1760    59.0710     6.5480     5.2830     7.9280    21.7110   -21.0980 
   77.6250     2.1650    63.3690     6.5390     5.2940     7.8450    21.7090   -20.6220 
   77.7500     2.1600    66.0670     6.5560     5.3270     7.8270    21.7070   -20.2060 
   77.8750     2.1630    65.3260     6.6030     5.3860     7.7980    21.7030   -19.7900 
   78.0000     2.1710    62.4310     6.6800     5.4700     7.8200    21.6890   -19.5040 
   78.1250     2.1800    60.0250     6.7780     5.5790     7.9100    21.6570   -19.4180 
   78.2500     2.1850    58.8440     6.8760     5.7020     8.0010    21.5940   -19.3320 
   78.3750     2.1840    57.2470     6.9600     5.8260     8.1140    21.4940   -19.2940 
   78.5000     2.1770    56.4470     7.0210     5.9390     8.2480    21.4200   -19.3500 
   78.6250     2.1680    58.4290     7.0560     6.0240     8.3980    21.4130   -19.3820 
   78.7500     2.1630    60.3060     7.0760     6.0760     8.4610    21.4570   -19.3970 
   78.8750     2.1620    60.6030     7.0870     6.0950     8.3650    21.5500   -19.4510 
   79.0000     2.1640    60.2530     7.0910     6.0830     8.1610    21.6300   -19.4320 
   79.1250     2.1620    61.4370     7.0740     6.0330     8.0190    21.6780   -19.2890 
   79.2500     2.1550    60.6320     7.0180     5.9480     8.0130    21.6990   -19.1420 
   79.3750     2.1450    57.2710     6.9020     5.8210     8.0350    21.7080   -18.9200 
   79.5000     2.1370    54.5180     6.7210     5.6520     7.9810    21.7190   -18.5540 
   79.6250     2.1410    56.3540     6.5370     5.4640     7.8170    21.7460   -18.1320 
   79.7500     2.1600    60.1440     6.5310     5.3440     7.6570    21.7850   -17.6680 
   79.8750     2.1920    61.7940     6.9950     5.4330     7.6660    21.8200   -17.1050 
   80.0000     2.2370    61.8020     8.3150     5.9600     7.8640    21.8410   -16.5410 
   80.1250     2.3010    60.7120    11.1590     7.4640     8.9560    21.9520   -15.9220 
   80.2500     2.3830    60.0520    15.4600    10.2440    12.9160    22.2800   -15.1440 
   80.3750     2.4760    62.9530    20.5020    14.2350    27.4320    22.8260   -14.3470 
   80.5000     2.5620    69.2920    24.4140    18.2970    64.6210    23.4260   -13.5820 
   80.6250     2.6130    72.1280    24.2100    19.8240   102.8630    23.8130   -12.8090 
   80.7500     2.6180    70.5850    20.1630    18.0470    69.8570    24.0140   -12.1530 
   80.8750     2.5810    72.4000    14.3630    14.0760    26.4450    24.0820   -11.6880 
   81.0000     2.5160    81.3100     9.3130     9.9250     8.8020    24.1130   -11.3650 
   81.1250     2.4390    88.2020     6.5460     7.1720     5.9010    24.0910   -11.3430 
   81.2500     2.3630    84.1610     5.4040     5.6970     5.3480    23.9110   -11.6720 
   81.3750     2.2950    72.2760     5.2960     5.1640     5.8580    23.4770   -12.1930 
   81.5000     2.2410    61.1070     5.8140     5.3000     6.9110    22.9130   -12.8110 
   81.6250     2.2160    57.6040     6.6870     5.9410     7.6870    22.6500   -13.5270 
   81.7500     2.2210    59.1670     7.5620     6.7520     8.1200    22.5640   -14.1500 
   81.8750     2.2550    62.9500     8.1910     7.4680     8.8800    22.5530   -14.6020 
   82.0000     2.3000    67.2920     8.4150     7.8570    10.0770    22.5420   -15.0060 
   82.1250     2.3340    68.6640     8.1730     7.7560    10.3340    22.4330   -15.3770 
   82.2500     2.3430    67.9910     7.7210     7.3560     8.5240    22.2450   -15.6660 
   82.3750     2.3300    68.2130     7.2990     6.8770     7.3390    22.0740   -15.9970 
   82.5000     2.3040    69.9230     7.1020     6.5220     7.2280    21.9060   -16.4710 
   82.6250     2.2780    71.1810     7.2650     6.4530     7.7670    21.8170   -17.0110 
   82.7500     2.2590    70.8700     7.6860     6.6300     8.3840    21.7860   -17.6510 
   82.8750     2.2420    70.2970     8.2550     6.9830     9.6600    21.7920   -18.4640 
   83.0000     2.2290    69.2950     8.8540     7.4190    11.4760    21.8220   -19.2060 
   83.1250     2.2300    67.7240     9.3810     7.8480    11.5600    21.8730   -19.7150 
   83.2500     2.2540    65.4680     9.8000     8.2160    10.2740    21.9230   -20.1190 
   83.3750     2.2970    62.0580    10.0760     8.4890     9.9240    21.9300   -20.3240 
   83.5000     2.3420    60.3250    10.1590     8.6210    10.8320    21.8840   -20.3410 
   83.6250     2.3590    62.4030     9.9560     8.5240    11.2420    21.8300   -20.3170 
