~V
VERS. 2.00: Ver 2.00
~W
STRT.M 50.0000:
STOP.M 251.0000:
STEP.M 0.1250:
NULL. -999.2500:
UWI. F10193:
~C
DEPT.M :
DEN.GM/CC :
GR.API :
RML.OHMM :
RI. :
RXO.OHMM :
CALI.CM :
SP.MV :
~A
# ...
  151.2500     2.2970    81.9230     8.3900     5.4120     6.0030    25.7850     1.1300 
  151.3750     2.2740    73.6320    10.6130     6.7380     7.7950    25.8470     0.9520 
  151.5000     2.2520    69.6150    14.1310     8.9600    12.2810    25.8440     0.7730 
  151.6250     2.2360    67.2270    18.9450    12.3420    20.1820    25.7820     0.6140 
  151.7500     2.2270    65.2740    23.9410    16.3300    26.6860    25.7370     0.4880 
  151.8750     2.2210    64.7050    27.8150    20.0320    29.7330    25.7330     0.4040 
  152.0000     2.2180    64.6110    29.6900    22.5280    28.8330    25.7250     0.3760 
  152.1250     2.2180    63.7600    29.5820    23.3840    26.0490    25.6770     0.4310 
  152.2500     2.2250    62.9440    28.5620    23.2440    26.2070    25.6000     0.5700 
  152.3750     2.2390    64.8130    26.7480    22.2310    27.1030    25.5250     0.7920 
  152.5000     2.2560    68.7360    23.8160    20.1590    25.1320    25.4770     1.0750 
  152.6250     2.2690    71.5990    19.6020    16.9250    21.0160    25.4460     1.3720 
  152.7500     2.2750    76.5970    15.0850    13.3440    15.9860    25.4270     1.6360 
  152.8750     2.2750    85.8940    11.1510    10.1120    11.1100    25.4310     1.8360 
  153.0000     2.2720    92.7040     8.3260     7.6520     7.1700    25.4510     1.9550 
  153.1250     2.2730    91.0760     6.8230     6.1750     5.9920    25.4690     1.9760 
  153.2500     2.2820    89.4480     6.1870     5.3910     5.1400    25.4950     1.9250 
  153.3750     2.2970    93.7090     6.1450     5.1260     4.5620    25.5440     1.8200 
  153.5000     2.3130    99.3040     6.4360     5.2060     4.3400    25.5890     1.6830 
  153.6250     2.3180   101.0310     6.8060     5.4610     4.4040    25.6030     1.5360 
  153.7500     2.3080   101.4300     7.0500     5.6970     4.5340    25.6010     1.3990 
  153.8750     2.2850   101.3480     7.1170     5.8280     4.7430    25.6000     1.2810 
  154.0000     2.2600   100.3890     7.0600     5.8500     4.9720    25.6000     1.1900 
  154.1250     2.2480    98.5540     7.0170     5.8330     5.0930    25.6000     1.1450 
  154.2500     2.2530    95.6050     7.1610     5.9090     5.2940    25.6000     1.1480 
  154.3750     2.2690    91.8720     7.6380     6.1960     5.7300    25.6000     1.1960 
  154.5000     2.2840    88.2280     8.5490     6.7830     6.4970    25.6000     1.2720 
  154.6250     2.2880    83.9400     9.9840     7.7580     8.0050    25.6020     1.3460 
  154.7500     2.2830    78.4880    11.6990     8.9870    10.4580    25.5960     1.3970 
  154.8750     2.2740    74.2460    13.3630    10.2680    12.6090    25.5600     1.4230 
  155.0000     2.2660    73.7030    14.6010    11.3210    13.3420    25.5210     1.4320 
  155.1250     2.2630    77.2430    15.1200    11.8600    12.8680    25.5430     1.4210 
  155.2500     2.2650    80.5790    15.2310    12.0190    12.3110    25.6440     1.3960 
  155.3750     2.2760    80.5230    15.3260    12.0440    11.9940    25.8330     1.3630 
  155.5000     2.2930    77.7830    15.7430    12.1800    12.0150    26.1010     1.3280 
  155.6250     2.3110    75.2830    16.6530    12.5910    12.6600    26.3810     1.2910 
  155.7500     2.3210    73.6110    17.7300    13.1490    14.2340    26.5700     1.2480 
  155.8750     2.3220    72.7170    18.5360    13.6080    15.1290    26.6530     1.1940 
  156.0000     2.3150    73.0630    18.7010    13.7130    15.3970    26.6790     1.1390 
  156.1250     2.3090    74.9010    18.1140    13.3410    14.3710    26.6300     1.1100 
  156.2500     2.3050    76.7860    17.3500    12.8150    13.3170    26.4760     1.1170 
  156.3750     2.3020    79.1590    16.9810    12.4870    11.9840    26.2400     1.1450 
  156.5000     2.2970    81.4000    17.4670    12.6770    11.5000    26.0160     1.1710 
  156.6250     2.2890    79.2160    19.2240    13.7340    13.7460    25.9030     1.1720 
  156.7500     2.2780    71.9060    21.9700    15.5800    18.2630    25.8680     1.1440 
  156.8750     2.2690    63.9040    25.2800    18.0420    23.6190    25.8650     1.0940 
  157.0000     2.2630    61.0850    28.3410    20.6300    28.1930    25.8670     1.0410 
  157.1250     2.2670    64.0530    29.7190    22.2830    27.6420    25.8670     1.0100 
  157.2500     2.2830    67.9800    29.1090    22.4810    25.3300    25.8670     1.0110 
  157.3750     2.3060    70.8360    27.1240    21.4830    25.2390    25.8670     1.0370 
  157.5000     2.3270    72.0260    24.8240    20.0340    25.2990    25.8660     1.0700 
  157.6250     2.3340    71.0720    23.1000    18.8420    20.8290    25.8690     1.0890 
  157.7500     2.3300    69.3820    22.0470    18.0950    18.5750    25.8620     1.1050 
  157.8750     2.3200    68.3920    21.3770    17.6710    24.3380    25.8280     1.1500 
  158.0000     2.3000    67.1890    20.5550    17.2360    35.3940    25.7870     1.2530 
  158.1250     2.2590    66.4250    18.9740    16.3140    29.3620    25.7970     1.4400 
  158.2500     2.2060    67.7490    16.7440    14.8600    17.1760    25.8640     1.6850 
  158.3750     2.1570    70.2580    14.3020    13.1200    11.2490    25.9440     1.9710 
  158.5000     2.1240    73.0140    12.1790    11.4760     9.1860    25.9910     2.2800 
  158.6250     2.1190    76.2030    10.8300    10.2900     8.3530    26.0020     2.5960 
  158.7500     2.1300    79.0150    10.1000     9.5320     7.8010    26.0010     2.9060 
  158.8750     2.1440    81.8760     9.7100     9.0310     8.2690    26.0000     3.2110 
  159.0000     2.1570    84.9250     9.3510     8.5540     8.4130    26.0020     3.5110 
  159.1250     2.1700    85.6470     8.7830     7.9110     7.8570    25.9990     3.7950 
  159.2500     2.1900    84.3030     8.0250     7.1370     6.5200    25.9720     4.0420 
  159.3750     2.2130    82.4990     7.2260     6.3630     5.2370    25.9220     4.2260 
  159.5000     2.2390    80.9030     6.6150     5.7640     4.6320    25.8780     4.3290 
  159.6250     2.2630    79.3650     6.5230     5.5830     4.7640    25.8640     4.3370 
  159.7500     2.2770    79.0650     7.1000     5.9190     5.2230    25.8680     4.2740 
  159.8750     2.2790    80.7380     8.5190     6.9060     6.4960    25.8590     4.1550 
  160.0000     2.2690    80.2210    10.8690     8.6440     9.5190    25.8220     3.9960 
  160.1250     2.2540    75.6340    14.0140    11.1560    14.6300    25.7690     3.8090 
  160.2500     2.2430    71.2520    17.0850    13.8160    17.8510    25.7380     3.6040 
  160.3750     2.2360    69.3040    19.2150    15.8690    19.2580    25.7350     3.3750 
  160.5000     2.2330    69.8800    19.9520    16.7920    19.1950    25.7270     3.1180 
  160.6250     2.2350    70.4050    19.5150    16.6180    17.8940    25.6600     2.8370 
  160.7500     2.2410    68.5400    18.8130    16.0790    16.5260    25.5290     2.5570 
  160.8750     2.2530    65.4050    18.1480    15.4630    16.9870    25.3730     2.3030 
  161.0000     2.2680    64.6630    17.3950    14.7390    20.2970    25.2500     2.0870 
  161.1250     2.2860    69.2610    16.2220    13.7140    20.8470    25.2010     1.9110 
  161.2500     2.3070    75.2380    14.7230    12.4700    17.0520    25.2300     1.7400 
  161.3750     2.3300    78.9300    13.2500    11.2540    11.8140    25.3550     1.5410 
  161.5000     2.3530    80.5650    12.2470    10.3630     8.2590    25.5530     1.2890 
  161.6250     2.3700    80.1630    12.1780    10.1340     8.2670    25.7410     0.9680 
  161.7500     2.3800    80.3150    12.9160    10.5520    10.1950    25.8650     0.5950 
  161.8750     2.3820    83.8480    14.1860    11.5100    12.5750    25.9490     0.1900 
  162.0000     2.3770    89.1180    15.5180    12.7220    14.6600    26.0460    -0.2120 
  162.1250     2.3670    91.0880    16.2840    13.6940    14.7760    26.1750    -0.5540 
  162.2500     2.3600    89.5700    16.3630    14.1570    13.9640    26.2450    -0.8050 
  162.3750     2.3620    88.1630    16.0060    14.1770    13.0230    26.1830    -0.9700 
