~V
VERS. 2.00: Ver 2.00
~W
STRT.M 50.0000:
STOP.M 233.0000:
STEP.M 0.1250:
NULL. -999.2500:
UWI. F10166:
~C
DEPT.M :
SP.MV :
DEN.GM/CC :
GR.API :
RML.OHMM :
RI. :
RXO.OHMM :
CALI.CM :
~A
# ...
  207.5000   -19.5220     2.2070    81.2970    26.7590    22.7210    24.6160    24.6470 
  207.6250   -19.7180     2.1890    80.0370    28.8530    24.4490    25.9340    24.6490 
  207.7500   -19.9300     2.1550    77.4800    30.7730    26.2430    27.4230    24.6560 
  207.8750   -20.1770     2.1210    77.3380    31.7970    27.4330    29.4580    24.6610 
  208.0000   -20.4080     2.1080    79.4030    31.5530    27.5590    29.5420    24.6170 
  208.1250   -20.6060     2.1330    81.6610    30.2560    26.6550    25.2470    24.4670 
  208.2500   -20.7710     2.1750    84.3080    28.9000    25.5530    19.8140    24.2860 
  208.3750   -20.8960     2.2070    85.8310    28.1580    24.8390    16.6550    24.1750 
  208.5000   -21.0240     2.2120    84.3320    28.4240    24.8800    17.5310    24.2050 
  208.6250   -21.1440     2.1930    80.3900    29.9340    25.9270    22.3800    24.3790 
  208.7500   -21.2820     2.1690    76.0370    32.2070    27.6500    27.6100    24.5830 
  208.8750   -21.4210     2.1520    73.1220    34.7230    29.6600    30.6520    24.7280 
  209.0000   -21.5560     2.1480    72.6040    36.8860    31.4890    31.1030    24.7790 
  209.1250   -21.6570     2.1580    73.1270    38.1550    32.6950    30.9800    24.7790 
  209.2500   -21.7020     2.1780    71.3470    38.7030    33.3630    32.2860    24.7770 
  209.3750   -21.6860     2.2020    67.3300    38.8100    33.6780    34.5420    24.7770 
  209.5000   -21.5950     2.2170    64.0740    38.7330    33.8290    35.3650    24.7780 
  209.6250   -21.4480     2.2120    63.7830    38.8210    34.0750    33.9410    24.7770 
  209.7500   -21.2620     2.1970    64.1880    39.5270    34.7740    32.3780    24.7600 
  209.8750   -21.0490     2.1900    64.7280    41.3570    36.3260    31.1570    24.7220 
  210.0000   -20.8190     2.2070    63.7540    44.6830    39.0700    32.4540    24.6720 
  210.1250   -20.5410     2.2450    60.1400    49.3320    42.9970    39.4650    24.6350 
  210.2500   -20.2240     2.2740    56.8150    53.0450    46.3940    49.1240    24.6260 
  210.3750   -19.8600     2.2780    56.0590    52.5540    46.5640    53.8990    24.6380 
  210.5000   -19.4750     2.2620    57.6550    45.7130    41.4410    53.1060    24.6520 
  210.6250   -19.0560     2.2500    57.7480    34.2960    32.0160    44.5770    24.6510 
  210.7500   -18.6600     2.2560    55.7830    23.6560    22.7970    27.1030    24.6460 
  210.8750   -18.3130     2.2800    53.5360    15.9530    15.8210    13.6120    24.6450 
  211.0000   -18.0800     2.3110    51.8500    11.2980    11.3620     7.6660    24.6470 
  211.1250   -18.0150     2.3340    52.3920     9.1980     9.1210     6.8080    24.6490 
  211.2500   -18.1210     2.3480    54.1320     8.4260     8.1190     7.2790    24.6520 
  211.3750   -18.3930     2.3490    54.2380     8.4350     7.9380     7.6380    24.6470 
  211.5000   -18.7780     2.3360    50.2370     8.8020     8.2400     7.9890    24.6270 
  211.6250   -19.2490     2.3100    46.6880     9.1610     8.7000     8.1180    24.6050 
  211.7500   -19.7030     2.2820    47.3780     9.3240     9.0450     7.7360    24.5960 
  211.8750   -20.1010     2.2600    49.9860     9.2930     9.2010     7.1780    24.6050 
  212.0000   -20.4060     2.2530    51.8220     9.1440     9.1910     7.0310    24.6250 
  212.1250   -20.5810     2.2650    53.7530     8.9470     9.0570     7.4150    24.6310 
  212.2500   -20.6600     2.2900    57.5930     8.7430     8.8660     7.7590    24.6150 
  212.3750   -20.6380     2.3170    60.2040     8.5520     8.6520     7.6990    24.5930 
  212.5000   -20.5390     2.3330    59.1440     8.3850     8.4350     7.3050    24.5830 
  212.6250   -20.3860     2.3230    55.0200     8.2580     8.2330     7.0980    24.5870 
  212.7500   -20.2210     2.2930    51.3980     8.1730     8.0530     7.3580    24.5880 
  212.8750   -20.0300     2.2560    50.4300     8.1220     7.8920     7.7860    24.5870 
  213.0000   -19.8250     2.2290    51.0590     8.0790     7.7410     7.7900    24.5860 
  213.1250   -19.5760     2.2280    52.0730     8.0000     7.5850     7.0380    24.5880 
  213.2500   -19.3040     2.2480    52.2480     7.8960     7.4270     6.2600    24.5890 
  213.3750   -19.0490     2.2750    50.2180     7.8200     7.2960     6.1080    24.5880 
  213.5000   -18.7970     2.2960    47.9480     7.8140     7.2210     6.4780    24.5850 
  213.6250   -18.5540     2.3050    48.3310     7.8850     7.2190     6.7710    24.5840 
  213.7500   -18.3020     2.3100    50.7140     7.9680     7.2530     6.8780    24.5830 
  213.8750   -18.0870     2.3170    52.6810     8.0010     7.2800     7.0760    24.5820 
  214.0000   -17.9180     2.3260    52.8350     7.9540     7.2640     7.2710    24.5820 
  214.1250   -17.7790     2.3330    52.5350     7.8530     7.1900     7.1180    24.5890 
  214.2500   -17.6870     2.3350    52.0140     7.7870     7.1150     6.9540    24.6070 
  214.3750   -17.6190     2.3340    50.9810     7.8250     7.1050     7.0450    24.6290 
  214.5000   -17.5830     2.3340    50.5350     8.0080     7.2080     7.1390    24.6450 
  214.6250   -17.5660     2.3380    52.5010     8.3750     7.4720     7.3000    24.6370 
  214.7500   -17.5430     2.3440    55.9610     8.8650     7.8460     7.9930    24.6130 
  214.8750   -17.4940     2.3520    56.6430     9.3790     8.2540     8.9580    24.5920 
  215.0000   -17.3890     2.3600    52.7780     9.7610     8.5780     9.3270    24.5830 
  215.1250   -17.2100     2.3620    49.2120     9.7950     8.6550     8.6830    24.5820 
  215.2500   -16.9680     2.3560    47.9090     9.5000     8.4780     8.0550    24.5800 
  215.3750   -16.7000     2.3430    46.5330     8.9880     8.1010     7.7630    24.5780 
  215.5000   -16.4160     2.3230    44.6480     8.4310     7.6350     7.4020    24.5770 
  215.6250   -16.1910     2.3000    45.2860     8.0350     7.2290     6.9300    24.5830 
  215.7500   -16.0200     2.2830    47.4860     7.8830     6.9780     6.6170    24.6220 
  215.8750   -15.9310     2.2780    48.2990     7.9770     6.9210     6.5190    24.6860 
  216.0000   -15.9460     2.2880    47.8650     8.2750     7.0600     6.5880    24.7120 
  216.1250   -16.0920     2.3100    48.7170     8.7050     7.3810     7.2020    24.6740 
  216.2500   -16.3260     2.3340    50.2870     9.1050     7.7630     8.2180    24.6710 
  216.3750   -16.5980     2.3510    50.7360     9.3410     8.0840     8.8130    24.7340 
  216.5000   -16.8650     2.3580    50.2080     9.3580     8.2540     8.7440    24.7950 
  216.6250   -17.0600     2.3660    50.0660     9.2290     8.2660     8.7370    24.7930 
  216.7500   -17.1540     2.3790    50.2230     9.1190     8.2420     8.8470    24.7760 
  216.8750   -17.1550     2.3900    51.0880     9.1140     8.2630     8.6530    24.7740 
  217.0000   -17.0590     2.3880    53.8450     9.2290     8.3640     8.8160    24.7860 
  217.1250   -16.8420     2.3680    58.3620     9.3710     8.4970     9.9210    24.8130 
  217.2500   -16.5640     2.3410    61.5730     9.3830     8.5400    10.2580    24.8430 
  217.3750   -16.2750     2.3200    64.3050     9.1890     8.4120     9.1160    24.8550 
  217.5000   -15.9860     2.3110    69.3330     8.8170     8.1190     7.6890    24.8470 
  217.6250   -15.7260     2.3040    75.1810     8.3810     7.7340     7.2250    24.8580 
  217.7500   -15.4920     2.2900    78.8190     8.0310     7.3930     7.1040    24.8880 
  217.8750   -15.2820     2.2720    80.1820     7.8540     7.1810     6.7750    24.8860 
  218.0000   -15.1220     2.2620    81.7600     7.8650     7.1280     6.4480    24.8220 
  218.1250   -15.0330     2.2730    84.2950     8.0140     7.2120     6.6550    24.7420 
  218.2500   -14.9650     2.2950    83.5960     8.1690     7.3250     7.2860    24.7030 
  218.3750   -14.9120     2.3120    80.1150     8.2200     7.3770     7.5970    24.7050 
  218.5000   -14.8540     2.3160    78.3990     8.0900     7.2960     7.1430    24.7380 
  218.6250   -14.7930     2.3050    82.8490     7.7650     7.0540     6.5190    24.8070 
