~V
VERS. 2.00: Ver 2.00
~W
STRT.M 50.0000:
STOP.M 268.0000:
STEP.M 0.1250:
NULL. -999.2500:
UWI. F10199:
~C
DEPT.M :
GR.API :
RML.OHMM :
RI. :
RXO.OHMM :
CALI.CM :
DEN.GM/CC :
SP.MV :
~A
# ...
  173.7500    56.3270   214.4910   182.9770    96.7950    23.4670     2.1660   -23.0620 
  173.8750    58.2230   213.8430   181.0450   115.6370    23.8440     2.1560   -22.8040 
  174.0000    58.7440   215.3920   181.2090   131.9770    24.1140     2.1540   -22.5950 
  174.1250    57.6910   219.0160   183.6050   135.5670    24.2340     2.1560   -22.3210 
  174.2500    56.7360   223.5230   187.3430   134.2530    24.2650     2.1590   -22.0860 
  174.3750    56.9280   227.7910   191.6430   133.2370    24.2430     2.1620   -21.8140 
  174.5000    57.8080   230.6430   195.6290   134.3210    24.1990     2.1670   -21.4660 
  174.6250    56.8270   230.7300   198.2740   137.0050    24.1490     2.1730   -21.1670 
  174.7500    53.6630   228.1970   199.3390   141.5270    24.0870     2.1790   -20.8980 
  174.8750    50.7790   223.3040   198.7330   146.9610    24.0150     2.1840   -20.5570 
  175.0000    51.8840   216.0950   196.1970   148.1670    23.9330     2.1880   -20.2330 
  175.1250    56.1750   204.8930   189.9220   141.8150    23.8160     2.1910   -19.9190 
  175.2500    60.8230   188.2250   178.2100   131.9710    23.6660     2.1950   -19.5370 
  175.3750    64.8780   164.7830   159.3520   120.3680    23.5030     2.2030   -19.1790 
  175.5000    65.6940   135.2260   133.3290   106.9830    23.3320     2.2170   -18.8110 
  175.6250    63.3260   103.3250   102.9980    89.7380    23.1600     2.2420   -18.4300 
  175.7500    63.3580    74.9700    74.8980    69.6750    23.0120     2.2740   -18.0360 
  175.8750    68.0340    53.3170    53.1340    49.9190    22.8950     2.3100   -17.6240 
  176.0000    73.7940    38.9880    38.8340    33.8740    22.8280     2.3420   -17.2420 
  176.1250    76.8640    31.8770    31.7190    26.0670    22.8300     2.3620   -16.9450 
  176.2500    78.7010    29.5160    29.0290    23.7540    22.8840     2.3680   -16.7390 
  176.3750    79.9090    30.9960    29.8210    25.7490    22.9950     2.3580   -16.6020 
  176.5000    79.0180    35.7190    33.6870    30.8140    23.1250     2.3380   -16.5400 
  176.6250    75.7570    43.4810    40.8230    38.3520    23.2210     2.3120   -16.5370 
  176.7500    73.3340    52.8760    50.1280    46.4490    23.2970     2.2880   -16.5920 
  176.8750    71.1500    62.6780    60.4470    53.4460    23.3480     2.2670   -16.7210 
  177.0000    68.8250    71.5390    70.2000    57.2230    23.3780     2.2520   -16.8460 
  177.1250    67.5080    77.9470    77.3620    59.3970    23.4050     2.2420   -16.9890 
  177.2500    67.1510    81.8970    81.5760    62.7200    23.4260     2.2350   -17.1170 
  177.3750    66.0820    83.7150    83.1070    66.9770    23.4380     2.2290   -17.2590 
  177.5000    63.6920    83.9110    82.5480    69.4500    23.4580     2.2230   -17.4190 
  177.6250    62.1710    82.7620    80.2770    70.1160    23.4820     2.2170   -17.5890 
  177.7500    62.2580    80.8390    77.0880    70.0820    23.5020     2.2150   -17.7550 
  177.8750    64.1780    78.5280    73.5250    69.0800    23.5270     2.2170   -17.9120 
  178.0000    67.9460    76.2690    70.1580    67.3240    23.5500     2.2250   -18.0720 
  178.1250    71.6170    74.6480    67.6630    65.4600    23.5650     2.2370   -18.2570 
  178.2500    73.1450    74.0200    66.3190    64.9130    23.5920     2.2470   -18.4360 
  178.3750    72.4210    74.7590    66.3850    65.9530    23.6300     2.2540   -18.6000 
  178.5000    69.6630    77.2350    68.1020    68.1970    23.6680     2.2560   -18.8110 
  178.6250    67.0180    82.0910    71.9970    73.1180    23.7220     2.2560   -19.0020 
  178.7500    65.0010    88.9720    77.7780    81.1280    23.7810     2.2520   -19.2140 
  178.8750    62.4000    97.4610    85.1530    88.4260    23.8320     2.2450   -19.4720 
  179.0000    59.0190   106.7500    93.4940    93.9550    23.8820     2.2340   -19.7330 
  179.1250    57.1100   115.3900   101.6260   100.4720    23.9190     2.2200   -19.9900 
  179.2500    57.7660   121.9420   108.1800   106.2430    23.9190     2.2090   -20.2670 
  179.3750    59.7290   125.3710   112.1070   104.7450    23.8830     2.2040   -20.5200 
  179.5000    60.2910   125.3640   112.9480    96.7630    23.8190     2.2050   -20.7520 
  179.6250    58.7670   122.3480   110.8130    88.8590    23.7240     2.2120   -20.9930 
  179.7500    56.7740   118.6670   107.6620    82.3170    23.6200     2.2200   -21.2490 
  179.8750    57.3520   116.4050   105.3250    75.9220    23.5090     2.2280   -21.4690 
  180.0000    60.2490   117.3760   105.5250    68.2340    23.3950     2.2340   -21.6800 
  180.1250    63.0330   123.3950   110.0740    62.8290    23.3180     2.2400   -21.9220 
  180.2500    65.6900   133.3840   118.3030    61.5740    23.2770     2.2460   -22.1650 
  180.3750    67.5900   145.4810   128.7960    62.8200    23.2750     2.2510   -22.3890 
  180.5000    66.1320   156.6180   138.9580    65.6590    23.3290     2.2540   -22.5770 
  180.6250    61.6450   162.2600   144.7170    71.0090    23.4230     2.2510   -22.7830 
  180.7500    60.2010   161.3750   144.6830    77.3400    23.5200     2.2430   -22.9340 
  180.8750    63.0920   155.8300   139.9730    82.2710    23.6130     2.2340   -23.0620 
  181.0000    63.4300   150.3660   134.3480    85.4560    23.6830     2.2260   -23.1990 
  181.1250    59.0110   152.1250   134.0450    85.5330    23.6900     2.2230   -23.2420 
  181.2500    56.6780   164.6010   142.7690    85.7690    23.6420     2.2200   -23.2420 
  181.3750    57.9390   190.1430   162.8080    91.7700    23.5660     2.2180   -23.2420 
  181.5000    59.7680   229.7790   194.8570   103.6370    23.4810     2.2160   -23.2300 
  181.6250    59.6350   284.0080   238.9070   116.3820    23.3980     2.2180   -23.1980 
  181.7500    58.7180   344.7300   288.3250   124.7530    23.3050     2.2250   -23.1570 
  181.8750    57.3360   402.3100   335.9890   128.3280    23.2160     2.2330   -23.1380 
  182.0000    54.7570   445.0420   373.5400   126.7750    23.1450     2.2390   -23.1570 
  182.1250    51.9840   458.6500   390.3910   119.1450    23.0760     2.2350   -23.1600 
  182.2500    48.9910   445.9120   387.0560   107.1820    23.0080     2.2230   -23.1840 
  182.3750    48.0870   413.3660   366.6250    93.0400    22.9440     2.2030   -23.2220 
  182.5000    50.8270   370.2270   335.0740    79.0950    22.8720     2.1810   -23.2540 
  182.6250    53.8450   323.3820   297.8500    69.9610    22.8020     2.1640   -23.2770 
  182.7500    53.7970   275.8600   258.7410    66.4320    22.7530     2.1560   -23.3060 
  182.8750    51.7510   228.7780   218.7540    65.0790    22.7260     2.1590   -23.3120 
  183.0000    51.2400   185.1280   179.9950    62.7810    22.7300     2.1710   -23.2730 
  183.1250    54.6960   150.8770   147.5040    55.0610    22.7680     2.1890   -23.2770 
  183.2500    59.7010   127.4120   123.9460    45.8090    22.8100     2.2020   -23.2210 
  183.3750    64.4690   114.6600   110.3490    40.7690    22.8610     2.2080   -23.1550 
  183.5000    66.6370   111.3450   106.1340    44.1540    22.9370     2.2050   -23.0900 
  183.6250    64.6990   116.9420   111.0850    56.7240    23.0230     2.1980   -22.9550 
  183.7500    62.4200   128.4420   122.2280    73.8890    23.1170     2.1940   -22.8120 
  183.8750    62.9200   144.1420   137.9720    90.8780    23.2240     2.1950   -22.6590 
  184.0000    64.7190   161.6530   156.1290   102.9850    23.3300     2.1990   -22.4430 
  184.1250    64.1320   176.6170   172.7310   112.9640    23.4380     2.2050   -22.2260 
  184.2500    61.4850   184.7600   183.4450   119.8000    23.5590     2.2110   -22.0490 
  184.3750    58.2700   182.8820   184.8140   117.4030    23.6740     2.2160   -21.8440 
  184.5000    54.7870   170.1700   175.3690   110.3580    23.7680     2.2210   -21.6490 
  184.6250    51.9530   148.6880   155.8940   101.9490    23.8240     2.2290   -21.5070 
  184.7500    52.4940   125.4340   132.9720    87.6730    23.8490     2.2390   -21.3230 
  184.8750    56.6480   104.3120   110.9520    69.5350    23.8490     2.2490   -21.1610 
