~V
VERS. 2.00: Ver 2.00
~W
STRT.M 43.0000:
STOP.M 249.0000:
STEP.M 0.1250:
NULL. -999.2500:
UWI. F10197:
~C
DEPT.M :
GR.API :
RML.OHMM :
RI. :
RXO.OHMM :
CALI.CM :
SP.MV :
DEN.GM/CC :
~A
# ...
   88.0000    74.3710     7.8070     5.9350     7.3780    21.9020   -32.1350     2.2440 
   88.1250    71.4060     8.1360     6.0910     8.2790    21.9010   -32.5500     2.2440 
   88.2500    65.8360     8.6410     6.4090     9.6860    21.9860   -33.0690     2.2260 
   88.3750    61.0830     9.1770     6.8120    11.0090    22.1700   -33.6420     2.1990 
   88.5000    60.0470     9.5930     7.1940    11.5300    22.4390   -34.1860     2.1740 
   88.6250    61.2230     9.7440     7.4180    11.6040    22.7480   -34.6360     2.1580 
   88.7500    63.1760     9.6670     7.4600    11.4980    22.9880   -34.9180     2.1450 
   88.8750    64.5800     9.4440     7.3600    11.4340    23.0970   -34.9670     2.1340 
   89.0000    64.7000     9.1830     7.1860    11.3070    23.0750   -34.8140     2.1260 
   89.1250    64.4390     8.9900     7.0160    10.8310    22.9630   -34.5290     2.1260 
   89.2500    64.2940     8.9070     6.8940    10.4300    22.8270   -34.1950     2.1360 
   89.3750    64.1250     8.9180     6.8270    10.2280    22.7440   -33.8840     2.1520 
   89.5000    64.0550     8.9660     6.7940    10.1670    22.7120   -33.6790     2.1660 
   89.6250    64.6880     8.9590     6.7580    10.1370    22.7190   -33.6550     2.1710 
   89.7500    65.1570     8.8640     6.6950     9.9940    22.7230   -33.8230     2.1700 
   89.8750    65.0960     8.7090     6.6120     9.7570    22.7470   -34.2380     2.1670 
   90.0000    66.2340     8.5710     6.5410     9.6080    22.8290   -34.8880     2.1630 
   90.1250    68.3700     8.5650     6.5480     9.7400    23.0090   -35.7340     2.1630 
   90.2500    67.2160     8.7210     6.6640    10.1750    23.1790   -36.7090     2.1720 
   90.3750    62.7210     9.0190     6.8940    11.0060    23.3070   -37.7720     2.1890 
   90.5000    58.2330     9.3850     7.2040    12.0410    23.3990   -38.8430     2.2080 
   90.6250    57.4130     9.6910     7.5110    12.9580    23.3890   -39.7950     2.2170 
   90.7500    58.1090     9.8350     7.7190    13.0980    23.3800   -40.5850     2.2130 
   90.8750    59.7000     9.7770     7.7770    12.7730    23.3990   -41.1700     2.2020 
   91.0000    62.4890     9.5480     7.6850    12.3900    23.4190   -41.5470     2.1910 
   91.1250    63.7840     9.2390     7.4880    12.1980    23.3970   -41.6900     2.1870 
   91.2500    61.1550     8.9770     7.2830    12.1460    23.4220   -41.6410     2.1870 
   91.3750    57.7550     8.8240     7.1260    12.0550    23.4790   -41.4140     2.1900 
   91.5000    59.3840     8.7940     7.0480    11.8900    23.5880   -41.0890     2.1910 
   91.6250    64.8450     8.8640     7.0560    11.9010    23.6940   -40.7670     2.1850 
   91.7500    67.0610     8.9570     7.1080    12.2230    23.6920   -40.4880     2.1750 
   91.8750    65.5120     9.0220     7.1690    12.4370    23.5670   -40.2590     2.1690 
   92.0000    62.2960     9.0280     7.2050    12.3430    23.4550   -40.0570     2.1660 
   92.1250    59.2370     8.9490     7.1900    12.4040    23.4840   -39.8770     2.1650 
   92.2500    57.5320     8.8130     7.1300    12.3890    23.6150   -39.7770     2.1650 
   92.3750    59.5970     8.6600     7.0430    12.2500    23.6750   -39.7580     2.1660 
   92.5000    66.7360     8.5340     6.9530    11.9410    23.6950   -39.7640     2.1650 
   92.6250    75.1900     8.4750     6.8870    11.5380    23.7040   -39.8020     2.1570 
   92.7500    77.8980     8.4740     6.8540    11.4640    23.6710   -39.8770     2.1490 
   92.8750    75.0840     8.4990     6.8450    11.6190    23.5830   -39.9430     2.1470 
   93.0000    73.4550     8.5100     6.8470    11.8200    23.5250   -39.9840     2.1530 
   93.1250    76.6900     8.4810     6.8410    11.8460    23.5090   -40.0280     2.1600 
   93.2500    77.4390     8.4280     6.8250    11.8230    23.5560   -39.9990     2.1670 
   93.3750    73.7660     8.3820     6.8140    11.6970    23.6420   -39.8740     2.1710 
   93.5000    72.0820     8.3850     6.8290    11.3790    23.7090   -39.6730     2.1700 
   93.6250    75.4140     8.4910     6.9080    11.0910    23.8300   -39.3610     2.1610 
   93.7500    78.1120     8.6900     7.0540    11.0450    24.0850   -38.9280     2.1460 
   93.8750    77.2600     8.9340     7.2490    11.1090    24.4250   -38.4080     2.1290 
   94.0000    76.1790     9.1320     7.4410    11.1710    24.6050   -37.8050     2.1130 
   94.1250    78.4780     9.1570     7.5390    11.3970    24.5350   -37.0650     2.1080 
   94.2500    80.0300     9.0090     7.5170    11.6220    24.3230   -36.2550     2.1180 
   94.3750    79.0020     8.7740     7.4020    11.3120    24.1250   -35.4450     2.1420 
   94.5000    76.4040     8.5940     7.2750    10.3820    24.0270   -34.6920     2.1700 
   94.6250    74.4600     8.6510     7.2620     9.8440    23.9870   -34.0670     2.1960 
   94.7500    72.8970     8.9700     7.4210    10.4890    23.9180   -33.5720     2.2180 
   94.8750    73.5280     9.4890     7.7470    11.3620    23.8590   -33.1790     2.2300 
   95.0000    75.2840    10.0570     8.1710    11.7960    23.8540   -32.8730     2.2270 
   95.1250    72.9080    10.4290     8.5350    11.8530    23.8850   -32.6580     2.2130 
   95.2500    67.4660    10.4660     8.6900    11.8380    23.8010   -32.4680     2.1980 
   95.3750    64.4530    10.1630     8.5780    11.5820    23.5510   -32.2680     2.1880 
   95.5000    66.6660     9.6520     8.2520    11.0330    23.2220   -32.0370     2.1860 
   95.6250    69.7810     9.1590     7.8550    10.4510    22.9630   -31.7400     2.1920 
   95.7500    70.6070     8.8610     7.5510    10.2950    22.8990   -31.4240     2.1980 
   95.8750    70.6320     8.8390     7.4320    10.2480    22.9700   -31.1810     2.2010 
   96.0000    72.7560     9.1060     7.5360    10.5000    23.0260   -31.0790     2.1980 
   96.1250    76.2760     9.6340     7.8730    11.7180    22.9660   -31.1690     2.1900 
   96.2500    76.3710    10.2570     8.3310    12.6670    22.8430   -31.4330     2.1850 
   96.3750    72.9170    10.8550     8.8180    13.7290    22.5580   -31.8390     2.1920 
   96.5000    69.4180    11.3450     9.2610    12.8740    22.2000   -32.3120     2.2040 
   96.6250    67.2890    11.6790     9.6070    11.8800    21.9590   -32.8190     2.2070 
   96.7500    66.0010    11.9010     9.8700    11.3580    21.7420   -33.3280     2.2070 
   96.8750    65.3870    12.0350    10.0570    11.4210    21.4820   -33.7920     2.2070 
   97.0000    64.1800    12.0850    10.1650    11.4760    21.2900   -34.1920     2.2060 
   97.1250    61.5530    12.0430    10.1750    11.2450    21.2170   -34.5260     2.2030 
   97.2500    60.6590    11.9760    10.1320    11.1020    21.2940   -34.7990     2.1970 
   97.3750    62.2850    11.9750    10.1010    11.5880    21.5620   -35.0170     2.1880 
   97.5000    62.8250    12.1160    10.1550    12.2650    21.9340   -35.2360     2.1770 
   97.6250    60.1020    12.4230    10.3440    12.7700    22.1740   -35.4750     2.1690 
   97.7500    58.7920    12.7720    10.6040    13.0830    22.2930   -35.7330     2.1680 
   97.8750    60.5010    13.0160    10.8340    13.9680    22.3130   -36.0000     2.1770 
   98.0000    63.3550    13.0190    10.9230    16.3430    22.2960   -36.2550     2.1990 
   98.1250    65.5320    12.6950    10.7690    18.5890    22.3200   -36.5370     2.2340 
   98.2500    66.7580    12.2020    10.4540    17.4480    22.2960   -36.8620     2.2650 
   98.3750    66.2530    11.7020    10.0900    15.0350    22.2780   -37.2100     2.2680 
   98.5000    64.0090    11.3410     9.7940    13.7710    22.4170   -37.5430     2.2420 
   98.6250    62.5260    11.2380     9.6790    13.4340    22.6740   -37.8040     2.2120 
   98.7500    62.3160    11.3560     9.7440    13.4160    22.8660   -37.9210     2.1900 
   98.8750    62.0530    11.6440     9.9610    13.6760    22.9460   -37.8650     2.1720 
   99.0000    60.6790    12.0240    10.2740    14.0550    22.8570   -37.6460     2.1550 
   99.1250    58.5780    12.3380    10.5720    14.3260    22.7260   -37.1890     2.1400 
