~V
VERS. 2.00: Ver 2.00
~W
STRT.M 64.0000:
STOP.M 235.0000:
STEP.M 0.1250:
NULL. -999.2500:
UWI. F10178:
~C
DEPT.M :
GR.API :
RML.OHMM :
RI. :
RXO.OHMM :
CALI.CM :
DEN.GM/CC :
SP.MV :
~A
   64.0000    48.2530     2.3220     0.7220     4.1560    25.6380     1.9890    10.5940 
   64.1250    45.3790     2.1760     0.5940     1.4740    25.5630     2.0060     9.5460 
   64.2500    45.3400     1.8040     0.4270     0.7680    25.4480     2.0410     8.8700 
   64.3750    46.8860     1.2930     0.2660     0.6190    25.3020     2.1090     8.4730 
   64.5000    47.4710     0.8000     0.1460     0.6850    25.1240     2.2260     8.1520 
   64.6250    46.3530     0.4800     0.0830     0.9760    24.9280     2.3830     7.5080 
   64.7500    47.5190     0.3350     0.0620     1.2710    24.7040     2.5280     6.2330 
   64.8750    52.0260     0.3560     0.0830     1.4600    24.6160     2.6060     4.1600 
   65.0000    56.8090     0.5630     0.1680     1.6860    24.8720     2.5850     1.4420 
   65.1250    58.9460     1.0840     0.3940     2.3370    26.1590     2.4660    -1.6260 
   65.2500    61.8580     1.9230     0.8150     3.2750    28.5460     2.3130    -4.6840 
   65.3750    67.7850     2.9400     1.4610     4.2250    31.3030     2.1740    -7.5840 
   65.5000    74.4840     3.8110     2.2410     4.9250    32.7640     2.0800   -10.2340 
   65.6250    78.8710     4.1920     2.9260     4.6960    31.4680     2.0490   -12.3970 
   65.7500    81.6130     4.2380     3.4300     4.0310    28.2790     2.0640   -14.0120 
   65.8750    83.8990     4.2160     3.8130     4.3560    25.5040     2.1050   -15.0700 
   66.0000    86.9940     4.3040     4.1540     5.3590    24.0760     2.1520   -15.7010 
   66.1250    90.8960     4.5300     4.4890     6.3870    23.6660     2.1880   -16.1160 
   66.2500    93.6330     4.8230     4.8330     6.3950    23.5020     2.2100   -16.5440 
   66.3750    94.3730     5.1560     5.2040     6.4810    23.4610     2.2260   -16.9950 
   66.5000    94.8690     5.5150     5.6010     6.8990    23.4740     2.2420   -17.4050 
   66.6250    92.5220     5.8490     5.9690     7.3500    23.5110     2.2580   -17.7370 
   66.7500    87.0620     6.0760     6.2140     8.2500    23.5310     2.2690   -17.8410 
   66.8750    83.3560     6.1140     6.2450     9.1090    23.5660     2.2720   -17.5900 
   67.0000    89.2720     5.9350     6.0310     8.7270    23.6360     2.2730   -17.0150 
   67.1250   106.1490     5.5770     5.6240     6.9200    23.7000     2.2820   -16.1960 
   67.2500   117.7740     5.1940     5.1940     5.4540    23.7610     2.3040   -15.2490 
   67.3750   116.4920     4.8940     4.8460     4.6800    23.8570     2.3340   -14.2880 
   67.5000   109.3690     4.7360     4.6310     4.4220    23.9670     2.3640   -13.4000 
   67.6250   108.6190     4.7550     4.5640     4.3000    24.0790     2.3860   -12.5830 
   67.7500   111.7160     4.8810     4.5780     4.3280    24.2660     2.3990   -11.8970 
   67.8750   112.2020     5.0410     4.6150     4.2840    24.4890     2.4090   -11.4280 
   68.0000   111.5300     5.1480     4.6230     4.4140    24.7320     2.4150   -11.1700 
   68.1250   112.6960     5.1100     4.5480     4.4160    24.9360     2.4130   -11.1230 
   68.2500   113.8310     4.9650     4.4070     4.3830    25.0790     2.3910   -11.2210 
   68.3750   113.2400     4.8180     4.2650     4.3740    25.2260     2.3420   -11.4250 
   68.5000   111.4810     4.8210     4.2320     4.5090    25.4410     2.2790   -11.6890 
   68.6250   111.4160     5.1980     4.4840     4.5640    25.6980     2.2370   -12.0300 
   68.7500   109.7340     6.0180     5.0900     5.2000    25.6320     2.2430   -12.5090 
   68.8750   100.2970     7.2990     6.1020     7.7660    25.1370     2.2940   -13.1520 
   69.0000    83.6880     8.9100     7.4620    15.3310    24.4770     2.3580   -13.9580 
   69.1250    70.6000    10.4470     8.8670    18.3850    24.0280     2.3880   -14.9490 
   69.2500    65.0660    11.4700     9.8460    15.3580    23.8760     2.3710   -16.0530 
   69.3750    65.7600    11.8090    10.1700    11.5690    23.8550     2.3190   -17.1860 
   69.5000    69.9490    11.6050     9.9520     9.9710    23.8670     2.2590   -18.2900 
   69.6250    73.1730    11.1820     9.5130     8.7220    23.8890     2.2140   -19.3730 
   69.7500    72.4620    10.8380     9.1530     8.1290    23.9230     2.1850   -20.3340 
   69.8750    69.7440    10.6480     8.9410     8.0280    24.0370     2.1700   -21.1320 
   70.0000    68.2340    10.6050     8.8590     8.2970    24.2130     2.1650   -21.8270 
   70.1250    67.3330    10.7030     8.8960     8.4940    24.3980     2.1680   -22.4150 
   70.2500    66.3420    10.8880     9.0180     8.5830    24.4720     2.1760   -22.9330 
   70.3750    65.3970    11.1110     9.1910     8.8290    24.4120     2.1850   -23.4020 
   70.5000    65.1710    11.3130     9.3600     9.2810    24.2390     2.1930   -23.8400 
   70.6250    65.7180    11.4220     9.4530     9.5290    24.0470     2.2000   -24.1730 
   70.7500    66.6540    11.4220     9.4430     9.3100    23.8560     2.2050   -24.4710 
   70.8750    68.1800    11.3170     9.3340     8.8380    23.7040     2.2100   -24.7640 
   71.0000    69.4410    11.1310     9.1590     8.5640    23.6190     2.2160   -24.9740 
   71.1250    70.0210    10.9020     8.9670     8.7010    23.5790     2.2240   -25.0650 
   71.2500    70.5960    10.6850     8.8020     8.7650    23.4770     2.2320   -25.0830 
   71.3750    71.8410    10.5080     8.6750     8.8040    23.2740     2.2370   -25.0430 
   71.5000    74.5540    10.3790     8.5740     8.8410    23.0590     2.2380   -24.9810 
   71.6250    76.2700    10.2960     8.4820     8.6850    23.0250     2.2320   -24.9660 
   71.7500    75.8600    10.2410     8.4010     8.4800    23.1500     2.2240   -24.9810 
   71.8750    72.9000    10.2160     8.3470     8.2880    23.3640     2.2180   -24.9280 
   72.0000    69.1880    10.2350     8.3340     8.2200    23.5460     2.2230   -24.7950 
   72.1250    68.9010    10.3160     8.3710     8.3160    23.6200     2.2430   -24.7160 
   72.2500    70.4870    10.4340     8.4430     8.4390    23.6150     2.2710   -24.6570 
   72.3750    71.2320    10.5560     8.5440     8.4990    23.5630     2.2940   -24.5590 
   72.5000    70.5000    10.6460     8.6580     8.5210    23.4590     2.2960   -24.4870 
   72.6250    69.2650    10.6800     8.7660     8.7660    23.3130     2.2650   -24.4010 
   72.7500    68.0290    10.6790     8.8520     9.5510    23.2840     2.2140   -24.3040 
   72.8750    65.9320    10.6640     8.9070    11.1940    23.3840     2.1570   -24.2760 
   73.0000    62.6780    10.6370     8.9250    12.0910    23.4870     2.1130   -24.3140 
   73.1250    60.5460    10.5620     8.8870    10.8790    23.4460     2.0960   -24.3350 
   73.2500    61.3620    10.4130     8.7880    10.0280    23.3250     2.0980   -24.2980 
   73.3750    64.5660    10.1900     8.6260     9.5200    23.1990     2.1110   -24.2080 
   73.5000    68.5390     9.9310     8.4210     9.5800    23.1290     2.1270   -24.0640 
   73.6250    71.2820     9.7060     8.2130     9.3460    23.0880     2.1410   -23.9600 
   73.7500    70.8150     9.5620     8.0430     8.6820    23.0220     2.1550   -23.8330 
   73.8750    67.9880     9.5120     7.9340     8.0100    22.9130     2.1670   -23.6680 
   74.0000    66.5630     9.5380     7.8890     7.7580    22.7990     2.1790   -23.5260 
   74.1250    70.8040     9.5990     7.8990     7.8640    22.7840     2.1890   -23.4570 
   74.2500    75.1740     9.6420     7.9240     8.1030    22.8480     2.1940   -23.4580 
   74.3750    75.7230     9.6440     7.9330     8.3920    22.9700     2.1940   -23.5560 
   74.5000    74.6110     9.6210     7.9210     8.8950    23.0990     2.1850   -23.7560 
   74.6250    74.4480     9.6420     7.9310     9.4350    23.2450     2.1710   -23.9760 
   74.7500    74.7430     9.7780     8.0200     9.3800    23.2590     2.1710   -24.1670 
   74.8750    73.3640    10.0480     8.2170     9.1130    23.2740     2.2010   -24.3570 
   75.0000    70.2270    10.3990     8.4970     9.4400    23.3270     2.2620   -24.5900 
   75.1250    68.3490    10.6860     8.7720    11.1380    23.2800     2.3290   -24.7690 
