~V
VERS. 2.00: Ver 2.00
~W
STRT.M 55.0000:
STOP.M 288.0000:
STEP.M 0.1250:
NULL. -999.2500:
UWI. F10106:
~C
DEPT.M :
DEN.GM/CC :
SP.MV :
GR.API :
RML.OHMM :
RI. :
RXO.OHMM :
CALI.CM :
~A
# ...
  268.7500     2.3820    -0.5400    43.5360     5.7600     5.0850     5.6510    23.5080 
  268.8750     2.3750    -0.4140    42.5370     5.6820     4.9860     5.3780    23.6450 
  269.0000     2.3660    -0.3070    43.3280     5.6760     4.9610     5.3060    23.7730 
  269.1250     2.3620    -0.2590    46.9080     5.7230     5.0090     5.5140    23.8570 
  269.2500     2.3660    -0.2120    49.8190     5.7750     5.0900     5.7420    23.8830 
  269.3750     2.3760    -0.1950    51.2610     5.8280     5.1790     5.8850    23.8840 
  269.5000     2.3890    -0.1910    53.0750     5.8870     5.2580     5.9230    23.8840 
  269.6250     2.4020    -0.2250    54.8840     5.9180     5.3210     5.8920    23.9010 
  269.7500     2.4130    -0.2910    55.3740     5.9350     5.3670     5.8910    23.9370 
  269.8750     2.4190    -0.3610    54.6090     5.9140     5.3940     6.0330    23.9860 
  270.0000     2.4190    -0.4010    54.2960     5.8690     5.3940     6.2410    24.0160 
  270.1250     2.4080    -0.4300    54.5120     5.7850     5.3490     6.2910    23.9940 
  270.2500     2.3930    -0.4890    54.1440     5.6710     5.2660     6.1800    23.9390 
  270.3750     2.3770    -0.5380    53.1580     5.5710     5.1510     5.9920    23.8820 
  270.5000     2.3670    -0.5970    52.3080     5.4590     5.0180     5.7850    23.8710 
  270.6250     2.3680    -0.7090    51.1530     5.3290     4.8840     5.5980    23.9390 
  270.7500     2.3770    -0.8690    50.4750     5.2200     4.7770     5.5130    24.0080 
  270.8750     2.3880    -1.1080    53.8420     5.1700     4.7330     5.6070    24.0400 
  271.0000     2.3930    -1.4410    62.5870     5.2160     4.7990     5.7520    24.0510 
  271.1250     2.3850    -1.8460    71.8780     5.5740     5.0470     5.8900    24.0800 
  271.2500     2.3700    -2.3280    77.6530     6.1430     5.4760     6.2980    24.1220 
  271.3750     2.3550    -2.9030    78.9390     6.8810     6.0660     7.0860    24.1670 
  271.5000     2.3490    -3.4930    75.1380     7.6890     6.7550     8.1270    24.1990 
  271.6250     2.3570    -4.0160    68.3710     8.4080     7.4220     9.1250    24.2090 
  271.7500     2.3720    -4.4630    65.4220     8.9210     7.9530     9.8330    24.2280 
  271.8750     2.3860    -4.8190    68.0680     9.1870     8.2830    10.1390    24.2760 
  272.0000     2.3920    -5.1050    71.4270     9.2400     8.4110    10.1860    24.3170 
  272.1250     2.3890    -5.3120    72.6870     9.1640     8.3820    10.2490    24.3310 
  272.2500     2.3820    -5.4060    73.6940     9.0670     8.2970    10.2780    24.3280 
  272.3750     2.3740    -5.3690    75.0640     8.9750     8.1950    10.2520    24.3240 
  272.5000     2.3680    -5.2530    76.9750     8.8680     8.0760    10.2150    24.3290 
  272.6250     2.3650    -5.0840    80.9180     8.6970     7.9120    10.0410    24.3370 
  272.7500     2.3640    -4.8610    88.2410     8.4400     7.6860     9.7110    24.3340 
  272.8750     2.3660    -4.5960    97.7460     8.0990     7.3930     9.1870    24.3190 
  273.0000     2.3690    -4.2900   106.1400     7.6980     7.0490     8.4650    24.2990 
  273.1250     2.3700    -3.9510   108.7180     7.2870     6.6860     7.7610    24.2840 
  273.2500     2.3680    -3.6060   103.3340     6.9130     6.3440     7.1980    24.2740 
  273.3750     2.3640    -3.3040    93.6880     6.6040     6.0470     6.8310    24.2640 
  273.5000     2.3620    -3.0380    86.8560     6.3690     5.8080     6.5890    24.2510 
  273.6250     2.3660    -2.8280    87.5050     6.2120     5.6370     6.4080    24.2370 
  273.7500     2.3750    -2.6780    90.4390     6.1030     5.5140     6.4320    24.2300 
  273.8750     2.3880    -2.6080    90.9230     6.0230     5.4270     6.5830    24.2260 
  274.0000     2.4010    -2.5790    89.0310     5.9590     5.3640     6.7140    24.2230 
  274.1250     2.4120    -2.5730    86.7830     5.9090     5.3200     6.7050    24.2200 
  274.2500     2.4190    -2.5960    86.4800     5.8760     5.2940     6.6570    24.2180 
  274.3750     2.4230    -2.6150    88.4900     5.8680     5.2900     6.6430    24.2160 
  274.5000     2.4240    -2.6350    90.3040     5.8960     5.3150     6.7110    24.2150 
  274.6250     2.4230    -2.6440    89.6400     5.9750     5.3840     6.8560    24.2130 
  274.7500     2.4210    -2.6580    88.3650     6.1040     5.4930     7.0660    24.2040 
  274.8750     2.4190    -2.6500    87.0700     6.2790     5.6410     7.3040    24.1740 
  275.0000     2.4190    -2.6360    84.8920     6.4800     5.8110     7.4300    24.1020 
  275.1250     2.4210    -2.5960    83.7090     6.6540     5.9630     7.8310    23.9690 
  275.2500     2.4230    -2.5430    86.1190     6.7480     6.0530     8.3390    23.8100 
  275.3750     2.4220    -2.4890    90.3330     6.7230     6.0480     8.6960    23.7000 
  275.5000     2.4130    -2.4230    93.3800     6.5740     5.9420     8.5720    23.7280 
  275.6250     2.3960    -2.3610    92.4320     6.3340     5.7530     7.4390    23.9200 
  275.7500     2.3780    -2.2870    88.9380     6.0950     5.5550     6.8950    24.1730 
  275.8750     2.3650    -2.2110    86.0510     5.9130     5.3960     6.7540    24.3400 
  276.0000     2.3600    -2.1420    86.3340     5.8150     5.3020     6.7730    24.3870 
  276.1250     2.3660    -2.0660    89.2640     5.7990     5.2810     6.8880    24.3730 
  276.2500     2.3760    -1.9590    90.6340     5.8150     5.2950     6.9040    24.3550 
  276.3750     2.3840    -1.8380    90.2460     5.8250     5.3130     6.7540    24.3380 
  276.5000     2.3890    -1.6850    89.8180     5.7980     5.3010     6.6410    24.3200 
  276.6250     2.3900    -1.4810    90.0860     5.6940     5.2210     6.6520    24.2920 
  276.7500     2.3890    -1.2410    90.8160     5.5030     5.0620     6.6730    24.2610 
  276.8750     2.3830    -0.9480    91.1420     5.2270     4.8260     6.3920    24.2390 
  277.0000     2.3740    -0.6090    90.6580     4.8950     4.5340     5.7180    24.2290 
  277.1250     2.3610    -0.2840    89.1250     4.5650     4.2300     5.0460    24.2260 
  277.2500     2.3500     0.0080    89.1250     4.2960     3.9690     4.6130    24.2230 
  277.3750     2.3430     0.2800    89.1250     4.1200     3.7800     4.4620    24.2210 
  277.5000     2.3400     0.5050    89.1250     4.0440     3.6780     4.4430    24.2230 
  277.6250     2.3370     0.6750    89.1250     4.0630     3.6690     4.4680    24.2370 
  277.7500     2.3310     0.7770    89.1250     4.1350     3.7190     4.4810    24.2640 
  277.8750     2.3240     0.7970    89.1250     4.2410     3.8080     4.5210    24.3010 
  278.0000     2.3160     0.7760    89.1250     4.3660     3.9220     4.6140    24.3490 
  278.1250     2.3110     0.7540    89.1250     4.5030     4.0480     4.7940    24.3830 
  278.2500     2.3080     0.7090    89.1250     4.6310     4.1690     4.9390    24.3730 
  278.3750     2.3070     0.6530    89.1250     4.7300     4.2630     5.0250    24.3290 
  278.5000     2.3060     0.6090    89.1250     4.7770     4.3100     5.0870    24.2660 
  278.6250     2.3060     0.5800    89.1250     4.7480     4.2870     5.0610    24.2080 
  278.7500     2.3080     0.5850    89.1250     4.6650     4.2120     5.0610    24.1670 
  278.8750     2.3120     0.6380    89.1250     4.5600     4.1090     4.9980    24.1420 
  279.0000     2.3220     0.6880    89.1250     4.4800     4.0200     4.8800    24.1070 
  279.1250     2.3350     0.7060    89.1250     4.5010     4.0090     4.9030    24.0320 
  279.2500     2.3490     0.7040    89.1250     4.6590     4.1120     5.0580    23.9290 
  279.3750     2.3580     0.6990    89.1250     4.9730     4.3510     5.3560    23.8280 
  279.5000     2.3590     0.6960    89.1250     5.4300     4.7220     5.8810    23.7920 
  279.6250     2.3510     0.6580    89.1250     5.9860     5.2010     6.5040    23.9120 
  279.7500     2.3390     0.6010    89.1250     6.5380     5.7030     7.1160    24.0790 
  279.8750     2.3280     0.5330    89.1250     6.9990     6.1560     7.4880    24.1620 
