~V
VERS. 2.00: Ver 2.00
~W
STRT.M 50.0000:
STOP.M 233.0000:
STEP.M 0.1250:
NULL. -999.2500:
UWI. F10166:
~C
DEPT.M :
SP.MV :
DEN.GM/CC :
GR.API :
RML.OHMM :
RI. :
RXO.OHMM :
CALI.CM :
~A
# ...
   95.0000   -17.3670     2.1730    79.0120     9.4490     6.5410     7.9040    24.8650 
   95.1250   -17.1350     2.1590    79.3900     9.4000     6.4760     8.0820    24.8290 
   95.2500   -17.0580     2.1460    80.4090     9.3170     6.4280     8.0090    24.8210 
   95.3750   -17.0860     2.1350    81.0530     9.2680     6.4210     7.9800    24.8370 
   95.5000   -17.1850     2.1220    80.2130     9.3940     6.5190     8.0760    24.8570 
   95.6250   -17.3030     2.1090    76.1360     9.9390     6.8490     8.2550    24.8870 
   95.7500   -17.4050     2.1130    72.9490    10.9210     7.4410     8.9360    24.9280 
   95.8750   -17.4960     2.1590    74.9970    12.2050     8.2520    10.8650    24.9600 
   96.0000   -17.6000     2.2550    80.6540    13.4270     9.0960    13.8980    24.9460 
   96.1250   -17.7920     2.3620    80.8740    13.9340     9.5660    15.2330    24.8770 
   96.2500   -18.0820     2.4110    75.9050    13.5350     9.4630    13.4550    24.8030 
   96.3750   -18.4600     2.3820    72.1290    12.4660     8.8740    10.8330    24.7530 
   96.5000   -18.8780     2.3050    73.3300    11.2580     8.1020     9.4510    24.7140 
   96.6250   -19.3010     2.2280    76.4560    10.4680     7.4900     9.2940    24.6420 
   96.7500   -19.6770     2.1780    77.5250    10.1810     7.1540     9.2960    24.5350 
   96.8750   -19.9570     2.1540    76.0290    10.2670     7.0680     9.2570    24.4270 
   97.0000   -20.1280     2.1460    72.8810    10.4990     7.1360     9.3440    24.3440 
   97.1250   -20.1780     2.1440    70.0330    10.6410     7.2430     9.5770    24.2960 
   97.2500   -20.1490     2.1400    68.8080    10.6220     7.3050     9.7080    24.2720 
   97.3750   -20.0500     2.1360    70.2970    10.4850     7.3080     9.6210    24.2650 
   97.5000   -19.9150     2.1340    74.2590    10.3020     7.2620     9.4250    24.2610 
   97.6250   -19.7660     2.1370    78.0600    10.1190     7.1800     9.2940    24.2670 
   97.7500   -19.6040     2.1420    80.3370     9.9560     7.0850     9.2150    24.2940 
   97.8750   -19.4500     2.1430    80.4310     9.8180     6.9920     9.0580    24.3300 
   98.0000   -19.2970     2.1390    78.6690     9.7170     6.9210     8.7930    24.3490 
   98.1250   -19.2040     2.1290    75.5920     9.6740     6.8930     8.6780    24.3440 
   98.2500   -19.1870     2.1220    73.7430     9.6810     6.9080     8.8710    24.3370 
   98.3750   -19.2690     2.1210    73.6780     9.7200     6.9560     9.2140    24.3330 
   98.5000   -19.4260     2.1280    73.4360     9.7620     7.0140     9.3710    24.3260 
   98.6250   -19.6610     2.1380    70.6540     9.7720     7.0550     9.1490    24.3160 
   98.7500   -19.9610     2.1470    68.7900     9.7420     7.0690     8.8110    24.3210 
   98.8750   -20.3140     2.1520    69.8160     9.6880     7.0610     8.5570    24.3490 
   99.0000   -20.7450     2.1510    73.0430     9.6390     7.0450     8.4660    24.3900 
   99.1250   -21.2460     2.1460    74.3210     9.6240     7.0360     8.4550    24.4320 
   99.2500   -21.7760     2.1410    72.4240     9.6380     7.0340     8.4940    24.4750 
   99.3750   -22.3370     2.1340    69.2820     9.6570     7.0340     8.6550    24.5150 
   99.5000   -22.8940     2.1270    66.2050     9.6520     7.0310     8.9140    24.5430 
   99.6250   -23.3650     2.1200    64.1810     9.6090     7.0300     9.1660    24.5440 
   99.7500   -23.7180     2.1160    63.6960     9.5530     7.0410     9.3640    24.5250 
   99.8750   -23.9120     2.1170    63.5920     9.5130     7.0720     9.5870    24.5020 
  100.0000   -23.9190     2.1220    63.7780     9.4950     7.1230     9.8520    24.4900 
  100.1250   -23.7450     2.1270    64.4590     9.4790     7.1820    10.1030    24.4890 
  100.2500   -23.4410     2.1260    65.4320     9.4440     7.2300    10.2350    24.4930 
  100.3750   -23.0240     2.1220    66.2540     9.4000     7.2610    10.0860    24.5050 
  100.5000   -22.5200     2.1180    67.4510     9.3670     7.2840     9.6630    24.5270 
  100.6250   -21.9470     2.1190    69.5990     9.3740     7.3110     9.2690    24.5500 
  100.7500   -21.3270     2.1220    71.5380     9.4000     7.3410     9.2730    24.5760 
  100.8750   -20.6190     2.1260    73.1930     9.3830     7.3400     9.5960    24.6200 
  101.0000   -19.8220     2.1300    74.2030     9.2350     7.2430     9.6100    24.6950 
  101.1250   -18.8800     2.1390    74.7940     8.8480     6.9650     9.1030    24.8020 
  101.2500   -17.8390     2.1570    78.8200     8.2770     6.5390     8.4520    24.9080 
  101.3750   -16.7390     2.1870    86.3150     7.6440     6.0500     7.4260    24.9730 
  101.5000   -15.6710     2.2260    92.6560     7.1290     5.6190     5.9980    24.9760 
  101.6250   -14.7880     2.2650    94.2510     6.9630     5.3960     5.0490    24.9320 
  101.7500   -14.1690     2.2900    93.4500     7.1690     5.4130     5.0410    24.8700 
  101.8750   -13.9010     2.2940    90.3530     7.6990     5.6640     5.7750    24.7990 
  102.0000   -14.0110     2.2760    85.7380     8.4200     6.0980     6.8300    24.7410 
  102.1250   -14.5020     2.2420    82.4840     9.1720     6.6520     7.8380    24.7400 
  102.2500   -15.2460     2.2010    80.4670     9.9320     7.2810     8.6270    24.7960 
  102.3750   -16.1130     2.1630    78.0750    10.8770     8.0550     9.2850    24.8570 
  102.5000   -16.9820     2.1410    74.1240    12.2850     9.1110     9.9250    24.8630 
  102.6250   -17.7210     2.1680    68.2160    14.4560    10.6450    11.5890    24.7830 
  102.7500   -18.2990     2.2540    63.0680    17.0670    12.5150    16.5220    24.6820 
  102.8750   -18.7190     2.3720    61.3130    19.4290    14.3230    25.2350    24.6100 
  103.0000   -18.9990     2.4520    62.8820    20.5890    15.4150    32.5200    24.5790 
  103.1250   -19.1960     2.4360    65.7660    19.7270    15.1220    29.6380    24.5730 
  103.2500   -19.3920     2.3780    68.9560    17.7330    13.9420    22.4430    24.5690 
  103.3750   -19.6040     2.3300    70.9650    15.5910    12.5170    16.1400    24.5670 
  103.5000   -19.8540     2.3140    70.2350    13.9550    11.3210    12.1830    24.5600 
  103.6250   -20.1070     2.3170    68.8700    13.0580    10.5750    11.1270    24.5370 
  103.7500   -20.3320     2.3030    69.6350    12.6130    10.1510    11.1630    24.5070 
  103.8750   -20.4690     2.2650    71.1530    12.4490     9.9520    11.0860    24.4830 
  104.0000   -20.5210     2.2220    72.1030    12.4360     9.8970    10.9340    24.4640 
  104.1250   -20.4620     2.1970    72.3120    12.4610     9.9090    10.8780    24.4470 
  104.2500   -20.3170     2.1870    72.4190    12.4050     9.9040    10.9450    24.4390 
  104.3750   -20.1440     2.1860    72.1750    12.2100     9.8370    11.0820    24.4460 
  104.5000   -19.9650     2.1880    70.6210    11.9040     9.7070    11.1490    24.4710 
  104.6250   -19.8200     2.1900    67.8530    11.6300     9.5790    11.0330    24.5150 
  104.7500   -19.7260     2.1880    65.6330    11.5120     9.5350    10.8540    24.5530 
  104.8750   -19.6750     2.1810    64.5300    11.5490     9.5820    10.6470    24.5700 
  105.0000   -19.6320     2.1710    64.2570    11.6390     9.6590    10.7020    24.5640 
  105.1250   -19.5740     2.1620    67.0830    11.6240     9.6310    11.6410    24.5360 
  105.2500   -19.5020     2.1560    73.1500    11.4200     9.4280    12.1890    24.5070 
  105.3750   -19.4140     2.1530    79.0210    11.0180     9.0430    11.0770    24.4910 
  105.5000   -19.3240     2.1500    80.6810    10.4640     8.5320     9.0590    24.4880 
  105.6250   -19.2080     2.1410    77.5180     9.8890     8.0180     7.9880    24.5010 
  105.7500   -19.1090     2.1260    74.5300     9.5190     7.6610     7.8570    24.5430 
  105.8750   -19.0430     2.1140    74.2770     9.6020     7.6120     7.7270    24.6180 
  106.0000   -19.0690     2.1240    75.9460    10.3720     8.0180     7.4990    24.6970 
  106.1250   -19.2040     2.1900    76.1880    12.0610     9.0780     8.9240    24.7300 
