~V
VERS. 2.00: Ver 2.00
~W
STRT.M 49.0000:
STOP.M 251.0000:
STEP.M 0.1250:
NULL. -999.2500:
UWI. F10165:
~C
DEPT.M :
GR.API :
RML.OHMM :
RI. :
RXO.OHMM :
CALI.CM :
SP.MV :
DEN.GM/CC :
~A
# ...
  116.5000    74.7680    10.0630     8.4670    10.5520    25.1730   -22.5460     2.1230 
  116.6250    75.1300     9.9250     8.2730    10.4380    25.1590   -22.5060     2.1210 
  116.7500    73.9060     9.8360     8.1490    10.5630    25.1320   -22.4780     2.1180 
  116.8750    71.6980     9.7840     8.0840    10.7340    25.1080   -22.4540     2.1160 
  117.0000    69.7420     9.7850     8.0840    10.6550    25.0990   -22.3900     2.1190 
  117.1250    68.8780     9.8610     8.1650    10.6740    25.0990   -22.3060     2.1260 
  117.2500    67.9000     9.9890     8.3010    10.8870    25.0990   -22.2380     2.1290 
  117.3750    65.1590    10.1450     8.4680    11.2950    25.0990   -22.1590     2.1280 
  117.5000    61.4520    10.3010     8.6330    11.8240    25.0910   -22.0690     2.1270 
  117.6250    59.4850    10.4180     8.7560    11.8990    25.0590   -21.9990     2.1290 
  117.7500    60.6370    10.4720     8.8160    11.7870    25.0070   -21.9270     2.1310 
  117.8750    64.1240    10.4430     8.8020    11.6550    24.9650   -21.8180     2.1310 
  118.0000    67.8840    10.3330     8.7150    11.4880    24.9350   -21.7020     2.1270 
  118.1250    69.7930    10.1660     8.5710    11.1680    24.8910   -21.6010     2.1230 
  118.2500    70.7650     9.9960     8.4130    10.7960    24.8500   -21.4660     2.1190 
  118.3750    70.2190     9.8550     8.2750    10.3960    24.8210   -21.3140     2.1180 
  118.5000    67.8060     9.7620     8.1780    10.1260    24.8110   -21.1800     2.1180 
  118.6250    65.2670     9.7280     8.1450    10.5790    24.8270   -21.0240     2.1200 
  118.7500    64.4010     9.7510     8.1710    10.8670    24.8910   -20.8530     2.1270 
  118.8750    64.8610     9.8540     8.2740    11.1600    25.0250   -20.6920     2.1450 
  119.0000    66.2780    10.0670     8.4750    11.5540    25.1930   -20.5120     2.1740 
  119.1250    66.3050    10.4140     8.8060    12.0410    25.2950   -20.3160     2.2050 
  119.2500    63.1750    10.8350     9.2240    12.4990    25.2700   -20.1370     2.2250 
  119.3750    60.6970    11.2640     9.6820    12.8060    25.0710   -19.9470     2.2300 
  119.5000    62.2110    11.6350    10.1280    13.0500    24.7150   -19.7200     2.2280 
  119.6250    64.0030    11.8720    10.5000    12.8720    24.4750   -19.5020     2.2320 
  119.7500    62.4180    11.9430    10.7490    12.6220    24.3270   -19.2870     2.2460 
  119.8750    60.7650    11.7930    10.8050    12.6200    24.2800   -19.0510     2.2610 
  120.0000    61.6070    11.3960    10.6140    12.9540    24.4050   -18.8270     2.2690 
  120.1250    63.3830    10.7630    10.1610    13.1460    24.6600   -18.6170     2.2730 
  120.2500    65.3570    10.0270     9.5740    11.9790    24.8150   -18.3880     2.2800 
  120.3750    67.6660     9.3010     8.9550     9.5060    24.8720   -18.1650     2.2940 
  120.5000    69.0420     8.7080     8.4080     8.6150    24.8660   -17.9880     2.3140 
  120.6250    67.9680     8.3850     8.0480     9.0450    24.8150   -17.8140     2.3320 
  120.7500    66.8250     8.2980     7.8750     8.9390    24.7540   -17.6330     2.3370 
  120.8750    67.0050     8.3620     7.8480     8.0210    24.7160   -17.4940     2.3320 
  121.0000    68.0770     8.4250     7.8620     7.9550    24.6700   -17.3730     2.3270 
  121.1250    67.8790     8.2860     7.7580     8.3970    24.6200   -17.2510     2.3220 
  121.2500    67.2840     7.9580     7.5130     8.4200    24.5780   -17.1670     2.3170 
  121.3750    68.6210     7.6140     7.2450     7.5740    24.5980   -17.0990     2.3200 
  121.5000    71.3440     7.5140     7.1450     7.0490    24.6760   -17.0090     2.3430 
  121.6250    71.8250     8.0370     7.4970     6.7640    24.7930   -16.9410     2.3890 
  121.7500    67.3500     9.3400     8.4390     8.3230    24.9160   -16.8950     2.4490 
  121.8750    59.2190    11.5380    10.1170    12.2660    25.0260   -16.8340     2.5070 
  122.0000    51.5160    14.5530    12.5840    17.7490    25.1210   -16.7910     2.5370 
  122.1250    47.6550    18.0040    15.7070    21.9690    25.1860   -16.7550     2.5280 
  122.2500    45.4060    21.1300    18.8190    22.4350    25.2060   -16.7040     2.5130 
  122.3750    42.3470    23.4230    21.3380    23.2710    25.1740   -16.6740     2.5080 
  122.5000    39.5250    24.7400    22.9630    24.8060    25.1430   -16.6550     2.5110 
  122.6250    39.1980    25.2330    23.7000    25.9810    25.1620   -16.6180     2.5170 
  122.7500    39.9820    25.4010    23.9930    27.9030    25.1890   -16.6000     2.5250 
  122.8750    41.4300    25.4570    24.0590    28.6980    25.2170   -16.6110     2.5210 
  123.0000    43.8480    25.5140    24.0380    26.6230    25.2610   -16.6070     2.5010 
  123.1250    46.5990    25.6310    24.0290    25.2630    25.3220   -16.6020     2.4790 
  123.2500    49.1590    25.7590    24.0420    26.0340    25.3430   -16.6220     2.4680 
  123.3750    51.0540    25.8170    24.0290    27.9260    25.2960   -16.6340     2.4600 
  123.5000    52.4280    25.7630    23.9620    29.1720    25.2140   -16.6410     2.4390 
  123.6250    51.2190    25.6440    23.8840    27.9010    25.1770   -16.6710     2.4090 
  123.7500    47.7940    25.5310    23.8370    27.8450    25.1680   -16.6990     2.3970 
  123.8750    45.0880    25.3870    23.7800    26.7750    25.1620   -16.6980     2.4090 
  124.0000    43.7900    25.1110    23.6190    26.2940    25.1310   -16.6960     2.4330 
  124.1250    43.6900    24.5790    23.2410    27.1900    25.0370   -16.7120     2.4490 
  124.2500    43.6910    23.8860    22.7210    27.2290    24.9640   -16.7010     2.4560 
  124.3750    43.8430    23.2660    22.2400    23.9520    25.0100   -16.6820     2.4650 
  124.5000    44.4950    23.0180    22.0380    21.0950    25.0570   -16.6850     2.4830 
  124.6250    44.7020    23.4250    22.3670    21.1610    25.0500   -16.6670     2.5120 
  124.7500    44.6480    24.2510    23.0850    23.7610    25.0430   -16.6340     2.5380 
  124.8750    44.7080    25.0790    23.8870    27.2800    25.0740   -16.6280     2.5490 
  125.0000    45.1580    25.3720    24.3060    31.1770    25.1120   -16.6190     2.5450 
  125.1250    46.1790    24.5830    23.7800    30.4400    25.1610   -16.5900     2.5290 
  125.2500    45.8340    22.9990    22.4830    26.9030    25.1940   -16.5830     2.5120 
  125.3750    43.5400    21.1170    20.8290    23.4800    25.2070   -16.5740     2.5020 
  125.5000    40.8900    19.4480    19.2770    19.5830    25.1800   -16.5450     2.5030 
  125.6250    40.2530    18.4160    18.2240    18.7900    25.1430   -16.5420     2.5130 
  125.7500    42.6530    18.0110    17.7070    18.6610    25.0910   -16.5330     2.5250 
  125.8750    45.6750    18.1630    17.6980    17.8880    25.0230   -16.4860     2.5330 
  126.0000    46.2320    18.7460    18.1120    17.0190    24.9610   -16.4480     2.5310 
  126.1250    44.3850    19.6210    18.8580    17.3440    24.9870   -16.4390     2.5150 
  126.2500    43.2150    20.5450    19.7180    18.9910    25.0470   -16.4150     2.5070 
  126.3750    43.8020    21.3460    20.5300    21.3580    25.0600   -16.3900     2.5160 
  126.5000    44.2490    21.8750    21.1330    24.8560    25.0830   -16.3930     2.5370 
  126.6250    43.6170    21.9430    21.3120    24.3410    25.2560   -16.3830     2.5440 
  126.7500    43.0670    21.5890    21.0630    23.8480    25.4640   -16.3660     2.5320 
  126.8750    43.0790    20.8950    20.4500    23.2930    25.6250   -16.3870     2.5140 
  127.0000    44.1040    20.0020    19.6020    22.0460    25.7410   -16.4250     2.5010 
  127.1250    44.3490    19.0920    18.6840    20.5760    25.8250   -16.4290     2.5020 
  127.2500    42.6870    18.3380    17.8730    19.1390    25.8760   -16.4420     2.5040 
  127.3750    40.8560    17.8510    17.2850    18.3680    25.9060   -16.4780     2.5010 
  127.5000    42.1390    17.6800    16.9880    18.1050    25.9380   -16.4880     2.5000 
  127.6250    46.3370    17.8510    17.0350    16.5830    25.9390   -16.4970     2.5090 
