~V
VERS. 2.00: Ver 2.00
~W
STRT.M 50.0000:
STOP.M 211.0000:
STEP.M 0.1250:
NULL. -999.2500:
UWI. F10140:
~C
DEPT.M :
DEN.GM/CC :
GR.API :
RML.OHMM :
RI. :
RXO.OHMM :
CALI.CM :
SP.MV :
~A
# ...
  106.2500     2.2250    79.4340     8.4170     7.7850    10.5270    23.6160   -28.5440 
  106.3750     2.2180    81.0890     8.3990     7.7720    10.2240    23.7150   -28.2060 
  106.5000     2.2130    81.8350     8.3980     7.7780     9.9520    23.8310   -27.8780 
  106.6250     2.2110    81.4070     8.3960     7.7920     9.9000    23.9380   -27.5990 
  106.7500     2.2100    80.5970     8.3660     7.7770    10.1450    24.0310   -27.3340 
  106.8750     2.2090    80.1150     8.2900     7.7090    10.3430    24.1140   -27.0540 
  107.0000     2.2080    79.4440     8.1730     7.5850    10.0860    24.1980   -26.7230 
  107.1250     2.2080    78.0540     8.0490     7.4310     9.0220    24.2710   -26.3110 
  107.2500     2.2090    78.6950     7.9760     7.3040     8.0440    24.3160   -25.8370 
  107.3750     2.2090    81.7990     8.0090     7.2540     8.2700    24.3350   -25.3020 
  107.5000     2.2070    84.1380     8.1860     7.3200     9.0590    24.3590   -24.6510 
  107.6250     2.2030    83.4940     8.5430     7.5480     9.7220    24.4240   -23.8160 
  107.7500     2.2000    81.5930     9.0220     7.9120    10.0810    24.6080   -22.8300 
  107.8750     2.2020    78.9370     9.5700     8.3830    10.5760    25.0120   -21.6790 
  108.0000     2.2120    77.2970    10.1240     8.9110    11.3970    25.6670   -20.3860 
  108.1250     2.2370    78.9660    10.6260     9.4190    12.7940    26.4750   -18.9830 
  108.2500     2.2720    82.3250    11.0730     9.8700    13.3060    27.1960   -17.5280 
  108.3750     2.3120    86.3520    11.4870    10.2850    11.9910    27.6440   -16.0640 
  108.5000     2.3500    89.8290    11.8910    10.7080    12.0290    27.7950   -14.6910 
  108.6250     2.3830    91.2350    12.2420    11.1500    13.5910    27.7830   -13.5210 
  108.7500     2.4180    90.2740    12.4210    11.5190    13.8250    27.7890   -12.5760 
  108.8750     2.4540    86.3750    12.2590    11.6290    14.6160    27.8050   -11.9180 
  109.0000     2.4850    81.1780    11.6160    11.2570    15.4410    27.7320   -11.5670 
  109.1250     2.4910    79.5940    10.4230    10.2200    14.5300    27.5540   -11.5260 
  109.2500     2.4700    82.8520     8.9760     8.8180    11.6440    27.3730   -11.6770 
  109.3750     2.4310    89.5090     7.5730     7.3770     9.0220    27.2730   -11.9450 
  109.5000     2.3880    98.0030     6.4760     6.1760     6.9860    27.2610   -12.3060 
  109.6250     2.3520   107.0530     5.9240     5.4460     5.1960    27.1340   -12.8660 
  109.7500     2.3180   111.1830     5.8530     5.1510     4.6050    26.7070   -13.6730 
  109.8750     2.2780   109.6250     6.1900     5.2550     4.9730    25.9860   -14.7360 
  110.0000     2.2350   106.3550     6.8000     5.6870     6.3760    25.2100   -15.9970 
  110.1250     2.2010   102.3210     7.4890     6.3310     7.9670    24.8180   -17.4000 
  110.2500     2.1830    95.7170     8.0290     6.9480     8.8520    24.8840   -18.8580 
  110.3750     2.1780    88.7270     8.3000     7.3590     8.8920    25.2090   -20.3620 
  110.5000     2.1770    84.9940     8.2970     7.4860     8.5830    25.5580   -21.8620 
  110.6250     2.1710    82.6610     8.1060     7.3680     8.4780    25.6610   -23.1680 
  110.7500     2.1610    80.7160     7.8970     7.1810     8.4300    25.4230   -24.1900 
  110.8750     2.1500    80.4310     7.7540     7.0210     8.5920    24.9040   -24.8890 
  111.0000     2.1440    81.5560     7.7060     6.9270     8.9900    24.3480   -25.3080 
  111.1250     2.1430    82.6500     7.7660     6.9160     9.2310    24.0280   -25.4720 
  111.2500     2.1440    83.0060     7.9060     6.9720     9.4130    23.8610   -25.4990 
  111.3750     2.1480    82.7870     8.1210     7.0950     9.3950    23.7590   -25.3570 
  111.5000     2.1530    79.8620     8.3830     7.2820     9.4590    23.7080   -24.9930 
  111.6250     2.1590    75.7930     8.6020     7.4980     9.6380    23.7580   -24.3490 
  111.7500     2.1670    74.2350     8.6510     7.6340     9.9870    23.9420   -23.4240 
  111.8750     2.1760    75.5560     8.4160     7.5640    10.4670    24.2990   -22.2180 
  112.0000     2.1870    80.7330     7.8630     7.1980    10.5680    24.8460   -20.7210 
  112.1250     2.2030    90.0380     7.0670     6.5400     8.8220    25.5420   -18.9450 
  112.2500     2.2200    99.7830     6.2790     5.8140     6.6010    26.2110   -17.0050 
  112.3750     2.2390   106.7430     5.6810     5.1970     5.1120    26.7050   -15.0500 
  112.5000     2.2570   111.2330     5.3760     4.8060     4.6360    26.9560   -13.2350 
  112.6250     2.2740   114.2200     5.4070     4.7220     4.7100    27.0090   -11.7400 
  112.7500     2.2860   114.4060     5.6280     4.8590     5.1600    27.0070   -10.6070 
  112.8750     2.2930   113.3640     5.9080     5.1200     6.1020    26.9980    -9.8220 
  113.0000     2.2940   111.7210     6.1190     5.3750     6.9070    26.9880    -9.3460 
  113.1250     2.2970   106.7860     6.1550     5.4830     6.7590    26.9830    -9.1580 
  113.2500     2.3040   101.4250     6.0510     5.4380     6.1710    26.9830    -9.1580 
  113.3750     2.3140    99.0030     5.8780     5.2930     5.5060    26.9860    -9.2810 
  113.5000     2.3220    98.6410     5.7050     5.1230     5.1560    26.9850    -9.4820 
  113.6250     2.3230    99.1980     5.5810     4.9820     5.3280    26.9740    -9.6960 
  113.7500     2.3160   102.2600     5.5100     4.8730     5.7040    26.9500    -9.8580 
  113.8750     2.3040   106.5080     5.5190     4.8000     5.8700    26.9120    -9.9950 
  114.0000     2.2870   106.5360     5.6770     4.8060     5.8340    26.8600   -10.1590 
  114.1250     2.2760   101.0960     6.1450     5.0130     5.7920    26.8050   -10.3950 
  114.2500     2.2820    95.2530     6.9650     5.4910     5.8460    26.7580   -10.7200 
  114.3750     2.3190    92.0420     8.1130     6.2900     6.6860    26.7170   -11.1570 
  114.5000     2.3830    91.5740     9.4180     7.3740     9.8700    26.6460   -11.7180 
  114.6250     2.4470    89.2870    10.4930     8.5230    15.7240    26.4470   -12.4580 
  114.7500     2.4790    84.1920    11.0250     9.3330    18.5790    26.0970   -13.3790 
  114.8750     2.4630    79.2520    10.9170     9.5470    16.8590    25.6220   -14.4590 
  115.0000     2.4070    77.0020    10.3220     9.2020    12.6360    25.1330   -15.6550 
  115.1250     2.3360    76.5990     9.5710     8.5820    10.3390    24.7730   -16.9010 
  115.2500     2.2770    75.6820     8.9760     8.0350     9.2740    24.4770   -18.1230 
  115.3750     2.2390    75.5980     8.6290     7.6860     8.9520    24.1790   -19.2530 
  115.5000     2.2180    75.8940     8.4980     7.5390     9.0030    23.9180   -20.2010 
  115.6250     2.2080    74.4350     8.5250     7.5610     9.2970    23.8000   -20.8760 
  115.7500     2.1990    72.7700     8.6290     7.6700     9.7250    23.8120   -21.2880 
  115.8750     2.1900    73.3300     8.7880     7.8420    10.0660    23.9180   -21.4230 
  116.0000     2.1800    76.9110     8.9840     8.0680    10.3050    24.0930   -21.2880 
  116.1250     2.1730    77.5900     9.1480     8.3110    10.3430    24.3350   -20.8730 
  116.2500     2.1690    74.9720     9.1670     8.4630    10.4500    24.6680   -20.2250 
  116.3750     2.1730    72.3140     8.9380     8.3930    10.7230    25.1530   -19.3770 
  116.5000     2.1860    71.8140     8.4200     8.0090    10.7050    25.7970   -18.3760 
  116.6250     2.2140    73.1460     7.6360     7.3130     9.8010    26.4560   -17.2310 
  116.7500     2.2480    74.5340     6.8650     6.5270     8.2290    26.9160   -16.0040 
  116.8750     2.2800    77.7730     6.3780     5.8240     6.6260    27.0720   -14.7770 
  117.0000     2.2970    81.9320     6.2780     5.3320     5.7830    26.9580   -13.6250 
  117.1250     2.2910    85.3410     6.5450     5.1910     5.8770    26.7170   -12.6010 
  117.2500     2.2760    88.5180     7.1280     5.4170     6.4830    26.5750   -11.6800 
  117.3750     2.2700    90.1370     8.1400     6.0650     7.0250    26.6360   -10.8260 
