~V
VERS. 2.00: Ver 2.00
~W
STRT.M 49.0000:
STOP.M 245.0000:
STEP.M 0.1250:
NULL. -999.2500:
UWI. F10179:
~C
DEPT.M :
DEN.GM/CC :
GR.API :
RML.OHMM :
RI. :
RXO.OHMM :
CALI.CM :
SP.MV :
~A
# ...
  184.0000     2.4160    92.0970     9.2670     6.5770     7.4540    24.2640   -27.6950 
  184.1250     2.4140    94.2060     9.1740     6.4700     7.3480    24.2800   -28.0560 
  184.2500     2.4140    96.9020     9.1910     6.4400     7.2270    24.2820   -28.3650 
  184.3750     2.4140    97.4230     9.3350     6.5080     7.2560    24.2780   -28.6470 
  184.5000     2.4110    94.9700     9.5510     6.6490     7.7180    24.2810   -28.8940 
  184.6250     2.4070    94.0430     9.7900     6.8410     8.1090    24.3050   -29.1030 
  184.7500     2.4050    98.4600    10.0000     7.0550     8.6900    24.3450   -29.3070 
  184.8750     2.4040   102.2340    10.1430     7.2490     9.8030    24.3670   -29.4630 
  185.0000     2.4050    98.3870    10.2390     7.4040    10.2130    24.3650   -29.5620 
  185.1250     2.4050    90.1140    10.3280     7.5260     9.3030    24.3700   -29.5910 
  185.2500     2.4030    84.6750    10.4500     7.6400     8.6880    24.3860   -29.5350 
  185.3750     2.4000    88.0930    10.6300     7.7690     8.9270    24.3430   -29.3620 
  185.5000     2.4030    95.8480    10.8250     7.9000     9.3970    24.2370   -29.0880 
  185.6250     2.4110   101.8840    10.9570     7.9850    10.0990    24.0870   -28.7270 
  185.7500     2.4150   103.1410    10.9290     7.9660    11.7570    23.9610   -28.2620 
  185.8750     2.4060   102.9130    10.6180     7.7630    13.2880    23.8670   -27.6820 
  186.0000     2.3940   104.1690    10.0540     7.3930    11.2180    23.7720   -27.0280 
  186.1250     2.3910   103.5250     9.3090     6.9010     8.3740    23.6580   -26.3370 
  186.2500     2.3940    99.0320     8.5200     6.3740     6.7430    23.4890   -25.6400 
  186.3750     2.3890    91.9670     7.8900     5.9380     6.3360    23.1580   -24.9680 
  186.5000     2.3790    86.1210     7.5410     5.6680     6.2060    22.8220   -24.3410 
  186.6250     2.3740    81.9410     7.5380     5.6100     5.8600    22.7620   -23.7470 
  186.7500     2.3840    79.9690     7.8790     5.7780     5.5570    23.0790   -23.2320 
  186.8750     2.4040    80.3750     8.4830     6.1700     5.9800    23.4860   -22.8830 
  187.0000     2.4220    82.4060     9.1040     6.6530     6.9780    23.8080   -22.6960 
  187.1250     2.4310    86.5870     9.5350     7.0840     8.1300    24.0870   -22.6510 
  187.2500     2.4350    87.9280     9.6300     7.3240     8.9830    24.2840   -22.6910 
  187.3750     2.4330    79.2520     9.3220     7.2680     8.9760    24.3560   -22.7570 
  187.5000     2.4210    66.6940     8.8090     7.0190     8.1150    24.3680   -22.8270 
  187.6250     2.4010    59.2600     8.2630     6.6890     7.1320    24.3580   -22.9140 
  187.7500     2.3850    60.3650     7.8000     6.3670     6.5140    24.3330   -23.0170 
  187.8750     2.3810    66.5920     7.4680     6.1040     5.9260    24.3210   -23.0820 
  188.0000     2.3830    75.3620     7.2100     5.8860     5.5200    24.2900   -23.0980 
  188.1250     2.3910    84.2390     6.9820     5.6970     5.6310    24.2490   -23.0720 
  188.2500     2.4040    88.4720     6.7660     5.5300     5.7430    24.2190   -23.0140 
  188.3750     2.4130    86.0940     6.6060     5.4030     5.6510    24.1000   -22.9200 
  188.5000     2.4070    82.6210     6.5590     5.3410     5.4300    23.9910   -22.7710 
  188.6250     2.3790    82.7130     6.6640     5.3790     5.1450    24.0460   -22.5210 
  188.7500     2.3460    86.4760     6.9160     5.5290     5.0200    24.0670   -22.1430 
  188.8750     2.3410    89.1790     7.2510     5.7710     5.4660    23.9120   -21.6360 
  189.0000     2.3640    87.3140     7.5370     6.0090     6.0880    23.8410   -21.0310 
  189.1250     2.3970    83.6870     7.6760     6.1600     6.4770    23.8500   -20.3390 
  189.2500     2.4200    82.2700     7.6330     6.1770     6.5090    23.8130   -19.5950 
  189.3750     2.4270    85.4150     7.4630     6.0740     6.1870    23.7580   -18.8490 
  189.5000     2.4260    91.1460     7.3310     5.9650     5.9810    23.7070   -18.1490 
  189.6250     2.4220    95.8750     7.3530     5.9400     6.0080    23.6920   -17.5550 
  189.7500     2.4160    96.8920     7.6040     6.0650     6.2750    23.6740   -17.0700 
  189.8750     2.4080    94.7500     8.1610     6.4170     7.1640    23.6520   -16.7080 
  190.0000     2.3960    91.5880     8.9590     6.9740     8.4480    23.5820   -16.4640 
  190.1250     2.3840    86.8190     9.9320     7.7060     9.4790    23.4530   -16.3210 
  190.2500     2.3730    80.3030    10.9600     8.5470     9.4360    23.3280   -16.2670 
  190.3750     2.3670    75.8240    11.8130     9.3450    10.6180    23.2540   -16.2840 
  190.5000     2.3660    74.9920    12.2850     9.9060    11.9060    23.2480   -16.3140 
  190.6250     2.3690    77.0610    12.2720    10.0950    12.3630    23.2830   -16.3250 
  190.7500     2.3760    81.6580    11.8760     9.9280    12.5420    23.3110   -16.3240 
  190.8750     2.3800    87.7890    11.4650     9.6300    11.8600    23.3520   -16.3240 
  191.0000     2.3800    92.3590    11.4450     9.5270    10.3570    23.3910   -16.3410 
  191.1250     2.3760    93.1770    11.9870     9.7900     9.9240    23.4120   -16.3860 
  191.2500     2.3680    88.7210    13.0260    10.4510    10.8370    23.4170   -16.4370 
  191.3750     2.3590    81.4490    14.2150    11.3870    14.2280    23.3910   -16.4730 
  191.5000     2.3540    76.2700    15.0300    12.2230    18.7300    23.3760   -16.5300 
  191.6250     2.3570    77.3590    15.2010    12.6720    19.0930    23.3970   -16.6370 
  191.7500     2.3680    82.8570    14.8590    12.7000    14.4750    23.4190   -16.7690 
  191.8750     2.3880    84.5280    14.5330    12.6030    12.6360    23.4270   -16.9470 
  192.0000     2.4050    82.2720    14.7020    12.7810    13.2350    23.4510   -17.1360 
  192.1250     2.4060    80.8540    15.5720    13.4670    14.2710    23.5010   -17.3220 
  192.2500     2.3910    81.2200    17.1560    14.7790    18.1730    23.5720   -17.5280 
  192.3750     2.3660    80.6520    19.3730    16.7540    22.7120    23.6600   -17.7930 
  192.5000     2.3440    78.6900    21.9420    19.1050    26.4950    23.7420   -18.0820 
  192.6250     2.3310    77.6540    24.8050    21.7110    24.2410    23.8160   -18.3620 
  192.7500     2.3240    76.7920    27.8480    24.4910    24.7020    23.8920   -18.6540 
  192.8750     2.3160    76.0750    30.4420    27.0220    30.2280    23.9340   -18.9500 
  193.0000     2.3080    76.2560    31.8000    28.6140    36.4420    23.8970   -19.2650 
  193.1250     2.3010    76.9250    31.5710    28.8610    39.3730    23.8210   -19.6080 
  193.2500     2.2990    78.1700    30.2750    28.0680    37.1040    23.7960   -19.9750 
  193.3750     2.2960    81.5270    29.5570    27.3910    31.1460    23.8820   -20.3770 
  193.5000     2.2920    83.4010    31.0700    28.1590    26.2810    24.0130   -20.7790 
  193.6250     2.2840    79.1040    35.8280    31.3610    26.7970    24.1550   -21.1900 
  193.7500     2.2720    70.3170    44.2190    37.7110    43.6800    24.2680   -21.6070 
  193.8750     2.2560    66.4980    56.2680    47.9650    67.0820    24.3310   -22.0070 
  194.0000     2.2420    66.8360    69.4030    60.2830    81.8170    24.3640   -22.4020 
  194.1250     2.2350    64.0880    80.1850    71.5280    83.2880    24.3650   -22.7910 
  194.2500     2.2340    58.3350    85.2790    78.0170    81.7240    24.3750   -23.1660 
  194.3750     2.2400    57.7950    83.3670    77.6710    81.2120    24.3390   -23.5220 
  194.5000     2.2490    63.0660    78.1920    73.7220    82.2090    24.2520   -23.8750 
  194.6250     2.2590    68.4830    72.1470    68.4900    82.7720    24.1490   -24.1910 
  194.7500     2.2640    69.8440    66.8520    63.6050    70.5270    24.1100   -24.4320 
  194.8750     2.2590    68.0520    63.9370    60.6240    54.9640    24.2390   -24.6030 
  195.0000     2.2510    67.9970    63.8150    60.0510    52.1540    24.2850   -24.7200 
  195.1250     2.2450    70.7020    66.7750    62.2360    57.3090    24.2860   -24.8130 
