~V
VERS. 2.00: Ver 2.00
~W
STRT.M 55.0000:
STOP.M 247.0000:
STEP.M 0.1250:
NULL. -999.2500:
UWI. F10183:
~C
DEPT.M :
SP.MV :
GR.API :
RML.OHMM :
RI. :
RXO.OHMM :
CALI.CM :
DEN.GM/CC :
~A
# ...
   66.2500   -20.7640    73.5030     8.1470     6.6990     7.9810    23.4980     2.2380 
   66.3750   -20.6300    73.1730     8.7770     7.1460     8.1470    23.5540     2.2550 
   66.5000   -20.5320    67.3640     9.2640     7.5470     8.3460    23.6140     2.2680 
   66.6250   -20.4940    61.8560     9.4080     7.7510     8.4150    23.6510     2.2660 
   66.7500   -20.5080    58.8600     9.2170     7.7170     8.3950    23.6750     2.2490 
   66.8750   -20.5720    57.8610     8.7750     7.4660     8.4820    23.7110     2.2240 
   67.0000   -20.6910    59.3490     8.2380     7.0890     8.6320    23.7330     2.2000 
   67.1250   -20.8430    63.0770     7.7910     6.7140     8.7340    23.7260     2.1840 
   67.2500   -20.9500    66.5680     7.5120     6.4280     8.6270    23.7400     2.1770 
   67.3750   -21.0160    67.9310     7.4010     6.2550     8.4640    23.7840     2.1720 
   67.5000   -21.0450    66.0600     7.4160     6.1860     8.4200    23.8030     2.1680 
   67.6250   -21.0240    64.6590     7.5080     6.2000     8.3610    23.7660     2.1660 
   67.7500   -20.9620    66.4790     7.6120     6.2480     8.3000    23.7290     2.1660 
   67.8750   -20.8470    68.2690     7.6930     6.2980     8.2820    23.7120     2.1700 
   68.0000   -20.6480    67.1730     7.7190     6.3240     8.3730    23.6880     2.1770 
   68.1250   -20.3640    63.8280     7.6540     6.2990     8.4960    23.6710     2.1860 
   68.2500   -20.0810    61.4540     7.5280     6.2330     8.6410    23.6800     2.1930 
   68.3750   -19.8060    61.0750     7.3900     6.1510     8.6700    23.6890     2.1960 
   68.5000   -19.5430    61.2540     7.3070     6.0970     8.4480    23.6970     2.1940 
   68.6250   -19.2520    63.0090     7.3350     6.1100     8.2840    23.7420     2.1940 
   68.7500   -18.8420    65.0870     7.4220     6.1680     8.1800    23.7920     2.2030 
   68.8750   -18.3170    68.1480     7.4840     6.2240     8.0630    23.8290     2.2270 
   69.0000   -17.7860    71.4380     7.4410     6.2200     7.8710    23.8840     2.2590 
   69.1250   -17.2900    72.1100     7.2370     6.1080     7.3830    23.9610     2.2860 
   69.2500   -16.8460    72.1650     6.9520     5.9260     6.7980    24.0170     2.2960 
   69.3750   -16.4610    75.2690     6.6890     5.7400     6.3780    24.0400     2.2870 
   69.5000   -16.1380    80.2920     6.5450     5.6220     6.3340    24.0320     2.2650 
   69.6250   -15.9390    80.2060     6.5930     5.6400     6.6250    23.9970     2.2410 
   69.7500   -15.8810    76.6100     6.7720     5.7660     6.9480    23.9860     2.2190 
   69.8750   -15.9190    73.6420     6.9960     5.9460     7.3570    24.0230     2.1990 
   70.0000   -15.9180    71.2050     7.1530     6.1010     7.8040    24.0760     2.1830 
   70.1250   -15.7700    68.5150     7.1040     6.1160     8.0370    24.1470     2.1740 
   70.2500   -15.4720    68.5880     6.8330     5.9600     7.9560    24.2560     2.1740 
   70.3750   -15.0420    73.2110     6.3790     5.6440     7.4530    24.3520     2.1870 
   70.5000   -14.4470    80.0420     5.8410     5.2350     6.5470    24.4070     2.2100 
   70.6250   -13.7330    85.6980     5.3890     4.8520     5.5870    24.4510     2.2390 
   70.7500   -13.0130    88.9390     5.1620     4.6080     4.8040    24.4880     2.2650 
   70.8750   -12.3700    89.0110     5.2450     4.5800     4.5070    24.4960     2.2820 
   71.0000   -11.8710    87.6140     5.6470     4.7970     4.7200    24.5000     2.2920 
   71.1250   -11.6230    84.2310     6.3010     5.2410     5.5120    24.5070     2.2980 
   71.2500   -11.5450    78.6780     6.9650     5.7500     6.5080    24.4770     2.3020 
   71.3750   -11.5450    73.2900     7.4230     6.1600     7.4550    24.4360     2.3020 
   71.5000   -11.5840    70.6980     7.5010     6.3180     7.9930    24.4430     2.2970 
   71.6250   -11.5620    71.9800     7.1020     6.0990     7.1390    24.4880     2.2890 
   71.7500   -11.4960    75.9380     6.4560     5.6460     6.1720    24.5080     2.2830 
   71.8750   -11.3800    80.6730     5.8120     5.1370     5.4250    24.4980     2.2800 
   72.0000   -11.2300    82.4990     5.4370     4.7650     5.0860    24.4670     2.2800 
   72.1250   -11.0410    80.6460     5.7330     4.7970     5.2380    24.3850     2.2790 
   72.2500   -10.8860    80.1210     6.9090     5.3790     6.1160    24.2690     2.2830 
   72.3750   -10.8540    81.6780     9.1760     6.6950     8.9530    24.1440     2.3020 
   72.5000   -10.9990    80.4890    12.5270     8.8480    14.5920    24.0020     2.3450 
   72.6250   -11.3820    72.2040    16.4530    11.7010    22.9670    23.8430     2.4070 
   72.7500   -11.8930    61.7930    19.6920    14.4460    31.2670    23.6780     2.4690 
   72.8750   -12.4950    54.5980    21.0600    16.1830    34.8560    23.4840     2.5060 
   73.0000   -13.1650    52.5810    19.8480    16.1150    30.1020    23.2820     2.5000 
   73.1250   -13.8490    52.7190    16.3920    14.0570    20.3050    23.1230     2.4430 
   73.2500   -14.4680    53.1280    12.7780    11.5010    14.0260    22.9950     2.3650 
   73.3750   -15.0190    54.8340    10.1310     9.3800    10.1420    22.8940     2.2870 
   73.5000   -15.5150    56.7020     8.6780     7.9820     8.9110    22.8540     2.2260 
   73.6250   -15.9330    56.6460     8.2550     7.3190     8.8840    22.8720     2.1910 
   73.7500   -16.2600    56.8720     8.3700     7.1150     8.9860    22.9050     2.1770 
   73.8750   -16.5400    58.1820     8.8130     7.2460     9.1420    22.9750     2.1780 
   74.0000   -16.8090    57.0740     9.4240     7.5960     9.5010    23.1050     2.1860 
   74.1250   -17.1040    52.3080    10.0280     8.0430    10.1190    23.2570     2.1930 
   74.2500   -17.4530    49.9780    10.4630     8.4360    10.7330    23.3960     2.1930 
   74.3750   -17.8250    51.7400    10.6190     8.6730    11.1990    23.5330     2.1850 
   74.5000   -18.2250    53.0630    10.4540     8.6940    11.1740    23.6400     2.1750 
   74.6250   -18.6200    50.6450    10.0030     8.4780     9.9390    23.6590     2.1670 
   74.7500   -19.0090    49.6680     9.4660     8.1470     9.1090    23.6500     2.1630 
   74.8750   -19.3660    51.5610     8.9810     7.7990     8.9090    23.6530     2.1620 
   75.0000   -19.6410    53.3820     8.6290     7.5040     8.9760    23.6410     2.1620 
   75.1250   -19.8560    52.4140     8.4470     7.3070     9.0340    23.6220     2.1620 
   75.2500   -20.0010    51.3900     8.3800     7.1880     9.0670    23.6380     2.1630 
   75.3750   -20.1050    51.7860     8.3850     7.1220     9.1100    23.6660     2.1670 
   75.5000   -20.1290    52.0750     8.4220     7.0860     9.1930    23.6820     2.1740 
   75.6250   -20.0870    51.4190     8.4490     7.0590     9.3150    23.7180     2.1780 
   75.7500   -20.0010    50.6490     8.4280     7.0150     9.3270    23.7630     2.1780 
   75.8750   -19.8420    50.6680     8.3350     6.9370     9.1420    23.7810     2.1720 
   76.0000   -19.6110    51.4840     8.1730     6.8170     8.8190    23.7960     2.1620 
   76.1250   -19.2530    52.1550     7.9730     6.6650     8.5280    23.8490     2.1540 
   76.2500   -18.8110    51.6020     7.7970     6.5150     8.3400    23.9050     2.1490 
   76.3750   -18.2820    51.4970     7.6950     6.3990     8.2570    23.9510     2.1500 
   76.5000   -17.7060    54.4500     7.6910     6.3430     8.2530    24.0030     2.1560 
   76.6250   -17.1430    58.1840     7.7970     6.3660     8.2950    24.0230     2.1670 
   76.7500   -16.6230    58.7880     7.9580     6.4480     8.3490    23.9890     2.1760 
   76.8750   -16.1210    59.2840     8.1250     6.5630     8.4540    23.9320     2.1780 
   77.0000   -15.6370    63.5020     8.2500     6.6820     8.6730    23.8520     2.1700 
   77.1250   -15.1200    66.6770     8.2850     6.7700     8.9470    23.6890     2.1530 
   77.2500   -14.5870    64.2970     8.2420     6.8180     9.0850    23.4560     2.1370 
   77.3750   -14.0640    58.8380     8.1600     6.8370     9.0450    23.2100     2.1290 
