~V
VERS. 2.00: Ver 2.00
~W
STRT.M 52.0000:
STOP.M 322.0000:
STEP.M 0.1250:
NULL. -999.2500:
UWI. F10105:
~C
DEPT.M :
GR.API :
RML.OHMM :
RI. :
RXO.OHMM :
CALI.CM :
DEN.GM/CC :
SP.MV :
~A
# ...
  277.0000    62.0380    85.2790    84.1810   145.8500    26.4780     2.6410   -17.0440 
  277.1250    64.6150    80.1720    79.4710   184.0000    26.4690     2.6760   -16.7560 
  277.2500    66.7530    71.6670    70.2490   162.6890    26.4550     2.6360   -16.6100 
  277.3750    69.2380    63.6610    60.9700   100.3350    26.4650     2.5420   -16.4910 
  277.5000    73.6170    59.0370    54.8090    52.6280    26.4530     2.4330   -16.2550 
  277.6250    75.9900    59.8490    53.9650    44.2440    26.4000     2.3630   -15.8550 
  277.7500    73.8830    65.3750    58.0090    47.1010    26.3720     2.3510   -15.4390 
  277.8750    70.3800    75.0280    66.6450    66.1760    26.3950     2.3920   -15.0550 
  278.0000    67.9840    87.4580    78.7230   103.4590    26.4200     2.4680   -14.5850 
  278.1250    64.6910   100.0990    91.6720   139.7490    26.4180     2.5520   -13.8300 
  278.2500    60.7070   110.0680   102.2820   154.6150    26.4070     2.6210   -12.8960 
  278.3750    59.4790   115.4060   108.8950   147.1730    26.4050     2.6700   -11.9800 
  278.5000    62.0820   114.4310   110.7380   123.6110    26.4040     2.7040   -11.2130 
  278.6250    65.4720   104.0180   104.7390   107.9800    26.4000     2.7290   -10.6040 
  278.7500    68.3370    85.7080    89.3070   120.3030    26.3910     2.7480    -9.9890 
  278.8750    69.9290    63.0810    66.2410   115.5500    26.3470     2.7540    -9.2450 
  279.0000    70.8620    41.5050    42.6100    86.0130    26.2880     2.7440    -8.4390 
  279.1250    76.2860    26.1340    25.8780    40.3980    26.1770     2.7110    -7.8010 
  279.2500    87.0890    16.4310    15.6910    16.6240    26.0260     2.6580    -7.2460 
  279.3750    97.9370    10.6860    10.0920     7.9350    25.9460     2.5920    -6.5990 
  279.5000   103.3420     7.4030     7.2160     5.8360    25.9560     2.5220    -5.8430 
  279.6250   104.3690     6.0240     5.9980     5.7110    25.9670     2.4640    -5.1250 
  279.7500   105.2630     5.6980     5.5490     5.6820    25.9290     2.4230    -4.5430 
  279.8750   105.3450     5.8450     5.5610     5.7450    25.9160     2.4000    -4.0940 
  280.0000   103.7920     6.0710     5.7970     5.9030    26.0000     2.3890    -3.7540 
  280.1250   104.5610     6.2770     6.0820     6.0940    26.1630     2.3850    -3.4840 
  280.2500   108.4940     6.4260     6.3280     6.3650    26.2630     2.3810    -3.2820 
  280.3750   112.1190     6.5230     6.5150     6.5600    26.2940     2.3760    -3.1820 
  280.5000   112.8490     6.5780     6.6320     6.7910    26.2890     2.3740    -3.1310 
  280.6250   112.6060     6.5970     6.6670     7.0610    26.2650     2.3770    -3.0350 
  280.7500   113.5720     6.6060     6.6390     7.2660    26.2280     2.3850    -2.9550 
  280.8750   115.2190     6.6270     6.5690     7.1180    26.1930     2.3940    -2.9540 
  281.0000   115.8040     6.6820     6.4860     6.8590    26.1750     2.4010    -2.9950 
  281.1250   114.6770     6.7880     6.4270     7.2160    26.1700     2.4040    -3.0140 
  281.2500   113.3500     6.9270     6.4070     7.6750    26.1700     2.4110    -2.9490 
  281.3750   112.1440     7.0650     6.4160     7.9520    26.1700     2.4230    -2.8240 
  281.5000   110.8860     7.1640     6.4240     8.2670    26.1680     2.4400    -2.7300 
  281.6250   110.5690     7.1900     6.3890     8.3640    26.1640     2.4540    -2.6890 
  281.7500   111.4790     7.1810     6.3230     8.2180    26.1630     2.4570    -2.6070 
  281.8750   111.6280     7.1950     6.2740     7.6740    26.1630     2.4480    -2.4240 
  282.0000   109.0760     7.2950     6.3060     7.3750    26.1660     2.4340    -2.1080 
  282.1250   105.8830     7.5170     6.4790     7.5790    26.1650     2.4310    -1.6990 
  282.2500   102.7160     7.7820     6.7540     8.2290    26.1590     2.4450    -1.2940 
  282.3750    99.3190     7.9720     7.0350     9.4500    26.1370     2.4690    -0.8470 
  282.5000    97.2220     7.9630     7.1840     9.2070    26.1190     2.4900    -0.3080 
  282.6250    97.4910     7.6570     7.0440     8.4120    26.1470     2.4930     0.2950 
  282.7500    98.6720     7.1520     6.6600     7.7150    26.2180     2.4780     0.8940 
  282.8750   101.3930     6.5670     6.1300     7.0070    26.2790     2.4520     1.4570 
  283.0000   107.8360     6.0240     5.5800     6.1830    26.3170     2.4250     1.9490 
  283.1250   115.3210     5.6180     5.1240     5.4530    26.3400     2.4040     2.3060 
  283.2500   118.3990     5.3430     4.7840     5.0810    26.3420     2.3880     2.5620 
  283.3750   115.7430     5.1670     4.5480     4.8410    26.3490     2.3770     2.7440 
  283.5000   109.7010     5.0480     4.3910     4.7810    26.3590     2.3710     2.8490 
  283.6250   104.4950     4.9420     4.2780     4.7620    26.3660     2.3690     2.9190 
  283.7500   103.0170     4.8260     4.1640     4.7280    26.3660     2.3680     3.0000 
  283.8750   105.6570     4.7190     4.0450     4.6440    26.3600     2.3640     3.0610 
  284.0000   111.5540     4.6770     3.9590     4.6220    26.3440     2.3560     3.0710 
  284.1250   113.8190     4.8090     3.9920     4.6370    26.3180     2.3490     3.0920 
  284.2500   107.5640     5.1620     4.1940     4.8560    26.3050     2.3500     3.1230 
  284.3750    98.7820     5.7520     4.6020     5.6660    26.2730     2.3640     3.1170 
  284.5000    96.2420     6.5310     5.2210     7.5870    26.2410     2.3860     3.1320 
  284.6250    98.8500     7.3650     5.9990     9.1260    26.2200     2.4040     3.1150 
  284.7500    97.8460     8.0570     6.7540     9.8750    26.1940     2.4050     3.0090 
  284.8750    93.6110     8.4810     7.3180    10.2020    26.1660     2.3900     2.8750 
  285.0000    91.5400     8.6070     7.5880    10.4640    26.1570     2.3660     2.7750 
  285.1250    92.7310     8.5030     7.5640     9.8070    26.2030     2.3440     2.6610 
  285.2500    93.0440     8.3620     7.4390     9.2010    26.2320     2.3320     2.4760 
  285.3750    91.4530     8.2870     7.3340     8.7690    26.2590     2.3260     2.2770 
  285.5000    89.7990     8.3090     7.2990     8.6280    26.2830     2.3260     2.0970 
  285.6250    89.6310     8.3790     7.3210     8.8280    26.2920     2.3280     1.9820 
  285.7500    89.0950     8.3970     7.3230     9.0070    26.2870     2.3310     1.8900 
  285.8750    87.9590     8.2940     7.2390     8.7490    26.2680     2.3340     1.7420 
  286.0000    87.6490     8.0550     7.0330     8.1320    26.2430     2.3330     1.5660 
  286.1250    91.4730     7.7350     6.7260     7.6250    26.2320     2.3280     1.4910 
  286.2500    97.2350     7.4700     6.4350     7.2830    26.2300     2.3220     1.5230 
  286.3750    98.9860     7.3680     6.2650     7.2540    26.2300     2.3180     1.5140 
  286.5000    94.2520     7.4970     6.2910     7.3260    26.2300     2.3170     1.4120 
  286.6250    88.3590     7.9250     6.5740     7.5800    26.2280     2.3150     1.3180 
  286.7500    89.1400     8.6110     7.0800     8.5850    26.2260     2.3080     1.3320 
  286.8750    94.0630     9.5490     7.8210    10.5760    26.2250     2.2990     1.4570 
  287.0000    94.8920    10.7110     8.8100    11.5960    26.2270     2.2960     1.5600 
  287.1250    88.3260    11.9890    10.0420    12.1500    26.2300     2.3120     1.5560 
  287.2500    79.7250    13.1140    11.2960    15.9590    26.2390     2.3510     1.5170 
  287.3750    73.5010    13.8110    12.2550    26.1420    26.2630     2.4130     1.5660 
  287.5000    70.7860    13.8990    12.5920    33.9600    26.2800     2.4880     1.6710 
  287.6250    72.1350    13.3900    12.1630    26.1230    26.2820     2.5530     1.6460 
  287.7500    78.4310    12.7550    11.4430    15.7120    26.2800     2.5850     1.4710 
  287.8750    86.4320    12.4060    10.8420    11.4360    26.2930     2.5740     1.1840 
  288.0000    91.3040    12.6560    10.6640    12.0760    26.3180     2.5210     0.9010 
  288.1250    89.7730    13.7820    11.2010    15.0140    26.3480     2.4450     0.6880 
