~V
VERS. 2.00: Ver 2.00
~W
STRT.M 50.0000:
STOP.M 237.0000:
STEP.M 0.1250:
NULL. -999.2500:
UWI. F10163:
~C
DEPT.M :
DEN.GM/CC :
GR.API :
RML.OHMM :
RI. :
RXO.OHMM :
CALI.CM :
SP.MV :
~A
# ...
  117.5000     2.0930    67.2220     8.7820     7.2390     9.7670    22.9750   -19.1530 
  117.6250     2.1120    70.3000     8.6220     7.1710     9.6710    23.1110   -17.9060 
  117.7500     2.1470    72.8150     8.2820     6.9530     9.1510    23.1980   -16.5010 
  117.8750     2.1920    76.3680     7.7860     6.5900     8.0440    23.2390   -14.9810 
  118.0000     2.2420    82.3860     7.2040     6.1280     6.7650    23.1800   -13.4770 
  118.1250     2.2840    87.0220     6.6470     5.6510     6.2360    23.1780   -12.0990 
  118.2500     2.3140    87.7880     6.2080     5.2460     5.5630    23.1990   -10.9010 
  118.3750     2.3280    88.3470     5.9410     4.9640     5.2380    23.2740    -9.9460 
  118.5000     2.3270    91.4390     5.8770     4.8400     5.1730    23.2950    -9.2710 
  118.6250     2.3130    92.5230     6.0640     4.9250     5.2660    23.2920    -8.9720 
  118.7500     2.2930    85.5250     6.4540     5.1990     5.4860    23.2990    -8.9840 
  118.8750     2.2720    74.5440     6.9950     5.6420     6.0790    23.3650    -9.2580 
  119.0000     2.2550    69.0020     7.5770     6.1960     7.1460    23.6400    -9.6620 
  119.1250     2.2460    71.2970     7.9880     6.7170     8.5780    23.0430   -10.0790 
  119.2500     2.2400    74.2870     8.0830     7.0260     9.3760    22.8190   -10.4160 
  119.3750     2.2350    75.7310     7.8290     7.0180     9.1300    22.7840   -10.6390 
  119.5000     2.2300    77.2180     7.3230     6.7120     8.1140    22.8540   -10.7240 
  119.6250     2.2310    78.9390     6.7480     6.2420     6.7160    23.2700   -10.6420 
  119.7500     2.2420    78.8060     6.2690     5.8040     5.7680    23.7030   -10.4310 
  119.8750     2.2600    76.3770     5.9480     5.4860     5.3680    23.6830   -10.1150 
  120.0000     2.2770    74.5100     5.7900     5.3120     5.2530    23.4430    -9.7350 
  120.1250     2.2810    76.8320     5.7900     5.2690     5.1960    23.2440    -9.3570 
  120.2500     2.2740    79.7730     5.8710     5.2880     5.1790    23.2510    -9.0460 
  120.3750     2.2620    79.6110     5.9630     5.3230     5.2070    23.1720    -8.7980 
  120.5000     2.2560    78.4310     5.9910     5.3330     5.2660    23.1890    -8.6060 
  120.6250     2.2640    80.8850     5.8870     5.2870     5.3640    22.8360    -8.4470 
  120.7500     2.2810    82.9900     5.7050     5.2020     5.2780    22.6510    -8.3130 
  120.8750     2.3000    81.2780     5.5340     5.1170     5.1640    22.6070    -8.2250 
  121.0000     2.3090    78.8450     5.4800     5.0810     5.0340    22.6320    -8.1730 
  121.1250     2.3020    79.4940     5.6570     5.1580     5.0170    22.5990    -8.1640 
  121.2500     2.2870    79.0240     6.0640     5.3750     5.7210    22.5990    -8.1420 
  121.3750     2.2740    73.6530     6.7010     5.7650     7.0200    22.6180    -8.0980 
  121.5000     2.2720    64.7280     7.5310     6.3390     7.8220    22.6790    -8.0200 
  121.6250     2.2900    61.0000     8.4320     7.0490     8.2360    22.6880    -7.8770 
  121.7500     2.3210    64.5860     9.1450     7.6880     9.0470    22.6780    -7.6450 
  121.8750     2.3570    69.8380     9.4310     8.0360    10.6450    22.6010    -7.3210 
  122.0000     2.3840    70.9510     9.1990     7.9700    11.7440    22.5380    -6.9340 
  122.1250     2.3900    68.3160     8.6460     7.5750    10.2880    22.5710    -6.4770 
  122.2500     2.3830    65.7840     8.2870     7.2180     7.5870    22.6120    -5.9880 
  122.3750     2.3780    63.8700     8.4890     7.1750     6.3880    22.8960    -5.4890 
  122.5000     2.3870    63.0970     9.4750     7.6500     6.9400    23.0930    -5.0050 
  122.6250     2.4190    62.1580    11.4780     8.9150     8.8090    22.8310    -4.5870 
  122.7500     2.4620    58.3550    14.2450    10.9140    11.4310    22.8100    -4.2660 
  122.8750     2.5070    53.4250    17.4070    13.4810    15.1660    22.7600    -4.0280 
  123.0000     2.5400    50.5510    20.3250    16.1540    18.2380    22.6630    -3.8640 
  123.1250     2.5560    48.8100    22.2160    18.1930    19.0700    22.7680    -3.7890 
  123.2500     2.5610    46.3040    23.2040    19.4580    18.3790    22.7570    -3.7690 
  123.3750     2.5600    45.8630    23.7370    20.2110    17.5880    22.7800    -3.7950 
  123.5000     2.5620    49.1600    24.2720    20.8160    17.0840    23.1720    -3.8580 
  123.6250     2.5730    51.7910    24.9950    21.4660    17.9770    23.2750    -3.9410 
  123.7500     2.5840    51.3510    25.6340    22.0390    20.1280    23.3710    -4.0220 
  123.8750     2.5840    48.6510    25.8100    22.2700    21.9650    23.3900    -4.0850 
  124.0000     2.5620    46.3960    25.2690    21.9470    20.1030    23.3780    -4.1140 
  124.1250     2.5170    47.7730    24.0030    21.0250    18.4670    23.0540    -4.1050 
  124.2500     2.4680    51.0200    22.5530    19.9030    16.6290    22.6700    -4.0830 
  124.3750     2.4310    52.5800    21.4050    18.9590    15.1800    22.5790    -4.0570 
  124.5000     2.4200    51.0610    20.9160    18.4950    14.8920    22.6570    -4.0410 
  124.6250     2.4370    49.3950    21.3340    18.7450    15.3740    22.3130    -4.0180 
  124.7500     2.4690    48.6770    22.4090    19.5500    15.5000    22.0360    -3.9950 
  124.8750     2.5030    49.4110    23.8970    20.7450    16.5310    21.9570    -3.9810 
  125.0000     2.5300    51.6550    25.4480    22.0980    19.1640    21.9750    -3.9800 
  125.1250     2.5490    52.1370    26.5620    23.2550    20.5620    21.9500    -3.9800 
  125.2500     2.5630    49.1980    27.0080    23.9660    19.3180    21.9050    -3.9830 
  125.3750     2.5700    46.2740    26.7510    24.1240    18.7970    21.8860    -3.9950 
  125.5000     2.5650    47.6190    25.9230    23.7630    19.8790    21.8250    -4.0470 
  125.6250     2.5400    51.5720    24.7430    23.0010    19.8840    21.8720    -4.1760 
  125.7500     2.5060    52.6450    23.5160    22.0920    18.1220    22.0530    -4.3460 
  125.8750     2.4780    50.3360    22.4090    21.1720    16.0990    22.1260    -4.5340 
  126.0000     2.4690    47.9980    21.5560    20.3580    15.2800    22.1330    -4.7240 
  126.1250     2.4880    49.0020    21.1240    19.8140    15.1450    22.0130    -4.9070 
  126.2500     2.5220    51.0290    21.0480    19.5850    15.1820    21.9260    -5.0900 
  126.3750     2.5570    51.0200    21.2050    19.6500    15.4620    21.9040    -5.2640 
  126.5000     2.5830    48.6100    21.4110    19.8840    15.8870    21.8960    -5.3900 
  126.6250     2.5920    47.3050    21.4450    20.0690    16.5130    21.9060    -5.4380 
  126.7500     2.5870    48.2710    21.2130    20.0330    16.7420    22.1230    -5.4170 
  126.8750     2.5700    49.7010    20.7480    19.7460    16.6730    22.4600    -5.3540 
  127.0000     2.5470    51.4960    20.2250    19.3240    16.0850    22.7360    -5.2860 
  127.1250     2.5290    54.0830    19.9950    19.0580    15.3510    22.4450    -5.2340 
  127.2500     2.5210    54.2140    20.2610    19.1760    15.0200    22.0760    -5.1880 
  127.3750     2.5220    50.8240    21.0610    19.7660    14.9900    21.7660    -5.1420 
  127.5000     2.5260    48.6040    22.2460    20.7660    16.0850    21.6120    -5.1030 
  127.6250     2.5220    51.5920    23.4500    21.9320    18.7090    21.6730    -5.0970 
  127.7500     2.5090    53.7230    24.2520    22.8510    20.9350    21.8430    -5.1510 
  127.8750     2.4920    52.8510    24.4650    23.2710    21.2180    21.9550    -5.2660 
  128.0000     2.4760    52.9810    24.1710    23.1740    19.5840    22.2450    -5.4080 
  128.1250     2.4710    53.8120    23.6480    22.7450    18.7350    22.8950    -5.5440 
  128.2500     2.4750    52.5210    23.2520    22.3290    18.5180    23.3050    -5.6820 
  128.3750     2.4880    50.7970    23.1650    22.1260    18.9350    23.4040    -5.8490 
  128.5000     2.5080    53.4170    23.4440    22.2320    18.9850    23.3380    -6.0240 
  128.6250     2.5320    58.2590    24.0560    22.6570    18.9690    23.2300    -6.1750 
