~V
VERS. 2.00: Ver 2.00
~W
STRT.M 63.0000:
STOP.M 308.0000:
STEP.M 0.1250:
NULL. -999.2500:
UWI. F10102:
~C
DEPT.M :
DEN.GM/CC :
SP.MV :
GR.API :
RML.OHMM :
RI. :
RXO.OHMM :
CALI.CM :
~A
# ...
  254.2500     2.4490    -6.6590   100.4280     8.2540     7.5330     6.8320    25.1550 
  254.3750     2.4430    -6.7300   107.1930     8.2020     7.3870     7.1470    25.0520 
  254.5000     2.4310    -6.7550   108.0750     8.2210     7.2410     7.3590    24.7100 
  254.6250     2.4160    -6.8530   103.5720     8.3860     7.1360     7.3040    24.1710 
  254.7500     2.3980    -7.0660   100.2410     8.8060     7.1590     7.0720    23.8870 
  254.8750     2.3800    -7.3790   102.1380     9.7140     7.5060     6.9960    24.0330 
  255.0000     2.3680    -7.7590   102.6940    11.2400     8.3130     7.9760    24.4130 
  255.1250     2.3620    -8.1680    97.2960    13.6030     9.7800    10.8690    24.8210 
  255.2500     2.3640    -8.5760    88.8900    17.0510    12.1620    17.5720    25.1720 
  255.3750     2.3620    -9.0390    81.7800    22.0990    16.0190    25.9590    25.4730 
  255.5000     2.3480    -9.5840    76.2710    28.6950    21.4640    34.4900    25.5900 
  255.6250     2.3210   -10.1480    71.4020    36.7170    28.5700    43.1910    25.6130 
  255.7500     2.2880   -10.6540    68.6440    45.6110    36.9250    62.1990    25.5890 
  255.8750     2.2640   -11.1850    68.2290    54.1450    45.3220    72.3160    25.4860 
  256.0000     2.2570   -11.6990    67.8560    61.1330    52.3060    72.5520    25.2930 
  256.1250     2.2650   -12.0590    66.2720    66.0840    57.1770    65.4870    25.1200 
  256.2500     2.2800   -12.3800    64.1760    69.3240    60.1270    59.3960    25.0430 
  256.3750     2.2900   -12.7480    63.0070    71.7060    61.9620    63.0140    25.0300 
  256.5000     2.2920   -13.0360    62.8750    74.1250    63.7230    68.6000    25.0150 
  256.6250     2.2890   -13.2090    63.6710    76.6650    65.5910    75.8690    24.9890 
  256.7500     2.2850   -13.3170    65.3710    79.0560    67.3130    80.9450    24.9710 
  256.8750     2.2840   -13.3800    67.7320    81.1490    68.6810    78.0350    24.9660 
  257.0000     2.2810   -13.4180    68.7780    83.4380    70.1540    69.5710    24.9660 
  257.1250     2.2770   -13.4620    67.4140    86.6280    72.4360    67.0090    24.9670 
  257.2500     2.2690   -13.4830    65.2280    91.2930    76.1320    72.2160    24.9690 
  257.3750     2.2610   -13.4990    64.7700    97.7140    81.6550    86.6620    24.9670 
  257.5000     2.2540   -13.5570    65.1640   104.7800    88.1210   100.3130    24.9660 
  257.6250     2.2510   -13.6390    65.8990   111.0380    94.2650   109.4620    24.9660 
  257.7500     2.2510   -13.7240    66.0850   114.9350    98.5520   113.5270    24.9660 
  257.8750     2.2540   -13.8100    64.1450   115.0950    99.4210   112.3270    24.9660 
  258.0000     2.2580   -13.9120    60.5480   112.7280    97.7090   107.1540    24.9660 
  258.1250     2.2590   -14.0230    58.2530   109.3990    94.7220    97.4450    24.9660 
  258.2500     2.2580   -14.1240    59.4360   106.7620    91.9650    84.6650    24.9660 
  258.3750     2.2540   -14.2080    61.8420   106.3240    90.9910    79.4530    24.9660 
  258.5000     2.2490   -14.2170    63.3380   107.9590    92.0490    83.3970    24.9660 
  258.6250     2.2450   -14.1570    63.5350   110.9830    94.7270    95.6540    24.9630 
  258.7500     2.2430   -14.1240    63.0710   114.1880    97.9570   109.3470    24.9350 
  258.8750     2.2420   -14.0750    63.4260   115.9570   100.1550   113.7920    24.8490 
  259.0000     2.2400   -13.9050    63.6860   115.7730   100.6310   111.4750    24.7770 
  259.1250     2.2330   -13.6760    63.4270   113.9240    99.5590   108.0400    24.8170 
  259.2500     2.2240   -13.5510    62.4310   111.2750    97.7360   101.0660    24.8240 
  259.3750     2.2220   -13.4540    61.3210   108.8480    96.1920    96.2170    24.6510 
  259.5000     2.2310   -13.3260    62.6170   106.9920    95.3740    96.1100    24.4430 
  259.6250     2.2510   -13.2440    65.4580   105.3090    95.0520    97.5950    24.3510 
  259.7500     2.2740   -13.1190    67.5720   102.6850    94.4050    96.7290    24.3060 
  259.8750     2.2860   -12.9110    67.7150    98.0080    91.7940    95.5350    24.2220 
  260.0000     2.2850   -12.6660    68.4010    92.1730    86.5630    94.4900    24.1680 
  260.1250     2.2780   -12.4170    70.2170    85.5240    78.9600    88.3400    24.1340 
  260.2500     2.2730   -12.1330    71.0210    77.7280    70.1540    72.9370    24.2080 
  260.3750     2.2750   -11.7960    69.4630    69.0900    61.8670    57.6870    24.5000 
  260.5000     2.2790   -11.4640    69.3440    61.5130    55.1510    48.0020    24.8450 
  260.6250     2.2820   -11.1330    72.0870    56.1510    50.3050    43.2760    24.9980 
  260.7500     2.2800   -10.8390    75.9130    52.7580    47.1760    40.8620    25.0260 
  260.8750     2.2740   -10.5870    77.5270    51.0160    45.5620    40.9310    25.0280 
  261.0000     2.2670   -10.3490    76.8000    50.1980    44.8160    41.4030    25.0250 
  261.1250     2.2620   -10.0680    74.2950    49.9930    44.6510    41.7440    25.0220 
  261.2500     2.2620    -9.7230    71.3410    50.2360    44.9120    40.8160    24.9860 
  261.3750     2.2650    -9.4150    71.8010    50.9340    45.6200    40.3870    24.9120 
  261.5000     2.2680    -9.1370    74.5200    51.9900    46.6830    43.1240    24.8520 
  261.6250     2.2680    -8.9060    76.0530    53.3320    48.0170    51.2360    24.8560 
  261.7500     2.2640    -8.7670    76.0260    54.8540    49.4990    55.1060    24.8730 
  261.8750     2.2550    -8.5850    77.3160    56.4380    51.0190    48.4910    24.9220 
  262.0000     2.2470    -8.3820    80.3180    57.9890    52.5010    45.5110    24.9790 
  262.1250     2.2390    -8.2940    81.2350    59.4750    53.9200    46.7630    25.0160 
  262.2500     2.2350    -8.2370    78.2500    60.8890    55.2900    52.1630    25.0250 
  262.3750     2.2350    -8.1110    73.3120    62.1960    56.6260    57.6170    25.0040 
  262.5000     2.2400    -8.0680    69.0440    63.3250    57.8960    61.4070    24.9330 
  262.6250     2.2490    -8.0480    67.4940    64.1220    58.9820    62.0060    24.7610 
  262.7500     2.2600    -7.9350    68.6150    64.3890    59.6990    60.9710    24.4350 
  262.8750     2.2700    -7.8010    70.1880    63.8210    59.6890    59.5220    24.1180 
  263.0000     2.2740    -7.7690    70.8690    62.5430    58.8900    58.7310    23.9710 
  263.1250     2.2730    -7.7220    71.1550    60.8170    57.4350    57.5870    23.9230 
  263.2500     2.2690    -7.6330    72.5380    59.1030    55.7570    53.5560    23.8850 
  263.3750     2.2660    -7.5760    73.1300    58.0620    54.5660    48.8270    23.8160 
  263.5000     2.2680    -7.5160    72.3490    57.9340    54.2650    46.3650    23.7990 
  263.6250     2.2720    -7.4970    71.7550    58.6600    54.9140    47.5630    23.9850 
  263.7500     2.2750    -7.5100    71.8660    59.8720    56.2010    54.1500    24.4070 
  263.8750     2.2740    -7.5870    72.1610    61.0010    57.4810    60.1780    24.7240 
  264.0000     2.2730    -7.7070    72.4570    61.7120    58.2310    60.6650    24.8450 
  264.1250     2.2730    -7.8730    73.3580    62.0910    58.4050    56.6670    24.8880 
  264.2500     2.2760    -8.0770    74.8140    62.5100    58.3680    52.5920    24.9120 
  264.3750     2.2790    -8.3370    76.9560    63.5060    58.8130    52.5270    24.9170 
  264.5000     2.2810    -8.5950    77.1930    65.2110    60.0690    58.3070    24.9340 
  264.6250     2.2800    -8.7690    72.9070    67.5970    62.1500    66.8080    24.9500 
  264.7500     2.2760    -8.9400    66.7230    70.6130    64.9140    72.4870    24.9460 
  264.8750     2.2710    -9.2250    64.1650    74.4940    68.3820    74.0880    24.9370 
  265.0000     2.2620    -9.5070    64.6420    79.4340    72.6390    71.9710    24.9820 
  265.1250     2.2530    -9.7150    64.2630    85.7490    78.0900    70.5090    25.0650 
  265.2500     2.2450    -9.9510    62.7660    93.5600    85.1150    77.0630    25.1270 
  265.3750     2.2430   -10.1790    63.0850   102.5920    93.8260    84.6320    25.0580 
