~V
VERS. 2.00: Ver 2.00
~W
STRT.M 50.0000:
STOP.M 246.0000:
STEP.M 0.1250:
NULL. -999.2500:
UWI. F10164:
~C
DEPT.M :
GR.API :
RML.OHMM :
RI. :
RXO.OHMM :
CALI.CM :
SP.MV :
DEN.GM/CC :
~A
# ...
  162.5000    76.4740    27.0930    27.0500    32.0330    24.9350   -15.9790     2.2260 
  162.6250    81.2610    25.5420    23.7080    25.1740    24.7480   -16.0580     2.2400 
  162.7500    88.3910    24.6590    21.5970    21.2610    24.6640   -16.1920     2.2550 
  162.8750    92.4950    24.3750    20.8310    20.6640    24.6180   -16.4180     2.2690 
  163.0000    90.5670    25.1040    21.2890    22.6220    24.4820   -16.6260     2.2790 
  163.1250    85.1280    26.6510    22.6520    26.6870    24.3690   -16.8000     2.2800 
  163.2500    81.9570    27.8750    24.0550    31.5050    24.3170   -17.0130     2.2770 
  163.3750    82.2920    28.1550    24.8120    34.5520    24.2840   -17.2450     2.2720 
  163.5000    83.4470    27.3160    24.5400    32.1900    24.1870   -17.5110     2.2690 
  163.6250    83.9610    25.7290    23.3110    25.1440    24.0010   -17.8890     2.2710 
  163.7500    87.3650    24.3370    21.9340    20.1430    23.9050   -18.2160     2.2730 
  163.8750    93.2050    23.7840    21.0210    18.8810    23.8730   -18.4870     2.2760 
  164.0000    96.2860    24.4420    20.9790    20.2340    23.7360   -18.7990     2.2750 
  164.1250    94.1130    26.7080    22.2190    22.3910    23.4730   -19.0410     2.2720 
  164.2500    92.1910    30.4300    24.6770    25.2360    23.1880   -19.2870     2.2700 
  164.3750    91.4820    35.7150    28.4540    29.6970    22.9700   -19.6420     2.2730 
  164.5000    90.5500    42.7600    33.7150    35.7380    22.9030   -20.0010     2.2810 
  164.6250    89.5450    52.3270    41.0990    42.8800    22.9030   -20.3210     2.2950 
  164.7500    89.2370    64.6010    50.7740    53.7520    22.9070   -20.7360     2.3090 
  164.8750    89.2020    80.0500    63.1430    73.0450    22.9220   -21.1740     2.3150 
  165.0000    88.6780    98.9080    78.3940    97.5500    22.9990   -21.5880     2.3070 
  165.1250    85.9640   121.0720    96.4300   120.1720    23.1760   -22.1220     2.2840 
  165.2500    80.8890   143.9830   115.1810   141.8980    23.3180   -22.6470     2.2550 
  165.3750    76.3180   164.3150   132.0940   156.0290    23.2780   -23.0800     2.2280 
  165.5000    75.3810   178.2390   144.2900   163.4780    23.0990   -23.5100     2.2100 
  165.6250    76.1510   181.4900   148.4960   165.8470    22.9980   -23.8780     2.2080 
  165.7500    75.3570   176.1960   146.0980   158.2110    22.9790   -24.1390     2.2180 
  165.8750    74.6600   165.4700   139.2570   139.9080    23.0360   -24.3770     2.2330 
  166.0000    77.2990   152.9720   130.7370   125.3280    23.1390   -24.6030     2.2490 
  166.1250    81.8420   141.7160   123.0170   125.7270    23.1210   -24.7590     2.2560 
  166.2500    85.2050   132.5170   116.9720   132.4320    23.0610   -24.8990     2.2550 
  166.3750    86.6090   125.2460   112.5830   139.2090    23.0070   -25.0260     2.2480 
  166.5000    85.4790   119.5140   109.5530   145.6390    23.0430   -25.1400     2.2430 
  166.6250    83.9370   114.8440   107.5350   148.8950    23.4040   -25.3320     2.2420 
  166.7500    84.4200   109.9160   105.4040   133.6590    24.1310   -25.5180     2.2410 
  166.8750    84.6010   103.2110   101.6630   105.6910    24.8930   -25.7000     2.2320 
  167.0000    82.0500    93.5320    94.8110    96.8350    25.4290   -25.8910     2.2100 
  167.1250    78.6050    80.8870    84.0480   111.7600    25.6250   -25.9530     2.1810 
  167.2500    78.0130    68.0650    71.8040   116.3670    25.6800   -25.9400     2.1630 
  167.3750    79.2260    57.6650    60.7350    80.5720    25.6930   -25.9580     2.1660 
  167.5000    80.8600    51.5860    53.1570    43.8520    25.5350   -25.9150     2.1880 
  167.6250    84.5880    51.6160    51.3960    33.0720    25.1470   -25.8240     2.2120 
  167.7500    87.7490    56.9420    55.2190    35.5110    25.0950   -25.8540     2.2210 
  167.8750    87.9110    67.1060    64.6230    43.5810    25.3030   -25.8850     2.2130 
  168.0000    84.6030    80.9830    78.8390    49.4300    25.4210   -25.8540     2.1980 
  168.1250    80.4160    96.2990    95.7040    50.8660    25.3580   -25.9370     2.1930 
  168.2500    80.2420   109.8430   111.1530    50.1580    25.1790   -26.0430     2.2010 
  168.3750    82.7500   120.0560   122.7730    49.6820    24.8900   -26.1040     2.2180 
  168.5000    83.6640   127.3960   130.4070    53.6680    24.6500   -26.2510     2.2360 
  168.6250    81.3540   134.2910   136.2070    63.1300    24.4180   -26.4140     2.2490 
  168.7500    79.8490   143.4380   143.4590    76.2800    24.1700   -26.5350     2.2590 
  168.8750    78.6020   156.0230   153.7380    91.1070    24.0140   -26.6960     2.2670 
  169.0000    74.1230   171.9950   167.1860   102.3440    24.0470   -26.9040     2.2700 
  169.1250    68.4570   190.8660   183.2440    96.9520    24.1430   -27.1730     2.2570 
  169.2500    64.9430   211.7640   201.0200    94.1570    24.1390   -27.4720     2.2260 
  169.3750    63.4640   235.6620   221.5780   112.3340    24.1780   -27.7110     2.1840 
  169.5000    63.7540   264.8340   247.4240   160.8540    24.3290   -27.8810     2.1460 
  169.6250    65.4130   303.2130   282.8620   244.6700    24.3960   -28.0130     2.1300 
  169.7500    66.5060   348.6630   326.2040   302.1130    24.2210   -28.0940     2.1320 
  169.8750    67.0810   393.5250   370.8940   298.3500    24.0190   -28.2070     2.1410 
  170.0000    67.3020   422.8910   403.7510   278.0850    23.7350   -28.3020     2.1470 
  170.1250    65.8120   414.0310   403.3940   257.8870    23.5990   -28.2130     2.1510 
  170.2500    64.2110   369.5370   368.8160   203.4060    23.6090   -28.1520     2.1620 
  170.3750    65.9780   303.8270   310.1360   122.4990    23.7420   -28.1640     2.1910 
  170.5000    71.1340   237.1740   245.1620    66.8110    23.6830   -28.1430     2.2340 
  170.6250    74.5060   187.1090   192.0140    44.0250    23.5790   -28.2020     2.2770 
  170.7500    75.4800   154.4500   155.1440    36.9150    23.5790   -28.2710     2.3010 
  170.8750    75.0830   136.2300   133.2230    41.5920    23.8440   -28.1800     2.2970 
  171.0000    74.1990   128.6350   122.8760    58.8370    24.1570   -28.0880     2.2690 
  171.1250    75.2100   129.1120   121.5280    86.4710    24.3340   -28.1610     2.2310 
  171.2500    76.0060   133.4200   124.5930   110.2490    24.5820   -28.1030     2.2020 
  171.3750    74.3660   139.1660   129.5490   127.0360    25.1080   -28.0090     2.1870 
  171.5000    71.4720   144.3500   134.2630   137.4010    25.8080   -27.9600     2.1880 
  171.6250    72.9830   147.3170   136.9270   143.5120    26.2710   -27.7430     2.2000 
  171.7500    76.8180   148.1590   137.4570   151.3890    26.4450   -27.5110     2.2180 
  171.8750    77.5490   147.3600   136.2550   155.0400    26.4810   -27.3250     2.2390 
  172.0000    75.5030   145.5380   133.9250   149.1550    26.4480   -27.0570     2.2570 
  172.1250    72.6880   143.0790   130.8800   142.5060    26.4040   -26.7150     2.2660 
  172.2500    68.6450   140.2810   127.4850   142.2890    26.3790   -26.4160     2.2630 
  172.3750    65.6140   137.2190   123.8670   143.0230    26.4370   -26.1120     2.2520 
  172.5000    67.3020   133.9160   120.1200   140.0800    26.5540   -25.8180     2.2390 
  172.6250    71.5130   130.1930   116.1770   129.9940    26.5560   -25.5310     2.2340 
  172.7500    72.4860   125.9010   111.8720   117.4180    26.3580   -25.1920     2.2370 
  172.8750    72.2820   121.0200   107.1020   111.7160    26.1070   -24.8810     2.2450 
  173.0000    73.6040   115.8910   102.0450   114.9240    25.9130   -24.5600     2.2530 
  173.1250    74.2550   111.4260    97.3680   112.9820    25.8170   -24.1560     2.2570 
  173.2500    73.5440   108.4540    93.8270    99.5510    25.7620   -23.8000     2.2580 
  173.3750    73.6000   107.5050    91.9760    90.3900    25.7710   -23.4040     2.2580 
  173.5000    76.4900   108.5800    91.9510    93.1330    25.8430   -22.9060     2.2600 
  173.6250    80.5280   111.0370    93.3850   102.5900    25.8700   -22.5110     2.2650 
