~V
VERS. 2.00: Ver 2.00
~W
STRT.M 59.0000:
STOP.M 216.0000:
STEP.M 0.1250:
NULL. -999.2500:
UWI. F10129:
~C
DEPT.M :
GR.API :
RML.OHMM :
RI. :
RXO.OHMM :
CALI.CM :
DEN.GM/CC :
SP.MV :
~A
   59.0000    60.0380     5.2060     0.8380     1.3770    25.8330     1.9680  -999.2500 
   59.1250    60.6400     5.3950     0.8170     1.3670    25.8330     1.9380  -999.2500 
   59.2500    60.1790     5.6920     0.8260     1.3270    25.8320     1.8670  -999.2500 
   59.3750    59.3660     6.0140     0.8560     1.2600    25.8240     1.7760  -999.2500 
   59.5000    58.2820     6.2390     0.8890     1.2580    25.7970     1.7180  -999.2500 
   59.6250    54.6680     6.2440     0.8980     1.1990    25.7470     1.7590  -999.2500 
   59.7500    49.6390     6.0560     0.8790     1.0760    25.7190     1.8860     0.0000 
   59.8750    47.9200     5.7470     0.8410     1.0260    25.7140     2.0380     0.0000 
   60.0000    49.3920     5.4240     0.8000     1.1270    25.7190     2.1450     0.0000 
   60.1250    51.6330     5.2180     0.7720     1.3070    25.7220     2.1530     0.0000 
   60.2500    55.6280     5.1610     0.7640     1.3260    25.7240     2.1050     0.0000 
   60.3750    60.5300     5.2250     0.7710     1.3230    25.7250     2.0490     0.0000 
   60.5000    62.8980     5.3300     0.7830     1.3370    25.7170     2.0200   185.0470 
   60.6250    61.6190     5.3330     0.7770     1.3250    25.7100     2.0190   187.5660 
   60.7500    61.3350     5.1500     0.7500     1.3270    25.7170     2.0260   190.0950 
   60.8750    62.6780     4.7930     0.7090     1.3910    25.7490     2.0280   195.2990 
   61.0000    63.4050     4.3720     0.6720     1.4930    25.8010     2.0260   201.1190 
   61.1250    64.5630     4.0620     0.6550     1.5490    25.8070     2.0240   200.1510 
   61.2500    67.8440     3.9270     0.6600     1.5540    25.7680     2.0260   198.4190 
   61.3750    70.7100     3.9330     0.6770     1.5240    25.7180     2.0300   196.2360 
   61.5000    69.1930     3.9860     0.6960     1.4550    25.6820     2.0330   193.7460 
   61.6250    65.9660     3.9820     0.7040     1.3530    25.6490     2.0330   190.9700 
   61.7500    65.8570     3.9080     0.7010     1.2770    25.6310     2.0330   187.9140 
   61.8750    66.3800     3.8000     0.6910     1.1020    25.6330     2.0360   181.9480 
   62.0000    64.4090     3.6980     0.6820     0.9120    25.6460     2.0460   174.9050 
   62.1250    61.9470     3.6200     0.6780     0.7950    25.6040     2.0630   174.0650 
   62.2500    62.1520     3.5510     0.6790     0.7240    25.5000     2.0850   176.1290 
   62.3750    61.7660     3.4760     0.6810     0.6950    25.3840     2.1100   182.3950 
   62.5000    57.3710     3.3920     0.6820     0.7160    25.3350     2.1340   184.9360 
   62.6250    49.9200     3.3140     0.6810     0.7980    25.3340     2.1470   185.6490 
   62.7500    44.3340     3.2530     0.6810     0.9230    25.2810     2.1420   185.5330 
   62.8750    44.3080     3.2190     0.6840     1.0430    25.1550     2.1190   184.5210 
   63.0000    49.1060     3.2290     0.6910     1.1520    25.0190     2.0840   182.4350 
   63.1250    53.5850     3.3460     0.7050     1.2310    24.9450     2.0510   178.5980 
   63.2500    53.4190     3.6250     0.7240     1.3060    24.9230     2.0330   170.6300 
   63.3750    49.3190     4.1170     0.7490     1.3580    24.9170     2.0280   157.0690 
   63.5000    46.3430     4.8370     0.7730     1.3800    24.9130     2.0300   146.0320 
   63.6250    47.1750     5.7700     0.7890     1.3740    24.9110     2.0270   135.6140 
   63.7500    49.3570     6.8270     0.7970     1.3650    24.9120     2.0180   125.1500 
   63.8750    50.6800     7.8870     0.8000     1.3550    24.9150     2.0070   114.9120 
   64.0000    50.3910     8.5940     0.8020     1.3570    24.9130     2.0000   105.4310 
   64.1250    49.0500     8.2590     0.8040     1.3690    24.9010     1.9980    97.4400 
   64.2500    47.0290     6.9520     0.8060     1.4140    24.8800     1.9970    90.7790 
   64.3750    44.9840     5.2220     0.8050     1.4460    24.8640     1.9940    85.4400 
   64.5000    43.8040     3.7420     0.8030     1.4720    24.8580     1.9880    81.3190 
   64.6250    44.2750     2.9370     0.7960     1.4950    24.8500     1.9810    78.4980 
   64.7500    44.5140     2.5810     0.7700     1.5120    24.8280     1.9760    76.5940 
   64.8750    43.2770     2.3760     0.6980     1.5300    24.8040     1.9740    75.3080 
   65.0000    44.5690     2.0570     0.5620     1.5530    24.7810     1.9820    74.2070 
   65.1250    48.9170     1.5150     0.3800     1.5880    24.7530     2.0060    72.8130 
   65.2500    49.7240     0.9310     0.2200     1.6160    24.7370     2.0520    70.8140 
   65.3750    45.9830     0.4600     0.1120     1.6740    24.7830     2.1290    67.7140 
   65.5000    42.4890     0.1690     0.0560     1.9430    24.8740     2.2370    62.9870 
   65.6250    43.0700     0.0870     0.0480     2.8880    25.0830     2.3490    56.2920 
   65.7500    46.1400     0.1770     0.0890     4.6650    25.5550     2.4100    48.3360 
   65.8750    52.1690     0.4690     0.2120     6.4110    26.5280     2.3810    39.5220 
   66.0000    59.6200     1.0390     0.4830     6.9920    28.1890     2.2550    30.2160 
   66.1250    63.3240     2.0630     1.0730     6.5960    30.2680     2.0810    20.7740 
   66.2500    64.0700     3.5050     2.0640     5.9340    31.1520     1.9450    11.6360 
   66.3750    63.9860     5.1650     3.4360     6.0770    30.1700     1.8970     3.3500 
   66.5000    62.2080     6.6550     4.9670     7.4180    28.2590     1.9370    -3.4890 
   66.6250    60.0990     7.5120     6.2550     9.4790    26.7440     2.0280    -8.4930 
   66.7500    60.1370     7.8120     7.1090    10.0660    25.9830     2.1130   -12.3420 
   66.8750    61.7060     7.7990     7.5220     9.9000    25.7230     2.1660   -15.3960 
   67.0000    61.9820     7.7200     7.5920     9.4010    25.6370     2.1880   -17.8960 
   67.1250    60.5000     7.7130     7.4580     9.1630    25.5790     2.1880   -19.9030 
   67.2500    58.6640     7.7780     7.3080     9.0810    25.5710     2.1800   -21.5140 
   67.3750    57.5470     7.8980     7.2270     9.1050    25.6390     2.1720   -22.7730 
   67.5000    59.5630     8.0690     7.2340     9.0900    25.7090     2.1680   -23.7410 
   67.6250    64.2090     8.3000     7.3060     9.2100    25.6650     2.1660   -24.4410 
   67.7500    66.7900     8.5450     7.3840     9.2230    25.6500     2.1620   -24.9520 
   67.8750    66.4840     8.7440     7.4390     9.1890    25.7760     2.1530   -25.3560 
   68.0000    65.3760     8.8590     7.4590     9.0740    25.9990     2.1460   -25.7130 
   68.1250    65.8860     8.8810     7.4400     9.0420    26.2210     2.1470   -26.0060 
   68.2500    66.3720     8.8530     7.3900     8.8490    26.2240     2.1560   -26.2360 
   68.3750    65.5790     8.8000     7.3150     8.6010    26.2050     2.1600   -26.3970 
   68.5000    63.5670     8.7430     7.2260     8.5540    26.6530     2.1510   -26.5100 
   68.6250    62.5320     8.7050     7.1510     8.1930    27.5210     2.1240   -26.5790 
   68.7500    62.7200     8.6980     7.1110     8.1900    28.0060     2.0970   -26.6340 
   68.8750    63.2650     8.7240     7.1160     8.4820    27.7770     2.0870   -26.6990 
   69.0000    64.6020     8.7710     7.1590     8.7670    27.0710     2.0970   -26.7260 
   69.1250    66.0040     8.8240     7.2230     9.3020    26.3590     2.1200   -26.6680 
   69.2500    64.6940     8.8620     7.2790     9.8810    26.0520     2.1360   -26.5790 
   69.3750    61.1310     8.8760     7.3080    10.0680    26.1860     2.1370   -26.5080 
   69.5000    58.5710     8.8560     7.3000     9.6520    26.4780     2.1260   -26.4840 
   69.6250    59.0280     8.8030     7.2560     9.3260    26.5610     2.1160   -26.4770 
   69.7500    59.6860     8.7400     7.1990     9.4270    26.3960     2.1170   -26.4840 
   69.8750    61.4560     8.6910     7.1500     9.3090    26.1870     2.1300   -26.5150 
   70.0000    64.7640     8.6760     7.1240     8.9100    26.1030     2.1500   -26.6010 
   70.1250    66.2400     8.6980     7.1240     8.5720    26.2470     2.1660   -26.7790 
