~V
VERS. 2.00: Ver 2.00
~W
STRT.M 40.0000:
STOP.M 206.0000:
STEP.M 0.1250:
NULL. -999.2500:
UWI. F10149:
~C
DEPT.M :
SP.MV :
DEN.GM/CC :
GR.API :
RML.OHMM :
RI. :
RXO.OHMM :
CALI.CM :
~A
# ...
   51.2500  -999.2500  -999.2500  -999.2500  -999.2500  -999.2500  -999.2500  -999.2500 
   51.3750  -999.2500  -999.2500  -999.2500  -999.2500  -999.2500  -999.2500  -999.2500 
   51.5000  -999.2500  -999.2500  -999.2500  -999.2500  -999.2500  -999.2500  -999.2500 
   51.6250  -999.2500  -999.2500  -999.2500  -999.2500  -999.2500  -999.2500  -999.2500 
   51.7500  -999.2500  -999.2500  -999.2500  -999.2500  -999.2500  -999.2500  -999.2500 
   51.8750  -999.2500  -999.2500  -999.2500  -999.2500  -999.2500  -999.2500  -999.2500 
   52.0000  -999.2500  -999.2500  -999.2500  -999.2500  -999.2500  -999.2500  -999.2500 
   52.1250  -999.2500  -999.2500  -999.2500  -999.2500  -999.2500  -999.2500  -999.2500 
   52.2500  -999.2500  -999.2500  -999.2500  -999.2500  -999.2500  -999.2500  -999.2500 
   52.3750  -999.2500  -999.2500  -999.2500  -999.2500  -999.2500  -999.2500  -999.2500 
   52.5000  -999.2500  -999.2500  -999.2500  -999.2500  -999.2500  -999.2500  -999.2500 
   52.6250  -999.2500  -999.2500  -999.2500  -999.2500  -999.2500  -999.2500  -999.2500 
   52.7500  -999.2500  -999.2500  -999.2500  -999.2500  -999.2500  -999.2500  -999.2500 
   52.8750  -999.2500  -999.2500  -999.2500  -999.2500  -999.2500  -999.2500  -999.2500 
   53.0000  -999.2500  -999.2500  -999.2500  -999.2500  -999.2500  -999.2500  -999.2500 
   53.1250  -999.2500  -999.2500  -999.2500  -999.2500  -999.2500  -999.2500  -999.2500 
   53.2500  -999.2500  -999.2500  -999.2500  -999.2500  -999.2500  -999.2500  -999.2500 
   53.3750  -999.2500  -999.2500  -999.2500  -999.2500  -999.2500  -999.2500  -999.2500 
   53.5000     0.0000  -999.2500  -999.2500  -999.2500  -999.2500  -999.2500  -999.2500 
   53.6250     0.0000  -999.2500  -999.2500  -999.2500  -999.2500  -999.2500  -999.2500 
   53.7500     0.0000  -999.2500  -999.2500  -999.2500  -999.2500  -999.2500  -999.2500 
   53.8750     0.0000  -999.2500  -999.2500  -999.2500  -999.2500  -999.2500  -999.2500 
   54.0000     0.0000  -999.2500  -999.2500  -999.2500  -999.2500  -999.2500  -999.2500 
   54.1250    80.2950  -999.2500  -999.2500  -999.2500  -999.2500  -999.2500  -999.2500 
   54.2500    80.3460  -999.2500    37.5290   216.3420     0.2700    -0.8390    25.3040 
   54.3750    80.4900  -999.2500    37.5290   216.3420     0.2700    -0.8390    25.3040 
   54.5000    80.7250  -999.2500    36.3650   135.2720     0.2570    -0.8480    25.3040 
   54.6250    81.0330  -999.2500    36.5660    67.1790     0.2380    -0.8810    25.3040 
   54.7500    81.2740  -999.2500    37.6270    41.7700     0.2250    -0.8730    25.3040 
   54.8750    81.3690  -999.2500    38.2570    33.8150     0.2190    -0.8370    25.3040 
   55.0000    81.3290  -999.2500    39.1480    33.2550     0.2160    -0.8440    25.3040 
   55.1250    81.0930  -999.2500    38.8770    29.4650     0.2110    -0.8960    25.3040 
   55.2500    80.7520     1.9310    36.5580    18.4280     0.2060    -0.9380    25.3040 
   55.3750    80.3620     1.9310    34.5940     9.1500     0.2110    -0.9560    25.3040 
   55.5000    79.8580     1.9420    35.3020     4.8500     0.2300    -0.9300    25.3040 
   55.6250    79.2300     1.9500    37.0400     3.3930     0.2520    -0.9050    25.3040 
   55.7500    78.6280     1.9540    37.7860     2.6540     0.2630    -0.8450    25.3040 
   55.8750    78.1830     1.9560    39.4280     2.0750     0.2550    -0.7470    25.3040 
   56.0000    77.9050     1.9580    42.3060     1.5620     0.2340    -0.7680    25.3040 
   56.1250    77.7850     1.9620    45.3450     1.3230     0.2140    -0.8700    25.3040 
   56.2500    77.7280     1.9670    48.5710     1.5640     0.2050    -0.9160    25.3040 
   56.3750    77.6760     1.9730    51.2630     2.6180     0.2060    -0.8890    25.3040 
   56.5000    77.6670     1.9790    52.3310     5.2230     0.2130    -0.8680    25.3040 
   56.6250    77.7080     1.9820    51.4330    12.8720     0.2230    -0.8700    25.3040 
   56.7500    77.7620     1.9820    49.7510    29.0880     0.2360    -0.8910    25.3040 
   56.8750    77.8100     1.9750    47.1370    43.1900     0.2530    -0.8890    25.3040 
   57.0000    77.8870     1.9630    43.1660    40.4180     0.2780    -0.8830    25.3040 
   57.1250    78.0640     1.9470    40.0450    35.6250     0.3050    -0.8740    25.3040 
   57.2500    78.3660     1.9340    39.1490    35.7780     0.3200    -0.8640    25.3040 
   57.3750    78.8330     1.9290    40.6750    39.0090     0.3170    -0.8830    25.3040 
   57.5000    79.4740     1.9320    43.0320    39.4720     0.2990    -0.8930    25.3040 
   57.6250    80.3330     1.9440    44.0720    22.5030     0.2790    -0.8430    25.3020 
   57.7500    81.2890     1.9570    43.5030     7.9240     0.2650    -0.7700    25.3010 
   57.8750    82.2920     1.9670    41.5930     2.5450     0.2550    -0.7250    25.3020 
   58.0000    83.3250     1.9700    39.2750     0.9710     0.2450    -0.7620    25.3000 
   58.1250    84.4100     1.9690    37.2810     0.6920     0.2320    -0.7850    25.2890 
   58.2500    85.5280     1.9670    36.5980     0.7450     0.2260    -0.7890    25.2710 
   58.3750    86.6420     1.9680    36.7930     0.8880     0.2330    -0.8300    25.2540 
   58.5000    87.7200     1.9710    36.5820     1.0760     0.2500    -0.8810    25.2320 
   58.6250    88.6870     1.9740    36.1190     1.4290     0.2710    -0.8950    25.2250 
   58.7500    89.6570     1.9750    36.4870     1.9330     0.2900    -0.8730    25.2440 
   58.8750    90.6510     1.9750    37.8380     2.4060     0.3010    -0.9030    25.2700 
   59.0000    91.7170     1.9770    39.4800     2.5880     0.3030    -0.8890    25.2940 
   59.1250    92.8220     1.9860    40.7480     2.3220     0.2950    -0.8510    25.3120 
   59.2500    93.8600     2.0020    41.3510     1.9090     0.2830    -0.8350    25.3300 
   59.3750    94.7600     2.0220    40.5600     1.6540     0.2710    -0.8790    25.3370 
   59.5000    95.4400     2.0440    38.2460     1.7170     0.2610    -0.9130    25.3350 
   59.6250    95.7820     2.0630    36.6160     1.9670     0.2500    -0.9020    25.3340 
   59.7500    95.7610     2.0760    37.9330     2.0970     0.2390    -0.8110    25.3400 
   59.8750    95.4140     2.0790    42.1180     2.0000     0.2340    -0.6610    25.3520 
   60.0000    94.6590     2.0680    46.9020     1.7170     0.2370    -0.6530    25.3520 
   60.1250    93.4710     2.0440    48.2930     1.3850     0.2490    -0.7670    25.3390 
   60.2500    92.0930     2.0130    46.1000     1.1330     0.2620    -0.7790    25.3360 
   60.3750    90.6230     1.9850    42.9540     0.9940     0.2710    -0.8240    25.3500 
   60.5000    89.1540     1.9660    41.9990     0.9270     0.2760    -0.8910    25.3610 
   60.6250    87.8810     1.9650    44.3710     0.8490     0.2780    -0.8470    25.3600 
   60.7500    86.8410     1.9790    46.5630     0.7520     0.2830    -0.8690    25.3580 
   60.8750    86.0290     2.0030    47.2130     0.6790     0.2900    -0.9230    25.3610 
   61.0000    85.4920     2.0330    47.1710     0.6800     0.2970    -0.9410    25.3610 
   61.1250    85.1420     2.0610    46.6960     0.7840     0.3020    -0.8920    25.3470 
   61.2500    84.7100     2.0820    46.8320     0.9410     0.3040    -0.8360    25.3360 
   61.3750    84.0820     2.0910    48.0800     1.0850     0.3030    -0.7390    25.3430 
   61.5000    83.2400     2.0870    48.5500     1.1400     0.2960    -0.7510    25.3540 
   61.6250    82.0260     2.0690    46.6360     1.0400     0.2860    -0.6090    25.3540 
   61.7500    80.3680     2.0430    44.3890     0.8400     0.2760    -0.6340    25.3490 
   61.8750    78.1320     2.0160    44.4830     0.5920     0.2660    -0.7480    25.3520 
   62.0000    75.2070     1.9900    46.1080     0.3530     0.2560    -0.8430    25.3540 
   62.1250    71.4780     1.9720    46.2550     0.1920     0.2430    -0.8350    25.3460 
   62.2500    67.1170     1.9720    44.3640     0.1120     0.2190    -0.7880    25.3410 
   62.3750    62.0790     2.0080    41.6720     0.0790     0.1850    -0.7290    25.3400 
