~V
VERS. 2.00: Ver 2.00
~W
STRT.M 62.0000:
STOP.M 235.0000:
STEP.M 0.1250:
NULL. -999.2500:
UWI. F10157:
~C
DEPT.M :
SP.MV :
DEN.GM/CC :
GR.API :
RML.OHMM :
RI. :
RXO.OHMM :
CALI.CM :
~A
   62.0000    59.0530     2.0980    45.1120     1.7240     1.1510     0.4040    25.5640 
   62.1250    54.9000     2.1030    45.6000     1.1240     0.8470     0.4010    25.5650 
   62.2500    50.1910     2.1100    46.8130     0.5180     0.5460     0.4570    25.5650 
   62.3750    44.9910     2.1370    48.4840     0.1150     0.3210     0.5900    25.5640 
   62.5000    39.4100     2.2230    52.1440    -0.0900     0.1820     0.7630    25.5610 
   62.6250    33.6430     2.4020    56.2840    -0.1610     0.1140     1.1640    25.5560 
   62.7500    27.9250     2.5480    55.8040    -0.1850     0.0850     1.8460    25.5480 
   62.8750    22.4370     2.5490    51.7200    -0.1760     0.0940     2.8240    25.5400 
   63.0000    17.3260     2.4290    49.5610    -0.1170     0.1530     5.4420    25.5300 
   63.1250    12.7700     2.2530    51.8950     0.0500     0.3170     5.8700    25.5210 
   63.2500     8.7950     2.0830    53.3600     0.3840     0.6450     6.0370    25.5140 
   63.3750     5.4230     1.9410    52.5320     0.9630     1.2250     5.9020    25.5090 
   63.5000     2.6520     1.8350    52.3520     1.8200     2.1100     6.0350    25.5060 
   63.6250     0.5510     1.7770    56.9870     2.8000     3.2090     6.0110    25.5030 
   63.7500    -1.0950     1.7710    66.5000     3.5160     4.1720     6.2350    25.4980 
   63.8750    -2.3690     1.8310    77.3530     3.7680     4.7470     7.2700    25.4890 
   64.0000    -3.3910     1.9570    85.5720     3.6570     4.9120     8.2440    25.4650 
   64.1250    -4.2860     2.1040    88.8610     3.4370     4.8340     6.3090    25.4200 
   64.2500    -5.1870     2.1960    89.4450     3.3110     4.7690     5.7000    25.3600 
   64.3750    -6.1340     2.2170    90.7610     3.3320     4.8260     6.2930    25.2980 
   64.5000    -7.1130     2.2030    92.2240     3.5080     5.0460     6.6650    25.2460 
   64.6250    -8.0320     2.1890    89.1960     3.8490     5.4570     7.0010    25.2120 
   64.7500    -8.7970     2.1790    82.3000     4.3040     5.9950     7.7880    25.1960 
   64.8750    -9.3330     2.1660    76.5290     4.8310     6.6070     8.1820    25.2010 
   65.0000    -9.5740     2.1500    74.9620     5.3840     7.2490     8.0640    25.2270 
   65.1250    -9.4230     2.1390    74.8630     5.9160     7.8820     8.6040    25.2720 
   65.2500    -8.9510     2.1370    73.3020     6.3330     8.4150     9.6130    25.3180 
   65.3750    -8.1860     2.1500    72.3770     6.5080     8.7070    10.2700    25.3610 
   65.5000    -7.1880     2.1890    73.9600     6.3450     8.6260    10.4770    25.3950 
   65.6250    -6.0780     2.2570    77.5560     5.8260     8.0820    10.8730    25.4290 
   65.7500    -4.9750     2.3190    81.8800     5.1700     7.2860     9.6950    25.4600 
   65.8750    -3.9810     2.3420    86.3080     4.5440     6.4430     6.6780    25.4850 
   66.0000    -3.1790     2.3110    91.1090     4.0510     5.7220     4.7470    25.4990 
   66.1250    -2.6280     2.2480    95.3590     3.7370     5.2280     3.9750    25.5060 
   66.2500    -2.3090     2.2010    98.3320     3.5240     4.8970     3.9620    25.5060 
   66.3750    -2.2070     2.1860    99.7720     3.3650     4.6670     4.0740    25.5050 
   66.5000    -2.2980     2.1940   100.3860     3.2490     4.4970     4.1510    25.5010 
   66.6250    -2.6150     2.1860    99.6340     3.2630     4.4480     4.1120    25.4950 
   66.7500    -3.1140     2.1510    96.8630     3.5270     4.6330     4.0990    25.4870 
   66.8750    -3.8180     2.1090    93.1530     4.1870     5.2040     4.3910    25.4800 
   67.0000    -4.7380     2.0970    87.8280     5.3880     6.3000     6.5110    25.4720 
   67.1250    -5.8920     2.1710    79.6180     7.2630     8.0410    12.8060    25.4610 
   67.2500    -7.2020     2.3070    70.1780     9.3980    10.0460    19.4390    25.4460 
   67.3750    -8.5950     2.4300    62.6120    11.0570    11.6950    17.8790    25.4160 
   67.5000    -9.9840     2.4610    59.6150    11.4800    12.3380    15.4550    25.3630 
   67.6250   -11.2780     2.3950    59.8890    10.5390    11.7320    12.5550    25.2820 
   67.7500   -12.4390     2.3090    60.2890     9.2860    10.6750    10.9630    25.1850 
   67.8750   -13.4360     2.2470    60.0650     8.3070     9.7120    10.5510    25.0790 
   68.0000   -14.2530     2.2260    60.8850     7.7820     9.0920    10.9270    24.9750 
   68.1250   -14.8810     2.2370    64.2590     7.6970     8.8700    10.2700    24.8900 
   68.2500   -15.3510     2.2480    66.6750     7.8370     8.8730     9.3020    24.8300 
   68.3750   -15.6840     2.2430    66.9140     8.0670     8.9810     8.9820    24.7960 
   68.5000   -15.9110     2.2260    65.9800     8.2630     9.0750     9.1950    24.7850 
   68.6250   -16.0190     2.2110    64.2490     8.3190     9.0510     9.4610    24.7820 
   68.7500   -16.0650     2.2020    62.7110     8.2490     8.9060     9.3360    24.7780 
   68.8750   -16.0730     2.1950    62.3560     8.1080     8.6770     8.8750    24.7700 
   69.0000   -16.0760     2.1880    63.7690     7.9780     8.4260     8.6900    24.7570 
   69.1250   -16.1190     2.1840    66.7420     7.9410     8.2320     8.6800    24.7420 
   69.2500   -16.1860     2.1850    67.7150     8.0220     8.1440     8.8360    24.7290 
   69.3750   -16.2850     2.1910    65.4850     8.2480     8.1940     9.1320    24.7230 
   69.5000   -16.4150     2.2000    62.7730     8.6350     8.3890     9.4190    24.7240 
   69.6250   -16.5410     2.2090    63.2370     9.1890     8.7240     9.7360    24.7220 
   69.7500   -16.6790     2.2190    64.3960     9.8220     9.1180    10.1010    24.7090 
   69.8750   -16.8140     2.2240    64.0620    10.4220     9.4940    10.2890    24.6830 
   70.0000   -16.9410     2.2200    63.0820    10.8570     9.7660    10.3390    24.6450 
   70.1250   -17.0880     2.2030    62.5640    10.9890     9.8400     9.8710    24.6000 
   70.2500   -17.2420     2.1800    61.3400    10.8860     9.7500     9.3870    24.5480 
   70.3750   -17.4020     2.1610    59.5470    10.6520     9.5540     9.1840    24.4980 
   70.5000   -17.5540     2.1520    59.1370    10.4010     9.3280     9.2940    24.4550 
   70.6250   -17.6910     2.1530    61.2820    10.2460     9.1500     9.3250    24.4270 
   70.7500   -17.8030     2.1560    62.9250    10.1980     9.0450     9.2760    24.4110 
   70.8750   -17.8860     2.1570    62.3480    10.2260     9.0010     9.2990    24.4010 
   71.0000   -17.9480     2.1560    60.6260    10.2860     8.9920     9.4570    24.3950 
   71.1250   -17.9990     2.1560    60.4630    10.3370     8.9960     9.5570    24.3900 
   71.2500   -18.0640     2.1560    60.8840    10.3320     8.9810     9.7010    24.3920 
   71.3750   -18.1580     2.1540    60.6190    10.2240     8.9060     9.9350    24.4020 
   71.5000   -18.2860     2.1500    61.1730     9.9820     8.7360    10.2150    24.4180 
   71.6250   -18.4530     2.1460    63.3170     9.6320     8.4710    10.2070    24.4450 
   71.7500   -18.6310     2.1420    63.9870     9.3310     8.2190    10.4110    24.4850 
   71.8750   -18.8090     2.1390    63.0590     9.2570     8.1110    10.5590    24.5500 
   72.0000   -18.9790     2.1400    65.1180     9.5620     8.2690    10.5090    24.6450 
   72.1250   -19.0970     2.1660    72.1170    10.3490     8.8050    12.0950    24.7500 
   72.2500   -19.1750     2.2340    76.0820    11.3830     9.5840    17.5350    24.8410 
   72.3750   -19.2110     2.3440    72.8660    12.3390    10.3930    31.9740    24.9060 
   72.5000   -19.2040     2.4550    66.4840    12.8280    10.9280    41.3230    24.9410 
   72.6250   -19.1740     2.4890    63.1580    12.5020    10.8580    28.3100    24.9380 
   72.7500   -19.1150     2.4420    62.0000    11.6700    10.3310    15.3280    24.9070 
   72.8750   -19.0480     2.3550    60.2970    10.7290     9.6160    11.1280    24.8550 
   73.0000   -18.9980     2.2720    58.2840    10.0030     8.9800    10.4620    24.7990 
   73.1250   -18.9820     2.2220    59.8300     9.6770     8.6160    10.5810    24.7690 
