~V
VERS. 2.00: Ver 2.00
~W
STRT.M 40.0000:
STOP.M 206.0000:
STEP.M 0.1250:
NULL. -999.2500:
UWI. F10149:
~C
DEPT.M :
SP.MV :
DEN.GM/CC :
GR.API :
RML.OHMM :
RI. :
RXO.OHMM :
CALI.CM :
~A
# ...
  118.7500   -12.1370     2.4580    45.1570    33.9060    29.8720    29.4340    24.4760 
  118.8750   -12.1900     2.4330    46.1580    33.2700    29.1570    29.5130    24.4970 
  119.0000   -12.2380     2.4260    47.1100    33.4420    29.0710    29.4970    24.5260 
  119.1250   -12.3030     2.4360    45.2480    34.0230    29.3630    29.8390    24.5570 
  119.2500   -12.3810     2.4570    43.4610    34.5180    29.6620    30.9800    24.5290 
  119.3750   -12.4500     2.4820    43.7690    34.7060    29.7980    31.9680    24.4720 
  119.5000   -12.5370     2.5020    45.3500    34.5630    29.7320    31.0720    24.4490 
  119.6250   -12.5670     2.5060    44.6540    34.2300    29.5200    28.8380    24.4850 
  119.7500   -12.5700     2.4950    42.3210    34.0460    29.3670    27.7540    24.5210 
  119.8750   -12.5730     2.4740    41.2810    34.3120    29.4760    28.2920    24.4930 
  120.0000   -12.5490     2.4530    41.0170    35.1230    29.9740    30.0740    24.4240 
  120.1250   -12.4800     2.4430    40.3820    36.2180    30.7630    30.6110    24.3840 
  120.2500   -12.4110     2.4430    38.4530    36.9790    31.3740    29.7680    24.3840 
  120.3750   -12.3240     2.4450    36.4280    36.9010    31.3770    29.6380    24.4630 
  120.5000   -12.2070     2.4420    35.3810    35.8110    30.5590    31.6470    24.5560 
  120.6250   -12.0960     2.4300    35.3660    34.0280    29.0400    31.5020    24.5850 
  120.7500   -11.9410     2.4200    36.4930    32.2880    27.4190    27.7750    24.5470 
  120.8750   -11.7370     2.4240    37.5960    30.8410    26.0250    25.2240    24.4550 
  121.0000   -11.5420     2.4480    38.5200    29.5480    24.9160    25.8010    24.3490 
  121.1250   -11.3510     2.4900    39.0820    28.1080    23.9450    26.6260    24.2810 
  121.2500   -11.1300     2.5320    39.8150    26.4090    22.9130    26.4850    24.2660 
  121.3750   -10.9180     2.5600    41.9430    24.5570    21.7760    24.1990    24.3250 
  121.5000   -10.6690     2.5680    44.3310    22.8360    20.6260    20.8390    24.4590 
  121.6250   -10.3910     2.5610    46.1710    21.6060    19.6530    19.8810    24.5960 
  121.7500   -10.1500     2.5510    46.7390    20.8120    18.8880    21.2140    24.6560 
  121.8750    -9.9590     2.5430    46.1570    20.2280    18.2460    22.6240    24.6670 
  122.0000    -9.7590     2.5400    44.5900    19.5810    17.6010    21.5740    24.6610 
  122.1250    -9.5760     2.5360    42.3570    18.6660    16.8770    19.9840    24.6490 
  122.2500    -9.4700     2.5310    40.9500    17.5890    16.1310    18.0600    24.6410 
  122.3750    -9.3860     2.5250    41.0980    16.5750    15.4600    17.0610    24.6280 
  122.5000    -9.3510     2.5250    42.0520    15.8440    14.9680    16.6040    24.5990 
  122.6250    -9.3670     2.5360    42.4100    15.5550    14.7680    16.6490    24.5430 
  122.7500    -9.3930     2.5520    41.4340    15.6030    14.8370    16.4040    24.4670 
  122.8750    -9.4240     2.5650    40.7310    15.9640    15.1520    15.6100    24.4010 
  123.0000    -9.4970     2.5660    40.9090    16.6480    15.6730    15.6620    24.3840 
  123.1250    -9.6110     2.5450    42.0500    17.6250    16.3480    16.6840    24.4470 
  123.2500    -9.6800     2.5060    44.5410    18.6480    17.0600    18.2370    24.5340 
  123.3750    -9.7580     2.4540    46.9110    19.4900    17.6980    19.9840    24.5870 
  123.5000    -9.8880     2.4030    47.4160    19.9730    18.1470    21.3540    24.5860 
  123.6250    -9.9780     2.3760    46.7870    19.9630    18.2700    22.2870    24.5240 
  123.7500   -10.0710     2.3840    46.2710    19.6160    18.1310    20.9250    24.4290 
  123.8750   -10.1640     2.4190    45.9280    19.1250    17.8580    19.8700    24.3580 
  124.0000   -10.2170     2.4600    44.5080    18.7350    17.6070    19.6680    24.3490 
  124.1250   -10.2480     2.4730    42.4980    18.7780    17.5470    19.2950    24.4320 
  124.2500   -10.3270     2.4560    41.1880    19.3340    17.7350    18.1760    24.5700 
  124.3750   -10.4060     2.4250    40.3660    20.3120    18.2010    17.8990    24.6850 
  124.5000   -10.4490     2.4030    40.3250    21.4860    18.9000    20.0180    24.7080 
  124.6250   -10.5300     2.4040    41.1900    22.5660    19.7030    23.5610    24.6420 
  124.7500   -10.5830     2.4140    43.0110    23.3990    20.4250    25.0410    24.5660 
  124.8750   -10.6460     2.4190    44.6180    23.9500    20.9610    25.4710    24.5060 
  125.0000   -10.7730     2.4140    44.8100    24.2230    21.2740    25.2250    24.5080 
  125.1250   -10.8920     2.4070    43.7400    24.2190    21.3670    24.9350    24.5480 
  125.2500   -10.9990     2.4120    42.8250    24.0090    21.3210    25.5490    24.5490 
  125.3750   -11.1050     2.4290    45.1540    23.5950    21.1200    26.9500    24.4940 
  125.5000   -11.1880     2.4550    51.1090    22.9760    20.7010    26.9560    24.4630 
  125.6250   -11.2640     2.4820    54.7340    22.1510    20.0120    25.1450    24.5330 
  125.7500   -11.3740     2.5040    52.4630    21.2920    19.2120    22.5620    24.6090 
  125.8750   -11.4650     2.5150    48.5560    20.6150    18.4860    20.5740    24.6100 
  126.0000   -11.4990     2.5060    47.6590    20.3240    18.0180    19.2490    24.5320 
  126.1250   -11.5070     2.4720    46.8970    20.6050    17.9970    18.5600    24.4410 
  126.2500   -11.5140     2.4220    44.9720    21.2920    18.3650    18.9540    24.3870 
  126.3750   -11.5450     2.3690    44.4400    22.1820    19.0250    20.6890    24.4240 
  126.5000   -11.6030     2.3260    45.2450    23.0890    19.8580    22.7380    24.5030 
  126.6250   -11.6790     2.2990    44.6040    23.9610    20.8100    24.4620    24.5450 
  126.7500   -11.7920     2.2820    42.5970    24.8860    21.8600    25.8390    24.5490 
  126.8750   -11.9140     2.2710    40.3190    25.9530    23.0060    28.9180    24.5560 
  127.0000   -12.0540     2.2650    38.5150    27.1700    24.2040    31.7590    24.6040 
  127.1250   -12.2340     2.2730    38.3100    28.2830    25.2670    36.4970    24.6940 
  127.2500   -12.3810     2.2930    39.0230    28.8670    25.9080    37.2120    24.7170 
  127.3750   -12.4730     2.3160    38.9670    28.6260    25.8710    36.7480    24.6250 
  127.5000   -12.5490     2.3260    38.1850    27.5190    25.0880    37.3600    24.4900 
  127.6250   -12.5560     2.3150    39.7000    25.6620    23.6320    40.0510    24.4310 
  127.7500   -12.4940     2.2960    45.5550    23.5030    21.8660    34.6160    24.4570 
  127.8750   -12.3990     2.2860    52.2640    21.3350    20.0040    28.7230    24.4990 
  128.0000   -12.2860     2.2960    54.4210    19.3500    18.1960    25.6450    24.4890 
  128.1250   -12.1600     2.3310    52.0990    17.7290    16.5960    20.0630    24.3680 
  128.2500   -12.0180     2.3760    50.4530    16.5330    15.2980    17.3270    24.2770 
  128.3750   -11.8990     2.4200    50.7870    15.7640    14.3830    16.1980    24.2620 
  128.5000   -11.7980     2.4550    52.0180    15.3140    13.8700    15.5740    24.2900 
  128.6250   -11.7520     2.4730    53.0500    15.0890    13.7740    16.1390    24.3280 
  128.7500   -11.7860     2.4690    55.0930    15.0400    13.9510    17.4400    24.3430 
  128.8750   -11.8560     2.4450    55.4590    15.2380    14.3290    18.3590    24.3690 
  129.0000   -11.9260     2.4120    52.0000    15.7700    14.8650    17.8680    24.4480 
  129.1250   -12.0100     2.3930    46.3400    16.6300    15.5350    18.5920    24.6020 
  129.2500   -12.1310     2.3990    43.7050    17.5320    16.2300    20.0480    24.6750 
  129.3750   -12.2560     2.4270    44.5220    18.2150    16.8150    21.7650    24.6370 
  129.5000   -12.4020     2.4640    45.1280    18.4920    17.1240    24.4310    24.5410 
  129.6250   -12.5610     2.4870    46.1450    18.2650    16.9510    24.1850    24.4900 
  129.7500   -12.6830     2.4900    50.3930    17.7880    16.4070    20.8090    24.5570 
  129.8750   -12.8330     2.4750    56.9320    17.3090    15.6970    17.5910    24.6660 
