~V
VERS. 2.00: Ver 2.00
~W
STRT.M 51.0000:
STOP.M 246.0000:
STEP.M 0.1250:
NULL. -999.2500:
UWI. F10182:
~C
DEPT.M :
SP.MV :
GR.API :
RML.OHMM :
RI. :
RXO.OHMM :
DEN.GM/CC :
CALI.CM :
~A
# ...
  163.5000   -10.0800    60.6750   114.2860   102.8250   134.5840     2.1940    24.2240 
  163.6250   -10.1070    57.6300   134.1620   121.5750   163.9440     2.2020    24.3480 
  163.7500   -10.1520    55.7200   144.5850   132.0770   185.7630     2.2100    24.3540 
  163.8750   -10.1700    56.9780   145.4250   133.5100   171.1520     2.2130    24.2590 
  164.0000   -10.2000    59.8830   141.3240   129.5180   144.6060     2.2130    24.1190 
  164.1250   -10.1890    59.3650   137.4450   124.8130   146.2620     2.2140    23.9990 
  164.2500   -10.1900    54.8240   136.9030   122.6090   135.0350     2.2170    23.9460 
  164.3750   -10.1900    54.2560   139.6450   123.2920   115.4800     2.2170    23.9340 
  164.5000   -10.1550    58.8840   145.2510   126.7080   108.4940     2.2070    23.9400 
  164.6250   -10.1130    63.8670   152.7040   132.1630   127.6530     2.1880    23.9490 
  164.7500   -10.0410    64.0600   160.0160   138.2100   161.5240     2.1700    23.9530 
  164.8750    -9.9870    62.1770   165.0150   142.9810   187.0330     2.1640    23.9570 
  165.0000    -9.9200    61.3210   166.2520   145.2770   182.1220     2.1710    23.9590 
  165.1250    -9.8920    61.5580   162.8170   144.2440   191.9520     2.1860    23.9590 
  165.2500    -9.8400    60.5910   153.7080   138.6990   169.0100     2.2030    23.9630 
  165.3750    -9.8010    59.0260   140.7050   129.5630   154.7830     2.2170    23.9770 
  165.5000    -9.7770    58.9930   125.4560   117.8510   162.0430     2.2300    23.9950 
  165.6250    -9.7550    60.4480   109.8730   105.0240   184.4280     2.2420    23.9730 
  165.7500    -9.7700    61.4460    96.2210    93.0850   161.7690     2.2510    23.9470 
  165.8750    -9.7620    63.2240    85.2880    83.2300   112.0380     2.2540    23.9330 
  166.0000    -9.7630    65.6230    76.8670    75.5340    85.6420     2.2510    23.9350 
  166.1250    -9.7610    66.7460    70.1480    69.3510    76.4380     2.2470    23.9470 
  166.2500    -9.7710    66.4910    64.2490    63.8970    74.4640     2.2490    23.9690 
  166.3750    -9.7990    65.7440    58.3430    58.4240    73.8980     2.2590    24.0200 
  166.5000    -9.8090    64.3600    52.3450    52.7980    70.2460     2.2750    24.1010 
  166.6250    -9.8370    64.1290    46.7780    47.4350    61.2060     2.2870    24.1870 
  166.7500    -9.8600    69.1510    42.7630    43.3510    48.0490     2.2840    24.2090 
  166.8750    -9.9050    75.7190    40.6650    40.9690    39.9060     2.2690    24.1820 
  167.0000    -9.9530    76.6930    40.5640    40.4490    34.2280     2.2500    24.1090 
  167.1250    -9.9810    71.3310    42.2660    41.7190    34.5420     2.2370    24.0550 
  167.2500   -10.0280    66.6770    45.5340    44.7010    43.5930     2.2330    24.0650 
  167.3750   -10.0470    67.1450    49.5470    48.5940    57.6800     2.2340    24.1480 
  167.5000   -10.0730    70.1910    53.8170    52.8110    60.9020     2.2330    24.2710 
  167.6250   -10.0720    70.3710    58.0320    56.8950    57.2390     2.2270    24.3620 
  167.7500   -10.0900    66.4150    61.9760    60.5350    55.3900     2.2200    24.3640 
  167.8750   -10.1030    62.9360    65.4100    63.5890    59.8930     2.2190    24.3170 
  168.0000   -10.1250    63.1640    67.8420    65.6980    65.8990     2.2270    24.2460 
  168.1250   -10.1760    67.6360    68.7270    66.3830    71.9960     2.2430    24.1400 
  168.2500   -10.2000    70.6000    67.7010    65.1990    71.7390     2.2590    24.0580 
  168.3750   -10.2420    69.6450    65.9060    63.0840    63.3950     2.2690    24.0510 
  168.5000   -10.3180    68.0990    64.6890    61.2420    46.5090     2.2700    24.1510 
  168.6250   -10.4180    69.6770    65.2670    60.8710    42.1640     2.2610    24.2820 
  168.7500   -10.5000    72.3630    68.7300    63.1200    59.2210     2.2450    24.3700 
  168.8750   -10.6000    71.7370    74.5730    67.6780    77.3410     2.2300    24.3980 
  169.0000   -10.6820    68.2820    82.1450    74.0490    86.2410     2.2190    24.4000 
  169.1250   -10.7420    64.5600    90.3600    81.2820    95.5370     2.2150    24.4010 
  169.2500   -10.8330    62.8240    97.6280    87.9480    97.7750     2.2190    24.4020 
  169.3750   -10.8920    62.5380   103.0410    93.0550    98.5330     2.2260    24.4030 
  169.5000   -10.9230    62.0910   106.5100    96.3370   101.2160     2.2340    24.4030 
  169.6250   -10.9410    60.0300   108.6450    98.1830   100.3060     2.2480    24.3890 
  169.7500   -10.9710    56.9770   110.3620    99.3430   102.5410     2.2750    24.3770 
  169.8750   -10.9870    55.1240   112.3360   100.6120    94.2180     2.3110    24.3780 
  170.0000   -11.0310    55.4100   114.6370   102.2260    83.6710     2.3420    24.3970 
  170.1250   -11.0480    56.6090   117.0860   104.1790    79.8920     2.3520    24.4240 
  170.2500   -11.0660    56.0120   119.2690   106.2450   100.7080     2.3360    24.4640 
  170.3750   -11.0840    55.5970   120.8540   108.0490   121.3910     2.3080    24.5020 
  170.5000   -11.0890    58.2530   121.7650   109.4050   120.4000     2.2830    24.4830 
  170.6250   -11.1330    62.8940   122.2150   110.3610   109.7610     2.2660    24.4440 
  170.7500   -11.1490    64.7020   122.6110   111.1380   106.0430     2.2570    24.4470 
  170.8750   -11.1790    63.8510   123.3250   112.0770   109.6250     2.2510    24.4680 
  171.0000   -11.1840    63.2950   124.3610   113.2880   123.1740     2.2460    24.4610 
  171.1250   -11.2290    61.8770   125.2610   114.4800   133.6240     2.2410    24.4050 
  171.2500   -11.2680    57.9730   125.1880   114.9100   115.0040     2.2360    24.3380 
  171.3750   -11.3260    54.5390   124.1230   114.4130   121.5770     2.2280    24.2810 
  171.5000   -11.4320    54.9270   122.5800   113.3340   127.2880     2.2170    24.1930 
  171.6250   -11.5000    58.9320   121.3960   112.3730   137.5900     2.2070    24.0980 
  171.7500   -11.5800    60.9230   121.8610   112.6420   128.1570     2.2030    23.9290 
  171.8750   -11.6560    59.0330   124.7330   114.9000   122.3810     2.2040    23.8430 
  172.0000   -11.7470    55.9930   130.6820   119.8470   112.9650     2.2070    23.8400 
  172.1250   -11.8450    55.3470   139.9600   127.8750   102.4810     2.2070    23.9220 
  172.2500   -11.9350    55.9960   152.0540   138.8160   117.0340     2.2000    24.1190 
  172.3750   -12.0330    53.6680   163.9260   150.1100   143.2650     2.1890    24.3680 
  172.5000   -12.0740    51.4530   172.0080   158.6750   178.2520     2.1770    24.5710 
  172.6250   -12.1560    52.5120   172.9580   161.4020   210.0830     2.1680    24.6490 
  172.7500   -12.2220    55.7960   164.7650   155.8210   193.2720     2.1670    24.6290 
  172.8750   -12.2750    57.2880   152.0820   145.2990   167.2020     2.1730    24.5830 
  173.0000   -12.3100    57.3500   139.2570   133.5310   141.3150     2.1880    24.5320 
  173.1250   -12.3240    58.5890   129.5090   123.7710   131.1040     2.2090    24.4990 
  173.2500   -12.3300    61.7390   125.1240   118.6570   111.8620     2.2290    24.4870 
  173.3750   -12.3210    64.3370   125.3850   118.0120   106.1130     2.2400    24.4890 
  173.5000   -12.3440    64.1400   129.5500   121.3230   117.4310     2.2390    24.4910 
  173.6250   -12.3160    62.0450   136.4350   127.5200   125.4850     2.2240    24.4880 
  173.7500   -12.3180    61.9110   144.5550   135.2450   140.1540     2.2040    24.4720 
  173.8750   -12.3200    63.0310   152.0610   142.6670   141.5990     2.1890    24.4340 
  174.0000   -12.3350    63.4700   157.8310   148.6800   146.4730     2.1870    24.3580 
  174.1250   -12.3500    62.7940   161.3000   152.6920   147.8290     2.1950    24.2190 
  174.2500   -12.3460    62.5830   161.8330   154.1490   141.5110     2.2060    24.0100 
  174.3750   -12.3520    62.5380   159.4580   153.1210   142.5660     2.2120    23.8220 
  174.5000   -12.3330    60.8560   153.8120   149.2030   140.9920     2.2130    23.6920 
  174.6250   -12.3320    59.8190   145.1690   142.4160   148.4200     2.2110    23.5810 
