~V
VERS. 2.00: Ver 2.00
~W
STRT.M 50.0000:
STOP.M 251.0000:
STEP.M 0.1250:
NULL. -999.2500:
UWI. F10193:
~C
DEPT.M :
DEN.GM/CC :
GR.API :
RML.OHMM :
RI. :
RXO.OHMM :
CALI.CM :
SP.MV :
~A
# ...
  128.7500     2.5960    44.4770    23.6440    20.8790    17.1180    25.1370     2.5520 
  128.8750     2.6150    46.6170    22.3260    19.7540    15.3880    25.0660     2.6570 
  129.0000     2.6350    48.6050    21.6140    19.0560    14.7070    25.0210     2.7530 
  129.1250     2.6420    51.7970    21.7440    18.9910    15.9690    25.2800     2.8720 
  129.2500     2.6250    53.9860    22.4960    19.4540    18.6480    25.6880     3.0060 
  129.3750     2.5880    52.2990    23.6400    20.3200    20.6630    25.6550     3.1300 
  129.5000     2.5450    49.0610    24.8930    21.3900    21.1920    25.4340     3.2160 
  129.6250     2.5200    49.5190    25.9200    22.3820    22.5460    25.3410     3.2470 
  129.7500     2.5210    52.2720    26.5150    23.0480    25.0390    25.3740     3.2540 
  129.8750     2.5460    55.4040    26.5490    23.2340    27.2210    25.3740     3.2600 
  130.0000     2.5770    56.5040    26.0080    22.8940    24.9810    25.3710     3.2670 
  130.1250     2.5970    54.9830    24.9960    22.1030    22.0290    25.3770     3.2470 
  130.2500     2.6030    52.1870    23.9130    21.2050    19.9760    25.3410     3.1770 
  130.3750     2.5990    49.0280    23.0590    20.4530    19.1630    25.2920     3.0580 
  130.5000     2.5880    46.4690    22.5920    19.9960    19.3130    25.2710     2.9120 
  130.6250     2.5700    44.9750    22.4980    19.8650    19.2620    25.2860     2.7700 
  130.7500     2.5470    45.4150    22.5180    19.8690    20.0900    25.3030     2.6520 
  130.8750     2.5240    47.6830    22.4850    19.8710    20.7490    25.3110     2.5530 
  131.0000     2.5080    50.8260    22.3470    19.8040    19.6880    25.3340     2.4580 
  131.1250     2.5050    53.9980    22.1830    19.7050    17.8310    25.4370     2.3510 
  131.2500     2.5070    55.1400    22.1190    19.6710    17.1650    25.5410     2.2300 
  131.3750     2.5050    55.1980    22.2200    19.7650    18.1390    25.5800     2.1140 
  131.5000     2.4980    55.8800    22.4650    19.9940    19.9100    25.5620     2.0340 
  131.6250     2.4910    55.8670    22.7440    20.2930    19.8330    25.5410     2.0310 
  131.7500     2.4930    53.6560    22.9040    20.5240    18.7930    25.5610     2.1000 
  131.8750     2.5000    50.3870    22.8610    20.5940    18.8830    25.6030     2.2240 
  132.0000     2.4970    49.0060    22.6050    20.4600    19.0610    25.6450     2.3770 
  132.1250     2.4650    50.8270    22.1630    20.1140    19.7490    25.6600     2.5450 
  132.2500     2.4140    53.1340    21.6450    19.6550    19.2730    25.6640     2.7230 
  132.3750     2.3650    54.6930    21.1340    19.1700    17.2690    25.6570     2.9010 
  132.5000     2.3390    54.3210    20.6960    18.7370    15.8020    25.6560     3.0580 
  132.6250     2.3490    52.6690    20.3780    18.4100    15.5250    25.6620     3.1560 
  132.7500     2.3820    51.9030    20.1150    18.1350    16.2750    25.6460     3.1970 
  132.8750     2.4220    53.8130    19.8110    17.8300    17.6280    25.5910     3.1990 
  133.0000     2.4590    56.5460    19.3870    17.4210    17.9800    25.5320     3.1870 
  133.1250     2.4870    56.7900    18.8590    16.9100    16.0510    25.4990     3.1720 
  133.2500     2.5050    54.7300    18.3980    16.4350    14.2370    25.4600     3.1440 
  133.3750     2.5120    51.3450    18.1770    16.1380    12.8500    25.4570     3.0840 
  133.5000     2.5040    48.4620    18.3210    16.1340    12.7530    25.4870     2.9890 
  133.6250     2.4850    48.1140    18.9010    16.5140    13.8130    25.5020     2.8710 
  133.7500     2.4640    48.4400    19.6900    17.1280    14.6170    25.5060     2.7520 
  133.8750     2.4470    47.6170    20.4380    17.7870    15.2800    25.5030     2.6260 
  134.0000     2.4400    46.9170    20.9050    18.2820    16.2050    25.5050     2.4900 
  134.1250     2.4480    48.3960    20.9270    18.4390    17.0010    25.5070     2.3530 
  134.2500     2.4670    49.5120    20.6670    18.3390    17.1230    25.5330     2.2430 
  134.3750     2.4890    49.3550    20.3150    18.1120    16.1690    25.5790     2.1870 
  134.5000     2.5070    48.5290    20.0380    17.8910    15.7840    25.5670     2.1810 
  134.6250     2.5250    47.5820    19.9200    17.7680    16.2860    25.5510     2.1920 
  134.7500     2.5330    46.5980    19.8530    17.7010    16.8190    25.4570     2.1830 
  134.8750     2.5120    46.1040    19.6950    17.5920    16.7280    25.4370     2.1530 
  135.0000     2.4540    47.2750    19.3280    17.3370    16.0990    25.4770     2.1160 
  135.1250     2.3780    51.1290    18.6740    16.8470    16.3330    25.5450     2.0820 
  135.2500     2.3220    56.7980    17.8470    16.1890    15.8780    25.6030     2.0480 
  135.3750     2.3120    62.0500    16.9560    15.4520    14.4080    25.6330     2.0010 
  135.5000     2.3520    64.6160    16.1040    14.7300    12.9420    25.5850     1.9410 
  135.6250     2.4110    64.8060    15.3980    14.1270    12.6080    25.4340     1.8820 
  135.7500     2.4430    65.4780    14.8880    13.6830    12.0190    25.2420     1.8430 
  135.8750     2.4390    65.4850    14.6160    13.4270    11.6750    25.2280     1.8400 
  136.0000     2.4200    62.8610    14.5880    13.3660    11.7410    25.3940     1.8790 
  136.1250     2.4110    58.7830    14.8050    13.5050    12.2840    25.7150     1.9700 
  136.2500     2.4170    55.2710    15.1800    13.7840    12.8090    25.7260     2.0840 
  136.3750     2.4320    53.0470    15.6770    14.1750    13.0610    25.6920     2.1780 
  136.5000     2.4480    51.5380    16.2620    14.6480    13.4760    25.6860     2.2100 
  136.6250     2.4600    50.4010    16.8620    15.1360    14.5120    25.6760     2.1320 
  136.7500     2.4690    49.3030    17.3700    15.5530    15.0650    25.6630     1.9690 
  136.8750     2.4750    49.3850    17.6990    15.8320    15.4370    25.6600     1.7540 
  137.0000     2.4790    53.5370    17.7930    15.9320    15.3740    25.6640     1.5250 
  137.1250     2.4810    62.0880    17.6360    15.8340    14.5540    25.7040     1.3120 
  137.2500     2.4770    69.0280    17.3590    15.6300    14.4430    25.9060     1.1150 
  137.3750     2.4650    71.9870    17.0740    15.3970    15.5250    26.1160     0.9190 
  137.5000     2.4500    73.7020    16.8790    15.2080    15.7850    26.2510     0.7150 
  137.6250     2.4430    77.8980    16.8910    15.1520    16.4190    26.2740     0.5080 
  137.7500     2.4450    81.5040    17.1790    15.2820    15.9410    26.2670     0.3250 
  137.8750     2.4520    81.3390    17.8580    15.6870    15.5580    26.2680     0.1970 
  138.0000     2.4590    79.8820    19.0360    16.4670    15.8320    26.2690     0.1490 
  138.1250     2.4650    80.9110    20.7780    17.7220    16.8910    26.2480     0.1960 
  138.2500     2.4720    83.6700    22.7780    19.2690    19.3170    26.2040     0.3030 
  138.3750     2.4830    85.7690    24.6770    20.8470    23.9930    26.1350     0.4370 
  138.5000     2.4870    84.9180    26.0550    22.0980    31.2120    26.0460     0.5650 
  138.6250     2.4760    81.6730    26.4630    22.5760    31.1920    26.0140     0.6600 
  138.7500     2.4570    79.4300    26.1160    22.3690    24.8860    26.1030     0.7320 
  138.8750     2.4430    78.8460    25.3780    21.7510    20.9510    26.2680     0.7970 
  139.0000     2.4410    77.1570    24.6310    21.0590    19.9010    26.3790     0.8720 
  139.1250     2.4500    74.2890    24.1600    20.5640    20.7960    26.3310     0.9580 
  139.2500     2.4590    72.2900    23.9480    20.2860    20.3050    26.1710     1.0460 
  139.3750     2.4640    72.0350    23.8790    20.1620    20.8550    25.9650     1.1310 
  139.5000     2.4680    74.3550    23.8130    20.1100    22.9700    25.7710     1.2180 
  139.6250     2.4770    78.8130    23.6850    20.1160    22.3280    25.6410     1.3120 
  139.7500     2.4880    80.5430    23.6050    20.2350    20.6410    25.5870     1.3990 
  139.8750     2.4910    77.4220    23.6990    20.5280    22.0900    25.6260     1.4560 
