~V
VERS. 2.00: Ver 2.00
~W
STRT.M 62.0000:
STOP.M 235.0000:
STEP.M 0.1250:
NULL. -999.2500:
UWI. F10157:
~C
DEPT.M :
SP.MV :
DEN.GM/CC :
GR.API :
RML.OHMM :
RI. :
RXO.OHMM :
CALI.CM :
~A
# ...
  107.0000   -13.1710     2.1910    57.9060    10.1180     8.9610     9.9430    24.8620 
  107.1250   -13.3870     2.2090    62.2820    10.1980     9.0620    10.9010    24.9560 
  107.2500   -13.6230     2.2250    63.9290    10.1770     9.0850    11.3980    25.0660 
  107.3750   -13.8810     2.2280    61.9200    10.0280     8.9990    10.9210    25.1800 
  107.5000   -14.1510     2.2150    58.5770     9.7680     8.8080     9.8400    25.2860 
  107.6250   -14.4130     2.1840    57.7660     9.4580     8.5540     9.0270    25.3710 
  107.7500   -14.6660     2.1460    59.9030     9.1860     8.3170     8.6030    25.4280 
  107.8750   -14.9060     2.1100    63.2230     9.0050     8.1460     8.3290    25.4510 
  108.0000   -15.1230     2.0820    64.7050     8.9350     8.0610     8.0720    25.4410 
  108.1250   -15.3200     2.0700    64.5220     8.9730     8.0650     8.1380    25.4060 
  108.2500   -15.4990     2.0790    65.1480     9.0600     8.1110     8.7130    25.3560 
  108.3750   -15.6700     2.1050    65.6020     9.1520     8.1700     9.1930    25.2920 
  108.5000   -15.8230     2.1400    64.9210     9.2230     8.2190     9.5460    25.2170 
  108.6250   -15.9640     2.1630    64.0430     9.2610     8.2520     9.8570    25.1350 
  108.7500   -16.0870     2.1680    63.5290     9.2910     8.2820    10.0620    25.0540 
  108.8750   -16.1940     2.1720    62.8270     9.3390     8.3290     9.8820    24.9800 
  109.0000   -16.2830     2.1600    62.7360     9.4250     8.4040     9.5860    24.9220 
  109.1250   -16.3530     2.1380    63.7990     9.5430     8.5060     9.5610    24.8870 
  109.2500   -16.4060     2.1330    64.3920     9.6560     8.6050     9.8690    24.8700 
  109.3750   -16.4410     2.1320    64.3930     9.7310     8.6800    10.1510    24.8700 
  109.5000   -16.4490     2.1330    65.2910     9.7470     8.7120    10.3360    24.8900 
  109.6250   -16.4450     2.1410    64.8270     9.6890     8.6870    10.2930    24.9320 
  109.7500   -16.4240     2.1460    61.8830     9.5840     8.6250    10.0530    24.9870 
  109.8750   -16.3870     2.1480    59.7930     9.4650     8.5480     9.9670    25.0420 
  110.0000   -16.3470     2.1460    60.6740     9.3590     8.4780    10.2920    25.0870 
  110.1250   -16.2880     2.1300    62.1850     9.3040     8.4460    10.3750    25.1020 
  110.2500   -16.2110     2.1230    62.1690     9.3070     8.4580    10.1160    25.0900 
  110.3750   -16.1160     2.1220    61.6940     9.3710     8.5160     9.8460    25.0500 
  110.5000   -15.9970     2.1270    61.9790     9.4780     8.6090     9.9710    24.9800 
  110.6250   -15.8560     2.1390    61.4400     9.5950     8.7130    10.5760    24.9160 
  110.7500   -15.6640     2.1380    60.7270     9.6810     8.7950    11.0410    24.8790 
  110.8750   -15.4300     2.1300    60.9840     9.7120     8.8300    11.3030    24.8710 
  111.0000   -15.1570     2.1210    61.9730     9.6820     8.8060    11.2990    24.8920 
  111.1250   -14.8400     2.1170    62.4340     9.6070     8.7300    10.8520    24.9410 
  111.2500   -14.4980     2.1180    61.8170     9.5110     8.6310    10.2730    25.0000 
  111.3750   -14.1210     2.1210    61.1290     9.3890     8.5160     9.9600    25.0580 
  111.5000   -13.6940     2.1200    61.7930     9.2400     8.3870    10.1160    25.1120 
  111.6250   -13.2160     2.1150    62.7320     9.1220     8.2830    10.2650    25.1400 
  111.7500   -12.6420     2.1190    62.9630     9.1440     8.2840     9.7950    25.1410 
  111.8750   -11.9570     2.1430    63.2280     9.3950     8.4620     9.2060    25.1340 
  112.0000   -11.1470     2.1910    64.6790     9.9220     8.8640     9.2420    25.1310 
  112.1250   -10.1770     2.2570    65.5440    10.7240     9.5200    11.0320    25.1470 
  112.2500    -9.1050     2.3170    64.0130    11.5460    10.2620    14.3240    25.1800 
  112.3750    -7.9690     2.3540    63.0260    12.0740    10.8450    15.0120    25.2270 
  112.5000    -6.8160     2.3600    64.9550    12.0610    11.0300    11.9180    25.2840 
  112.6250    -5.7350     2.3410    66.5180    11.4910    10.7270    11.5320    25.3440 
  112.7500    -4.7670     2.3200    65.5260    10.8650    10.2920    11.2800    25.3960 
  112.8750    -3.9330     2.3210    65.1650    10.6110    10.0610    10.0080    25.4360 
  113.0000    -3.2400     2.3670    66.6870    10.9390    10.2420     9.2230    25.4600 
  113.1250    -2.6860     2.4590    66.4030    11.7020    10.8100    10.4030    25.4620 
  113.2500    -2.2730     2.5340    64.8400    12.2120    11.2570    13.4820    25.4560 
  113.3750    -2.0070     2.5400    66.2570    11.8290    11.0370    19.1130    25.4520 
  113.5000    -1.9130     2.4730    72.0090    10.3080     9.8850    20.2450    25.4510 
  113.6250    -2.0990     2.3710    77.6890     8.1260     8.0890    12.4930    25.4510 
  113.7500    -2.5610     2.2810    81.0340     6.2690     6.4250     6.1940    25.4380 
  113.8750    -3.3370     2.2210    83.8270     5.1540     5.2740     4.1440    25.3850 
  114.0000    -4.4170     2.1930    86.3620     4.8430     4.7640     3.8990    25.2920 
  114.1250    -5.7210     2.1880    85.9520     5.3540     4.9900     4.8310    25.1650 
  114.2500    -7.0950     2.1890    81.5690     6.3980     5.7560     6.6950    25.0200 
  114.3750    -8.4040     2.1860    75.3790     7.7250     6.8870     8.2690    24.8680 
  114.5000    -9.5510     2.1800    69.6210     8.9800     8.0920     8.6220    24.7220 
  114.6250   -10.4390     2.1800    65.0840     9.7320     8.9580     8.4580    24.6010 
  114.7500   -11.0680     2.1810    62.4590     9.9690     9.3610     8.5460    24.5140 
  114.8750   -11.4640     2.1800    62.1660     9.8770     9.4050     8.7770    24.4710 
  115.0000   -11.6660     2.1800    64.6890     9.7310     9.3040     9.0680    24.4600 
  115.1250   -11.7030     2.1990    68.4730     9.7460     9.2520     9.3170    24.4780 
  115.2500   -11.6390     2.2470    69.7840     9.9210     9.2970     9.4750    24.5030 
  115.3750   -11.5000     2.3100    68.0850    10.1900     9.4050     9.8090    24.5230 
  115.5000   -11.3090     2.3580    65.5090    10.4590     9.5200    10.2360    24.5360 
  115.6250   -11.1030     2.3580    64.1710    10.6100     9.5600    10.5830    24.5450 
  115.7500   -10.9300     2.3270    62.5890    10.6140     9.4980    10.3030    24.5510 
  115.8750   -10.8200     2.2930    62.3570    10.4990     9.3540    10.0980    24.5520 
  116.0000   -10.8060     2.2710    65.2120    10.3300     9.1720    10.1650    24.5530 
  116.1250   -10.9010     2.2520    68.0520    10.1790     9.0090    10.3330    24.5680 
  116.2500   -11.0830     2.2220    67.8530    10.0760     8.8900    10.4020    24.6000 
  116.3750   -11.3190     2.1840    65.9780    10.0200     8.8170    10.3980    24.6410 
  116.5000   -11.5730     2.1500    65.0670     9.9930     8.7780    10.3430    24.6760 
  116.6250   -11.8260     2.1380    64.1770     9.9980     8.7730    10.1230    24.6980 
  116.7500   -12.0530     2.1490    63.7550    10.0440     8.8040     9.8270    24.7170 
  116.8750   -12.2420     2.1750    64.5550    10.1340     8.8700     9.9370    24.7370 
  117.0000   -12.3930     2.1980    64.7570    10.2550     8.9590    10.3970    24.7620 
  117.1250   -12.4930     2.2040    62.0240    10.3810     9.0460    10.3350    24.8080 
  117.2500   -12.5450     2.1940    58.8650    10.4870     9.1060    10.1460    24.8810 
  117.3750   -12.5470     2.1780    58.5030    10.5580     9.1230    10.0450    24.9810 
  117.5000   -12.4880     2.1610    59.9930    10.5840     9.0940    10.0760    25.0920 
  117.6250   -12.3470     2.1470    59.8290    10.5430     9.0170    10.2200    25.1990 
  117.7500   -12.1370     2.1310    59.6240    10.4280     8.9010    10.2600    25.2910 
  117.8750   -11.8620     2.1080    62.1370    10.2350     8.7440    10.0350    25.3640 
  118.0000   -11.5180     2.0830    65.4060    10.0130     8.5750    10.0850    25.4200 
  118.1250   -11.0850     2.0770    64.7910     9.9250     8.4980     9.9680    25.4530 
