~V
VERS. 2.00: Ver 2.00
~W
STRT.M 49.0000:
STOP.M 290.0000:
STEP.M 0.1250:
NULL. -999.2500:
UWI. F10103:
~C
DEPT.M :
DEN.GM/CC :
SP.MV :
GR.API :
RML.OHMM :
RI. :
RXO.OHMM :
CALI.CM :
~A
# ...
   82.7500     2.2160   -11.3320    69.1410     9.4430     8.8380     9.1100    23.9270 
   82.8750     2.1810   -11.7260    66.5640     9.2020     8.4120     9.0190    23.8700 
   83.0000     2.1630   -12.0330    63.7040     9.2380     8.2530     9.2030    23.8610 
   83.1250     2.1560   -12.2890    62.5980     9.4080     8.2720     9.5760    23.9010 
   83.2500     2.1530   -12.5270    61.3000     9.6380     8.4140     9.9380    23.9310 
   83.3750     2.1520   -12.7620    59.2700     9.8870     8.6160    10.1370    23.9440 
   83.5000     2.1510   -13.0080    57.1580    10.1190     8.8300    10.3200    23.9460 
   83.6250     2.1510   -13.2740    55.5510    10.2810     9.0020    10.5420    23.9510 
   83.7500     2.1530   -13.5410    55.1760    10.3050     9.0620    10.7920    23.9720 
   83.8750     2.1570   -13.7900    56.5730    10.2110     9.0120    10.9230    23.9990 
   84.0000     2.1650   -13.9970    56.9750    10.0450     8.8850    11.0460    24.0190 
   84.1250     2.1750   -14.1690    53.9310     9.8710     8.7320    11.3160    24.0250 
   84.2500     2.1840   -14.2850    49.9340     9.7470     8.6050    11.8470    24.0200 
   84.3750     2.1890   -14.3580    48.5670     9.6790     8.5210    12.2790    24.0050 
   84.5000     2.1870   -14.3930    50.7320     9.6520     8.4710    11.5440    23.9830 
   84.6250     2.1770   -14.3780    53.2950     9.6430     8.4360    11.0880    23.9670 
   84.7500     2.1640   -14.3150    53.6180     9.6380     8.4000    10.9280    23.9550 
   84.8750     2.1510   -14.2370    53.1820     9.6320     8.3600    10.9960    23.9340 
   85.0000     2.1420   -14.1610    53.9330     9.6300     8.3270    11.0210    23.8910 
   85.1250     2.1380   -14.0730    55.3500     9.6320     8.3120    10.9670    23.8320 
   85.2500     2.1360   -13.9630    54.5290     9.6430     8.3200    10.9610    23.7700 
   85.3750     2.1350   -13.8420    52.7130     9.6680     8.3420    11.1180    23.7280 
   85.5000     2.1360   -13.7060    51.3840     9.7100     8.3730    11.2390    23.7170 
   85.6250     2.1380   -13.5550    51.4290     9.7660     8.4090    11.1460    23.7180 
   85.7500     2.1410   -13.3700    52.7410     9.8130     8.4440    11.0430    23.7150 
   85.8750     2.1440   -13.1240    54.5410     9.8240     8.4680    10.9830    23.7140 
   86.0000     2.1460   -12.7990    56.4480     9.7670     8.4550    11.0700    23.7140 
   86.1250     2.1440   -12.3980    57.4950     9.6180     8.3760    10.9580    23.7150 
   86.2500     2.1420   -11.9360    57.2980     9.3470     8.1930    10.6390    23.7190 
   86.3750     2.1420   -11.4170    57.9800     8.9920     7.9200    10.0380    23.7290 
   86.5000     2.1500   -10.8930    62.8780     8.5980     7.5870     9.1710    23.7520 
   86.6250     2.1660   -10.4220    71.2460     8.2260     7.2420     8.4980    23.8070 
   86.7500     2.1870   -10.0430    78.2100     7.9500     6.9480     8.0790    23.9110 
   86.8750     2.2040    -9.7550    80.2050     7.7780     6.7340     7.6680    23.9900 
   87.0000     2.2110    -9.5540    76.8720     7.6940     6.6040     7.5020    24.0420 
   87.1250     2.2070    -9.4350    70.5880     7.6600     6.5380     7.8320    24.0770 
   87.2500     2.1950    -9.3990    66.2750     7.6290     6.5070     8.0040    24.1240 
   87.3750     2.1850    -9.4320    68.2270     7.5750     6.4740     8.0180    24.1810 
   87.5000     2.1810    -9.5020    73.9230     7.5030     6.4280     7.8950    24.2450 
   87.6250     2.1820    -9.5740    77.8430     7.4350     6.3740     7.7340    24.2970 
   87.7500     2.1870    -9.6440    77.8580     7.4010     6.3290     7.6120    24.3200 
   87.8750     2.1940    -9.7240    79.8510     7.4080     6.3070     7.6110    24.3290 
   88.0000     2.2000    -9.8290    85.1100     7.4510     6.3120     7.7570    24.3400 
   88.1250     2.2040    -9.9510    87.7890     7.5230     6.3440     7.9780    24.3600 
   88.2500     2.2020   -10.1050    82.8220     7.6200     6.4010     8.1790    24.3800 
   88.3750     2.1950   -10.2760    76.1950     7.7430     6.4790     8.3560    24.3890 
   88.5000     2.1850   -10.4650    70.7310     7.8940     6.5790     8.5770    24.3920 
   88.6250     2.1760   -10.6750    66.1000     8.0760     6.7050     8.7680    24.3950 
   88.7500     2.1710   -10.9000    64.4810     8.2880     6.8630     9.0740    24.3990 
   88.8750     2.1700   -11.1210    65.8650     8.5180     7.0430     9.6060    24.4070 
   89.0000     2.1700   -11.3310    65.8190     8.7590     7.2380    10.2030    24.4120 
   89.1250     2.1690   -11.5420    62.7900     8.9990     7.4380    10.6040    24.3930 
   89.2500     2.1680   -11.7270    60.4600     9.2230     7.6280    10.8260    24.3530 
   89.3750     2.1650   -11.8980    58.9460     9.4160     7.8010    11.0350    24.3150 
   89.5000     2.1620   -12.0440    56.6340     9.5720     7.9490    11.2290    24.2930 
   89.6250     2.1600   -12.1520    56.6520     9.6860     8.0660    11.3060    24.2780 
   89.7500     2.1580   -12.2030    59.3240     9.7560     8.1450    11.1500    24.2750 
   89.8750     2.1600   -12.2080    61.0870     9.7970     8.1910    10.8840    24.2660 
   90.0000     2.1640   -12.1830    60.2420     9.8150     8.2090    10.7310    24.2340 
   90.1250     2.1690   -12.1370    58.3990     9.8150     8.2070    10.7050    24.1930 
   90.2500     2.1730   -12.0870    57.5390     9.7970     8.1910    10.7210    24.1690 
   90.3750     2.1740   -12.0390    57.4080     9.7670     8.1710    10.7210    24.1590 
   90.5000     2.1730   -11.9980    58.3670     9.7240     8.1480    10.7930    24.1490 
   90.6250     2.1720   -11.9600    60.0190     9.6690     8.1240    10.8660    24.1160 
   90.7500     2.1710   -11.9490    61.2660     9.6050     8.1000    10.8570    24.0540 
   90.8750     2.1720   -11.9750    59.9600     9.5450     8.0780    10.7670    23.9980 
   91.0000     2.1730   -12.0130    56.1580     9.5070     8.0680    10.5730    23.9750 
   91.1250     2.1740   -12.0350    53.1370     9.5080     8.0780    10.4120    23.9690 
   91.2500     2.1730   -12.0280    52.6380     9.5660     8.1210    10.4060    23.9620 
   91.3750     2.1720   -11.9940    53.4940     9.6600     8.1850    10.5370    23.9520 
   91.5000     2.1700   -11.9230    56.4210     9.7570     8.2490    10.7160    23.9490 
   91.6250     2.1690   -11.8160    59.4850     9.8120     8.2850    10.7510    23.9640 
   91.7500     2.1690   -11.6680    57.0390     9.7740     8.2570    10.5850    23.9800 
   91.8750     2.1720   -11.4830    54.1440     9.6520     8.1710    10.2540    24.0010 
   92.0000     2.1770   -11.3000    55.5490     9.4810     8.0460     9.9110    24.0360 
   92.1250     2.1820   -11.1490    60.7370     9.3140     7.9120     9.7530    24.1000 
   92.2500     2.1850   -11.0480    62.9460     9.2100     7.8090     9.7820    24.1730 
   92.3750     2.1840   -10.9980    61.0870     9.1830     7.7500     9.9400    24.2240 
   92.5000     2.1800   -10.9990    58.6460     9.2240     7.7380     9.9910    24.2250 
   92.6250     2.1760   -11.0370    58.0140     9.3090     7.7700     9.8530    24.1870 
   92.7500     2.1770   -11.0830    59.6170     9.4220     7.8410     9.7090    24.1010 
   92.8750     2.1840   -11.1260    60.9010     9.5500     7.9400     9.7320    23.9720 
   93.0000     2.1940   -11.1570    61.4550     9.6910     8.0620    10.0020    23.8470 
   93.1250     2.2030   -11.1760    60.8370     9.8340     8.1950    10.3380    23.7860 
   93.2500     2.2080   -11.1870    57.6830     9.9420     8.3140    10.5030    23.7730 
   93.3750     2.2090   -11.1670    53.8520     9.9770     8.3880    10.5150    23.7730 
   93.5000     2.2050   -11.1350    52.2040     9.9100     8.3900    10.5380    23.7760 
   93.6250     2.1970   -11.0840    52.6370     9.7470     8.3140    10.5610    23.7840 
   93.7500     2.1870   -11.0310    53.5560     9.5280     8.1760    10.5050    23.8060 
   93.8750     2.1770   -10.9800    54.8760     9.3330     8.0370    10.2690    23.8460 
