~V
VERS. 2.00: Ver 2.00
~W
STRT.M 57.0000:
STOP.M 247.0000:
STEP.M 0.1250:
NULL. -999.2500:
UWI. F10194:
~C
DEPT.M :
SP.MV :
DEN.GM/CC :
GR.API :
RML.OHMM :
RI. :
RXO.OHMM :
CALI.CM :
~A
# ...
  124.5000    -6.3910     2.3910    49.9920    18.8790    17.7810    17.0150    28.0820 
  124.6250    -6.1400     2.3680    50.7650    18.4380    17.4530    16.2730    28.2000 
  124.7500    -5.9440     2.3530    50.1820    17.9270    17.0400    15.7630    28.2670 
  124.8750    -5.8250     2.3450    48.9050    17.4990    16.6520    15.4200    28.2850 
  125.0000    -5.7860     2.3380    48.1630    17.2850    16.4110    15.1000    28.2970 
  125.1250    -5.7830     2.3290    48.5020    17.3150    16.3750    15.1540    28.3420 
  125.2500    -5.7890     2.3240    49.3060    17.5170    16.5200    16.0610    28.3900 
  125.3750    -5.8030     2.3330    50.2310    17.7340    16.7450    17.6180    28.3910 
  125.5000    -5.8190     2.3480    51.5000    17.8220    16.9140    19.0000    28.3690 
  125.6250    -5.8260     2.3490    52.4060    17.7390    16.9410    19.0670    28.4100 
  125.7500    -5.8370     2.3220    52.0910    17.5410    16.8210    17.5250    28.5520 
  125.8750    -5.8540     2.2730    51.2680    17.3600    16.6350    15.7460    28.7260 
  126.0000    -5.8510     2.2250    51.1870    17.2920    16.4960    14.9020    28.8410 
  126.1250    -5.8470     2.1970    51.5080    17.3370    16.4620    14.9050    28.8580 
  126.2500    -5.8590     2.1950    50.9020    17.4110    16.5040    15.3210    28.7650 
  126.3750    -5.9220     2.2240    49.9890    17.3750    16.5050    15.7730    28.4430 
  126.5000    -6.0540     2.2850    49.6790    17.1440    16.3510    15.9960    27.7780 
  126.6250    -6.2260     2.3700    49.0180    16.7290    16.0020    15.7470    26.9110 
  126.7500    -6.4100     2.4620    47.4770    16.2150    15.5040    14.6850    26.1790 
  126.8750    -6.5970     2.5270    46.8360    15.7540    14.9830    13.5060    25.7980 
  127.0000    -6.7820     2.5570    47.9670    15.4930    14.5850    12.9780    25.6740 
  127.1250    -6.9370     2.5660    49.0900    15.5110    14.4090    13.0270    25.6590 
  127.2500    -7.0370     2.5650    48.5640    15.8150    14.4970    13.3870    25.6820 
  127.3750    -7.0380     2.5590    47.0840    16.3460    14.8520    14.0000    25.7150 
  127.5000    -6.9180     2.5520    46.3310    16.9720    15.3900    14.9140    25.7460 
  127.6250    -6.7020     2.5430    47.3440    17.5610    15.9940    15.8880    25.7680 
  127.7500    -6.4310     2.5360    49.9410    18.0250    16.5550    16.6330    25.7670 
  127.8750    -6.1540     2.5330    52.8700    18.2840    16.9500    16.8150    25.7550 
  128.0000    -5.8830     2.5320    55.0730    18.3060    17.1040    16.5420    25.7810 
  128.1250    -5.6300     2.5320    57.0190    18.0920    17.0010    16.1640    25.8610 
  128.2500    -5.4370     2.5340    59.0500    17.6700    16.6730    16.0030    25.9920 
  128.3750    -5.3420     2.5370    59.4050    17.1100    16.1930    15.8670    26.1760 
  128.5000    -5.3480     2.5380    58.0230    16.5330    15.6760    15.3790    26.3860 
  128.6250    -5.4270     2.5320    57.3680    16.0510    15.2230    14.7410    26.5830 
  128.7500    -5.5700     2.5200    58.4340    15.7270    14.8930    14.3620    26.7540 
  128.8750    -5.7540     2.5100    58.9710    15.5830    14.7220    14.3560    26.8980 
  129.0000    -5.9680     2.5030    57.4570    15.5630    14.6820    14.3320    27.0140 
  129.1250    -6.2200     2.5010    55.5250    15.5820    14.7090    14.2270    27.1080 
  129.2500    -6.4930     2.5030    54.2680    15.5860    14.7440    14.3250    27.1930 
  129.3750    -6.7500     2.5050    53.2570    15.5640    14.7490    14.3220    27.2710 
  129.5000    -6.9670     2.4980    53.0400    15.5560    14.7340    13.9880    27.3190 
  129.6250    -7.1580     2.4830    54.0160    15.6070    14.7330    13.4540    27.3140 
  129.7500    -7.3260     2.4640    55.2930    15.7300    14.7750    13.0390    27.2720 
  129.8750    -7.4710     2.4460    55.4370    15.8810    14.8540    13.1390    27.2390 
  130.0000    -7.5830     2.4300    55.0650    15.9810    14.9230    13.5990    27.2380 
  130.1250    -7.6340     2.4150    56.0260    15.9630    14.9290    13.9390    27.2770 
  130.2500    -7.6200     2.4000    57.4630    15.8050    14.8440    14.0060    27.3540 
  130.3750    -7.5510     2.3850    56.7110    15.5460    14.6830    13.8310    27.4340 
  130.5000    -7.4610     2.3710    54.1110    15.2810    14.5090    13.6970    27.4780 
  130.6250    -7.3790     2.3580    52.2420    15.1030    14.3960    13.7290    27.4880 
  130.7500    -7.2910     2.3520    52.0030    15.0550    14.3870    13.7830    27.4900 
  130.8750    -7.1890     2.3520    51.9140    15.1110    14.4760    13.8950    27.4940 
  131.0000    -7.0930     2.3600    51.7380    15.1710    14.5840    14.0220    27.4960 
  131.1250    -7.0330     2.3690    51.7770    15.1140    14.5970    14.0870    27.4950 
  131.2500    -7.0090     2.3760    50.7260    14.8510    14.4230    14.1780    27.4880 
  131.3750    -7.0330     2.3800    48.5150    14.3320    13.9930    13.9110    27.4780 
  131.5000    -7.1050     2.3830    47.4640    13.6240    13.3510    13.1170    27.4750 
  131.6250    -7.1980     2.3830    49.2170    12.8600    12.6140    11.9980    27.4640 
  131.7500    -7.3150     2.3810    53.2310    12.1700    11.9060    10.8690    27.4490 
  131.8750    -7.4760     2.3770    58.1790    11.6970    11.3750    10.1460    27.4610 
  132.0000    -7.6620     2.3740    62.9220    11.5160    11.1150     9.9990    27.5200 
  132.1250    -7.8530     2.3650    66.2780    11.6380    11.1640    10.2600    27.6220 
  132.2500    -8.0480     2.3450    67.3980    12.0400    11.5180    10.8750    27.7430 
  132.3750    -8.2450     2.3220    65.8750    12.6570    12.1300    12.1450    27.8720 
  132.5000    -8.4510     2.3130    62.8750    13.3430    12.8610    13.9950    27.9700 
  132.6250    -8.6800     2.3240    60.2980    13.9250    13.5380    15.7600    28.0090 
  132.7500    -8.9300     2.3440    59.1230    14.2620    14.0140    16.6500    28.0020 
  132.8750    -9.1880     2.3530    59.7330    14.2370    14.1520    16.3230    28.0050 
  133.0000    -9.4700     2.3400    62.3990    13.8910    13.9540    15.3330    28.0630 
  133.1250    -9.7770     2.3080    66.2480    13.3670    13.5320    14.3980    28.1790 
  133.2500   -10.1030     2.2640    69.7370    12.8250    13.0150    13.7210    28.3230 
  133.3750   -10.4250     2.2180    72.4870    12.4410    12.5560    12.9410    28.4550 
  133.5000   -10.6870     2.1730    75.0100    12.3210    12.2670    12.1730    28.5320 
  133.6250   -10.8670     2.1350    77.1360    12.5090    12.2150    11.8600    28.5490 
  133.7500   -11.0000     2.1050    78.2280    13.0210    12.4470    12.3540    28.5290 
  133.8750   -11.1130     2.0860    79.0480    13.8560    13.0040    13.6720    28.4870 
  134.0000   -11.1930     2.0790    80.1060    14.9350    13.8520    15.3490    28.4180 
  134.1250   -11.2530     2.0800    79.8850    16.1560    14.9160    17.0830    28.3310 
  134.2500   -11.3030     2.0890    77.6670    17.4510    16.1300    18.8540    28.2620 
  134.3750   -11.3220     2.1040    76.1260    18.7760    17.4310    20.0980    28.2180 
  134.5000   -11.3300     2.1260    77.0420    20.1040    18.7550    20.6950    28.1440 
  134.6250   -11.3850     2.1490    78.5460    21.4010    20.0480    21.6940    28.0100 
  134.7500   -11.5010     2.1690    78.6860    22.5970    21.2400    23.3360    27.8780 
  134.8750   -11.6780     2.1850    78.9880    23.5460    22.2080    25.1550    27.7980 
  135.0000   -11.8940     2.1990    80.4700    24.1410    22.8520    26.5660    27.7620 
  135.1250   -12.1050     2.2060    81.3070    24.3500    23.1270    27.2130    27.7310 
  135.2500   -12.2960     2.2030    80.5150    24.2120    23.0440    26.8680    27.6820 
  135.3750   -12.5250     2.1910    79.3230    23.8260    22.6890    25.6140    27.6280 
  135.5000   -12.8240     2.1850    78.7000    23.3460    22.2240    24.7260    27.5790 
  135.6250   -13.1380     2.1890    78.1780    22.8950    21.7810    24.4300    27.5370 
