~V
VERS. 2.00: Ver 2.00
~W
STRT.M 55.0000:
STOP.M 251.0000:
STEP.M 0.1250:
NULL. -999.2500:
UWI. F10189:
~C
DEPT.M :
DEN.GM/CC :
SP.MV :
GR.API :
RML.OHMM :
RI. :
RXO.OHMM :
CALI.CM :
~A
   55.0000     1.9980   103.2470    34.0670     0.0000     0.2080    -2.6560    25.3540 
   55.1250     1.9980   102.7810    37.0400     0.0000     0.2020    -2.6870    25.3540 
   55.2500     2.0000   102.3280    40.6010     0.0000     0.1960    -2.7180    25.3540 
   55.3750     2.0100   101.9160    40.3530     0.0000     0.1860    -2.7470    25.3540 
   55.5000     2.0160   101.5380    36.9700     0.0000     0.1730    -2.7710    25.3540 
   55.6250     2.0160   101.1850    34.3010     0.0000     0.1630    -2.7830    25.3540 
   55.7500     2.0170   100.8690    33.8200     0.0000     0.1610    -2.7950    25.3540 
   55.8750     2.0200   100.5770    35.2050     0.0000     0.1680    -2.8050    25.3540 
   56.0000     2.0180   100.3050    37.8160     0.0000     0.1790    -2.7840    25.3540 
   56.1250     2.0080   100.0760    40.3220     0.0000     0.1850    -2.7340    25.3540 
   56.2500     2.0000    99.8350    41.7900     0.0000     0.1890    -2.6840    25.3540 
   56.3750     2.0000    99.5710    42.5390     0.0000     0.1920    -2.6540    25.3540 
   56.5000     2.0030    99.3100    42.1760     0.0000     0.1960    -2.6470    25.3540 
   56.6250     2.0090    99.0540    41.8360     0.0000     0.2000    -2.6510    25.3540 
   56.7500     2.0220    98.8250    42.8520     0.0000     0.2040    -2.6480    25.3540 
   56.8750     2.0430    98.6650    43.9400     0.0000     0.2040    -2.6390    25.3540 
   57.0000     2.0670    98.5720    44.5010     0.0000     0.2020    -2.6250    25.3540 
   57.1250     2.0830    98.4940    46.2630     0.0000     0.2010    -2.6010    25.3540 
   57.2500     2.0940    98.4530    47.8670     0.0000     0.2010    -2.5740    25.3540 
   57.3750     2.1000    98.4300    47.3670     0.0000     0.2050    -2.5470    25.3540 
   57.5000     2.0990    98.3950    46.3330     0.0000     0.2120    -2.5160    25.3540 
   57.6250     2.0820    98.3460    46.2640     0.0020     0.2190    -2.5010    25.3540 
   57.7500     2.0580    98.2760    45.4060     0.0060     0.2240    -2.5050    25.3540 
   57.8750     2.0420    98.1690    42.1140     0.0110     0.2270    -2.5150    25.3540 
   58.0000     2.0370    98.0280    39.0960     0.0160     0.2290    -2.5240    25.3540 
   58.1250     2.0340    97.9000    40.0780     0.0240     0.2300    -2.5490    25.3540 
   58.2500     2.0250    97.7780    41.8820     0.0320     0.2310    -2.5870    25.3540 
   58.3750     2.0150    97.6610    41.5670     0.0470     0.2300    -2.6160    25.3540 
   58.5000     2.0140    97.5520    38.4560     0.0760     0.2270    -2.6350    25.3540 
   58.6250     2.0230    97.4190    37.2660     0.1240     0.2260    -2.6460    25.3540 
   58.7500     2.0290    97.2100    39.8530     0.1680     0.2310    -2.6470    25.3540 
   58.8750     2.0300    96.8820    43.1490     0.1830     0.2390    -2.6290    25.3540 
   59.0000     2.0270    96.4050    44.2380     0.1600     0.2450    -2.5980    25.3540 
   59.1250     2.0290    95.7580    42.0010     0.1060     0.2430    -2.5280    25.3510 
   59.2500     2.0310    94.9830    40.6270     0.0510     0.2350    -2.4460    25.3440 
   59.3750     2.0250    94.0610    42.8530     0.0160     0.2280    -2.3530    25.3360 
   59.5000     2.0150    92.9620    46.1650     0.0020     0.2270    -2.2510    25.3350 
   59.6250     2.0130    91.6390    45.8080     0.0000     0.2320    -2.2390    25.3410 
   59.7500     2.0160    90.1030    43.2250     0.0000     0.2400    -2.3780    25.3430 
   59.8750     2.0160    88.2920    43.2530     0.0000     0.2450    -2.5510    25.3460 
   60.0000     2.0210    86.1080    46.4120     0.0000     0.2430    -2.6150    25.3460 
   60.1250     2.0550    83.3050    47.8050     0.0000     0.2300    -2.5610    25.3350 
   60.2500     2.1200    79.8030    48.0570     0.0000     0.2060    -2.4180    25.3240 
   60.3750     2.2040    75.4590    49.7780     0.0000     0.1700    -2.1320    25.3240 
   60.5000     2.2970    70.1050    52.9410     0.0000     0.1270    -1.6240    25.3320 
   60.6250     2.3950    63.3620    55.0450     0.0000     0.0850    -0.8050    25.3350 
   60.7500     2.4720    55.3560    55.8810     0.0010     0.0560     0.3020    25.3280 
   60.8750     2.4700    46.2510    56.4630     0.0030     0.0550     1.6430    25.3160 
   61.0000     2.3730    36.5420    56.8680     0.0100     0.1040     3.1110    25.3480 
   61.1250     2.2540    27.0000    58.9260     0.0390     0.2600     4.3500    25.4350 
   61.2500     2.1950    18.1340    66.7670     0.1320     0.5690     5.0020    25.4930 
   61.3750     2.2150    10.1180    77.6610     0.3620     1.0940     5.1910    25.4080 
   61.5000     2.2890     3.1010    88.6430     0.8440     1.8710     5.2040    25.1730 
   61.6250     2.3610    -2.5270    96.7410     1.7020     2.8640     5.6890    24.8040 
   61.7500     2.3890    -6.8360    99.6120     2.6460     3.8810     6.4490    24.5390 
   61.8750     2.3680    -9.8540    95.8120     3.3810     4.7970     7.2150    24.3940 
   62.0000     2.3170   -11.9020    88.7430     3.8610     5.5630     7.5610    24.3360 
   62.1250     2.2750   -13.4860    87.3570     4.1480     6.1520     7.2860    24.3510 
   62.2500     2.2560   -15.0020    88.7800     4.3130     6.5810     7.1680    24.3840 
   62.3750     2.2510   -16.4000    88.5390     4.3380     6.8250     7.1650    24.4110 
   62.5000     2.2480   -17.5960    86.5490     4.2060     6.8540     7.0620    24.4210 
   62.6250     2.2410   -18.5100    87.1370     4.0000     6.6400     6.6660    24.4300 
   62.7500     2.2350   -19.2110    92.2080     3.8730     6.2950     5.9420    24.4540 
   62.8750     2.2380   -19.7880    98.0570     3.8690     5.9330     5.3280    24.4650 
   63.0000     2.2500   -20.3190   101.0920     3.9630     5.6720     5.2240    24.4220 
   63.1250     2.2640   -20.8390   101.4220     4.1390     5.6350     5.7370    24.3050 
   63.2500     2.2730   -21.3840   101.6460     4.3990     5.8170     6.4600    24.2080 
   63.3750     2.2820   -22.0110    99.0800     4.7610     6.1850     7.3000    24.1510 
   63.5000     2.2910   -22.7660    92.8310     5.1880     6.6710     8.1350    24.1060 
   63.6250     2.2870   -23.6530    89.3610     5.5330     7.1620     8.7410    24.0660 
   63.7500     2.2540   -24.5600    87.9540     5.6940     7.5300     8.8520    24.0470 
   63.8750     2.2020   -25.3910    82.9680     5.6780     7.6860     8.5590    24.0400 
   64.0000     2.1610   -26.0680    73.5860     5.5390     7.6070     8.1060    24.0580 
   64.1250     2.1610   -26.5350    65.4670     5.3330     7.3050     8.1490    24.1560 
   64.2500     2.1870   -26.8370    61.1440     5.1200     6.8870     8.5830    24.2840 
   64.3750     2.2210   -26.9930    61.2950     4.9400     6.4410     9.0950    24.4080 
   64.5000     2.2590   -27.0140    69.1800     4.8560     6.0840    10.0020    24.5360 
   64.6250     2.3080   -26.9770    81.9950     4.9970     6.0200    11.5630    24.6400 
   64.7500     2.3640   -27.0230    89.0020     5.4400     6.3610    14.2710    24.7360 
   64.8750     2.4240   -27.2290    87.0250     6.2760     7.2000    17.5930    24.8200 
   65.0000     2.4830   -27.6490    80.3370     7.5400     8.5400    21.1450    24.9390 
   65.1250     2.5090   -28.3230    72.6670     9.0090    10.1600    24.1740    25.0950 
   65.2500     2.4700   -29.1840    65.4380     9.8890    11.3570    24.2960    25.2480 
   65.3750     2.3770   -30.1770    61.5670     9.5870    11.4860    19.3290    25.3700 
   65.5000     2.2790   -31.2500    63.2380     8.4190    10.4860    12.5450    25.5180 
   65.6250     2.2190   -32.2880    64.7190     7.3240     9.0510    10.7370    25.7800 
   65.7500     2.1990   -33.1790    63.0050     6.8060     8.0550    12.8720    26.0830 
   65.8750     2.2150   -33.9000    61.7680     6.9590     7.8530    16.8620    26.4140 
   66.0000     2.2730   -34.4540    62.5190     7.8160     8.5580    21.7400    26.6620 
   66.1250     2.3760   -34.8650    60.8540     9.4880    10.2340    26.8410    26.3590 
