~V
VERS. 2.00: Ver 2.00
~W
STRT.M 49.0000:
STOP.M 245.0000:
STEP.M 0.1250:
NULL. -999.2500:
UWI. F10179:
~C
DEPT.M :
DEN.GM/CC :
GR.API :
RML.OHMM :
RI. :
RXO.OHMM :
CALI.CM :
SP.MV :
~A
# ...
  195.2500     2.2410    72.8680    72.8610    67.3400    67.0750    24.2840   -24.9160 
  195.3750     2.2360    69.6900    82.1150    75.5780    77.6130    24.2890   -25.0180 
  195.5000     2.2300    64.7970    92.9060    85.5020    86.9720    24.2920   -25.1430 
  195.6250     2.2270    61.8190   103.3900    95.4380    96.1650    24.2660   -25.2920 
  195.7500     2.2300    60.1380   111.2440   103.2700   116.7710    24.2010   -25.4800 
  195.8750     2.2360    57.1570   113.5770   106.2960   124.6550    24.1800   -25.6990 
  196.0000     2.2410    55.6520   111.2040   104.8860   119.3680    24.2580   -25.9150 
  196.1250     2.2430    56.6420   106.3800   100.7340   100.6180    24.3860   -26.1080 
  196.2500     2.2450    56.6210   102.1950    96.5330    80.9350    24.5920   -26.2760 
  196.3750     2.2490    54.4160   102.1090    95.5780    76.3890    24.8990   -26.4540 
  196.5000     2.2540    54.2930   107.0590    99.1490    82.8560    25.0640   -26.6160 
  196.6250     2.2550    55.9910   117.1420   107.6010    98.2210    24.8640   -26.7790 
  196.7500     2.2550    55.7930   131.1010   119.9570   111.8760    24.2640   -26.9380 
  196.8750     2.2610    53.6270   145.1860   133.1310   154.8050    23.9800   -27.0790 
  197.0000     2.2590    52.9560   153.7010   142.1840   206.6880    24.0820   -27.2140 
  197.1250     2.2360    53.5590   152.6210   143.4200   201.8400    24.3810   -27.3630 
  197.2500     2.1960    54.1530   141.8860   135.9810   169.5150    24.6580   -27.5450 
  197.3750     2.1710    54.7160   125.1350   121.9410   131.6590    24.7890   -27.7250 
  197.5000     2.1700    56.0190   108.3570   106.7290   106.0640    24.8180   -27.9120 
  197.6250     2.1810    58.0590    94.3520    93.3450    89.7820    24.7580   -28.1130 
  197.7500     2.1940    59.5020    84.3190    83.3360    77.2350    24.6640   -28.3350 
  197.8750     2.2070    60.1340    79.0780    77.7830    67.7330    24.5500   -28.5990 
  198.0000     2.2200    60.3290    77.4580    75.7560    62.0140    24.4760   -28.9100 
  198.1250     2.2280    61.7030    78.7100    76.6250    64.2700    24.4610   -29.2430 
  198.2500     2.2280    63.4890    81.8380    79.5040    72.1580    24.5030   -29.5700 
  198.3750     2.2230    62.2310    85.6070    83.2650    81.6920    24.5480   -29.9120 
  198.5000     2.2190    58.9980    88.8220    86.6640    88.0280    24.5620   -30.2700 
  198.6250     2.2190    57.0020    91.0930    89.2150    92.8100    24.5420   -30.6690 
  198.7500     2.2210    58.3000    92.6360    90.9830    91.7870    24.4940   -31.1290 
  198.8750     2.2260    60.5590    94.1460    92.5170    84.5720    24.4690   -31.6380 
  199.0000     2.2290    61.4410    96.1780    94.4480    85.3240    24.4910   -32.1460 
  199.1250     2.2270    60.8040    98.5380    96.7710    96.8420    24.5150   -32.6510 
  199.2500     2.2190    58.0090   100.2160    98.6900    99.5550    24.4970   -33.1150 
  199.3750     2.2080    53.5320    99.1610    98.2860    95.3200    24.4370   -33.5080 
  199.5000     2.2020    51.7230    94.8750    94.8000    97.1980    24.3930   -33.8330 
  199.6250     2.2010    54.0490    88.1220    88.6770   103.0050    24.3690   -34.0540 
  199.7500     2.2050    59.2060    80.7060    81.4940    92.9570    24.3570   -34.1610 
  199.8750     2.2110    63.7710    74.8570    75.4050    69.4430    24.2240   -34.1660 
  200.0000     2.2210    66.2580    71.4400    71.4790    55.3560    23.9980   -34.1230 
  200.1250     2.2300    68.1450    70.6050    70.0060    58.2350    23.8190   -34.0330 
  200.2500     2.2330    69.5780    72.1330    70.8810    66.4170    23.7790   -33.9620 
  200.3750     2.2290    68.1160    75.9460    74.1270    72.0510    23.7540   -33.9370 
  200.5000     2.2250    63.0830    81.2490    78.9500    74.2020    23.7210   -33.9790 
  200.6250     2.2240    57.5700    87.6430    84.8670    75.1990    23.7420   -34.1260 
  200.7500     2.2270    56.5400    94.8190    91.4850    78.4730    23.7850   -34.3490 
  200.8750     2.2310    60.8320   102.4660    98.4990    88.3800    23.7760   -34.6280 
  201.0000     2.2320    65.0560   109.8210   105.2550   101.7970    23.7490   -34.9430 
  201.1250     2.2270    65.3760   116.0170   110.9310   110.1130    23.7870   -35.2940 
  201.2500     2.2170    61.7950   120.4180   114.8540   113.1290    23.8790   -35.6640 
  201.3750     2.2060    57.2060   122.8940   116.7510   112.8130    24.0630   -36.0540 
  201.5000     2.1950    55.2920   124.7380   117.7730   117.2450    24.3120   -36.4560 
  201.6250     2.1840    57.5990   127.0590   118.9670   122.1270    24.5400   -36.8760 
  201.7500     2.1760    62.1970   130.5900   121.0960   123.8700    24.6100   -37.3450 
  201.8750     2.1760    62.0020   135.5200   124.4380   123.0900    24.5910   -37.8750 
  202.0000     2.1830    57.7790   140.7970   128.1800   121.3900    24.6030   -38.4390 
  202.1250     2.1930    55.4520   145.1700   131.3300   116.2220    24.6330   -39.0120 
  202.2500     2.2060    58.7810   147.4390   132.9140   106.6520    24.6330   -39.5450 
  202.3750     2.2110    64.0840   146.7890   132.1920   100.0270    24.5890   -40.0140 
  202.5000     2.2040    66.1160   144.5950   130.1380   105.6310    24.5320   -40.4220 
  202.6250     2.1920    67.1510   142.3980   127.9760   110.7110    24.5150   -40.7520 
  202.7500     2.1860    68.0520   141.5740   126.9120   104.3900    24.5310   -41.0120 
  202.8750     2.1850    65.2540   143.1000   127.9080    94.3370    24.5480   -41.2200 
  203.0000     2.1830    59.0200   146.0630   130.3050    96.4110    24.5900   -41.4070 
  203.1250     2.1790    54.0190   149.0700   133.0150   110.9760    24.6330   -41.5800 
  203.2500     2.1760    54.3610   150.4190   134.6640   124.7830    24.6610   -41.7650 
  203.3750     2.1790    57.9760   148.1600   133.5890   134.0720    24.6710   -41.9540 
  203.5000     2.1860    61.9660   142.6170   129.7810   129.8030    24.6220   -42.1390 
  203.6250     2.1960    64.7240   134.6660   123.7390   121.1460    24.5170   -42.3010 
  203.7500     2.2060    64.1860   125.5400   116.3750   115.8630    24.4410   -42.3840 
  203.8750     2.2140    61.6860   116.3970   108.6580   110.0280    24.4070   -42.3120 
  204.0000     2.2170    60.2030   107.7260   101.1690   101.2600    24.3570   -42.0990 
  204.1250     2.2150    60.9710    99.4400    93.8890    92.6770    24.2440   -41.7670 
  204.2500     2.2100    63.2180    91.4110    86.7060    78.3520    24.0220   -41.3490 
  204.3750     2.2110    62.7200    83.8780    79.8000    71.0540    23.8870   -40.8880 
  204.5000     2.2160    60.3200    77.2790    73.5910    66.7320    23.7910   -40.4200 
  204.6250     2.2210    60.2600    72.1730    68.5920    62.8610    23.7020   -39.9570 
  204.7500     2.2230    64.0250    69.0020    65.2310    54.7820    23.4980   -39.5390 
  204.8750     2.2280    65.4880    68.4010    64.1270    50.4610    23.3930   -39.2640 
  205.0000     2.2360    63.3160    70.1370    65.1240    52.0400    23.6030   -39.1380 
  205.1250     2.2410    62.3410    74.3240    68.3440    58.5140    23.9690   -39.1580 
  205.2500     2.2400    63.7930    81.1110    73.9050    67.0290    24.1120   -39.2910 
  205.3750     2.2340    65.2190    91.1460    82.3640    72.3200    23.9690   -39.4900 
  205.5000     2.2210    67.3580   103.9750    93.2790    73.1310    23.8420   -39.6560 
  205.6250     2.2040    68.1650   118.9700   106.0300    84.0880    23.8740   -39.7980 
  205.7500     2.1910    64.6060   134.3080   119.0300   105.4920    23.7420   -39.9530 
  205.8750     2.1890    59.1060   145.5410   128.8170   124.8530    23.9780   -40.1020 
  206.0000     2.1890    56.7790   149.2080   132.7780   128.4130    24.6970   -40.2350 
  206.1250     2.1820    57.3700   144.9970   130.2500   126.0810    25.2180   -40.3270 
  206.2500     2.1730    57.0130   137.0970   123.7630   120.9860    25.1990   -40.3640 
  206.3750     2.1710    54.9200   132.6280   118.7750   116.1500    25.1740   -40.3450 
