~V
VERS. 2.00: Ver 2.00
~W
STRT.M 50.0000:
STOP.M 252.0000:
STEP.M 0.1250:
NULL. -999.2500:
UWI. F10101:
~C
DEPT.M :
DEN.GM/CC :
SP.MV :
GR.API :
RML.OHMM :
RI. :
RXO.OHMM :
CALI.CM :
~A
# ...
  151.2500     2.2560   -10.3930    68.4810    24.2340    21.8680    30.7360    24.7080 
  151.3750     2.2470   -10.4020    68.6800    23.3580    21.2060    27.4740    24.6870 
  151.5000     2.2480   -10.4080    70.8990    22.8330    20.6210    21.0490    24.6250 
  151.6250     2.2540   -10.4170    73.0730    23.4500    20.8290    19.1220    24.6130 
  151.7500     2.2550   -10.4420    71.9300    25.1940    21.9650    23.6800    24.6170 
  151.8750     2.2500   -10.4890    68.7570    27.8620    23.9890    30.4690    24.6020 
  152.0000     2.2430   -10.5360    68.3250    31.0380    26.6700    35.3540    24.6200 
  152.1250     2.2370   -10.5730    71.3710    34.0320    29.5120    35.9790    24.7270 
  152.2500     2.2300   -10.6370    73.6580    36.3300    31.9080    35.0710    24.7780 
  152.3750     2.2220   -10.6960    72.9470    37.9010    33.6580    34.2360    24.7900 
  152.5000     2.2150   -10.7740    69.3460    39.0040    34.9040    36.2490    24.7940 
  152.6250     2.2120   -10.8400    65.2250    39.6790    35.7320    38.5620    24.7810 
  152.7500     2.2140   -10.8720    63.1490    39.6780    36.0190    39.6990    24.7200 
  152.8750     2.2210   -10.9310    63.7520    38.6320    35.4400    39.6570    24.6070 
  153.0000     2.2360   -10.9510    63.7770    36.3790    33.7780    38.4900    24.5260 
  153.1250     2.2560   -10.9530    61.9470    33.0030    30.9870    33.4720    24.4920 
  153.2500     2.2740   -10.9360    62.4450    29.2440    27.7060    27.2520    24.4840 
  153.3750     2.2870   -10.8830    65.9900    25.6170    24.4290    23.2130    24.4920 
  153.5000     2.2940   -10.8540    69.5530    22.4760    21.5150    20.9620    24.4860 
  153.6250     2.2970   -10.7560    70.0210    20.1270    19.2660    19.1260    24.4400 
  153.7500     2.2960   -10.6550    70.8640    18.4690    17.6280    17.2460    24.3730 
  153.8750     2.2940   -10.5770    73.8090    17.3840    16.5240    16.0110    24.2850 
  154.0000     2.2910   -10.4630    77.4920    16.7010    15.8300    15.6010    24.2060 
  154.1250     2.2930   -10.4000    78.9170    16.2710    15.4240    15.7300    24.1580 
  154.2500     2.3000   -10.3530    78.2560    15.9220    15.1230    15.3230    24.0970 
  154.3750     2.3110   -10.3010    77.6710    15.5850    14.8410    14.2770    24.0690 
  154.5000     2.3220   -10.2610    78.5060    15.2490    14.5520    13.2630    24.0740 
  154.6250     2.3270   -10.2660    79.3030    14.9410    14.2700    12.9990    24.1030 
  154.7500     2.3230   -10.2650    78.7070    14.6720    14.0030    13.1570    24.1750 
  154.8750     2.3140   -10.2360    77.5250    14.4390    13.7380    13.3750    24.2800 
  155.0000     2.3070   -10.2680    76.4980    14.2140    13.4430    13.1320    24.3380 
  155.1250     2.3100   -10.2610    76.5180    13.9320    13.0630    12.8930    24.3560 
  155.2500     2.3190   -10.2460    77.3700    13.5600    12.6040    12.7280    24.3750 
  155.3750     2.3270   -10.2450    78.7490    13.1430    12.1290    12.8690    24.4120 
  155.5000     2.3320   -10.2250    80.4830    12.8190    11.7590    12.9520    24.4390 
  155.6250     2.3350   -10.1780    82.0550    12.8750    11.7250    12.5460    24.4330 
  155.7500     2.3370   -10.1490    82.2790    13.5270    12.1790    12.5780    24.3970 
  155.8750     2.3360   -10.1470    80.5980    15.0010    13.2980    14.4710    24.4230 
  156.0000     2.3350   -10.0840    77.7020    17.4600    15.2610    17.8030    24.4760 
  156.1250     2.3380   -10.0520    74.2660    21.0310    18.3420    23.6320    24.4870 
  156.2500     2.3410    -9.9960    69.6940    25.1040    22.1770    30.7970    24.4850 
  156.3750     2.3410    -9.9440    65.3990    28.7790    26.0680    36.1320    24.5210 
  156.5000     2.3360    -9.8950    63.7270    30.8980    28.8700    37.3910    24.5910 
  156.6250     2.3330    -9.7900    64.3040    30.2580    29.1230    36.7360    24.5860 
  156.7500     2.3400    -9.6910    65.4970    27.6150    27.1910    34.3370    24.5330 
  156.8750     2.3590    -9.5920    67.4870    23.9880    23.9580    29.1920    24.4370 
  157.0000     2.3830    -9.4920    71.0580    20.3060    20.3860    21.3630    24.4120 
  157.1250     2.4000    -9.3760    74.7120    17.1310    17.1080    16.8830    24.4470 
  157.2500     2.4060    -9.2910    76.0790    14.4290    14.2200    13.1790    24.4540 
  157.3750     2.4030    -9.1920    76.4990    12.0890    11.6920    11.7480    24.4570 
  157.5000     2.3940    -9.1140    78.6180    10.0170     9.4930    10.3440    24.4740 
  157.6250     2.3840    -9.1120    83.4560     8.2650     7.7030     8.1460    24.4740 
  157.7500     2.3770    -9.0990    87.6500     6.8920     6.3240     6.0850    24.4680 
  157.8750     2.3740    -9.0990    90.0350     6.0120     5.4070     5.1160    24.4820 
  158.0000     2.3720    -9.1380    92.9290     5.7090     4.9880     4.9080    24.5010 
  158.1250     2.3700    -9.1990    94.9990     6.1550     5.1940     5.3140    24.5130 
  158.2500     2.3630    -9.2610    91.3320     7.3010     5.9870     6.9700    24.5040 
  158.3750     2.3470    -9.3310    81.9000     9.1380     7.4030    10.9340    24.4930 
  158.5000     2.3250    -9.4010    73.6010    11.5200     9.4020    15.4130    24.4890 
  158.6250     2.3010    -9.4530    72.6670    14.0390    11.7690    17.2020    24.4890 
  158.7500     2.2840    -9.4920    73.2210    16.0350    13.8880    17.3700    24.4900 
  158.8750     2.2810    -9.5090    72.0550    16.9560    15.1270    17.4020    24.4930 
  159.0000     2.2940    -9.5110    71.1290    16.5300    15.0650    17.0990    24.4900 
  159.1250     2.3140    -9.4770    72.6470    14.8290    13.6550    16.3940    24.4700 
  159.2500     2.3340    -9.4310    74.7990    12.6530    11.6850    15.1540    24.4460 
  159.3750     2.3530    -9.3720    76.2880    10.5330     9.6790    12.0270    24.4680 
  159.5000     2.3660    -9.3030    80.2660     8.8220     7.9750     8.4700    24.4930 
  159.6250     2.3700    -9.2610    87.4400     7.7360     6.7870     6.9900    24.5010 
  159.7500     2.3680    -9.2270    92.1560     7.1070     6.0140     6.7960    24.4990 
  159.8750     2.3630    -9.1980    92.4170     6.8270     5.5910     6.9140    24.5020 
  160.0000     2.3610    -9.1930    91.1050     6.8420     5.4720     6.9580    24.5020 
  160.1250     2.3620    -9.1960    91.2040     7.2270     5.6950     6.9600    24.5060 
  160.2500     2.3660    -9.2300    90.3170     7.9680     6.2210     6.9900    24.5090 
  160.3750     2.3720    -9.2860    86.2980     9.0120     7.0250     7.6760    24.5040 
  160.5000     2.3770    -9.2910    79.6320    10.1460     7.9810    10.3400    24.4960 
  160.6250     2.3830    -9.3200    73.4150    10.8990     8.7480    13.7980    24.4840 
  160.7500     2.3930    -9.3920    71.4120    10.9820     9.0210    14.8860    24.4730 
  160.8750     2.4060    -9.3900    74.6280    10.4320     8.7440    12.2210    24.4840 
  161.0000     2.4180    -9.4010    79.0440     9.5870     8.1320     8.3660    24.4860 
  161.1250     2.4160    -9.4600    80.4680     8.9070     7.5260     7.5340    24.4710 
  161.2500     2.4070    -9.4620    81.4130     8.5830     7.1380     8.1670    24.4730 
  161.3750     2.3990    -9.5090    81.6890     8.5740     6.9930     9.3860    24.4680 
  161.5000     2.3930    -9.5530    80.5680     8.7330     7.0320     9.3800    24.4360 
  161.6250     2.3830    -9.5890    81.4860     8.8820     7.1510     8.8000    24.4460 
  161.7500     2.3670    -9.6420    84.6840     8.9390     7.2440     8.6390    24.4720 
  161.8750     2.3540    -9.7000    85.6740     8.9270     7.2950     9.1820    24.4530 
  162.0000     2.3490    -9.7490    82.8560     8.9110     7.3350     9.1210    24.4240 
  162.1250     2.3520    -9.7500    83.6830     8.9360     7.4120     8.6280    24.4170 
  162.2500     2.3570    -9.7610    88.2770     8.9600     7.5020     8.4080    24.4180 
  162.3750     2.3590    -9.7670    89.2390     8.9070     7.5400     8.5440    24.3940 
