~V
VERS. 2.00: Ver 2.00
~W
STRT.M 55.0000:
STOP.M 288.0000:
STEP.M 0.1250:
NULL. -999.2500:
UWI. F10106:
~C
DEPT.M :
DEN.GM/CC :
SP.MV :
GR.API :
RML.OHMM :
RI. :
RXO.OHMM :
CALI.CM :
~A
# ...
  201.2500     2.2960   -10.6150    61.0710    14.7880    14.1800    17.6290    24.7080 
  201.3750     2.2960   -10.4640    63.3200    13.9140    13.4910    17.0810    24.6900 
  201.5000     2.2950   -10.2960    66.0040    12.6960    12.4390    14.5040    24.6700 
  201.6250     2.3000   -10.1220    66.2530    11.2520    11.1060    13.0540    24.6580 
  201.7500     2.3130    -9.9530    66.5020     9.7730     9.6880    12.8430    24.6640 
  201.8750     2.3300    -9.8110    70.4820     8.3710     8.3100    12.4370    24.6730 
  202.0000     2.3490    -9.7050    75.1440     7.1330     7.0750    11.0590    24.6590 
  202.1250     2.3690    -9.6350    74.7750     6.1990     6.1210     8.1810    24.5980 
  202.2500     2.3900    -9.6050    71.1640     5.6150     5.4870     5.8060    24.5340 
  202.3750     2.4140    -9.6220    68.2190     5.4250     5.2130     5.0090    24.5030 
  202.5000     2.4390    -9.6940    68.0280     5.6230     5.3030     5.1780    24.5200 
  202.6250     2.4600    -9.8320    69.6780     6.1990     5.7740     5.8280    24.5850 
  202.7500     2.4730   -10.0300    72.6490     7.0050     6.5000     6.6890    24.6100 
  202.8750     2.4750   -10.2560    75.7920     7.9350     7.3850     7.7560    24.6020 
  203.0000     2.4670   -10.4940    76.9300     8.8750     8.3160     8.9430    24.5810 
  203.1250     2.4550   -10.7330    76.6840     9.6650     9.1300    10.1150    24.5920 
  203.2500     2.4470   -10.9710    77.6450    10.1770     9.6910    11.1070    24.6060 
  203.3750     2.4460   -11.1780    78.5530    10.3050     9.8870    11.7530    24.6000 
  203.5000     2.4510   -11.3460    76.7990    10.0110     9.6700    11.9580    24.5700 
  203.6250     2.4540   -11.4560    74.0190     9.3430     9.0600    11.4200    24.5640 
  203.7500     2.4520   -11.5330    76.6210     8.5830     8.3100    10.4630    24.5940 
  203.8750     2.4460   -11.6110    82.5180     7.9550     7.6310     9.1170    24.6290 
  204.0000     2.4420   -11.7120    84.3690     7.6250     7.1810     7.5900    24.6460 
  204.1250     2.4430   -11.8430    79.8940     7.7080     7.0880     6.7080    24.6480 
  204.2500     2.4450   -12.0010    76.0750     8.0810     7.2740     6.7870    24.6520 
  204.3750     2.4410   -12.2040    75.4730     8.6140     7.6520     7.3680    24.7160 
  204.5000     2.4260   -12.4580    75.8670     9.1590     8.1040     8.0890    24.8580 
  204.6250     2.4000   -12.7770    77.0680     9.5560     8.4870     8.4980    24.9840 
  204.7500     2.3710   -13.1540    79.5770     9.7630     8.7300     8.7800    24.9790 
  204.8750     2.3470   -13.5570    80.0880     9.8110     8.8280     9.0520    24.8810 
  205.0000     2.3360   -13.9930    78.4810     9.7810     8.8350     9.3020    24.7670 
  205.1250     2.3390   -14.4870    78.6190     9.7880     8.8390     9.2680    24.7170 
  205.2500     2.3510   -15.0250    79.4730     9.9010     8.9160     9.0310    24.7700 
  205.3750     2.3620   -15.5820    77.1830    10.1470     9.1030     8.7730    24.9430 
  205.5000     2.3610   -16.1240    71.6040    10.5180     9.4060     8.7520    25.1990 
  205.6250     2.3340   -16.6140    66.0900    10.9800     9.8150     9.0550    25.5560 
  205.7500     2.2880   -17.0310    60.6730    11.4510    10.2590     9.4070    25.9740 
  205.8750     2.2330   -17.3490    54.4710    11.8590    10.6750     9.4320    26.3240 
  206.0000     2.1800   -17.5440    49.9880    12.1460    11.0050     9.3400    26.4470 
  206.1250     2.1430   -17.5990    51.7140    12.2400    11.1790     9.6420    26.1630 
  206.2500     2.1250   -17.5340    57.8170    12.1610    11.1990    10.1760    25.6860 
  206.3750     2.1270   -17.3720    63.9840    11.9390    11.0830    10.5560    25.3200 
  206.5000     2.1470   -17.1460    67.6140    11.6340    10.8690    10.4210    25.1390 
  206.6250     2.1820   -16.8760    70.1590    11.3140    10.6070     9.6020    24.9890 
  206.7500     2.2210   -16.5840    72.7240    11.0360    10.3540     9.3920    24.8420 
  206.8750     2.2540   -16.3120    74.7660    10.8160    10.1410     9.4420    24.6930 
  207.0000     2.2780   -16.0760    76.9440    10.6340     9.9780     9.6290    24.6070 
  207.1250     2.3000   -15.8790    77.6510    10.4830     9.8650     9.4980    24.5870 
  207.2500     2.3270   -15.7400    76.9120    10.3790     9.7770     8.9860    24.5140 
  207.3750     2.3560   -15.6720    76.6420    10.3280     9.6980     8.8180    24.4160 
  207.5000     2.3690   -15.6590    78.0840    10.3010     9.6110     9.2050    24.3580 
  207.6250     2.3440   -15.7110    80.2210    10.2610     9.5030     9.3880    24.3890 
  207.7500     2.2940   -15.8020    80.6320    10.2050     9.3840     9.1810    24.4680 
  207.8750     2.2440   -15.9100    78.6470    10.1570     9.2680     8.7370    24.5350 
  208.0000     2.2190   -16.0060    74.0950    10.1320     9.1750     8.2240    24.6020 
  208.1250     2.2310   -16.1030    70.2330    10.1200     9.1330     8.1590    24.7250 
  208.2500     2.2630   -16.1940    71.6650    10.1470     9.1470     8.4720    24.9060 
  208.3750     2.2950   -16.2610    76.6090    10.2410     9.2110     8.7530    25.0970 
  208.5000     2.3130   -16.3190    78.6990    10.3240     9.3090     8.8610    25.2700 
  208.6250     2.3130   -16.3620    77.5520    10.4070     9.4130     8.9200    25.3930 
  208.7500     2.3050   -16.4010    78.9950    10.4100     9.4920     9.0130    25.4020 
  208.8750     2.2920   -16.4650    82.6760    10.3620     9.5280     9.1420    25.3480 
  209.0000     2.2770   -16.5770    83.7490    10.2560     9.5100     9.3160    25.2230 
  209.1250     2.2630   -16.6950    78.7110    10.0940     9.4310     9.5920    24.9920 
  209.2500     2.2560   -16.8080    73.3620     9.9020     9.3110     9.7030    24.7130 
  209.3750     2.2570   -16.9310    70.5770     9.7090     9.1710     9.5630    24.5270 
  209.5000     2.2640   -17.0500    70.6120     9.5530     9.0420     9.3250    24.4890 
  209.6250     2.2710   -17.1680    72.3370     9.4950     8.9750     9.1120    24.5430 
  209.7500     2.2770   -17.2930    73.7190     9.5520     8.9970     9.0540    24.6080 
  209.8750     2.2840   -17.4040    75.5160     9.7220     9.1140     9.1310    24.6510 
  210.0000     2.2950   -17.4850    76.7910     9.9690     9.3040     9.4180    24.6740 
  210.1250     2.3140   -17.5790    75.0070    10.2190     9.5090     9.8370    24.6750 
  210.2500     2.3340   -17.6860    74.0580    10.4090     9.6680    10.1330    24.6760 
  210.3750     2.3490   -17.8090    76.5510    10.5430     9.7660    10.1100    24.6760 
  210.5000     2.3550   -17.9520    78.0490    10.7160     9.8600    10.0340    24.6680 
  210.6250     2.3520   -18.1190    74.5970    11.2310    10.1630    10.1910    24.6680 
  210.7500     2.3470   -18.2960    71.5060    12.4350    10.9400    10.9060    24.6850 
  210.8750     2.3420   -18.4850    72.1710    14.7700    12.5450    12.6130    24.7420 
  211.0000     2.3360   -18.6950    72.2540    18.7150    15.4150    15.8450    24.8410 
  211.1250     2.3210   -18.9230    66.4350    25.0230    20.3720    22.4840    24.9580 
  211.2500     2.2940   -19.1480    59.1570    33.3060    27.3700    33.1300    25.0600 
  211.3750     2.2540   -19.3590    54.3810    42.7930    36.0070    46.5480    25.1780 
  211.5000     2.2130   -19.5450    52.2280    52.0000    45.0980    60.0790    25.3270 
  211.6250     2.1870   -19.7010    50.5200    58.4040    52.2730    68.1580    25.3740 
  211.7500     2.1820   -19.8280    50.2460    60.8980    55.9380    67.4910    25.2330 
  211.8750     2.1950   -19.9290    53.1820    59.6940    55.8680    55.4530    25.0100 
  212.0000     2.2170   -20.0190    57.1200    56.3800    53.3480    42.5760    24.8380 
  212.1250     2.2350   -20.0920    60.6790    53.0520    50.3280    38.6580    24.7030 
  212.2500     2.2450   -20.1500    65.1420    50.9750    48.2390    40.2750    24.5190 
  212.3750     2.2520   -20.1960    68.8240    50.4060    47.4900    44.5390    24.2830 
