~V
VERS. 2.00: Ver 2.00
~W
STRT.M 57.0000:
STOP.M 247.0000:
STEP.M 0.1250:
NULL. -999.2500:
UWI. F10194:
~C
DEPT.M :
SP.MV :
DEN.GM/CC :
GR.API :
RML.OHMM :
RI. :
RXO.OHMM :
CALI.CM :
~A
# ...
  214.5000   -18.6130     2.1990    65.7610    55.0760    51.0230    46.0280    24.1070 
  214.6250   -18.8470     2.1910    65.4490    59.1160    54.5930    50.2370    24.2210 
  214.7500   -19.1700     2.1790    64.3880    63.8450    58.9220    55.6710    24.3360 
  214.8750   -19.5550     2.1720    63.8710    69.0840    63.8820    61.0260    24.4070 
  215.0000   -19.9420     2.1690    64.8970    74.6440    69.2900    65.9280    24.4520 
  215.1250   -20.3140     2.1650    66.3530    80.2970    74.9010    71.2910    24.4830 
  215.2500   -20.6930     2.1600    66.5340    85.6510    80.3220    77.4860    24.5010 
  215.3750   -21.0790     2.1580    65.2220    89.7750    84.6840    83.4980    24.5050 
  215.5000   -21.4120     2.1620    63.9620    91.7220    87.1050    88.6860    24.5050 
  215.6250   -21.6410     2.1720    63.7760    90.9780    87.0640    91.5750    24.5050 
  215.7500   -21.7860     2.1830    64.2780    87.7590    84.6330    89.9240    24.5050 
  215.8750   -21.8810     2.1950    64.4200    83.3420    80.7350    82.7000    24.5000 
  216.0000   -21.9200     2.2040    63.5220    79.7400    77.1270    73.5900    24.4830 
  216.1250   -21.8920     2.2100    62.3140    78.7250    75.5790    67.6310    24.4570 
  216.2500   -21.7950     2.2130    62.1530    81.4750    77.4190    67.6320    24.4290 
  216.3750   -21.6360     2.2110    63.0950    89.2200    83.9690    76.2060    24.4270 
  216.5000   -21.4700     2.2030    63.7860   102.0340    95.2690    93.6360    24.4890 
  216.6250   -21.3400     2.1920    63.7790   119.0920   110.3690   116.0870    24.5870 
  216.7500   -21.2190     2.1800    64.2500   139.0150   127.8440   135.9500    24.6400 
  216.8750   -20.9910     2.1680    64.8270   159.4260   145.5410   149.0800    24.6400 
  217.0000   -20.7540     2.1590    63.5440   177.8940   161.5350   154.6140    24.6310 
  217.1250   -20.5950     2.1530    60.8990   193.3450   175.1560   157.6970    24.5960 
  217.2500   -20.4720     2.1530    59.6620   206.3650   187.0460   165.1660    24.4780 
  217.3750   -20.3720     2.1750    60.7330   217.5030   198.1390   176.3490    24.2610 
  217.5000   -20.3010     2.2320    62.2030   224.6580   207.6290   190.5360    24.1300 
  217.6250   -20.2320     2.3160    63.0520   222.6560   211.7920   208.1400    24.1050 
  217.7500   -20.1470     2.3940    63.6940   205.4060   204.9510   222.1780    24.0620 
  217.8750   -20.1390     2.4380    63.6580   168.4380   180.7270   217.9780    24.0320 
  218.0000   -20.1300     2.4660    63.3470   120.1290   141.3730   196.8410    24.0470 
  218.1250   -20.0350     2.5070    64.3780    76.2760    97.5210   161.9630    24.0720 
  218.2500   -19.9290     2.5550    67.1410    45.6930    60.3180   100.5760    24.0870 
  218.3750   -19.8580     2.5680    70.9920    28.3640    36.1330    46.1550    24.1000 
  218.5000   -19.7840     2.5310    74.8180    19.1560    22.7490    21.3200    24.1630 
  218.6250   -19.6850     2.4770    77.7480    13.9480    15.5120    13.8780    24.3170 
  218.7500   -19.5890     2.4420    79.7870    10.9530    11.5870    12.6270    24.4760 
  218.8750   -19.5070     2.4340    80.3400     9.2720     9.4380    12.1020    24.5330 
  219.0000   -19.4450     2.4310    77.9980     8.3500     8.2340    10.6310    24.5400 
  219.1250   -19.4290     2.4150    72.3670     7.8820     7.5730     8.9190    24.6040 
  219.2500   -19.4810     2.3860    65.1830     7.7280     7.2960     8.0590    24.7530 
  219.3750   -19.5880     2.3530    59.0660     7.7790     7.2890     8.0510    24.9180 
  219.5000   -19.6860     2.3310    54.8250     7.8980     7.4110     8.2640    24.9420 
  219.6250   -19.7030     2.3290    53.0500     7.9620     7.5260     8.3900    24.7680 
  219.7500   -19.6120     2.3480    53.6100     7.8990     7.5320     8.3460    24.5040 
  219.8750   -19.4010     2.3750    54.1380     7.6750     7.3560     8.0820    24.2660 
  220.0000   -19.1220     2.3940    53.8860     7.3390     7.0220     7.7020    24.1360 
  220.1250   -18.8970     2.3960    54.0450     6.9710     6.6100     7.2670    24.0930 
  220.2500   -18.6950     2.3860    55.0770     6.6400     6.1990     6.8140    24.0750 
  220.3750   -18.4160     2.3760    55.7570     6.4090     5.8640     6.4680    24.0500 
  220.5000   -18.1380     2.3780    55.9890     6.3010     5.6410     6.3430    24.0290 
  220.6250   -17.9460     2.3870    56.4330     6.3150     5.5380     6.4130    24.0220 
  220.7500   -17.8730     2.3990    56.3670     6.4390     5.5480     6.6010    24.0190 
  220.8750   -17.9750     2.4050    55.0530     6.6540     5.6640     6.8600    24.0070 
  221.0000   -18.2120     2.4080    54.0480     6.9280     5.8560     7.2450    23.9910 
  221.1250   -18.4520     2.4110    55.7260     7.2250     6.0910     7.7770    23.9900 
  221.2500   -18.6930     2.4170    60.6140     7.5160     6.3410     8.4050    23.9970 
  221.3750   -19.0170     2.4260    67.2080     7.7500     6.5750     8.8380    23.9460 
  221.5000   -19.4040     2.4350    73.6250     7.8920     6.7660     9.0360    23.8520 
  221.6250   -19.8100     2.4410    79.3940     7.9320     6.8950     9.2150    23.7860 
  221.7500   -20.1880     2.4440    85.1650     7.8510     6.9520     9.1620    23.7660 
  221.8750   -20.4880     2.4450    90.7700     7.7350     6.9440     8.9020    23.7630 
  222.0000   -20.7220     2.4480    96.2840     7.6820     6.8970     8.6660    23.7620 
  222.1250   -20.9040     2.4540   102.2030     7.7000     6.8470     8.5470    23.7610 
  222.2500   -21.0520     2.4590   107.2670     7.7740     6.8200     8.5520    23.7560 
  222.3750   -21.1830     2.4590   108.3040     7.9110     6.8360     8.6810    23.7400 
  222.5000   -21.2740     2.4520   105.3710     8.0400     6.8940     8.8150    23.7160 
  222.6250   -21.3300     2.4450   101.8610     8.1490     6.9820     8.9030    23.6990 
  222.7500   -21.3930     2.4410   100.3280     8.2500     7.0860     9.0020    23.6940 
  222.8750   -21.4540     2.4370   101.5080     8.3170     7.1880     9.1140    23.6930 
  223.0000   -21.4950     2.4310   103.6320     8.3410     7.2790     9.1880    23.6930 
  223.1250   -21.5120     2.4270   104.4720     8.3300     7.3520     9.1930    23.6900 
  223.2500   -21.4900     2.4270   104.0430     8.3010     7.4060     9.1240    23.6800 
  223.3750   -21.3170     2.4360   105.3410     8.2730     7.4370     9.0290    23.6630 
  223.5000   -21.0560     2.4440   109.2530     8.2560     7.4450     8.9580    23.6720 
  223.6250   -20.8630     2.4480   112.7050     8.2460     7.4280     8.8950    23.7040 
  223.7500   -20.7370     2.4470   113.8180     8.2350     7.3870     8.7920    23.6540 
  223.8750   -20.6500     2.4420   113.9040     8.2130     7.3240     8.6590    23.5630 
  224.0000   -20.6050     2.4320   114.9390     8.1800     7.2450     8.5540    23.5050 
  224.1250   -20.6200     2.4170   116.7040     8.1410     7.1590     8.5070    23.4850 
  224.2500   -20.7050     2.4010   117.9140     8.1030     7.0720     8.4930    23.4820 
  224.3750   -20.9210     2.3830   117.6400     8.0810     6.9930     8.3560    23.4840 
  224.5000   -21.2280     2.3660   115.8920     8.1190     6.9440     8.2460    23.4900 
  224.6250   -21.5100     2.3500   113.6140     8.3070     6.9840     8.2790    23.5010 
  224.7500   -21.7920     2.3350   111.6880     8.7990     7.2240     8.4450    23.5040 
  224.8750   -22.1560     2.3240   108.7680     9.8890     7.9060     9.2880    23.5320 
  225.0000   -22.6120     2.3190   103.4680    11.8420     9.2860    11.7040    23.5530 
  225.1250   -23.0760     2.3200    97.1070    14.8760    11.6190    16.4570    23.5010 
  225.2500   -23.4140     2.3230    90.9780    19.1280    15.1230    23.6710    23.4170 
  225.3750   -23.5160     2.3290    83.9510    24.4920    19.8560    32.8990    23.3630 
  225.5000   -23.3740     2.3510    75.8990    30.1760    25.2330    41.0620    23.3490 
  225.6250   -22.9880     2.3950    68.9020    34.9130    30.1720    46.0170    23.3460 
