~V
VERS. 2.00: Ver 2.00
~W
STRT.M 49.0000:
STOP.M 245.0000:
STEP.M 0.1250:
NULL. -999.2500:
UWI. F10179:
~C
DEPT.M :
DEN.GM/CC :
GR.API :
RML.OHMM :
RI. :
RXO.OHMM :
CALI.CM :
SP.MV :
~A
# ...
   60.2500     2.3150    98.4470     4.5290     4.3680     4.6660    23.7970   -43.3800 
   60.3750     2.3040    92.8280     4.7840     4.5100     4.9060    23.6010   -43.7260 
   60.5000     2.2920    86.6820     5.2920     4.8390     5.2670    23.4470   -44.2910 
   60.6250     2.2780    82.0210     6.0630     5.3460     6.2390    23.4640   -45.1080 
   60.7500     2.2600    76.1610     7.0390     6.0010     7.8020    23.7700   -46.1410 
   60.8750     2.2240    66.8890     8.0560     6.7340     9.6780    24.5250   -47.3610 
   61.0000     2.1690    58.9450     8.8860     7.4100    10.8550    25.7860   -48.6420 
   61.1250     2.1050    55.6490     9.3980     7.9240    11.5710    27.5790   -49.8630 
   61.2500     2.0450    55.3710     9.5670     8.2100    11.3310    29.5740   -50.9170 
   61.3750     2.0090    57.0610     9.4010     8.2020     9.8490    30.2430   -51.6290 
   61.5000     2.0040    61.2790     8.9970     7.9460     8.6130    29.2140   -52.0010 
   61.6250     2.0380    67.5950     8.3800     7.4580     8.6900    27.3390   -51.9900 
   61.7500     2.1060    74.1790     7.5910     6.7840     9.3320    25.4510   -51.5480 
   61.8750     2.1870    79.7810     6.7310     6.0170     9.0180    24.2990   -50.6830 
   62.0000     2.2440    82.6140     5.9780     5.3100     7.1000    24.0370   -49.5840 
   62.1250     2.2640    84.6410     5.4630     4.7670     5.4740    23.9630   -48.3560 
   62.2500     2.2560    87.7530     5.2520     4.4410     4.8770    23.8670   -47.0950 
   62.3750     2.2270    88.9350     5.3910     4.3830     5.0600    23.8830   -45.9510 
   62.5000     2.1760    85.2840     5.7590     4.5310     5.5410    24.2670   -45.0330 
   62.6250     2.1060    80.1630     6.2280     4.8200     6.4480    25.1020   -44.3810 
   62.7500     2.0480    76.2300     6.6360     5.1410     7.4190    26.1940   -43.9540 
   62.8750     2.0600    72.7510     6.7960     5.3530     7.5120    26.4560   -43.7520 
   63.0000     2.1360    72.1960     6.6940     5.3920     7.2120    25.2040   -43.6530 
   63.1250     2.2370    78.6430     6.4000     5.2600     6.6840    23.5870   -43.6230 
   63.2500     2.2980    90.3140     6.0560     5.0290     5.6950    22.7090   -43.6700 
   63.3750     2.2930    98.8070     5.8200     4.8110     5.2480    22.5340   -43.7650 
   63.5000     2.2730    98.1050     5.7130     4.6660     5.4350    22.5720   -43.9180 
   63.6250     2.2580    91.7340     5.6740     4.5880     6.2800    22.6640   -44.0300 
   63.7500     2.2460    86.9920     5.6250     4.5440     7.1040    22.7840   -44.1180 
   63.8750     2.2360    88.8960     5.5220     4.4920     6.9730    23.0310   -44.1760 
   64.0000     2.2250    93.7920     5.4330     4.4340     6.0760    23.3610   -44.1250 
   64.1250     2.2170    97.6080     5.4660     4.4220     5.2280    23.7040   -44.0690 
   64.2500     2.2160    97.1720     5.7010     4.5200     5.1540    23.7930   -44.0040 
   64.3750     2.2280    91.6040     6.1570     4.7860     5.6670    23.7600   -43.8400 
   64.5000     2.2440    85.4650     6.6640     5.1430     6.6230    23.6990   -43.5630 
   64.6250     2.2520    79.7290     7.0390     5.4720     7.5120    23.7370   -43.1490 
   64.7500     2.2430    75.5850     7.1250     5.6340     7.9800    23.8480   -42.5850 
   64.8750     2.2250    77.3920     6.8330     5.5030     7.8730    23.9490   -41.8070 
   65.0000     2.2230    81.5870     6.3520     5.1730     6.9290    23.8550   -40.8710 
   65.1250     2.2430    85.0610     5.8580     4.7720     5.7490    23.6590   -39.7700 
   65.2500     2.2690    89.7890     5.4810     4.4170     5.1960    23.4720   -38.4800 
   65.3750     2.2750    95.0660     5.2970     4.1970     4.8990    23.4600   -37.0660 
   65.5000     2.2640    95.5880     5.2570     4.1000     4.7720    23.6360   -35.6340 
   65.6250     2.2500    93.0900     5.3160     4.0980     4.8220    23.8430   -34.3160 
   65.7500     2.2450    92.3660     5.4250     4.1510     4.8900    23.8440   -33.2150 
   65.8750     2.2510    94.3980     5.5550     4.2300     4.8620    23.7330   -32.4480 
   66.0000     2.2570    94.9760     5.6980     4.3270     5.0050    23.6720   -32.0690 
   66.1250     2.2540    92.1620     5.8630     4.4540     5.2730    23.6370   -31.9870 
   66.2500     2.2430    85.8040     6.0570     4.6240     5.5610    23.5760   -32.1860 
   66.3750     2.2310    80.9710     6.2840     4.8390     6.3680    23.4980   -32.6500 
   66.5000     2.2230    80.5340     6.5310     5.0770     7.4190    23.5300   -33.1450 
   66.6250     2.2170    79.4780     6.7940     5.3200     7.9010    23.6960   -33.5760 
   66.7500     2.2110    73.7130     7.0480     5.5420     7.9460    23.9610   -33.8360 
   66.8750     2.2070    68.2440     7.2190     5.6840     8.0030    24.2200   -33.8740 
   67.0000     2.2070    69.2050     7.2360     5.7130     8.0050    24.2660   -33.6640 
   67.1250     2.2110    74.6790     7.0560     5.6010     8.0100    24.0210   -33.1790 
   67.2500     2.2190    81.3360     6.6920     5.3540     7.5080    23.5820   -32.4350 
   67.3750     2.2310    92.0540     6.2310     5.0090     6.1930    23.3190   -31.4120 
   67.5000     2.2460   105.6680     5.8190     4.6580     4.6680    23.1670   -30.2940 
   67.6250     2.2610   114.4540     5.5300     4.3570     4.0410    23.0620   -29.1940 
   67.7500     2.2830   112.6100     5.3590     4.1270     3.8870    22.9630   -28.2500 
   67.8750     2.3150   105.3090     5.2230     3.9640     3.8840    22.8550   -27.5580 
   68.0000     2.3410   100.8870     5.0400     3.8330     3.9350    22.7640   -27.0520 
   68.1250     2.3530   100.8580     4.8620     3.7500     3.9460    22.7140   -26.7750 
   68.2500     2.3490   101.5040     4.8830     3.7870     3.9220    22.6630   -26.7390 
   68.3750     2.3370    97.5660     5.4750     4.1140     4.0170    22.6000   -27.0050 
   68.5000     2.3340    89.9190     6.7770     4.8150     4.6410    22.5780   -27.4910 
   68.6250     2.3540    81.5220     8.7910     5.9530     6.6670    22.6630   -28.1280 
   68.7500     2.4030    74.2710    11.2190     7.4710    12.1290    22.8650   -28.8720 
   68.8750     2.4490    65.9810    13.2080     8.9940    17.1800    23.1740   -29.7160 
   69.0000     2.4330    58.0800    13.9690     9.9190    14.9550    23.5700   -30.6490 
   69.1250     2.3490    54.3650    13.3710     9.9760    10.9970    24.0200   -31.6740 
   69.2500     2.2520    56.5480    12.0120     9.4050     9.3170    24.3960   -32.7560 
   69.3750     2.1950    60.9640    10.8010     8.7120     9.2780    24.6860   -33.8200 
   69.5000     2.1740    60.8780    10.1660     8.2510     9.3820    24.9360   -34.8110 
   69.6250     2.1720    56.7550    10.0660     8.0790     9.3870    25.1510   -35.6920 
   69.7500     2.1780    53.7760    10.2830     8.1310     9.2130    25.3890   -36.4330 
   69.8750     2.1830    54.4510    10.5840     8.2930     9.0230    25.6770   -36.9650 
   70.0000     2.1930    55.7980    10.7990     8.4310     8.8450    25.9650   -37.3130 
   70.1250     2.2180    56.7440    10.8690     8.4760     8.6420    26.1720   -37.4740 
   70.2500     2.2450    57.4010    10.7900     8.4080     8.4530    26.3400   -37.4610 
   70.3750     2.2380    55.9860    10.6060     8.2620     8.3040    26.4750   -37.3120 
   70.5000     2.1970    53.0040    10.4230     8.1220     8.3090    26.4340   -37.1270 
   70.6250     2.1580    52.3850    10.3150     8.0450     8.4050    26.3270   -36.9590 
   70.7500     2.1410    55.9200    10.3240     8.0580     8.5480    26.1800   -36.8590 
   70.8750     2.1440    58.9050    10.4620     8.1630     8.7090    25.8360   -36.8890 
   71.0000     2.1520    58.0880    10.6650     8.3030     8.7840    25.4410   -37.0800 
   71.1250     2.1610    55.6240    10.8900     8.4370     8.9110    25.1420   -37.4730 
   71.2500     2.1680    53.8050    11.0990     8.5410     9.1480    25.0200   -38.0460 
   71.3750     2.1670    54.5470    11.2130     8.5780     9.2970    25.0870   -38.7360 
