~V
VERS. 2.00: Ver 2.00
~W
STRT.M 58.0000:
STOP.M 228.0000:
STEP.M 0.1250:
NULL. -999.2500:
UWI. F10151:
~C
DEPT.M :
SP.MV :
GR.API :
RML.OHMM :
RI. :
RXO.OHMM :
CALI.CM :
DEN.GM/CC :
~A
# ...
  204.2500    -1.0120    82.8040     8.1560     6.5090     6.3440    23.7350     2.3480 
  204.3750    -0.8740    77.5140     8.1430     6.4050     5.9480    23.7280     2.3720 
  204.5000    -0.7230    71.7530     8.1350     6.3440     5.5990    23.9040     2.3860 
  204.6250    -0.5610    68.1130     8.1480     6.3500     5.3740    24.0020     2.3830 
  204.7500    -0.4220    67.8900     8.2010     6.4140     5.2820    24.0060     2.3710 
  204.8750    -0.3600    70.4770     8.3120     6.5270     5.3670    23.9070     2.3600 
  205.0000    -0.3190    74.5270     8.4940     6.6690     5.4900    23.7170     2.3530 
  205.1250    -0.3590    77.2160     8.7360     6.8170     5.2240    23.6220     2.3480 
  205.2500    -0.4640    76.4760     8.9700     6.9440     5.0380    23.7400     2.3420 
  205.3750    -0.5290    73.6430     9.1320     7.0260     4.9430    23.9050     2.3360 
  205.5000    -0.5500    71.6280     9.1690     7.0390     5.0470    23.9790     2.3290 
  205.6250    -0.5570    71.4610     9.0550     6.9590     5.1280    24.0550     2.3220 
  205.7500    -0.4380    71.6420     8.8600     6.8140     5.3670    23.9920     2.3190 
  205.8750    -0.2140    70.6880     8.6530     6.6380     5.5600    24.0480     2.3230 
  206.0000     0.0010    67.6840     8.5000     6.4810     5.8400    24.1060     2.3380 
  206.1250     0.2400    65.1470     8.4580     6.3970     7.3540    24.0290     2.3640 
  206.2500     0.4880    65.9440     8.5060     6.3910     9.9680    23.8970     2.3850 
  206.3750     0.6880    68.3470     8.6170     6.4570    10.7940    23.8080     2.3940 
  206.5000     0.8470    69.1780     8.7640     6.5850     7.4690    23.6850     2.3870 
  206.6250     0.9270    67.4520     8.9410     6.7640     5.8890    23.7490     2.3740 
  206.7500     0.9140    67.3820     9.1420     6.9690     5.8340    23.8780     2.3680 
  206.8750     0.8290    70.3610     9.3620     7.1820     6.7680    23.9420     2.3730 
  207.0000     0.7250    73.3110     9.5820     7.3850     8.2600    24.0370     2.3820 
  207.1250     0.6800    74.5080     9.7640     7.5490     8.8410    24.1000     2.3870 
  207.2500     0.6960    75.5480     9.8980     7.6720     8.7930    24.0870     2.3870 
  207.3750     0.7270    77.2530     9.9940     7.7640     8.7080    24.0150     2.3910 
  207.5000     0.7570    76.2080    10.0790     7.8390     8.8190    24.0500     2.4060 
  207.6250     0.8520    74.1160    10.1860     7.9070     8.7840    24.0160     2.4320 
  207.7500     0.9080    76.0240    10.3130     7.9750     8.6310    24.0840     2.4550 
  207.8750     0.9010    79.2300    10.4380     8.0390     8.5310    24.1280     2.4630 
  208.0000     0.8980    77.4760    10.5290     8.0890     8.4350    24.1430     2.4510 
  208.1250     0.8340    71.5470    10.5580     8.1160     8.2240    24.1370     2.4300 
  208.2500     0.7000    68.5330    10.5440     8.1310     8.0990    24.1130     2.4170 
  208.3750     0.5700    69.0560    10.5230     8.1460     8.1890    24.0580     2.4220 
  208.5000     0.4620    70.6380    10.5340     8.1730     8.3500    24.0680     2.4420 
  208.6250     0.3810    71.5130    10.6120     8.2280     8.5100    24.1380     2.4630 
  208.7500     0.3410    74.4450    10.7570     8.3220     8.9000    24.1610     2.4700 
  208.8750     0.3440    80.1700    10.9720     8.4710     9.7040    24.1340     2.4530 
  209.0000     0.3730    84.8260    11.2600     8.6950    10.3500    24.1040     2.4170 
  209.1250     0.4030    82.2870    11.6330     9.0170    10.8340    24.0540     2.3790 
  209.2500     0.4340    77.8390    12.0550     9.4000    11.8500    24.1230     2.3620 
  209.3750     0.4980    78.0040    12.4670     9.7880    13.4410    24.2220     2.3780 
  209.5000     0.5710    81.1770    12.7770    10.0980    15.3520    24.2980     2.4220 
  209.6250     0.6260    83.4710    12.8570    10.2120    13.4470    24.2030     2.4760 
  209.7500     0.7280    85.6470    12.7310    10.1370    11.6990    24.1040     2.5150 
  209.8750     0.8790    86.1410    12.4980     9.9340    10.4310    24.0270     2.5320 
  210.0000     1.0330    82.0820    12.3100     9.7140     9.2470    23.9290     2.5310 
  210.1250     1.1750    76.2320    12.3330     9.6020     7.9970    23.7970     2.5190 
  210.2500     1.3600    73.0990    12.5480     9.6360     8.4360    23.8140     2.5040 
  210.3750     1.5530    71.9950    12.8600     9.8090    11.1030    23.9070     2.4970 
  210.5000     1.7250    71.1830    13.1340    10.0730    15.7640    23.9840     2.5030 
  210.6250     1.8760    70.0430    13.2540    10.3410    15.8680    23.9680     2.5210 
  210.7500     1.9650    70.8170    13.2480    10.5380    13.4430    23.9060     2.5360 
  210.8750     1.9970    75.1990    13.1840    10.6410    11.0590    23.8290     2.5360 
  211.0000     1.9940    82.0340    13.1240    10.6630     8.9820    23.7490     2.5170 
  211.1250     2.0250    84.0870    13.1010    10.6380     7.7460    23.6720     2.4910 
  211.2500     2.0650    80.7780    13.1010    10.6120     6.9890    23.7030     2.4770 
  211.3750     2.0710    76.5980    13.1140    10.6110     6.8410    23.8950     2.4790 
  211.5000     2.0900    74.1550    13.1470    10.6490     6.9300    24.0620     2.4900 
  211.6250     2.1050    75.1600    13.2280    10.7490     7.0890    24.0690     2.4910 
  211.7500     2.1250    78.1410    13.3530    10.8980     7.4010    24.0000     2.4750 
  211.8750     2.1990    80.7530    13.4910    11.0640     7.7170    23.9820     2.4500 
  212.0000     2.3270    81.4220    13.5890    11.2020     7.7100    23.9720     2.4330 
  212.1250     2.4410    81.3620    13.5760    11.2530     7.5960    23.9170     2.4400 
  212.2500     2.5290    82.6500    13.4410    11.2070     7.3060    23.9290     2.4680 
  212.3750     2.5980    83.5460    13.2020    11.0690     6.8550    23.9790     2.5060 
  212.5000     2.6030    83.3680    12.9030    10.8690     6.6150    23.9340     2.5380 
  212.6250     2.5930    81.4780    12.6100    10.6560     7.2300    23.8190     2.5470 
  212.7500     2.6160    78.5320    12.3800    10.4740     8.3670    23.8120     2.5320 
  212.8750     2.6330    76.6590    12.2300    10.3380     9.1490    23.8150     2.5000 
  213.0000     2.6160    76.9950    12.1420    10.2430     9.7260    23.7950     2.4600 
  213.1250     2.5770    77.4420    12.0700    10.1700    10.3030    23.8120     2.4250 
  213.2500     2.5480    75.0500    11.9750    10.1000    10.2330    23.8790     2.4030 
  213.3750     2.5290    70.4930    11.8630    10.0330     9.4340    23.9180     2.3960 
  213.5000     2.5390    67.6060    11.7730     9.9830     8.8570    23.9140     2.4010 
  213.6250     2.5800    69.3120    11.7660     9.9800     8.1630    23.9160     2.4140 
  213.7500     2.6250    71.9290    11.8380    10.0330     7.3890    23.9440     2.4310 
  213.8750     2.6610    70.8080    11.9500    10.1280     6.7390    23.9350     2.4500 
  214.0000     2.6930    67.0140    12.0390    10.2260     6.4110    23.9860     2.4680 
  214.1250     2.7180    66.6390    12.0370    10.2730     6.4500    24.0220     2.4810 
  214.2500     2.7020    70.9330    11.9490    10.2540     6.7530    24.0400     2.4850 
  214.3750     2.6720    75.0530    11.8150    10.1830     7.1500    24.0450     2.4790 
  214.5000     2.6730    75.2800    11.6910    10.1010     7.6640    24.0410     2.4660 
  214.6250     2.6690    72.5870    11.6520    10.0630     8.1460    24.0490     2.4510 
  214.7500     2.6410    70.2870    11.7120    10.0940     8.2070    24.1260     2.4380 
  214.8750     2.5900    68.8390    11.8600    10.1960     7.8530    24.1410     2.4310 
  215.0000     2.5000    68.4010    12.0640    10.3550     7.2410    24.0400     2.4350 
  215.1250     2.4330    68.8590    12.2780    10.5470     6.4770    23.8780     2.4500 
  215.2500     2.4040    69.3750    12.4580    10.7330     6.0460    23.7970     2.4720 
  215.3750     2.4280    69.5120    12.5870    10.8950     6.0840    23.8090     2.4940 
