~V
VERS. 2.00: Ver 2.00
~W
STRT.M 50.0000:
STOP.M 224.0000:
STEP.M 0.1250:
NULL. -999.2500:
UWI. F10153:
~C
DEPT.M :
GR.API :
RML.OHMM :
RI. :
RXO.OHMM :
CALI.CM :
SP.MV :
DEN.GM/CC :
~A
# ...
  162.5000    72.2570    84.7350    82.2490    71.2800    23.2760   -31.0390     2.2560 
  162.6250    70.1460    86.7850    83.3870    66.0750    23.2520   -30.9480     2.2600 
  162.7500    68.2550    87.8010    83.2920    68.8830    23.2110   -30.9240     2.2620 
  162.8750    67.6850    89.3800    83.3350    69.6220    23.1530   -30.9350     2.2600 
  163.0000    67.6340    93.0610    85.0260    66.7380    23.0950   -30.9560     2.2570 
  163.1250    67.1670    99.2810    88.9590    69.1510    23.0440   -30.9790     2.2530 
  163.2500    66.4020   107.0170    94.3910    74.4940    22.9970   -31.0100     2.2510 
  163.3750    66.5260   114.1830    99.8890    78.8830    22.9460   -31.0560     2.2470 
  163.5000    67.2980   118.3590   103.5960    87.2710    22.8970   -31.0950     2.2400 
  163.6250    66.5090   118.3740   104.5200    97.0670    22.8670   -31.1020     2.2340 
  163.7500    64.3820   115.4300   103.3470   100.8600    22.8580   -31.0740     2.2300 
  163.8750    63.5140   111.5470   101.4220    95.0050    22.8740   -30.9900     2.2320 
  164.0000    64.9410   109.0830   100.5570    85.9540    22.9290   -30.8470     2.2340 
  164.1250    66.7450   108.1860   100.9640    83.7310    23.0000   -30.6500     2.2230 
  164.2500    67.7270   106.9450   101.0750    91.8910    23.0110   -30.4260     2.1950 
  164.3750    68.8210   100.6430    96.5430   100.3980    22.8810   -30.2050     2.1580 
  164.5000    70.9630    87.4360    85.1920    94.6430    22.7300   -29.9910     2.1360 
  164.6250    72.7640    69.9480    68.9470    69.3640    22.7090   -29.7530     2.1530 
  164.7500    73.1390    52.3100    51.8330    37.6660    22.7960   -29.4790     2.2060 
  164.8750    72.8320    38.6290    38.1510    18.9960    22.9280   -29.1840     2.2830 
  165.0000    72.4770    29.5820    28.9790    13.0630    23.0810   -28.9160     2.3550 
  165.1250    70.3880    24.3930    23.5990    12.2100    23.2290   -28.7130     2.4050 
  165.2500    66.1920    21.8020    20.6940    12.5470    23.3160   -28.5500     2.4380 
  165.3750    61.3280    21.6460    20.0150    13.3110    23.3100   -28.3810     2.4520 
  165.5000    58.7400    23.2720    20.9520    15.8270    23.3040   -28.2330     2.4550 
  165.6250    59.5020    25.6410    23.3030    22.1730    23.3610   -28.1780     2.4430 
  165.7500    61.8460    29.1000    26.8600    28.4460    23.4600   -28.2130     2.4140 
  165.8750    62.6540    35.1010    32.2780    29.3690    23.5670   -28.3170     2.3650 
  166.0000    61.0180    43.9140    40.1980    29.5180    23.6750   -28.4430     2.3100 
  166.1250    59.2680    56.6820    51.7870    39.0530    23.8250   -28.5510     2.2670 
  166.2500    58.6380    73.7990    67.1800    68.4520    24.0430   -28.6340     2.2440 
  166.3750    57.8030    96.9620    86.9180   112.0290    24.2940   -28.6990     2.2540 
  166.5000    55.3860   123.2310   107.7740   134.6390    24.4250   -28.7110     2.2910 
  166.6250    52.6770   145.3180   124.2460   134.7790    24.3510   -28.6320     2.3480 
  166.7500    51.8680   158.0380   133.4560   126.5880    24.1620   -28.4930     2.4130 
  166.8750    53.2830   155.3750   131.8240   125.3930    24.0110   -28.3240     2.4810 
  167.0000    52.8910   141.4020   122.0840   124.4760    23.9610   -28.1280     2.5390 
  167.1250    50.2080   121.7390   107.6440   115.4560    23.9650   -27.9140     2.5800 
  167.2500    48.2110   100.7600    91.4220    97.3820    23.9800   -27.7130     2.6040 
  167.3750    49.6330    82.6090    76.2860    81.6140    24.0290   -27.5590     2.6130 
  167.5000    52.5960    69.0270    64.0860    73.9970    24.1150   -27.4370     2.6140 
  167.6250    54.5760    59.8640    55.2160    65.5100    24.1590   -27.3040     2.6100 
  167.7500    55.7610    53.4930    48.6200    54.6500    24.0940   -27.1350     2.6030 
  167.8750    57.6080    47.8100    42.8300    46.9510    23.8960   -26.9230     2.5940 
  168.0000    59.9350    40.3640    36.0720    41.8270    23.6870   -26.7220     2.5860 
  168.1250    61.3420    31.7180    28.2960    35.1200    23.5840   -26.5540     2.5780 
  168.2500    61.4350    23.1830    20.6460    25.2570    23.5900   -26.4000     2.5670 
  168.3750    61.5450    16.3110    14.7340    14.9310    23.6570   -26.2490     2.5470 
  168.5000    62.4700    11.7930    10.8800     8.5980    23.6690   -26.1220     2.5210 
  168.6250    62.9550     9.2820     8.7580     6.4690    23.5940   -26.0600     2.5030 
  168.7500    62.8280     8.1990     7.7930     6.4990    23.4960   -26.0620     2.4990 
  168.8750    62.8020     8.4200     7.8550     7.2020    23.4530   -26.1280     2.5160 
  169.0000    63.2440     9.2810     8.5410     8.5780    23.4270   -26.2300     2.5450 
  169.1250    63.8050    10.2620     9.4490    10.6690    23.3680   -26.3510     2.5700 
  169.2500    64.2540    11.0460    10.2540    11.0480    23.3080   -26.4770     2.5880 
  169.3750    63.8020    11.2680    10.5670     9.1460    23.3590   -26.5820     2.5950 
  169.5000    62.3580    10.9190    10.3280     7.9660    23.5180   -26.6640     2.5970 
  169.6250    61.8890    10.1230     9.6380     8.1520    23.6650   -26.7450     2.5940 
  169.7500    63.4890     9.0630     8.6760     8.1270    23.7310   -26.8430     2.5830 
  169.8750    65.4110     7.8940     7.5810     6.8610    23.7250   -26.9740     2.5640 
  170.0000    64.7780     6.8150     6.5390     5.5900    23.7380   -27.1100     2.5390 
  170.1250    62.2180     5.9670     5.6820     4.9330    23.7840   -27.2600     2.5070 
  170.2500    59.6790     5.3610     5.0310     4.5260    23.8230   -27.4630     2.4720 
  170.3750    59.3600     5.0490     4.6410     4.2230    23.8240   -27.7530     2.4340 
  170.5000    61.8930     4.9310     4.4420     4.1240    23.8100   -28.0860     2.4020 
  170.6250    65.3720     4.9130     4.3550     4.3070    23.8040   -28.4010     2.3860 
  170.7500    67.3080     4.9510     4.3310     4.6470    23.8010   -28.6820     2.3850 
  170.8750    65.1170     5.0550     4.3760     4.7900    23.7910   -28.9430     2.3970 
  171.0000    60.7810     5.2270     4.4920     4.6140    23.7590   -29.2150     2.4090 
  171.1250    57.8110     5.4470     4.6650     4.5350    23.6960   -29.4740     2.4120 
  171.2500    57.2920     5.6790     4.8640     4.6350    23.6080   -29.6860     2.4050 
  171.3750    59.6920     5.8730     5.0430     4.7850    23.5030   -29.8370     2.3900 
  171.5000    62.3060     6.0060     5.1640     4.8760    23.3920   -29.9860     2.3760 
  171.6250    62.8840     6.0970     5.2250     4.8640    23.3000   -30.1850     2.3710 
  171.7500    61.3130     6.1870     5.2550     4.8840    23.2430   -30.4230     2.3750 
  171.8750    58.0670     6.3340     5.3000     4.9490    23.2360   -30.6670     2.3860 
  172.0000    55.0300     6.5520     5.3880     5.0390    23.2710   -30.8930     2.4000 
  172.1250    53.7040     6.8030     5.5090     5.2080    23.3400   -31.1110     2.4120 
  172.2500    53.9200     7.0430     5.6360     5.3540    23.4140   -31.3230     2.4240 
  172.3750    54.1290     7.2140     5.7290     5.3070    23.4480   -31.5250     2.4350 
  172.5000    52.8680     7.3130     5.7730     5.1220    23.4450   -31.7150     2.4450 
  172.6250    51.8410     7.3790     5.7890     4.9930    23.4360   -31.8960     2.4510 
  172.7500    53.0710     7.4560     5.8080     4.9890    23.4270   -32.0780     2.4510 
  172.8750    57.3520     7.5840     5.8660     5.1680    23.4100   -32.2560     2.4490 
  173.0000    61.3100     7.7550     5.9640     5.4150    23.3890   -32.4230     2.4500 
  173.1250    63.0010     7.9250     6.0760     5.5870    23.3780   -32.6290     2.4540 
  173.2500    65.0420     8.0600     6.1750     5.6520    23.3780   -32.9070     2.4530 
  173.3750    72.7820     8.1410     6.2350     5.6910    23.3770   -33.2660     2.4420 
  173.5000    85.1770     8.2140     6.2770     5.7960    23.3770   -33.6520     2.4220 
  173.6250    97.5630     8.3460     6.3430     5.8370    23.4230   -34.0190     2.4030 
