~V
VERS. 2.00: Ver 2.00
~W
STRT.M 55.0000:
STOP.M 239.0000:
STEP.M 0.1250:
NULL. -999.2500:
UWI. F10186:
~C
DEPT.M :
GR.API :
RML.OHMM :
RI. :
RXO.OHMM :
CALI.CM :
DEN.GM/CC :
SP.MV :
~A
# ...
  111.2500    64.7390    11.9500    10.8160    16.5420    22.7250     2.3480   -10.9480 
  111.3750    64.5200    10.2510     9.5620    10.7700    22.4970     2.2940   -11.3250 
  111.5000    65.4460     9.0010     8.4970     9.0680    22.4890     2.2470   -11.6650 
  111.6250    65.4120     8.4400     7.8770     8.7910    22.5060     2.2220   -11.9890 
  111.7500    65.1130     8.3210     7.6070     8.7350    22.4800     2.2110   -12.2110 
  111.8750    63.9130     8.4440     7.5800     8.6510    22.4270     2.2080   -12.2970 
  112.0000    62.3310     8.6430     7.6840     8.4970    22.3950     2.2080   -12.3120 
  112.1250    61.9670     8.7930     7.8160     8.3990    22.4000     2.2090   -12.3140 
  112.2500    62.8530     8.8590     7.9110     8.4970    22.4150     2.2090   -12.2690 
  112.3750    63.5240     8.8380     7.9460     8.6970    22.3990     2.2070   -12.1700 
  112.5000    63.1650     8.7460     7.9150     8.8110    22.3420     2.2040   -12.0430 
  112.6250    62.6190     8.6100     7.8250     8.7650    22.3200     2.2010   -11.9090 
  112.7500    61.4490     8.4720     7.7090     8.7860    22.3510     2.2000   -11.7540 
  112.8750    61.6500     8.3620     7.5940     8.8270    22.3820     2.2000   -11.5980 
  113.0000    65.6410     8.3020     7.4980     8.8250    22.3910     2.1990   -11.4580 
  113.1250    70.7330     8.3010     7.4390     8.7540    22.3880     2.1950   -11.3340 
  113.2500    73.4070     8.3320     7.4060     8.6490    22.3850     2.1900   -11.2470 
  113.3750    73.0870     8.3710     7.3900     8.5420    22.3790     2.1880   -11.1740 
  113.5000    69.7300     8.3980     7.3810     8.4650    22.3650     2.1880   -11.0850 
  113.6250    64.0810     8.4000     7.3740     8.4730    22.3390     2.1910   -11.0300 
  113.7500    59.5400     8.3920     7.3680     8.6670    22.3260     2.1920   -11.0390 
  113.8750    59.7770     8.3890     7.3690     8.8770    22.3200     2.1920   -11.0670 
  114.0000    62.0380     8.4040     7.3810     9.0350    22.3190     2.1910   -11.0970 
  114.1250    61.5020     8.4300     7.4030     9.1700    22.3090     2.1910   -11.1400 
  114.2500    59.4990     8.4470     7.4210     9.1920    22.2740     2.1930   -11.1950 
  114.3750    58.4010     8.4340     7.4190     9.0610    22.2290     2.1970   -11.2500 
  114.5000    59.3680     8.3820     7.3850     8.8900    22.2160     2.2000   -11.3540 
  114.6250    61.8600     8.2960     7.3080     8.7790    22.2400     2.2010   -11.4320 
  114.7500    62.2330     8.2000     7.2040     8.6910    22.2540     2.1990   -11.4540 
  114.8750    61.2330     8.1150     7.0920     8.5680    22.2570     2.1960   -11.4910 
  115.0000    61.5170     8.0620     6.9930     8.3560    22.2570     2.1940   -11.5370 
  115.1250    65.3310     8.0550     6.9250     8.1950    22.2580     2.1970   -11.5610 
  115.2500    68.5140     8.0770     6.8810     8.1930    22.2680     2.2020   -11.5670 
  115.3750    69.0090     8.1000     6.8450     8.4140    22.2970     2.2070   -11.5690 
  115.5000    68.4330     8.0880     6.8000     8.7950    22.3350     2.2090   -11.4880 
  115.6250    67.1990     8.0160     6.7360     9.0620    22.3680     2.2050   -11.3600 
  115.7500    64.9690     7.9340     6.6840     8.9760    22.3800     2.1970   -11.2870 
  115.8750    62.9360     7.9480     6.7150     8.8940    22.3830     2.1860   -11.2090 
  116.0000    63.5670     8.1890     6.9180     9.0290    22.3920     2.1800   -11.0360 
  116.1250    66.0080     8.7900     7.4060     9.5260    22.4620     2.1970   -10.8140 
  116.2500    65.6350     9.6300     8.1180    10.3930    22.6550     2.2450   -10.6150 
  116.3750    62.8190    10.5000     8.9210    11.5220    22.9800     2.3260   -10.4260 
  116.5000    61.4230    11.1250     9.6070    13.2830    23.3110     2.4210   -10.3100 
  116.6250    62.4660    11.1680     9.8760    15.3390    23.4100     2.4780   -10.2720 
  116.7500    61.6510    10.6710     9.6790    15.4170    23.1460     2.4680   -10.2180 
  116.8750    59.9980     9.8290     9.1180    12.3400    22.6520     2.4020   -10.1330 
  117.0000    60.5720     8.9530     8.4180    10.1360    22.2940     2.3190   -10.0350 
  117.1250    63.3560     8.3500     7.8300     9.5430    22.1870     2.2490    -9.8930 
  117.2500    65.1680     8.0450     7.4300     9.3790    22.1440     2.2040    -9.6840 
  117.3750    65.9550     7.9250     7.1740     9.2440    22.0500     2.1830    -9.4020 
  117.5000    66.9700     7.8150     6.9630     9.0900    21.9240     2.1790    -8.9860 
  117.6250    67.4530     7.5330     6.6770     8.8070    21.8730     2.1870    -8.4550 
  117.7500    65.7850     7.0850     6.2970     8.4890    22.0420     2.2020    -7.9050 
  117.8750    64.1120     6.5860     5.8850     8.0680    22.5300     2.2220    -7.3650 
  118.0000    65.0590     6.2150     5.5560     7.1820    23.3220     2.2410    -6.9170 
  118.1250    69.3290     6.1900     5.4730     6.0450    23.9230     2.2530    -6.7140 
  118.2500    70.9500     6.5130     5.6600     5.5350    24.1610     2.2550    -6.7090 
  118.3750    68.3390     7.1010     6.0840     5.6330    24.0000     2.2460    -6.9100 
  118.5000    65.5140     7.7790     6.6410     6.3000    23.5130     2.2290    -7.3190 
  118.6250    64.1030     8.2900     7.1480     7.5570    22.9390     2.2130    -7.9280 
  118.7500    63.6610     8.4910     7.4510     8.5620    22.6020     2.2030    -8.6440 
  118.8750    63.1670     8.3760     7.4960     8.7730    22.4580     2.2030    -9.4010 
  119.0000    62.9220     8.0670     7.3390     8.4640    22.3860     2.2110   -10.1270 
  119.1250    62.4020     7.7740     7.1220     8.1490    22.3360     2.2210   -10.7250 
  119.2500    61.2510     7.6450     6.9910     8.1780    22.3180     2.2260   -11.2070 
  119.3750    61.8910     7.7150     7.0020     8.5320    22.3150     2.2230   -11.5840 
  119.5000    63.1050     7.9370     7.1450     8.9940    22.3150     2.2170   -11.8600 
  119.6250    61.7510     8.2160     7.3730     9.4660    22.3300     2.2110   -11.9760 
  119.7500    58.9000     8.4480     7.6000     9.9950    22.3870     2.2080   -11.9920 
  119.8750    56.5070     8.5980     7.7860    10.3970    22.4950     2.2070   -11.9520 
  120.0000    55.7220     8.6940     7.9280    10.5480    22.6120     2.2090   -11.8120 
  120.1250    56.1930     8.7950     8.0470    10.5340    22.6400     2.2120   -11.5110 
  120.2500    57.7770     8.9020     8.1410    10.5960    22.5760     2.2140   -11.1100 
  120.3750    57.7980     8.9230     8.1480    10.6250    22.4760     2.2160   -10.6030 
  120.5000    54.6620     8.7200     7.9680    10.6220    22.4610     2.2270    -9.9740 
  120.6250    53.5960     8.1550     7.4860    10.3120    22.6110     2.2560    -9.2980 
  120.7500    57.8940     7.3670     6.8040     9.6290    22.8880     2.3000    -8.6470 
  120.8750    64.3680     6.5760     6.0860     8.2970    23.2940     2.3460    -8.0870 
  121.0000    68.2930     6.0180     5.5190     6.6820    23.7460     2.3750    -7.7590 
  121.1250    67.9780     5.9230     5.2930     5.7260    23.8820     2.3740    -7.7330 
  121.2500    65.6800     6.2240     5.3940     6.0720    23.6710     2.3510    -7.9240 
  121.3750    64.0250     6.8010     5.7710     7.2070    23.2560     2.3190    -8.3390 
  121.5000    65.2840     7.4810     6.3200     8.3370    22.8040     2.2870    -8.9250 
  121.6250    66.5950     8.0410     6.8870     8.6820    22.4960     2.2580    -9.6290 
  121.7500    64.0780     8.3670     7.3250     8.8910    22.3550     2.2330   -10.3770 
  121.8750    60.5920     8.4500     7.5740     8.9520    22.3230     2.2140   -11.1110 
  122.0000    59.4760     8.3810     7.6590     8.8800    22.3290     2.2020   -11.7440 
  122.1250    61.2780     8.2900     7.6580     8.7980    22.3400     2.2000   -12.1300 
  122.2500    63.2250     8.2580     7.6620     8.8570    22.3390     2.2050   -12.3760 
  122.3750    63.4800     8.2780     7.6900     8.9440    22.3540     2.2130   -12.5260 
