~V
VERS. 2.00: Ver 2.00
~W
STRT.M 55.0000:
STOP.M 215.0000:
STEP.M 0.1250:
NULL. -999.2500:
UWI. F10125:
~C
DEPT.M :
GR.API :
RML.OHMM :
RI. :
RXO.OHMM :
CALI.CM :
DEN.GM/CC :
SP.MV :
~A
# ...
  100.0000    64.1840     9.5950     7.4010    13.2380    25.7780     2.1450   -31.1880 
  100.1250    67.8160     9.4950     7.3250    12.7590    25.7200     2.1540   -30.8670 
  100.2500    68.7250     9.5400     7.3070    12.3330    25.6090     2.1590   -30.5250 
  100.3750    68.7510     9.6850     7.3360    12.5410    25.4780     2.1560   -30.1690 
  100.5000    67.2090     9.8460     7.3920    12.9160    25.3540     2.1430   -29.8010 
  100.6250    61.5240     9.9160     7.4480    13.1450    25.2000     2.1280   -29.3930 
  100.7500    57.0080     9.8670     7.4790    13.3240    25.0540     2.1250   -28.9640 
  100.8750    59.3020     9.7290     7.4780    13.4280    24.9840     2.1310   -28.4760 
  101.0000    64.5190     9.6100     7.4730    13.3900    24.9770     2.1380   -27.9560 
  101.1250    64.2060     9.7370     7.5630    13.3080    25.0030     2.1400   -27.3960 
  101.2500    61.8710    10.2140     7.8260    13.3120    25.0400     2.1510   -26.7840 
  101.3750    62.9400    10.9720     8.2740    13.4130    25.0350     2.1780   -26.1030 
  101.5000    64.1440    11.7400     8.7920    13.7670    24.9560     2.2210   -25.3730 
  101.6250    61.6740    11.9720     9.0550    15.1150    24.8370     2.2810   -24.5920 
  101.7500    62.8540    11.3860     8.8140    16.1400    24.8910     2.3350   -23.7550 
  101.8750    71.3420    10.0360     8.0480    13.5370    25.1360     2.3550   -22.9330 
  102.0000    83.8760     8.3500     7.0080     8.0420    25.4810     2.3370   -22.1500 
  102.1250    94.4080     6.9390     6.0730     5.9010    25.6230     2.3140   -21.4430 
  102.2500   101.2790     6.0470     5.4280     5.2500    25.6620     2.3090   -20.8280 
  102.3750   103.4480     5.6480     5.0870     5.2410    25.6620     2.3210   -20.3270 
  102.5000   101.1020     5.5790     4.9760     5.2200    25.6600     2.3390   -19.9510 
  102.6250   100.8990     5.6120     4.9800     5.1910    25.6480     2.3530   -19.7190 
  102.7500   104.3540     5.5760     4.9820     5.1320    25.6200     2.3580   -19.6390 
  102.8750   105.9780     5.4910     4.9750     5.0470    25.5870     2.3570   -19.6560 
  103.0000   102.8860     5.4600     5.0060     4.9160    25.5380     2.3500   -19.7420 
  103.1250   101.2730     5.6040     5.1440     4.8160    25.4040     2.3350   -19.8820 
  103.2500   101.1420     5.9180     5.3800     5.1020    24.9560     2.3150   -20.0560 
  103.3750    96.0870     6.3350     5.6680     5.8670    24.1730     2.2990   -20.2660 
  103.5000    86.3100     6.7200     5.9190     6.6440    23.5220     2.2920   -20.4860 
  103.6250    79.1100     6.9050     6.0180     6.7870    23.4630     2.2960   -20.6960 
  103.7500    75.8600     6.8880     5.9680     6.4770    23.7120     2.2980   -20.8790 
  103.8750    75.0830     6.7580     5.8260     6.2640    24.0190     2.2940   -21.0570 
  104.0000    77.4330     6.6610     5.6840     6.0580    24.1840     2.2850   -21.2110 
  104.1250    80.8350     6.7720     5.6600     6.3670    24.1330     2.2760   -21.3630 
  104.2500    80.1740     7.0950     5.7780     7.3280    23.9810     2.2780   -21.5280 
  104.3750    75.8240     7.5680     6.0240     8.1460    23.8660     2.2930   -21.6690 
  104.5000    72.3020     8.1720     6.3960     9.4440    23.7850     2.3160   -21.7830 
  104.6250    72.2340     9.1630     7.0180    11.9740    23.6630     2.3330   -21.8820 
  104.7500    73.1010    10.9680     8.0560    16.1120    23.5060     2.3480   -21.9810 
  104.8750    71.0590    14.1770     9.8010    17.6520    23.4620     2.3790   -22.0620 
  105.0000    66.3010    19.3400    12.6550    19.5920    23.7210     2.4350   -22.1300 
  105.1250    60.6920    26.7280    17.1940    32.3310    24.4000     2.5000   -22.1330 
  105.2500    56.8650    34.0480    22.4280    51.2600    25.0580     2.5480   -22.0870 
  105.3750    55.8990    37.1190    25.5910    60.5810    25.3440     2.5650   -22.0270 
  105.5000    58.7580    32.5710    23.7000    49.3510    25.3640     2.5540   -21.9640 
  105.6250    66.1100    22.8030    17.7710    25.2920    25.2220     2.5160   -21.9480 
  105.7500    73.9460    14.3490    12.2510    11.7960    25.0290     2.4570   -21.9660 
  105.8750    79.6570     9.0420     8.4430     6.0810    24.8280     2.3880   -22.0530 
  106.0000    83.9410     6.4610     6.2390     4.5610    24.4730     2.3260   -22.2070 
  106.1250    86.3400     5.8390     5.3220     4.9290    23.8760     2.2870   -22.4540 
  106.2500    84.6560     6.0600     5.0990     5.6740    23.3500     2.2650   -22.7400 
  106.3750    80.4830     6.5870     5.2840     6.2590    23.0950     2.2580   -23.0680 
  106.5000    77.6310     7.0000     5.5990     6.6690    23.1010     2.2590   -23.4450 
  106.6250    78.6240     7.0660     5.8070     6.5980    23.3100     2.2660   -23.8330 
  106.7500    81.6600     6.9940     5.9040     6.1530    23.6600     2.2680   -24.2340 
  106.8750    84.4340     7.0640     6.0130     6.0270    24.0680     2.2570   -24.6310 
  107.0000    84.2430     7.4600     6.2670     7.0160    24.4510     2.2360   -25.0360 
  107.1250    78.8600     8.2210     6.7490     8.8330    24.5960     2.2170   -25.4390 
  107.2500    71.4370     9.1060     7.3580    10.1900    24.6620     2.2030   -25.8450 
  107.3750    64.8190     9.8830     7.9420    10.9740    24.8760     2.1910   -26.2410 
  107.5000    61.2650    10.3540     8.3280    11.4000    25.2340     2.1820   -26.6040 
  107.6250    62.2010    10.4050     8.3830    11.4940    25.2650     2.1800   -26.9290 
  107.7500    63.6320    10.2220     8.2310    11.3010    25.1200     2.1820   -27.2140 
  107.8750    64.8280     9.9690     7.9990    10.9410    24.9570     2.1840   -27.4570 
  108.0000    66.8800     9.7700     7.7820    10.6470    24.8780     2.1810   -27.6460 
  108.1250    67.7680     9.7050     7.6420    10.4380    24.9320     2.1720   -27.7710 
  108.2500    67.4950     9.7620     7.5750    10.1520    25.1130     2.1610   -27.8530 
  108.3750    66.7450     9.9110     7.5650    10.0060    25.2940     2.1540   -27.9030 
  108.5000    65.2080    10.0990     7.5930    10.3080    25.3400     2.1520   -27.9500 
  108.6250    62.4310    10.2580     7.6370    10.5830    25.3120     2.1560   -27.9960 
  108.7500    61.2930    10.3540     7.6740    10.7540    25.3490     2.1620   -28.0470 
  108.8750    63.4190    10.3910     7.6930    10.8260    25.4540     2.1700   -28.0810 
  109.0000    66.0080    10.3950     7.6940    10.6610    25.5700     2.1800   -28.1020 
  109.1250    67.6640    10.3910     7.6820    10.4620    25.5900     2.1860   -28.1200 
  109.2500    68.1830    10.3880     7.6710    10.4280    25.6980     2.1830   -28.1530 
  109.3750    66.5610    10.3880     7.6750    10.5260    25.8250     2.1760   -28.1770 
  109.5000    64.0180    10.3880     7.7010    10.5090    25.8160     2.1710   -28.1740 
  109.6250    64.2320    10.3940     7.7430    10.3720    25.6860     2.1720   -28.1440 
  109.7500    64.6460    10.4120     7.7830    10.3620    25.4670     2.1720   -28.1030 
  109.8750    63.6320    10.4430     7.8100    10.5990    25.2110     2.1670   -28.0610 
  110.0000    63.2800    10.4740     7.8210    11.1230    24.9140     2.1570   -28.0020 
  110.1250    65.1750    10.4760     7.8170    11.1860    24.8380     2.1440   -27.9540 
  110.2500    65.4390    10.4370     7.8070    11.1620    24.9870     2.1370   -27.8850 
  110.3750    62.6270    10.3560     7.7940    11.0690    25.2820     2.1400   -27.8070 
  110.5000    59.8020    10.2510     7.7720    11.1200    25.5600     2.1510   -27.7380 
  110.6250    58.3770    10.1540     7.7310    11.0740    25.6510     2.1580   -27.6810 
  110.7500    58.2580    10.0790     7.6720    11.0900    25.6490     2.1570   -27.6180 
  110.8750    61.0990    10.0100     7.6000    11.0150    25.5870     2.1530   -27.5330 
  111.0000    65.9740     9.9200     7.5230    10.8940    25.4470     2.1520   -27.4440 
  111.1250    68.4610     9.7940     7.4510    10.7450    25.1480     2.1520   -27.3300 
