~V
VERS. 2.00: Ver 2.00
~W
STRT.M 52.0000:
STOP.M 216.0000:
STEP.M 0.1250:
NULL. -999.2500:
UWI. F10126:
~C
DEPT.M :
DEN.GM/CC :
GR.API :
RML.OHMM :
RI. :
RXO.OHMM :
CALI.CM :
SP.MV :
~A
# ...
  108.2500     2.2620    79.9990     9.7560     8.3100     9.4140    25.1850   -11.8490 
  108.3750     2.2440    75.8730     9.7170     8.1480     9.2190    25.4400   -12.0370 
  108.5000     2.2270    70.9540     9.6090     7.9310     8.9120    25.5650   -12.2990 
  108.6250     2.2160    70.8140     9.4970     7.7200     8.9920    25.6740   -12.6450 
  108.7500     2.2090    74.1220     9.4790     7.6000     9.2200    25.8020   -13.0140 
  108.8750     2.2050    74.5770     9.6280     7.6340     9.4980    25.8870   -13.3680 
  109.0000     2.2040    70.4870     9.9860     7.8660     9.6780    25.8440   -13.6900 
  109.1250     2.2070    67.2250    10.5600     8.3230    10.2400    25.7140   -13.9800 
  109.2500     2.2150    67.6840    11.2240     8.9050    10.9370    25.5720   -14.2430 
  109.3750     2.2280    69.5740    11.8420     9.5000    11.5330    25.3990   -14.4240 
  109.5000     2.2400    71.0570    12.2650     9.9550    12.1290    25.1760   -14.4920 
  109.6250     2.2410    73.7980    12.3300    10.0770    12.1750    25.0210   -14.4100 
  109.7500     2.2290    74.8530    12.0920     9.8870    11.6410    25.1010   -14.2530 
  109.8750     2.2130    72.2840    11.6530     9.4880    10.9700    25.3770   -14.0860 
  110.0000     2.2020    68.7560    11.1580     9.0300    10.4950    25.6050   -13.8650 
  110.1250     2.2030    68.6170    10.7600     8.6560    10.1670    25.3290   -13.5360 
  110.2500     2.2090    71.7980    10.5080     8.4110    10.1110    24.8030   -13.1500 
  110.3750     2.2090    74.3820    10.3870     8.2850    10.0990    24.5400   -12.7680 
  110.5000     2.1960    73.9670    10.3540     8.2430     9.7870    24.6260   -12.4290 
  110.6250     2.1720    72.0460    10.3670     8.2480     9.5420    24.5900   -12.1540 
  110.7500     2.1510    71.6890    10.3910     8.2700     9.7640    24.3060   -11.9040 
  110.8750     2.1430    72.5820    10.4220     8.3050    10.1090    24.0320   -11.6260 
  111.0000     2.1500    72.5180    10.4630     8.3550     9.8360    23.7840   -11.3550 
  111.1250     2.1710    72.2350    10.5250     8.4300     9.1310    23.5020   -11.1250 
  111.2500     2.1960    72.6430    10.6080     8.5230     8.9800    23.3190   -10.9210 
  111.3750     2.2190    73.8960    10.7020     8.6210     9.1840    23.2380   -10.7270 
  111.5000     2.2330    74.2930    10.7920     8.7050     9.1390    23.2840   -10.5260 
  111.6250     2.2370    72.2840    10.8490     8.7430     9.0450    23.4700   -10.3340 
  111.7500     2.2330    70.7060    10.8570     8.7260     9.1100    23.6280   -10.1480 
  111.8750     2.2230    71.6130    10.8070     8.6480     9.1720    23.7190    -9.9670 
  112.0000     2.2120    73.9300    10.7040     8.5150     8.7950    23.7580    -9.7760 
  112.1250     2.2050    75.2200    10.5570     8.3330     8.3990    23.7840    -9.5530 
  112.2500     2.2030    75.5940    10.3870     8.1330     8.3430    23.8070    -9.3000 
  112.3750     2.2090    76.6630    10.2060     7.9350     8.3320    23.8200    -9.0290 
  112.5000     2.2180    78.7900    10.0290     7.7550     8.2450    23.8300    -8.7800 
  112.6250     2.2240    80.2240     9.9080     7.6250     8.3760    23.8690    -8.5790 
  112.7500     2.2220    80.8610     9.9170     7.5850     8.6110    23.9470    -8.3850 
  112.8750     2.2210    79.9000    10.1620     7.7090     9.0140    24.0410    -8.1910 
  113.0000     2.2370    77.8800    10.7490     8.0880     9.6430    24.1650    -8.0160 
  113.1250     2.2900    75.8300    11.7770     8.8570    10.2360    24.2940    -7.9030 
  113.2500     2.3690    73.9860    13.0570     9.9450    11.3390    24.3860    -7.8380 
  113.3750     2.4500    72.5690    14.3100    11.1790    13.6750    24.4560    -7.8220 
  113.5000     2.4990    70.9240    15.1720    12.2040    16.8140    24.5390    -7.8350 
  113.6250     2.4900    69.3560    15.2130    12.4640    16.7620    24.5720    -7.8770 
  113.7500     2.4420    68.2660    14.5100    11.9440    13.5000    24.5130    -7.9770 
  113.8750     2.3780    67.4990    13.2960    10.9050    11.3020    24.4580    -8.1310 
  114.0000     2.3260    66.8650    11.9220     9.7240    10.8370    24.3900    -8.3070 
  114.1250     2.3020    68.7430    10.7850     8.7430    11.1300    24.2770    -8.4240 
  114.2500     2.2990    72.9240    10.0800     8.0860    11.2800    24.1920    -8.4560 
  114.3750     2.3070    76.4400     9.8740     7.8100    11.0110    24.1560    -8.3870 
  114.5000     2.3200    76.7520    10.1310     7.9240    10.1430    24.1280    -8.2100 
  114.6250     2.3370    76.6210    10.7120     8.4060     9.4340    24.0420    -7.9030 
  114.7500     2.3580    77.9090    11.2600     8.9830    11.9860    23.9390    -7.5150 
  114.8750     2.3770    77.3760    11.4820     9.3400    18.0180    23.9790    -7.0930 
  115.0000     2.3860    74.8300    11.2050     9.2050    18.1460    24.2080    -6.6710 
  115.1250     2.3790    75.3250    10.4300     8.5150    11.8230    24.3690    -6.3230 
  115.2500     2.3620    80.1760     9.5340     7.6800     7.8670    24.4190    -6.0750 
  115.3750     2.3410    86.6870     8.8310     7.0020     6.6090    24.3380    -5.9300 
  115.5000     2.3220    90.4640     8.5270     6.6520     6.8450    24.1740    -5.8810 
  115.6250     2.3060    87.9190     8.7100     6.7250     7.9120    23.9810    -5.9780 
  115.7500     2.2880    83.5190     9.1560     7.0770     9.1860    23.8330    -6.2180 
  115.8750     2.2680    81.0330     9.6700     7.5580     9.8970    23.7410    -6.5690 
  116.0000     2.2500    78.5020    10.0910     7.9990     9.9910    23.7020    -6.9880 
  116.1250     2.2400    74.3030    10.3100     8.2580    10.0790    23.6930    -7.4740 
  116.2500     2.2400    72.1310    10.3780     8.3600    10.3310    23.7050    -8.0130 
  116.3750     2.2480    74.2450    10.3620     8.3620    10.4160    23.7310    -8.5810 
  116.5000     2.2540    78.0940    10.3270     8.3270    10.3050    23.7510    -9.1420 
  116.6250     2.2460    79.3410    10.3150     8.2970    10.2300    23.7610    -9.6210 
  116.7500     2.2220    78.6240    10.3270     8.2800    10.3900    23.8070    -9.9470 
  116.8750     2.1940    76.8410    10.3470     8.2670    10.6440    23.9440   -10.0900 
  117.0000     2.1770    74.9190    10.3520     8.2430    10.9540    24.1420   -10.0350 
  117.1250     2.1830    74.9150    10.3260     8.2000    11.0260    24.2410    -9.7580 
  117.2500     2.2010    74.6100    10.2750     8.1490    10.7300    24.1850    -9.3420 
  117.3750     2.2150    72.9780    10.2120     8.1010    10.1770    24.0360    -8.8490 
  117.5000     2.2130    73.0330    10.1570     8.0680    10.1610    23.9350    -8.3460 
  117.6250     2.1950    77.5960    10.1360     8.0680    10.5720    24.0310    -7.8790 
  117.7500     2.1770    82.7220    10.1560     8.1010    10.7360    24.2060    -7.4820 
  117.8750     2.1710    83.5180    10.2100     8.1630    10.3980    24.3780    -7.1830 
  118.0000     2.1790    81.6500    10.2700     8.2460    10.0150    24.4820    -6.9880 
  118.1250     2.1930    82.2570    10.2610     8.2990    10.1810    24.6260    -6.8860 
  118.2500     2.2050    83.4560    10.1180     8.2490    10.2120    24.7580    -6.7800 
  118.3750     2.2160    83.1040     9.8060     8.0430    10.3530    24.7920    -6.5980 
  118.5000     2.2270    81.7880     9.3460     7.6830    10.4450    24.8330    -6.2820 
  118.6250     2.2400    83.5440     8.8350     7.2400     9.7230    24.9930    -5.7920 
  118.7500     2.2540    87.0860     8.4250     6.8540     7.8460    25.1460    -5.2080 
  118.8750     2.2650    88.1340     8.2220     6.6300     6.8510    25.2210    -4.6490 
  119.0000     2.2730    86.9340     8.2740     6.6200     7.2030    25.2260    -4.1800 
  119.1250     2.2760    89.6030     8.5660     6.8390     7.6490    25.2250    -3.7930 
  119.2500     2.2780    94.3380     8.9410     7.1680     7.8680    25.3410    -3.4710 
  119.3750     2.2790    94.4370     9.2660     7.4820     7.9910    25.6080    -3.2220 
