~V
VERS. 2.00: Ver 2.00
~W
STRT.M 44.0000:
STOP.M 255.0000:
STEP.M 0.1250:
NULL. -999.2500:
UWI. F10191:
~C
DEPT.M :
DEN.GM/CC :
SP.MV :
GR.API :
RML.OHMM :
RI. :
RXO.OHMM :
CALI.CM :
~A
# ...
  235.2500     2.4540   -21.9180    59.1710     9.6410     8.3080     7.8110    24.4160 
  235.3750     2.4360   -21.6770    60.7010     9.6230     8.3020     7.7850    24.4760 
  235.5000     2.4320   -21.4350    61.5080     9.6370     8.3030     7.6020    24.4960 
  235.6250     2.4490   -21.0920    61.5340     9.7540     8.3690     7.3910    24.4280 
  235.7500     2.4720   -20.7460    62.4450     9.9790     8.5180     7.3830    24.3930 
  235.8750     2.4870   -20.4450    64.0310    10.2940     8.7490     7.5580    24.3880 
  236.0000     2.4880   -20.0990    63.8660    10.6450     9.0290     7.9710    24.4050 
  236.1250     2.4850   -19.7680    60.5290    10.9550     9.2990     8.4480    24.4380 
  236.2500     2.4840   -19.5130    57.9100    11.1760     9.5100     8.8710    24.5060 
  236.3750     2.4820   -19.3360    58.1710    11.3000     9.6420     9.2660    24.5930 
  236.5000     2.4800   -19.1960    59.7730    11.3550     9.7070     9.7240    24.6900 
  236.6250     2.4860   -19.1250    58.9270    11.3790     9.7370     9.9420    24.7270 
  236.7500     2.4960   -19.1250    57.1140    11.4130     9.7700     9.9560    24.7260 
  236.8750     2.5000   -19.1800    57.1430    11.4660     9.8210    10.0520    24.7000 
  237.0000     2.4990   -19.2990    58.2080    11.5380     9.8880    10.1660    24.6810 
  237.1250     2.5010   -19.4400    58.7970    11.6050     9.9580     9.9690    24.6180 
  237.2500     2.5050   -19.6010    58.7680    11.6350    10.0030    10.2560    24.5650 
  237.3750     2.5050   -19.7490    58.7510    11.5950     9.9960    11.0300    24.5620 
  237.5000     2.5000   -19.8670    59.2260    11.4690     9.9200    11.6160    24.6580 
  237.6250     2.4930   -20.0390    60.4720    11.2640     9.7680     9.3650    24.8340 
  237.7500     2.4850   -20.2090    61.4070    11.0410     9.5850     8.1830    24.9290 
  237.8750     2.4740   -20.3000    60.0910    10.8480     9.4070     7.7110    24.9550 
  238.0000     2.4670   -20.3550    56.8820    10.7140     9.2650     7.2550    24.9380 
  238.1250     2.4700   -20.4390    55.0470    10.6440     9.1730     6.9000    24.8980 
  238.2500     2.4840   -20.4710    54.6270    10.5910     9.1050     6.8760    24.8580 
  238.3750     2.5070   -20.4890    52.8450    10.5080     9.0310     6.9120    24.8330 
  238.5000     2.5270   -20.5320    50.1770    10.3680     8.9250     6.9900    24.8180 
  238.6250     2.5300   -20.4860    50.0820    10.1720     8.7740     7.3440    24.8070 
  238.7500     2.5170   -20.3920    50.2080     9.9710     8.6070     7.7210    24.7900 
  238.8750     2.5070   -20.3430    49.4600     9.8070     8.4560     7.4860    24.7360 
  239.0000     2.5130   -20.2700    49.4940     9.7070     8.3490     6.8660    24.6630 
  239.1250     2.5250   -20.1450    51.3750     9.6960     8.3140     6.7820    24.6200 
  239.2500     2.5220   -20.0380    53.4960     9.7610     8.3460     6.9600    24.6570 
  239.3750     2.5030   -19.9170    55.3240     9.8980     8.4450     6.9360    24.7230 
  239.5000     2.4860   -19.7880    56.7190    10.0980     8.6050     7.0890    24.7820 
  239.6250     2.4830   -19.7110    56.5570    10.3430     8.8150     8.0080    24.7960 
  239.7500     2.4910   -19.6620    56.4310    10.5870     9.0310    10.0430    24.7900 
  239.8750     2.5070   -19.6270    56.7730    10.7910     9.2170    12.2400    24.7930 
  240.0000     2.5310   -19.6290    56.8790    10.9210     9.3430    13.5980    24.8030 
  240.1250     2.5520   -19.6720    55.8000    10.9430     9.3800    12.6850    24.8160 
  240.2500     2.5580   -19.7720    54.2830    10.8880     9.3510    10.8870    24.8360 
  240.3750     2.5490   -19.8820    53.0830    10.8040     9.2900    10.0900    24.8630 
  240.5000     2.5340   -19.9890    52.9780    10.7420     9.2350    10.3150    24.8680 
  240.6250     2.5240   -20.1310    54.4450    10.7360     9.2110    10.4750    24.8250 
  240.7500     2.5250   -20.2790    55.7370    10.7720     9.2140    10.3720    24.7610 
  240.8750     2.5400   -20.3900    54.7730    10.8180     9.2290    11.0270    24.7400 
  241.0000     2.5620   -20.5260    51.9120    10.8410     9.2340    11.3410    24.7710 
  241.1250     2.5690   -20.6700    50.0370    10.8170     9.2170     9.7730    24.8390 
  241.2500     2.5540   -20.7430    50.8940    10.7710     9.1900     8.2650    24.9000 
  241.3750     2.5340   -20.8210    53.5810    10.7230     9.1710     7.5130    24.9370 
  241.5000     2.5300   -20.9040    56.4470    10.6860     9.1710     7.1210    24.9500 
  241.6250     2.5430   -20.9590    57.8680    10.6710     9.1950     7.6780    24.9340 
  241.7500     2.5560   -20.9560    57.4550    10.6710     9.2370     7.9480    24.8750 
  241.8750     2.5570   -20.9490    56.2260    10.6850     9.2930     7.3230    24.7770 
  242.0000     2.5470   -20.8740    56.5910    10.7190     9.3630     7.0290    24.6890 
  242.1250     2.5290   -20.7410    58.5110    10.7910     9.4580     8.1420    24.6290 
  242.2500     2.5110   -20.6150    58.9360    10.8980     9.5780    10.0640    24.5730 
  242.3750     2.4960   -20.4470    56.8050    11.0320     9.7190    10.9090    24.5580 
  242.5000     2.4820   -20.2210    53.4520    11.1800     9.8750     9.2020    24.6210 
  242.6250     2.4670   -19.9250    51.8260    11.3180    10.0330     7.5480    24.7640 
  242.7500     2.4440   -19.6780    51.8340    11.4310    10.1790     6.2570    24.8670 
  242.8750     2.4200   -19.4400    51.9980    11.5090    10.2990     5.7090    24.8850 
  243.0000     2.4110   -19.2500    51.4790    11.5500    10.3850     5.5010    24.8590 
  243.1250     2.4290   -19.1020    51.4030    11.5530    10.4250     5.6700    24.8370 
  243.2500     2.4580   -18.9850    53.1710    11.5270    10.4230     5.7810    24.8500 
  243.3750     2.4830   -18.8900    55.4950    11.4730    10.3840     5.9040    24.8670 
  243.5000     2.4990   -18.8480    55.9150    11.3920    10.3080     6.1160    24.8740 
  243.6250     2.5030   -18.8990    54.9120    11.2700    10.1890     6.1540    24.8720 
  243.7500     2.4970   -18.9880    54.9930    11.0930    10.0250     6.1330    24.8580 
  243.8750     2.4820   -19.1360    54.5690    10.8530     9.8140     5.9900    24.8300 
  244.0000     2.4640   -19.3180    52.3570    10.5780     9.5760     5.8120    24.8100 
  244.1250     2.4510   -19.5540    52.4980    10.3630     9.3840     6.0300    24.8030 
  244.2500     2.4510   -19.8270    54.5720    10.3250     9.3310     7.0900    24.8030 
  244.3750     2.4720   -20.1190    55.3670    10.5620     9.5030     9.3560    24.8030 
  244.5000     2.5100   -20.4350    55.3670    11.1120     9.9470    12.3890    24.8030 
  244.6250     2.5430   -20.7460    55.3670    11.9420    10.6690    15.9340    24.8030 
  244.7500     2.5520   -21.0510    55.3670    12.8240    11.4880    18.6490    24.8030 
  244.8750     2.5410   -21.3240    55.3670    13.5440    12.2150    22.3630    24.8070 
  245.0000     2.5250   -21.5390    55.3670    13.9470    12.6930    30.0170    24.8250 
  245.1250     2.5090   -21.6630    55.3670    14.0010    12.8470    30.1040    24.8560 
  245.2500     2.4920   -21.7560    55.3670    13.9280    12.8420    20.6610    24.8660 
  245.3750     2.4740   -21.8310    55.3670    13.8770    12.8020    14.8000    24.8600 
  245.5000     2.4560   -21.8690    55.3670    13.8870    12.7730    14.0180    24.8450 
  245.6250     2.4380   -21.8520    55.3670    13.8470    12.6880    15.9590    24.8600 
  245.7500     2.4290   -21.7250    55.3670    13.6250    12.4620    16.9190    24.8690 
  245.8750     2.4440   -21.5350    55.3670    13.2150    12.0930    15.5830    24.8670 
  246.0000     2.4820   -21.3440    55.3670    12.7680    11.6930    14.5160    24.8510 
  246.1250     2.5240   -21.1410    55.3670    12.5710    11.4840    13.9210    24.8080 
  246.2500     2.5540   -20.9200    55.3670    12.7630    11.5920    14.7220    24.7630 
  246.3750     2.5710   -20.7030    55.3670    13.3400    12.0440    15.5120    24.7280 
