~V
VERS. 2.00: Ver 2.00
~W
STRT.M 53.0000:
STOP.M 246.0000:
STEP.M 0.1250:
NULL. -999.2500:
UWI. F10192:
~C
DEPT.M :
DEN.GM/CC :
GR.API :
RML.OHMM :
RI. :
RXO.OHMM :
CALI.CM :
SP.MV :
~A
# ...
  210.5000     2.2990    81.4850    15.1840    11.3890    13.9900    24.4350   -11.6260 
  210.6250     2.2930    80.3840    16.3950    12.4780    14.9620    24.4590   -11.6940 
  210.7500     2.2840    78.5810    17.2030    13.3260    15.7980    24.4590   -11.7050 
  210.8750     2.2780    78.7210    17.6140    13.8600    16.3760    24.4590   -11.7520 
  211.0000     2.2760    78.3640    17.7060    14.1000    16.7420    24.4590   -11.7580 
  211.1250     2.2790    76.9960    17.6190    14.1420    16.7850    24.4590   -11.7610 
  211.2500     2.2860    74.5200    17.5170    14.1170    16.1020    24.4590   -11.7050 
  211.3750     2.2910    71.4180    17.5360    14.1520    15.1830    24.4590   -11.6580 
  211.5000     2.2880    68.5970    17.7370    14.3100    15.0410    24.4590   -11.6150 
  211.6250     2.2820    67.7890    18.1170    14.6110    15.1460    24.4590   -11.5300 
  211.7500     2.2750    69.1890    18.6100    15.0330    14.8470    24.4590   -11.4840 
  211.8750     2.2700    71.1510    19.0750    15.4830    14.3030    24.4590   -11.4320 
  212.0000     2.2670    72.4750    19.4110    15.8780    14.6350    24.4590   -11.3940 
  212.1250     2.2660    71.4060    19.5560    16.1510    15.9390    24.4590   -11.3830 
  212.2500     2.2650    67.7200    19.4770    16.2520    16.8190    24.4590   -11.3850 
  212.3750     2.2600    66.7120    19.2560    16.2270    17.2280    24.4590   -11.3920 
  212.5000     2.2560    70.7010    18.9640    16.1190    17.2570    24.4590   -11.4040 
  212.6250     2.2560    75.1390    18.6920    15.9920    17.0790    24.4590   -11.4440 
  212.7500     2.2590    75.0260    18.5710    15.9430    16.8170    24.4490   -11.5020 
  212.8750     2.2620    73.9830    18.6430    16.0280    16.5960    24.4250   -11.5780 
  213.0000     2.2630    73.2190    18.9020    16.2600    16.2430    24.4020   -11.7280 
  213.1250     2.2630    72.7490    19.3020    16.6140    15.9980    24.3920   -11.8710 
  213.2500     2.2640    74.4890    19.7910    17.0550    16.5920    24.4000   -12.0850 
  213.3750     2.2610    77.9540    20.3130    17.5310    17.3820    24.4190   -12.3170 
  213.5000     2.2520    79.2160    20.8650    18.0370    17.8050    24.4400   -12.5580 
  213.6250     2.2410    76.1590    21.4600    18.5780    18.2280    24.4460   -12.8230 
  213.7500     2.2360    71.8660    22.1200    19.1700    19.4220    24.4270   -13.0710 
  213.8750     2.2360    68.3570    22.8490    19.8150    21.4030    24.3970   -13.3580 
  214.0000     2.2400    65.7720    23.6930    20.5450    23.0220    24.3840   -13.6120 
  214.1250     2.2420    65.0320    24.7680    21.4400    22.7700    24.3820   -13.8920 
  214.2500     2.2410    68.0840    26.3640    22.7220    22.5600    24.3820   -14.2030 
  214.3750     2.2340    72.1140    28.6620    24.5570    23.2810    24.3780   -14.5260 
  214.5000     2.2230    72.7420    31.8300    27.1420    25.6020    24.3630   -14.9050 
  214.6250     2.2120    68.9970    35.8870    30.5890    29.7060    24.3280   -15.3380 
  214.7500     2.2030    64.6250    40.6850    34.9320    36.0400    24.3110   -15.8050 
  214.8750     2.1970    63.6350    45.6100    39.6480    42.7060    24.3030   -16.2990 
  215.0000     2.1940    65.2680    50.1760    44.2310    45.5160    24.2990   -16.8440 
  215.1250     2.1940    67.7110    54.0920    48.2680    46.1400    24.3020   -17.4010 
  215.2500     2.1940    67.1870    57.3250    51.5560    47.5670    24.3000   -18.0130 
  215.3750     2.1910    63.8550    60.3200    54.4620    50.6730    24.2970   -18.6680 
  215.5000     2.1820    61.0100    63.4400    57.3360    55.9220    24.2980   -19.3400 
  215.6250     2.1700    61.4920    67.0420    60.5270    61.4060    24.3030   -20.0320 
  215.7500     2.1640    64.6700    71.7900    64.6230    63.6030    24.3070   -20.7430 
  215.8750     2.1620    65.4000    78.2970    70.2270    65.1400    24.3080   -21.4600 
  216.0000     2.1610    63.9010    96.2440    78.3310    68.3020    24.3080   -22.1820 
  216.1250     2.1620    62.8370   113.4350    90.0030    73.9340    24.3070   -22.9130 
  216.2500     2.1650    62.1150   133.5310   106.6220    83.4450    24.3190   -23.6070 
  216.3750     2.1670    61.0690   157.4150   126.8100    98.7970    24.3470   -24.2490 
  216.5000     2.1680    60.6810   181.8390   148.2180   118.4140    24.3720   -24.8320 
  216.6250     2.1680    62.0140   201.3850   167.0890   132.8510    24.3820   -25.3840 
  216.7500     2.1670    61.8870   208.6170   178.0850   139.0950    24.3820   -25.8670 
  216.8750     2.1640    58.5440   204.2860   180.4970   141.9040    24.3820   -26.2630 
  217.0000     2.1620    56.0240   191.7560   175.4490   140.2280    24.3820   -26.5820 
  217.1250     2.1630    56.4440   175.3620   165.4670   130.8900    24.3820   -26.8620 
  217.2500     2.1680    59.4220   158.5440   153.1370   119.1380    24.3820   -27.0720 
  217.3750     2.1790    63.4700   142.6840   140.5160   112.8600    24.3820   -27.2460 
  217.5000     2.1930    65.6770   127.4690   127.7760   108.5840    24.3770   -27.4250 
  217.6250     2.2030    65.4820   112.0740   114.3340   101.5810    24.3690   -27.5390 
  217.7500     2.2070    64.7320    96.0770    99.5240    92.4500    24.3700   -27.6150 
  217.8750     2.2100    66.0680    80.6820    84.4480    81.7620    24.4100   -27.6980 
  218.0000     2.2150    69.7600    67.7060    71.0220    68.8870    24.4460   -27.7940 
  218.1250     2.2240    73.4460    58.6790    61.0410    55.2840    24.4590   -27.8380 
  218.2500     2.2350    73.4210    55.4050    56.4490    45.3220    24.4600   -27.8720 
  218.3750     2.2390    70.6300    57.6150    57.1880    42.5280    24.4620   -27.9510 
  218.5000     2.2340    67.0350    65.8020    64.0330    52.3780    24.4610   -28.0210 
  218.6250     2.2240    64.1260    80.6250    77.9370    75.4440    24.4520   -28.0760 
  218.7500     2.2180    59.9250   103.6740   100.4130   103.4670    24.4100   -28.1430 
  218.8750     2.2150    56.9140   131.9990   127.6770   123.0130    24.3280   -28.1860 
  219.0000     2.2130    57.8460   159.8350   153.6830   129.2470    24.2480   -28.1830 
  219.1250     2.2130    60.4340   178.4390   170.9030   128.2180    24.2110   -28.1550 
  219.2500     2.2160    60.0770   179.8920   172.8730   136.7490    24.2350   -28.0730 
  219.3750     2.2210    57.9290   170.1860   164.2280   145.2920    24.2690   -27.9510 
  219.5000     2.2230    58.1000   155.8410   150.1940   146.9720    24.3030   -27.7740 
  219.6250     2.2180    61.0040   141.9770   135.6280   133.2120    24.3420   -27.5820 
  219.7500     2.2080    62.4640   131.7270   124.1600   115.1430    24.4050   -27.3770 
  219.8750     2.1970    62.6180   124.5680   115.9560   108.2370    24.4480   -27.1510 
  220.0000     2.1920    63.7750   119.3190   110.1110   107.5140    24.4640   -26.9530 
  220.1250     2.1910    66.1800   114.7390   105.4370   107.8280    24.4700   -26.8070 
  220.2500     2.1940    67.9800   110.2280   101.2070   106.5860    24.4800   -26.6400 
  220.3750     2.2030    68.1410   106.2030    97.4620   100.1020    24.4800   -26.4530 
  220.5000     2.2110    66.3370   103.4230    94.7710    90.2500    24.4670   -26.2650 
  220.6250     2.2110    62.6270   102.1790    93.4700    83.5790    24.4570   -26.0500 
  220.7500     2.2000    58.4620   101.6820    93.0470    87.7720    24.4550   -25.8350 
  220.8750     2.1910    56.5120    99.9370    91.7570    97.7670    24.4510   -25.6350 
  221.0000     2.1920    58.2840    95.4350    88.1520    98.3220    24.4250   -25.3660 
  221.1250     2.2100    62.6420    87.9570    81.7800    79.4480    24.3650   -25.0120 
  221.2500     2.2500    65.6280    78.9870    73.6340    56.9660    24.3280   -24.6930 
  221.3750     2.3090    66.4650    70.9500    65.9840    44.4580    24.3430   -24.3530 
  221.5000     2.3830    67.5350    64.8460    59.9640    43.1110    24.3440   -23.9670 
  221.6250     2.4640    68.5530    60.5750    55.7080    44.9080    24.2360   -23.6270 
