~V
VERS. 2.00: Ver 2.00
~W
STRT.M 50.0000:
STOP.M 232.0000:
STEP.M 0.1250:
NULL. -999.2500:
UWI. F10160:
~C
DEPT.M :
SP.MV :
DEN.GM/CC :
GR.API :
RML.OHMM :
RI. :
RXO.OHMM :
CALI.CM :
~A
   50.0000    51.1320  -999.2500    42.8270     2.2330     0.6640     1.0200    25.7450 
   50.1250    51.5230  -999.2500    42.1440     2.3510     0.6550     1.1690    25.7450 
   50.2500    51.9570  -999.2500    40.8660     2.7600     0.6380     1.6980    25.7410 
   50.3750    52.3880     2.0810    40.6970     3.5050     0.6170     2.0820    25.7380 
   50.5000    52.7670     2.0810    41.5150     4.5270     0.5970     1.9020    25.7380 
   50.6250    53.0510     2.0600    40.1370     5.2890     0.5840     1.6800    25.7390 
   50.7500    53.2550     2.0350    37.5070     5.2080     0.5810     1.5300    25.7380 
   50.8750    53.3860     2.0180    37.4860     4.5820     0.5850     1.4580    25.7380 
   51.0000    53.4450     2.0180    40.6130     4.0400     0.5910     1.4780    25.7410 
   51.1250    53.4280     2.0450    44.0500     3.8790     0.5920     1.0230    25.7430 
   51.2500    53.3590     2.0830    46.9630     3.9130     0.5860     0.9900    25.7440 
   51.3750    53.2570     2.1070    50.5900     3.9050     0.5760     1.4860    25.7440 
   51.5000    53.1450     2.0860    53.5860     3.7080     0.5670     1.6200    25.7440 
   51.6250    53.0430     1.9990    53.6190     3.4000     0.5630     0.8750    25.7440 
   51.7500    52.9690     1.8950    51.0500     3.2240     0.5640     0.4940    25.7430 
   51.8750    52.9450     1.8690    47.1140     3.2510     0.5660     0.3910    25.7420 
   52.0000    52.9770     2.0020    43.9130     3.3700     0.5670     0.3100    25.7390 
   52.1250    53.0570     2.2220    44.8710     3.4290     0.5680     0.2710    25.7420 
   52.2500    53.1300     2.3400    51.1320     3.4590     0.5680     0.2280    25.7510 
   52.3750    53.1360     2.3160    58.2150     3.5700     0.5670     0.2860    25.7560 
   52.5000    53.0240     2.2140    60.0220     3.8360     0.5660     1.8500    25.7550 
   52.6250    52.7530     2.1230    55.2420     4.1870     0.5670     1.7530    25.7540 
   52.7500    52.3610     2.0830    51.0900     4.3230     0.5710     0.9880    25.7530 
   52.8750    51.8890     2.0880    51.0160     4.0840     0.5790     0.6970    25.7460 
   53.0000    51.3970     2.1090    52.4870     3.6180     0.5880     0.6850    25.7400 
   53.1250    50.9800     2.1210    52.5180     3.2260     0.5930     0.8200    25.7420 
   53.2500    50.6880     2.1230    51.4000     3.0190     0.5920     1.2490    25.7500 
   53.3750    50.5310     2.1230    51.0330     2.9760     0.5890     1.1740    25.7540 
   53.5000    50.5050     2.1220    51.9700     3.0320     0.5850     1.2460    25.7530 
   53.6250    50.5730     2.1210    52.9090     3.0970     0.5860     2.7910    25.7520 
   53.7500    50.6850     2.1250    53.1300     3.1160     0.5910     8.4920    25.7550 
   53.8750    50.8150     2.1370    53.3020     3.0980     0.5970    11.9340    25.7590 
   54.0000    50.9590     2.1620    54.8740     3.0470     0.6030     3.9260    25.7580 
   54.1250    51.1120     2.1940    56.9400     2.9290     0.6080     1.7130    25.7530 
   54.2500    51.2830     2.2170    56.0310     2.7670     0.6110     0.9510    25.7510 
   54.3750    51.4850     2.2160    53.3860     2.5920     0.6120     0.5780    25.7500 
   54.5000    51.7100     2.1920    51.3910     2.4540     0.6120     0.5800    25.7530 
   54.6250    51.9560     2.1600    50.2590     2.4460     0.6120     0.8450    25.7570 
   54.7500    52.2060     2.1370    50.1430     2.5800     0.6160     1.0590    25.7590 
   54.8750    52.4490     2.1270    52.3480     2.8000     0.6230     1.2370    25.7550 
   55.0000    52.6880     2.1310    55.9350     2.9930     0.6300     1.2940    25.7500 
   55.1250    52.9100     2.1390    56.1640     3.0660     0.6320     0.8820    25.7480 
   55.2500    53.1150     2.1460    55.1910     3.0770     0.6250     0.6580    25.7500 
   55.3750    53.2810     2.1490    55.9600     3.0670     0.6120     0.5550    25.7550 
   55.5000    53.4050     2.1470    56.0990     3.0410     0.6010     0.5540    25.7610 
   55.6250    53.4780     2.1370    51.9830     2.9930     0.5980     0.6320    25.7610 
   55.7500    53.5180     2.1220    47.5200     2.9220     0.6030     0.5410    25.7590 
   55.8750    53.5340     2.1030    46.1010     2.7870     0.6100     0.4390    25.7600 
   56.0000    53.5350     2.0830    46.7910     2.5390     0.6180     0.6480    25.7600 
   56.1250    53.5540     2.0700    47.2820     2.1690     0.6270     1.4990    25.7570 
   56.2500    53.6080     2.0670    47.3730     1.8410     0.6390     1.5580    25.7540 
   56.3750    53.6840     2.0760    47.4650     1.6960     0.6500     0.8370    25.7590 
   56.5000    53.7580     2.0960    48.8890     1.7710     0.6540     0.8880    25.7650 
   56.6250    53.8230     2.1230    53.4030     2.0090     0.6480     1.8660    25.7610 
   56.7500    53.8780     2.1460    57.6850     2.2230     0.6380     2.6310    25.7580 
   56.8750    53.9320     2.1570    58.9260     2.2760     0.6310     2.0680    25.7580 
   57.0000    53.9930     2.1490    56.9110     2.1450     0.6310     1.3560    25.7530 
   57.1250    54.0850     2.1200    55.1190     1.9240     0.6410     0.9630    25.7460 
   57.2500    54.1940     2.0850    54.8660     1.7290     0.6540     1.0270    25.7500 
   57.3750    54.3200     2.0660    53.6660     1.5940     0.6650     1.9750    25.7610 
   57.5000    54.4620     2.0870    49.2510     1.5170     0.6700     2.4220    25.7670 
   57.6250    54.6130     2.1610    41.9800     1.4700     0.6690     1.3270    25.7660 
   57.7500    54.7770     2.2480    36.8430     1.3870     0.6690     0.9100    25.7670 
   57.8750    54.9750     2.2980    35.7680     1.2320     0.6710     0.9050    25.7680 
   58.0000    55.2190     2.2830    38.1830     1.0290     0.6750     1.1720    25.7670 
   58.1250    55.5050     2.2250    43.2170     0.8570     0.6780     1.4220    25.7640 
   58.2500    55.8040     2.1740    47.4210     0.7710     0.6780     1.4400    25.7610 
   58.3750    56.0950     2.1510    49.5030     0.7750     0.6760     1.4000    25.7610 
   58.5000    56.3530     2.1510    49.0830     0.8380     0.6760     1.7360    25.7650 
   58.6250    56.5390     2.1590    47.3890     0.9100     0.6790     2.0370    25.7710 
   58.7500    56.6670     2.1640    46.0610     0.9500     0.6850     2.9010    25.7740 
   58.8750    56.7400     2.1640    45.0380     0.9560     0.6940     3.8460    25.7760 
   59.0000    56.7920     2.1630    44.8960     0.9530     0.7020     3.4480    25.7760 
   59.1250    56.8580     2.1660    45.2190     0.9810     0.7100     4.0070    25.7730 
   59.2500    56.9620     2.1700    43.9190     1.0430     0.7160     3.2100    25.7700 
   59.3750    57.1100     2.1710    41.3500     1.1060     0.7210     1.8530    25.7690 
   59.5000    57.3130     2.1680    39.7530     1.1280     0.7260     1.2720    25.7720 
   59.6250    57.5860     2.1650    41.8940     1.0720     0.7330     1.1050    25.7740 
   59.7500    57.9170     2.1680    45.9360     0.9790     0.7400     1.0640    25.7730 
   59.8750    58.3050     2.1790    49.0780     0.8980     0.7450     0.9680    25.7700 
   60.0000    58.7520     2.2010    51.0960     0.8560     0.7470     1.0060    25.7680 
   60.1250    59.2830     2.2330    51.6060     0.8450     0.7480     0.9640    25.7690 
   60.2500    59.8800     2.2680    50.5170     0.8260     0.7480     1.0780    25.7730 
   60.3750    60.5060     2.2920    48.3700     0.7790     0.7500     1.2600    25.7770 
   60.5000    61.1210     2.2960    46.6870     0.7070     0.7530     1.2920    25.7780 
   60.6250    61.6940     2.2720    47.7950     0.6220     0.7580     2.0010    25.7770 
   60.7500    62.2240     2.2330    50.0240     0.5390     0.7650     2.6460    25.7760 
   60.8750    62.6820     2.1910    51.0390     0.4650     0.7730     3.0140    25.7740 
   61.0000    63.0450     2.1560    50.6960     0.4040     0.7800     3.2660    25.7730 
   61.1250    63.2670     2.1290    49.0760     0.3630     0.7840     4.3030    25.7750 
