~V
VERS. 2.00: Ver 2.00
~W
STRT.M 57.0000:
STOP.M 247.0000:
STEP.M 0.1250:
NULL. -999.2500:
UWI. F10194:
~C
DEPT.M :
SP.MV :
DEN.GM/CC :
GR.API :
RML.OHMM :
RI. :
RXO.OHMM :
CALI.CM :
~A
# ...
  135.7500   -13.4050     2.2000    77.2040    22.5340    21.4270    24.2770    27.5130 
  135.8750   -13.5410     2.2080    75.9700    22.2940    21.1900    24.1660    27.5200 
  136.0000   -13.5630     2.2090    75.4860    22.1550    21.0500    23.7150    27.5580 
  136.1250   -13.5560     2.2060    76.8020    22.0650    20.9660    23.1530    27.5960 
  136.2500   -13.5560     2.2000    79.8760    21.9780    20.9070    22.7240    27.6070 
  136.3750   -13.5450     2.1970    83.5170    21.8540    20.8370    22.1260    27.5870 
  136.5000   -13.4880     2.1960    85.6550    21.6810    20.7290    21.3740    27.5620 
  136.6250   -13.3690     2.1940    85.1900    21.4520    20.5570    20.6960    27.5620 
  136.7500   -13.2120     2.1870    83.0890    21.1340    20.2840    20.0240    27.5920 
  136.8750   -13.0540     2.1790    81.8560    20.6670    19.8540    19.7580    27.6170 
  137.0000   -12.8960     2.1800    81.9790    20.0340    19.2610    19.8100    27.6010 
  137.1250   -12.7110     2.1930    81.8140    19.2760    18.5510    19.6970    27.5500 
  137.2500   -12.4900     2.2120    81.2550    18.4740    17.8040    18.9860    27.5040 
  137.3750   -12.2500     2.2250    82.0550    17.7420    17.1190    17.5630    27.4940 
  137.5000   -12.0140     2.2330    83.9180    17.1440    16.5430    16.4600    27.4910 
  137.6250   -11.7950     2.2420    84.9710    16.6720    16.0550    16.2010    27.4440 
  137.7500   -11.5780     2.2610    84.4710    16.2820    15.6100    16.5690    27.3250 
  137.8750   -11.3630     2.2840    82.6100    15.9400    15.1760    16.6430    27.1800 
  138.0000   -11.1750     2.3050    80.3960    15.6640    14.7760    15.9900    27.0530 
  138.1250   -11.0530     2.3220    79.1860    15.5280    14.4810    15.2510    26.9560 
  138.2500   -10.9760     2.3390    80.2290    15.6080    14.3770    15.1030    26.8720 
  138.3750   -10.8890     2.3610    83.8950    15.9320    14.5230    16.0070    26.7730 
  138.5000   -10.7630     2.3830    87.7050    16.3580    14.8370    17.4760    26.6760 
  138.6250   -10.6010     2.3950    88.7470    16.6200    15.1090    18.4660    26.6140 
  138.7500   -10.4210     2.3960    86.9700    16.4270    15.0700    18.6100    26.5930 
  138.8750   -10.2650     2.4010    84.4230    15.4800    14.3970    18.1410    26.6190 
  139.0000   -10.1500     2.4100    81.8820    13.8050    13.0220    17.0480    26.6760 
  139.1250   -10.0450     2.4110    79.7980    11.7150    11.1650    14.8510    26.7220 
  139.2500    -9.9390     2.3920    80.2650     9.6090     9.1710    11.8820    26.7310 
  139.3750    -9.8350     2.3530    83.7180     7.8960     7.4330     8.8560    26.7110 
  139.5000    -9.7450     2.3040    86.6810     6.7310     6.1440     6.6040    26.6180 
  139.6250    -9.7030     2.2590    86.8230     6.0570     5.3060     5.3650    26.3560 
  139.7500    -9.7230     2.2300    85.3710     5.7550     4.8460     4.9040    25.9700 
  139.8750    -9.7580     2.2240    84.4040     5.6850     4.6680     4.8940    25.6610 
  140.0000    -9.7510     2.2340    84.7070     5.6990     4.6370     4.9430    25.5280 
  140.1250    -9.6830     2.2500    85.7540     5.6880     4.6360     4.8900    25.4590 
  140.2500    -9.5720     2.2600    85.8440     5.6100     4.6010     4.7360    25.3880 
  140.3750    -9.4480     2.2610    84.4250     5.4630     4.4970     4.4950    25.3300 
  140.5000    -9.3150     2.2560    83.1950     5.2900     4.3400     4.2740    25.2730 
  140.6250    -9.1690     2.2530    83.2220     5.1350     4.1680     4.1430    25.2140 
  140.7500    -8.9960     2.2510    83.5920     5.0310     4.0160     4.0800    25.1500 
  140.8750    -8.7980     2.2500    83.3850     5.0150     3.9200     4.0580    25.0730 
  141.0000    -8.5960     2.2510    82.9320     5.1080     3.9010     4.1080    25.0040 
  141.1250    -8.4370     2.2520    82.9790     5.3040     3.9630     4.2880    24.9730 
  141.2500    -8.3530     2.2560    84.0140     5.5780     4.0950     4.6170    24.9790 
  141.3750    -8.3220     2.2680    85.9850     5.8740     4.2710     5.0720    24.9930 
  141.5000    -8.3320     2.2820    87.5880     6.1250     4.4470     5.4810    24.9980 
  141.6250    -8.3810     2.2860    87.5870     6.2860     4.5790     5.6230    24.9940 
  141.7500    -8.4650     2.2700    86.0020     6.3350     4.6390     5.4940    24.9790 
  141.8750    -8.6060     2.2480    83.3940     6.2700     4.6090     5.2680    24.9460 
  142.0000    -8.7840     2.2360    80.8670     6.1250     4.5050     5.0750    24.9080 
  142.1250    -8.9590     2.2380    80.2220     5.9480     4.3630     4.9160    24.8810 
  142.2500    -9.1040     2.2470    82.6720     5.7480     4.2140     4.7450    24.8690 
  142.3750    -9.2360     2.2590    86.7940     5.5510     4.0860     4.5730    24.8720 
  142.5000    -9.3560     2.2680    88.8850     5.3520     3.9860     4.4420    24.8840 
  142.6250    -9.4170     2.2760    88.0260     5.0990     3.9060     4.3610    24.8790 
  142.7500    -9.4010     2.2850    86.4100     4.9080     3.8320     4.3040    24.8330 
  142.8750    -9.3170     2.2940    86.5760     4.7880     3.7470     4.2410    24.8150 
  143.0000    -9.1950     2.2970    88.8280     4.6610     3.6460     4.1190    24.8820 
  143.1250    -9.0400     2.2840    91.1560     4.5270     3.5340     3.9420    24.8940 
  143.2500    -8.8380     2.2580    91.7990     4.4150     3.4230     3.7600    24.8040 
  143.3750    -8.5770     2.2410    90.8370     4.3460     3.3280     3.6740    24.7170 
  143.5000    -8.2730     2.2390    90.6580     4.3150     3.2600     3.6760    24.7030 
  143.6250    -7.9670     2.2330    92.3460     4.2950     3.2180     3.7000    24.7260 
  143.7500    -7.6800     2.2070    94.4270     4.2620     3.2010     3.7190    24.7420 
  143.8750    -7.4320     2.1860    96.5890     4.2010     3.2010     3.7410    24.7470 
  144.0000    -7.2360     2.1960    99.7020     4.1260     3.2130     3.7950    24.7420 
  144.1250    -7.0850     2.2260   102.7440     4.0600     3.2290     3.8650    24.7280 
  144.2500    -6.9630     2.2510   103.6840     4.0220     3.2430     3.8800    24.7280 
  144.3750    -6.9100     2.2590   103.1880     4.0200     3.2550     3.8740    24.7620 
  144.5000    -6.9540     2.2540   103.2770     4.0460     3.2640     3.8620    24.7960 
  144.6250    -7.0680     2.2470   102.8100     4.0820     3.2760     3.8240    24.8070 
  144.7500    -7.1950     2.2530    99.3510     4.1180     3.2950     3.8020    24.8090 
  144.8750    -7.2720     2.2770    94.5470     4.1470     3.3190     3.8260    24.8120 
  145.0000    -7.2920     2.3060    92.0170     4.1640     3.3440     3.8720    24.8140 
  145.1250    -7.2800     2.3250    92.6390     4.1660     3.3640     3.9020    24.8140 
  145.2500    -7.2590     2.3330    95.0700     4.1490     3.3720     3.9050    24.8140 
  145.3750    -7.2470     2.3320    97.6110     4.1090     3.3670     3.8830    24.8130 
  145.5000    -7.2140     2.3290    99.1370     4.0520     3.3530     3.8450    24.8100 
  145.6250    -7.1520     2.3270    99.9580     3.9940     3.3380     3.8040    24.8070 
  145.7500    -7.1070     2.3280   101.8530     3.9540     3.3280     3.7690    24.8070 
  145.8750    -7.1310     2.3290   105.2860     3.9520     3.3290     3.7510    24.8190 
  146.0000    -7.2130     2.3280   107.4760     3.9930     3.3440     3.7520    24.8490 
  146.1250    -7.3310     2.3270   106.4920     4.0660     3.3710     3.7620    24.8810 
  146.2500    -7.4830     2.3240   103.2000     4.1460     3.4060     3.7710    24.8630 
  146.3750    -7.6490     2.3200    99.7730     4.2060     3.4450     3.7770    24.8210 
  146.5000    -7.8030     2.3150    98.0390     4.2330     3.4830     3.7890    24.8140 
  146.6250    -7.9360     2.3110    98.8020     4.2310     3.5180     3.8150    24.8420 
  146.7500    -8.0440     2.3090   100.2920     4.2200     3.5480     3.8500    24.8880 
  146.8750    -8.1000     2.3070    99.7470     4.2220     3.5770     3.8840    24.9670 
