~V
VERS. 2.00: Ver 2.00
~W
STRT.M 50.0000:
STOP.M 284.0000:
STEP.M 0.1250:
NULL. -999.2500:
UWI. F10107:
~C
DEPT.M :
DEN.GM/CC :
SP.MV :
GR.API :
RML.OHMM :
RI. :
RXO.OHMM :
CALI.CM :
~A
# ...
  275.0000     2.3420    -4.8990    86.0660     5.1900     4.7700     5.4950    23.7870 
  275.1250     2.3370    -4.9140    86.0660     5.1330     4.7200     5.5790    23.7710 
  275.2500     2.3360    -4.9240    86.0660     4.9540     4.5650     5.5680    23.7480 
  275.3750     2.3390    -4.9360    86.0660     4.7360     4.3700     5.3390    23.7490 
  275.5000     2.3460    -4.9620    86.0660     4.6150     4.2430     4.9980    23.7780 
  275.6250     2.3610    -5.0270    86.0660     4.8350     4.3780     5.0000    23.7930 
  275.7500     2.3850    -5.1430    86.0660     5.5450     4.9010     5.7120    23.7860 
  275.8750     2.4110    -5.3020    86.0660     6.8920     5.9520     7.4630    23.7420 
  276.0000     2.4250    -5.4830    86.0660     8.9540     7.6370    10.7900    23.6500 
  276.1250     2.4170    -5.6700    86.0660    11.7200    10.0460    16.9810    23.6100 
  276.2500     2.3840    -5.8640    86.0660    14.7060    12.8240    23.5000    23.6180 
  276.3750     2.3400    -6.0500    86.0660    17.4170    15.5500    23.4720    23.6850 
  276.5000     2.3040    -6.2070    86.0660    19.4060    17.7480    24.7710    23.8000 
  276.6250     2.2840    -6.3040    86.0660    20.3440    18.9560    29.3820    23.8520 
  276.7500     2.2820    -6.3620    86.0660    20.6260    19.4310    32.7840    23.8880 
  276.8750     2.2940    -6.3770    86.0660    20.6210    19.5230    28.2280    23.9550 
  277.0000     2.3130    -6.3800    86.0660    20.5820    19.5150    19.8870    24.0660 
  277.1250     2.3360    -6.3810    86.0660    20.5720    19.5130    16.6480    24.0430 
  277.2500     2.3570    -6.3800    86.0660    20.5620    19.5130    13.8560    23.9520 
  277.3750     2.3680    -6.3970    86.0660    20.5490    19.5110    14.7150    23.8430 
  277.5000     2.3630    -6.4220    86.0660    20.5380    19.5100    20.1500    23.7480 
  277.6250     2.3360    -6.4670    86.0660    20.5300    19.5080    30.6380    23.7170 
  277.7500     2.2930    -6.5160    86.0660    20.5250    19.5050    46.0830    23.9150 
  277.8750     2.2470    -6.5620    86.0660    20.5240    19.5030    52.0600    24.2550 
  278.0000     2.2170    -6.5970    86.0660    20.5240    19.5020    44.1820    24.5240 
  278.1250     2.2100    -6.6260    86.0660    20.5250    19.5020    32.1550    24.4710 
  278.2500     2.2260    -6.6760    86.0660    20.5250    19.5030    22.6830    24.0960 
  278.3750     2.2580    -6.7250    86.0660    20.5250    19.5020    18.4270    23.6490 
  278.5000     2.2940    -6.7830    86.0660    20.5260    19.5000    16.4550    23.3880 
  278.6250     2.3260    -6.8350    86.0660    20.5260    19.4970    19.5140    23.1890 
  278.7500     2.3530    -6.8890    86.0660    20.5240    19.4930    18.0200    22.9150 
  278.8750     2.3680    -6.9540    86.0660    20.5230    19.4910    14.6130    22.6840 
  279.0000     2.3660    -7.0320    86.0660    20.5220    19.4910    13.5650    22.6090 
  279.1250     2.3470    -7.1190    86.0660    20.5230    19.4920    14.3200    22.6880 
  279.2500     2.3160    -7.2020    86.0660    20.5250    19.4930    16.6960    22.8390 
  279.3750     2.2850    -7.2790    86.0660    20.5250    19.4930    21.9280    22.9740 
  279.5000     2.2640    -7.3550    86.0660    20.5250    19.4930    29.4790    23.0580 
  279.6250     2.2530    -7.4280    86.0660    20.5250    19.4930    32.7530    23.0940 
  279.7500     2.2500    -7.5000    86.0660    20.5250    19.4930    33.5390    23.1020 
  279.8750     2.2510    -7.5970    86.0660    20.5250    19.4930    32.7400    23.0800 
  280.0000     2.2550    -7.6960    86.0660    20.5250    19.4930    29.3730    23.0670 
  280.1250     2.2650    -7.7810    86.0660    20.5250    19.4930    25.6370    23.0740 
  280.2500     2.2810    -7.8490    86.0660    20.5250    19.4930    20.8640    23.0270 
  280.3750     2.3000    -7.9040    86.0660    20.5250    19.4930    15.1200    22.8440 
  280.5000     2.3190    -7.9470    86.0660    20.5250    19.4930     9.3770    22.6750 
  280.6250     2.3320    -7.9870    86.0660    20.5250    19.4930     8.5170    22.5940 
  280.7500     2.3380    -8.0200    86.0660    20.5250    19.4930     9.6420    22.5780 
  280.8750     2.3300    -8.0200    86.0660    20.5250    19.4930    12.1120    22.5720 
  281.0000     2.3020    -8.0200    86.0660    20.5250    19.4930    14.9190    22.5160 
  281.1250     2.2530  -999.2500    86.0660    20.5250    19.4930    19.1230    22.2410 
  281.2500     2.1910  -999.2500    86.0660    20.5250    19.4930    21.1150    21.4020 
  281.3750     2.1290  -999.2500    86.0660    20.5250    19.4930    14.2610    19.8400 
  281.5000     2.0810  -999.2500    86.0660    20.5250    19.4930     6.9840    17.9390 
  281.6250     2.0510  -999.2500    86.0660    20.5250    19.4930     5.0770    17.1230 
  281.7500     2.0370  -999.2500    86.0660    20.5250    19.4930     4.6690    16.9140 
  281.8750     2.0330  -999.2500    86.0660    20.5250    19.4930     4.6260    16.9140 
  282.0000     2.0330  -999.2500    86.0660    20.5250    19.4930     4.6250    16.9140 
  282.1250     2.0330  -999.2500    86.0660    20.5250    19.4930     4.6250    16.9140 
  282.2500     2.0320  -999.2500    86.0660    20.5250    19.4930     4.6250    16.9140 
  282.3750     2.0310  -999.2500    86.0660    20.5250    19.4930     4.6250    16.9140 
  282.5000     2.0300  -999.2500    86.0660    20.5250    19.4930     4.6250    16.9140 
  282.6250     2.0290  -999.2500    86.0660    20.5250    19.4930     4.6250    16.9140 
  282.7500     2.0280  -999.2500    86.0660    20.5250    19.4930     4.6240    16.9140 
  282.8750     2.0280  -999.2500    86.0660    20.5250    19.4930     4.6240    16.9140 
  283.0000     2.0280  -999.2500    86.0660    20.5250    19.4930     4.6230    16.9140 
  283.1250     2.0280  -999.2500    86.0660    20.5250    19.4930     4.6240    16.9140 
  283.2500     2.0290  -999.2500    86.0660    20.5250    19.4930     4.6220    16.9140 
  283.3750     2.0290  -999.2500    86.0660    20.5250    19.4930     4.6210    16.9140 
  283.5000     2.0270  -999.2500    86.0660    20.5250    19.4930     4.6200    16.9140 
  283.6250     2.0260  -999.2500    86.0660    20.5250    19.4930     4.6200    16.9140 
  283.7500     2.0240  -999.2500    86.0660    20.5250    19.4930     4.6190    16.9140 
  283.8750     2.0230  -999.2500    86.0660    20.5250    19.4930     4.6180    16.9140 
  284.0000     2.0230  -999.2500    86.0660    20.5250    19.4930     4.6170    16.9140 
