~V
VERS. 2.00: Ver 2.00
~W
STRT.M 63.0000:
STOP.M 308.0000:
STEP.M 0.1250:
NULL. -999.2500:
UWI. F10102:
~C
DEPT.M :
DEN.GM/CC :
SP.MV :
GR.API :
RML.OHMM :
RI. :
RXO.OHMM :
CALI.CM :
~A
# ...
   96.7500     2.2350   -23.5010    68.7320    11.6530     9.0880    13.1380    23.8030 
   96.8750     2.2190   -23.6250    68.4760    11.8620     9.3700    13.9170    23.7620 
   97.0000     2.2060   -23.8890    67.1540    11.8010     9.4390    11.4680    23.7750 
   97.1250     2.2010   -24.1570    65.6880    11.5470     9.3260     9.2590    23.7810 
   97.2500     2.2020   -24.2340    64.0620    11.2180     9.1140     8.6100    23.7820 
   97.3750     2.2060   -24.2000    62.8980    10.9310     8.8940     8.7250    23.8450 
   97.5000     2.2060   -24.1360    63.9940    10.7270     8.7130     9.2430    23.9710 
   97.6250     2.1990   -24.0890    68.0070    10.6020     8.5730     9.8440    24.1210 
   97.7500     2.1870   -24.1720    70.7720    10.5450     8.4720    10.1080    24.2170 
   97.8750     2.1750   -24.3340    68.7710    10.5660     8.4220     9.9210    24.2860 
   98.0000     2.1670   -24.5420    65.6890    10.6570     8.4360     9.7260    24.3470 
   98.1250     2.1660   -24.7690    63.9010    10.8020     8.5180     9.6060    24.3810 
   98.2500     2.1720   -24.9000    62.7910    10.9520     8.6440     9.8030    24.3730 
   98.3750     2.1840   -24.8860    62.5280    11.0100     8.7490    10.1620    24.3630 
   98.5000     2.2000   -24.8230    64.9610    10.9150     8.7620    10.6980    24.4240 
   98.6250     2.2130   -24.6530    68.4100    10.6460     8.6350    11.0420    24.4940 
   98.7500     2.2190   -24.4250    70.3700    10.2420     8.3730    11.1590    24.5030 
   98.8750     2.2130   -24.2900    70.6820     9.7890     8.0290    11.1260    24.4100 
   99.0000     2.1990   -24.1600    70.1340     9.3950     7.6990    10.8690    24.2350 
   99.1250     2.1820   -24.1000    67.6990     9.1100     7.4370    10.7010    23.9790 
   99.2500     2.1700   -24.2090    63.6290     8.9480     7.2620    10.6080    23.6960 
   99.3750     2.1680   -24.2590    62.0450     8.9030     7.1780    10.6190    23.5540 
   99.5000     2.1740   -24.2560    63.3060     8.9270     7.1520    10.5110    23.5090 
   99.6250     2.1840   -24.3170    64.1560     8.9930     7.1710    10.4390    23.5040 
   99.7500     2.1950   -24.2710    64.4850     9.0730     7.2210    10.4760    23.5180 
   99.8750     2.2050   -23.8900    66.7450     9.1380     7.2710    10.4000    23.5950 
  100.0000     2.2160   -23.2230    69.6400     9.1790     7.3010    10.1510    23.7390 
  100.1250     2.2300   -22.2970    71.5890     9.2130     7.3180     9.9280    23.9070 
  100.2500     2.2440   -21.2880    74.8370     9.2680     7.3450     9.6020    24.0670 
  100.3750     2.2500   -20.6360    80.4730     9.3700     7.4110     8.4860    24.1320 
  100.5000     2.2430   -20.3570    85.1130     9.4910     7.5080     7.4630    24.1200 
  100.6250     2.2240   -20.4060    86.9680     9.5780     7.6050     7.5230    24.0230 
  100.7500     2.2010   -20.7260    86.5660     9.5680     7.6470     8.6150    23.8830 
  100.8750     2.1810   -21.3430    83.3430     9.4140     7.5810     9.5050    23.8610 
  101.0000     2.1680   -22.2920    78.1520     9.1740     7.4300     9.9640    23.9370 
  101.1250     2.1640   -23.5190    73.5890     8.9240     7.2380     9.9170    24.0160 
  101.2500     2.1660   -24.8880    71.5870     8.7390     7.0640     9.6510    24.0690 
  101.3750     2.1710   -26.4210    70.9050     8.6770     6.9690     9.4970    24.0970 
  101.5000     2.1730   -28.0440    70.0490     8.7020     6.9480     9.5700    24.1670 
  101.6250     2.1690   -29.6390    69.8440     8.7700     6.9760     9.8690    24.3220 
  101.7500     2.1590   -31.2370    69.3840     8.8380     7.0250    10.2780    24.5200 
  101.8750     2.1460   -32.8340    67.2550     8.8760     7.0690    10.3270    24.6580 
  102.0000     2.1360   -34.3530    65.2480     8.8820     7.0920    10.2950    24.7240 
  102.1250     2.1320   -35.8680    66.4070     8.8660     7.0910    10.4700    24.7440 
  102.2500     2.1340   -37.3090    70.2150     8.8400     7.0690    10.8200    24.7630 
  102.3750     2.1390   -38.3290    71.8400     8.8230     7.0400    10.9990    24.8260 
  102.5000     2.1420   -39.0140    69.2070     8.8280     7.0200    11.1810    24.9170 
  102.6250     2.1450   -39.3560    63.9210     8.8580     7.0190    11.3420    24.9830 
  102.7500     2.1460   -39.3310    60.2000     8.9040     7.0350    11.3480    25.0290 
  102.8750     2.1460   -39.0110    60.1240     8.9460     7.0570    11.1510    25.0870 
  103.0000     2.1440   -38.5170    61.0590     8.9610     7.0660    11.1970    25.1430 
  103.1250     2.1400   -37.7880    62.7270     8.9410     7.0520    11.3820    25.1780 
  103.2500     2.1360   -36.8340    64.3300     8.8890     7.0160    11.4910    25.1620 
  103.3750     2.1370   -35.8590    64.9220     8.8110     6.9630    11.4040    25.0190 
  103.5000     2.1430   -34.8530    65.4210     8.7260     6.9020    11.2120    24.7550 
  103.6250     2.1530   -33.8830    66.2720     8.6420     6.8420    11.1360    24.4850 
  103.7500     2.1650   -33.0620    66.2590     8.5690     6.7850    11.2470    24.2360 
  103.8750     2.1770   -32.4110    65.4510     8.5150     6.7390    11.2760    24.0210 
  104.0000     2.1870   -31.8940    65.8600     8.4800     6.7020    11.2280    23.8280 
  104.1250     2.1930   -31.5420    66.1740     8.4590     6.6740    11.2430    23.6520 
  104.2500     2.1920   -31.3420    65.4200     8.4440     6.6520    11.2780    23.5360 
  104.3750     2.1880   -31.2310    65.8450     8.4290     6.6300    11.0340    23.4870 
  104.5000     2.1860   -31.1010    66.8380     8.4110     6.6060    10.7890    23.5570 
  104.6250     2.1900   -31.0140    66.0070     8.3940     6.5800    10.7600    23.6800 
  104.7500     2.1990   -31.0520    64.2900     8.3830     6.5600    10.8800    23.7890 
  104.8750     2.2040   -31.1860    65.0190     8.3890     6.5570    10.9820    23.9100 
  105.0000     2.2000   -31.3820    66.2070     8.4060     6.5690    10.9250    24.0360 
  105.1250     2.1880   -31.6380    65.1990     8.4280     6.5930    10.8590    24.1370 
  105.2500     2.1750   -31.9090    63.7420     8.4450     6.6220    10.9170    24.1920 
  105.3750     2.1670   -32.0990    64.7620     8.4440     6.6440    10.9670    24.1810 
  105.5000     2.1630   -32.3840    66.5640     8.4270     6.6530    10.7180    24.1560 
  105.6250     2.1610   -32.6690    66.8700     8.3990     6.6510    10.4140    24.2290 
  105.7500     2.1610   -32.7100    65.8740     8.3650     6.6400    10.3070    24.3710 
  105.8750     2.1660   -32.5210    64.5810     8.3200     6.6210    10.3380    24.4330 
  106.0000     2.1750   -32.1960    64.0260     8.2580     6.5950    10.4390    24.3120 
  106.1250     2.1840   -31.6670    64.1870     8.1760     6.5610    10.5470    24.1160 
  106.2500     2.1910   -30.9040    64.6300     8.0820     6.5190    10.2950    23.9180 
  106.3750     2.1960   -29.8890    65.6630     8.0080     6.4780    10.0560    23.7780 
  106.5000     2.2030   -28.5680    69.1240     7.9880     6.4570     9.8230    23.7010 
  106.6250     2.2130   -27.1360    74.0740     8.0460     6.4820     9.4220    23.6990 
  106.7500     2.2250   -25.9480    78.0580     8.1900     6.5660     8.6840    23.8010 
  106.8750     2.2330   -25.0620    79.1140     8.4020     6.7200     8.0020    23.9720 
  107.0000     2.2340   -24.2430    78.1730     8.6070     6.8990     8.2960    23.9520 
  107.1250     2.2300   -23.4250    75.3730     8.7220     7.0460     8.9720    23.7300 
  107.2500     2.2230   -22.5510    71.2860     8.6700     7.0880     9.2470    23.4150 
  107.3750     2.2210   -21.6130    68.6610     8.3760     6.9400     9.1080    23.2660 
  107.5000     2.2270   -20.5970    68.8600     7.9200     6.6300     8.0670    23.3200 
  107.6250     2.2410   -19.4010    72.0980     7.4100     6.2260     6.9820    23.3300 
  107.7500     2.2590   -18.0700    78.2340     6.9900     5.8370     5.9320    23.2940 
  107.8750     2.2830   -16.7900    86.6230     6.8370     5.6190     5.5690    23.3220 
