~V
VERS. 2.00: Ver 2.00
~W
STRT.M 51.0000:
STOP.M 246.0000:
STEP.M 0.1250:
NULL. -999.2500:
UWI. F10182:
~C
DEPT.M :
SP.MV :
GR.API :
RML.OHMM :
RI. :
RXO.OHMM :
DEN.GM/CC :
CALI.CM :
~A
# ...
  152.2500    -8.5190    63.7430   177.1910   139.5020   151.1070     2.1760    24.4240 
  152.3750    -8.7720    61.8930   184.9720   144.2270   156.9330     2.1750    24.4430 
  152.5000    -9.0370    57.1720   195.7340   151.3680   161.5030     2.1750    24.4380 
  152.6250    -9.2480    53.0710   211.2250   162.3730   165.9070     2.1760    24.3930 
  152.7500    -9.4720    53.1470   234.4610   179.7080   168.7710     2.1730    24.3240 
  152.8750    -9.6950    55.9630   265.2920   203.1950   176.5740     2.1640    24.2920 
  153.0000    -9.8950    57.6630   302.9310   232.1460   192.9020     2.1530    24.3090 
  153.1250   -10.1050    56.1290   344.6950   264.5530   239.4780     2.1490    24.3740 
  153.2500   -10.3150    53.0730   385.1040   296.7120   291.9300     2.1560    24.3660 
  153.3750   -10.5290    52.4040   418.7480   324.7670   356.0400     2.1640    24.2910 
  153.5000   -10.6980    53.7880   443.1420   346.7040   346.0380     2.1650    24.1840 
  153.6250   -10.8590    54.3940   458.8920   362.4990   321.0240     2.1540    24.1600 
  153.7500   -11.0260    54.2470   466.2120   372.2950   327.0070     2.1360    24.2050 
  153.8750   -11.1710    55.3560   463.6840   375.6460   368.1140     2.1230    24.2510 
  154.0000   -11.2750    56.6110   446.0650   368.6550   398.9820     2.1220    24.2890 
  154.1250   -11.3710    56.3960   412.3370   348.8340   382.9000     2.1330    24.2840 
  154.2500   -11.4750    57.0620   369.9490   318.6590   351.1780     2.1500    24.2440 
  154.3750   -11.5300    58.7990   331.8390   288.3980   342.4700     2.1650    24.2190 
  154.5000   -11.6020    58.4620   304.0510   264.6060   278.9290     2.1770    24.2840 
  154.6250   -11.6760    56.1660   288.1610   250.3510   195.5840     2.1870    24.3680 
  154.7500   -11.6800    55.2790   284.1520   246.7710   156.4820     2.1980    24.3760 
  154.8750   -11.7070    55.5520   286.8800   249.5830   197.7640     2.2070    24.3200 
  155.0000   -11.7650    55.2780   292.9550   255.7750   259.6760     2.2110    24.2130 
  155.1250   -11.7520    53.2760   299.5190   262.7320   272.5220     2.2060    24.0490 
  155.2500   -11.7630    52.2700   304.7750   268.5710   261.4920     2.1910    23.9420 
  155.3750   -11.8530    53.7810   309.3650   273.5160   256.9810     2.1770    23.8770 
  155.5000   -11.9020    56.9820   314.2800   278.4590   385.9150     2.1670    23.8380 
  155.6250   -11.9690    58.2320   319.1250   283.4250   464.0900     2.1650    23.8080 
  155.7500   -12.0870    55.9120   320.6240   285.9840   356.1720     2.1690    23.7880 
  155.8750   -12.1740    54.6830   316.3480   283.8380   303.2410     2.1750    23.7800 
  156.0000   -12.2480    56.2580   305.9950   276.2450   328.1440     2.1820    23.7830 
  156.1250   -12.3170    58.0570   291.7190   264.5050   350.6630     2.1870    23.7960 
  156.2500   -12.3870    55.4340   277.5890   251.7290   261.3790     2.1880    23.7970 
  156.3750   -12.4110    51.2620   267.3630   241.6480   219.9550     2.1880    23.7700 
  156.5000   -12.4160    50.4940   263.1680   236.6100   197.7950     2.1870    23.6980 
  156.6250   -12.4000    53.3030   265.6670   237.6370   162.4250     2.1870    23.5870 
  156.7500   -12.3510    55.0140   273.9300   244.3420   115.5600     2.1890    23.4810 
  156.8750   -12.2690    54.7580   282.3150   251.9950    99.8720     2.1930    23.3990 
  157.0000   -12.2000    55.0390   284.8210   255.5810   115.9170     2.1970    23.3400 
  157.1250   -12.1460    54.9140   277.0460   251.0600   177.3820     2.2020    23.2930 
  157.2500   -12.0220    51.7570   258.9470   237.2340   294.0830     2.2090    23.2830 
  157.3750   -11.9070    50.0360   239.0840   220.5890   322.0460     2.2150    23.2770 
  157.5000   -11.8440    52.2230   223.8870   206.9460   304.3080     2.2210    23.2650 
  157.6250   -11.7290    56.0190   216.6470   200.1620   272.3430     2.2240    23.2590 
  157.7500   -11.6200    56.3300   217.2260   201.3740   290.2370     2.2240    23.2600 
  157.8750   -11.5660    55.1150   218.1600   204.5960   411.3900     2.2220    23.2450 
  158.0000   -11.4510    55.6200   210.9030   202.3360   662.5230     2.2220    23.1980 
  158.1250   -11.3580    57.2980   190.1760   188.4510   772.8630     2.2280    23.1360 
  158.2500   -11.3180    58.5530   159.4870   162.7240   403.1220     2.2380    23.0620 
  158.3750   -11.2180    59.7650   136.4740   135.2340   274.9190     2.2470    23.0110 
  158.5000   -11.1000    62.3960   119.4610   112.6020   147.3610     2.2510    23.0040 
  158.6250   -11.0030    65.1980   104.5400    97.6350    91.8220     2.2480    23.0410 
  158.7500   -10.9040    65.6160    98.1720    90.9110    78.0940     2.2390    23.1220 
  158.8750   -10.7720    65.8470    95.9340    88.6250   110.8830     2.2320    23.1540 
  159.0000   -10.6950    68.2010    94.7360    87.8820   138.3260     2.2330    23.1290 
  159.1250   -10.5890    70.4470    92.0700    86.1700   134.6420     2.2430    23.0470 
  159.2500   -10.4860    70.4120    86.6190    81.8420   131.1070     2.2600    23.0490 
  159.3750   -10.4110    69.7430    80.2810    76.2160   110.2160     2.2710    23.1880 
  159.5000   -10.3200    68.6450    75.4390    71.3880    79.7990     2.2710    23.4500 
  159.6250   -10.2920    66.4650    73.9560    69.2290    60.8720     2.2590    23.7590 
  159.7500   -10.2550    64.4360    77.2040    71.2390    58.9770     2.2440    23.8850 
  159.8750   -10.2360    64.1120    84.0630    76.6310    70.7390     2.2380    23.9250 
  160.0000   -10.1890    64.0400    93.3160    84.4740    87.0900     2.2440    23.9260 
  160.1250   -10.1520    63.7090    93.6310    93.0630   108.3970     2.2570    23.9250 
  160.2500   -10.1180    63.0260   100.3920    99.8750    90.7790     2.2700    23.9300 
  160.3750   -10.0790    61.8320   104.3730   103.8990    89.2920     2.2730    23.9400 
  160.5000   -10.0770    62.1380   105.6010   105.1240   101.5770     2.2630    23.9450 
  160.6250   -10.0490    64.1560   103.9260   103.5050    99.0610     2.2430    23.9270 
  160.7500   -10.0270    65.9810    98.3270    98.0950    77.8190     2.2240    23.8950 
  160.8750   -10.0280    66.6260    89.9650    89.8830    69.5600     2.2130    23.8770 
  161.0000   -10.0380    66.4500    80.7590    80.5630    96.2030     2.2140    23.8740 
  161.1250   -10.0780    66.5850    73.0480    72.3370    99.7800     2.2240    23.8760 
  161.2500   -10.0760    66.9450    69.3540    67.7090    57.1760     2.2350    23.8760 
  161.3750   -10.0970    66.5970    69.7480    67.0520    46.8090     2.2400    23.8730 
  161.5000   -10.0900    65.5380    73.7590    70.1640    70.1390     2.2400    23.8750 
  161.6250   -10.0870    64.9480    80.3450    76.2130   119.3630     2.2380    23.8890 
  161.7500   -10.0890    63.9210    88.1370    84.0230   134.8680     2.2360    23.9190 
  161.8750   -10.0730    60.7230    95.4510    91.7290   118.7920     2.2360    23.9570 
  162.0000   -10.0570    58.2410   101.5950    98.3510   112.2510     2.2370    24.0120 
  162.1250   -10.0120    59.3940   106.6330   103.7140   106.1730     2.2360    24.0550 
  162.2500   -10.0100    62.2460   110.0490   107.4320   100.8990     2.2280    24.0460 
  162.3750    -9.9810    63.7880   109.9010   107.9640   110.4330     2.2210    23.9760 
  162.5000    -9.9690    65.2130   103.6820   102.8430   128.8080     2.2240    23.9390 
  162.6250    -9.9630    66.0030    91.5000    91.6710   131.2170     2.2390    24.0100 
  162.7500    -9.9530    63.8740    77.4240    77.6820   134.8220     2.2600    24.0690 
  162.8750    -9.9520    61.9330    66.7300    66.0580   112.3780     2.2720    24.0530 
  163.0000    -9.9420    63.9790    62.0650    59.5970    79.9420     2.2670    24.0010 
  163.1250    -9.9820    68.2610    64.5800    59.7680    69.5190     2.2440    23.9710 
  163.2500    -9.9930    68.2290    75.6260    68.3240    65.5970     2.2170    23.9850 
  163.3750   -10.0230    64.4430    93.0610    83.4670    94.4160     2.1980    24.0700 
