~V
VERS. 2.00: Ver 2.00
~W
STRT.M 63.0000:
STOP.M 800.0000:
STEP.M 0.1250:
NULL. -999.2500:
UWI. F10168:
~C
DEPT.M :
SP.MV :
GR.API :
RML.OHMM :
RI. :
RXO.OHMM :
CALI.CM :
DEN.GM/CC :
~A
# ...
  355.5000   -24.9100    54.8850    14.5350    13.3020    16.5930    22.9330     2.3700 
  355.6250   -24.8110    53.2650    14.6100    13.1850    17.7610    22.9460     2.3670 
  355.7500   -24.6700    53.7830    14.7380    13.2000    18.3330    22.9470     2.3650 
  355.8750   -24.4930    55.7640    14.8700    13.3680    17.8940    22.9580     2.3670 
  356.0000   -24.2420    57.1890    15.0070    13.6580    17.6040    22.9910     2.3720 
  356.1250   -23.9070    58.9790    15.2180    14.0070    18.0050    23.0370     2.3730 
  356.2500   -23.5000    61.6360    15.5410    14.3400    18.7290    23.0750     2.3690 
  356.3750   -22.9800    62.4070    15.9140    14.6140    19.0390    23.0890     2.3620 
  356.5000   -22.2920    61.2130    16.1370    14.7570    18.7070    23.0760     2.3610 
  356.6250   -21.4570    60.0780    15.7990    14.5700    18.1160    23.0420     2.3720 
  356.7500   -20.4670    59.9710    14.7720    13.9340    17.0560    23.0050     2.3910 
  356.8750   -19.3240    60.5090    13.1610    12.8100    15.1010    23.0020     2.4110 
  357.0000   -18.0440    60.9730    11.3040    11.3300    12.0790    23.1050     2.4240 
  357.1250   -16.6810    62.8860     9.6670     9.7950     9.6000    23.4860     2.4250 
  357.2500   -15.2590    64.0490     8.4800     8.5170     7.3230    24.0260     2.4160 
  357.3750   -13.8490    64.0680     7.7890     7.6350     6.3380    24.5010     2.4020 
  357.5000   -12.5260    63.2950     7.5300     7.1590     6.1860    24.6640     2.3900 
  357.6250   -11.3340    62.2170     7.6010     7.0400     6.3680    24.4740     2.3840 
  357.7500   -10.3160    61.0190     7.7670     7.0940     6.5940    24.2190     2.3880 
  357.8750    -9.4910    59.4440     7.8820     7.2250     6.6270    24.0910     2.4050 
  358.0000    -8.8900    57.9690     7.8780     7.3660     6.5440    24.1800     2.4290 
  358.1250    -8.4810    56.8870     7.7620     7.4590     6.5010    24.5070     2.4550 
  358.2500    -8.2500    56.3140     7.6240     7.4740     6.5500    24.8570     2.4710 
  358.3750    -8.1540    56.0530     7.5110     7.4000     6.5270    25.0660     2.4720 
  358.5000    -8.1620    56.1340     7.4390     7.2650     6.4040    25.1740     2.4590 
  358.6250    -8.2150    56.9970     7.4180     7.1320     6.2830    25.4090     2.4320 
  358.7500    -8.3050    58.1970     7.4420     7.0570     6.1010    25.7530     2.4020 
  358.8750    -8.4230    58.9800     7.5120     7.0460     6.0160    25.8790     2.3750 
  359.0000    -8.5800    59.8070     7.6120     7.0590     6.2340    25.5500     2.3580 
  359.1250    -8.7770    60.0760     7.6900     7.0310     6.6340    24.9210     2.3560 
  359.2500    -9.0380    58.9820     7.6850     6.9390     6.8050    24.4000     2.3650 
  359.3750    -9.3630    57.2610     7.5690     6.7990     6.7030    24.1410     2.3810 
  359.5000    -9.7840    57.1510     7.3700     6.6480     6.5320    24.1030     2.3980 
  359.6250   -10.3000    59.1720     7.1940     6.5440     6.6550    24.1470     2.4100 
  359.7500   -10.9120    60.3940     7.1720     6.5430     6.7620    24.1620     2.4140 
  359.8750   -11.6520    59.8820     7.4090     6.7190     6.9460    24.1240     2.4090 
  360.0000   -12.5530    59.4700     7.9730     7.1700     7.5250    24.0230     2.3940 
  360.1250   -13.5960    61.0430     8.9480     8.0420     9.1520    23.8230     2.3740 
  360.2500   -14.7610    62.9400    10.2270     9.2730    11.7760    23.5450     2.3580 
  360.3750   -16.0460    62.9260    11.6930    10.7410    14.4990    23.2320     2.3490 
  360.5000   -17.4360    61.5940    13.1830    12.2470    16.5730    22.9570     2.3500 
  360.6250   -18.8720    60.7160    14.4990    13.5460    18.2780    22.8010     2.3560 
  360.7500   -20.3080    59.3790    15.5850    14.5750    19.7920    22.7050     2.3630 
  360.8750   -21.6800    56.7400    16.4550    15.3640    20.3510    22.5960     2.3680 
  361.0000   -22.9340    53.4950    17.1520    15.9700    20.1130    22.4410     2.3710 
  361.1250   -24.0570    53.3110    17.6590    16.3660    20.1320    22.2670     2.3750 
  361.2500   -25.0200    55.5870    17.9620    16.5210    20.2560    22.1370     2.3770 
  361.3750   -25.8180    57.9280    18.0260    16.3890    19.9230    22.0820     2.3750 
  361.5000   -26.4360    59.1830    17.8610    16.0140    19.2600    22.0990     2.3660 
  361.6250   -26.9230    59.8900    17.5420    15.5430    18.6770    22.1430     2.3510 
  361.7500   -27.3130    59.8150    17.2370    15.1890    17.1680    22.1780     2.3380 
  361.8750   -27.6490    58.1900    17.0730    15.0730    15.5290    22.1920     2.3300 
  362.0000   -27.9420    56.1770    17.1300    15.2290    15.1130    22.1820     2.3300 
  362.1250   -28.2100    55.3650    17.4340    15.6190    17.6740    22.1540     2.3350 
  362.2500   -28.4650    55.5970    17.8200    16.0730    20.4980    22.1270     2.3390 
  362.3750   -28.7050    56.6510    18.1130    16.4700    22.2580    22.1340     2.3360 
  362.5000   -28.9170    57.4560    18.1710    16.7300    21.9330    22.2000     2.3280 
  362.6250   -29.0740    57.3210    17.9550    16.8150    21.3670    22.3250     2.3200 
  362.7500   -29.1720    56.2810    17.6600    16.8000    20.4890    22.4160     2.3190 
  362.8750   -29.1930    55.7770    17.4510    16.7550    19.3080    22.4620     2.3270 
  363.0000   -29.1370    56.0480    17.4120    16.7460    18.3160    22.4950     2.3420 
  363.1250   -29.0190    57.0320    17.5390    16.8250    18.3810    22.5320     2.3570 
  363.2500   -28.8510    58.8860    17.7060    16.9690    18.7560    22.5420     2.3730 
  363.3750   -28.6380    59.4300    17.8200    17.1190    18.8250    22.5240     2.3880 
  363.5000   -28.3770    56.8440    17.8230    17.1810    18.0480    22.4920     2.4050 
  363.6250   -28.1040    53.7050    17.6430    17.0120    17.3180    22.4530     2.4170 
  363.7500   -27.8120    53.2900    17.2750    16.5990    16.8720    22.4020     2.4210 
  363.8750   -27.5210    54.5640    16.7160    15.9850    16.6500    22.3370     2.4140 
  364.0000   -27.2250    54.9880    16.0120    15.2680    16.1410    22.2830     2.3980 
  364.1250   -26.9440    54.9220    15.2810    14.5740    15.3190    22.2990     2.3810 
  364.2500   -26.6910    55.8240    14.6880    13.9970    14.2900    22.3630     2.3680 
  364.3750   -26.4830    56.7000    14.3510    13.6060    13.9700    22.4230     2.3610 
  364.5000   -26.3780    56.3570    14.3320    13.4610    14.5830    22.4460     2.3620 
  364.6250   -26.3730    56.0040    14.6610    13.6640    15.3370    22.4350     2.3690 
  364.7500   -26.4600    56.1420    15.1910    14.1590    16.1570    22.4230     2.3780 
  364.8750   -26.6050    55.9410    15.7930    14.8500    17.0000    22.4240     2.3870 
  365.0000   -26.7880    54.7960    16.3310    15.5750    17.8930    22.4420     2.3910 
  365.1250   -26.9620    53.2910    16.6660    16.1190    18.9600    22.4750     2.3850 
  365.2500   -27.1000    52.3440    16.7940    16.4230    19.9670    22.5110     2.3690 
  365.3750   -27.1730    51.8310    16.7460    16.5250    20.8440    22.5500     2.3470 
  365.5000   -27.1100    53.2080    16.5980    16.5210    21.2410    22.6040     2.3240 
  365.6250   -26.9010    54.6810    16.4660    16.5170    20.8740    22.6770     2.3120 
  365.7500   -26.5410    54.0110    16.4380    16.5630    19.6300    22.7180     2.3180 
  365.8750   -26.0310    53.2360    16.5080    16.6410    18.8460    22.6910     2.3410 
  366.0000   -25.3520    54.5100    16.5560    16.6650    18.9210    22.6040     2.3760 
  366.1250   -24.5360    56.8400    16.3070    16.4310    18.5900    22.5080     2.4060 
  366.2500   -23.5920    58.7970    15.6280    15.8080    18.3250    22.4630     2.4190 
  366.3750   -22.5340    60.3970    14.5500    14.7610    16.9670    22.5090     2.4090 
  366.5000   -21.3790    62.2470    13.2730    13.4140    13.8450    22.6990     2.3830 
  366.6250   -20.1630    62.4730    12.0940    12.0450    10.8450    23.0610     2.3540 
