~V
VERS. 2.00: Ver 2.00
~W
STRT.M 45.0000:
STOP.M 252.0000:
STEP.M 0.1250:
NULL. -999.2500:
UWI. F10190:
~C
DEPT.M :
GR.API :
RML.OHMM :
RI. :
RXO.OHMM :
CALI.CM :
SP.MV :
DEN.GM/CC :
~A
# ...
  213.7500    56.3580    92.3670    93.7650    92.7140    24.9350   -28.2190     2.2150 
  213.8750    57.7790    91.2040    93.2040    91.5410    24.9100   -28.1310     2.2040 
  214.0000    59.5080    89.9290    92.2460    94.3790    24.9130   -28.0710     2.1840 
  214.1250    60.9890    88.1960    90.4710    93.2640    24.9160   -28.0670     2.1670 
  214.2500    62.4140    85.9560    87.8990    86.7080    24.8950   -28.1030     2.1590 
  214.3750    63.5570    83.6030    85.0920    74.8870    24.8630   -28.1310     2.1590 
  214.5000    64.1150    81.9970    83.0820    69.1130    24.8320   -28.1030     2.1660 
  214.6250    63.4090    81.6770    82.4600    67.7710    24.8220   -28.0700     2.1770 
  214.7500    61.6180    82.8980    83.4430    73.7530    24.8350   -28.0960     2.1850 
  214.8750    60.1050    85.4960    85.7830    90.3480    24.8690   -28.1800     2.1880 
  215.0000    59.3150    88.8610    88.7610   115.5610    24.8750   -28.2790     2.1900 
  215.1250    58.0780    91.9890    91.3770   109.3420    24.8540   -28.3660     2.1920 
  215.2500    56.4490    94.3870    93.1980    97.1680    24.8290   -28.4250     2.1910 
  215.3750    55.7550    95.9510    94.2080    98.5280    24.8280   -28.5030     2.1830 
  215.5000    55.9320    96.7340    94.5440   100.4900    24.8480   -28.5930     2.1750 
  215.6250    55.0300    97.0190    94.4750    99.7730    24.8340   -28.6680     2.1740 
  215.7500    54.1970    96.8370    93.9860   103.9910    24.7410   -28.6830     2.1760 
  215.8750    54.4800    96.0910    92.9640   109.3240    24.6200   -28.6130     2.1770 
  216.0000    55.1210    94.7780    91.4620   102.7410    24.6270   -28.4860     2.1790 
  216.1250    55.6260    93.5620    90.1710    95.8240    24.7450   -28.3380     2.1840 
  216.2500    55.8600    93.2690    89.8720    96.5840    24.8750   -28.1720     2.1920 
  216.3750    56.6950    94.6000    91.1500   108.1440    24.9650   -27.9540     2.1970 
  216.5000    59.8090    97.9190    94.1670   104.7130    25.0070   -27.6670     2.1970 
  216.6250    63.2150   101.5770    97.1360   101.8140    24.9990   -27.3680     2.1960 
  216.7500    62.7000   102.8210    97.2750   114.1650    24.9760   -27.0870     2.1940 
  216.8750    58.6200    98.9770    92.2120   131.1410    24.9650   -26.7940     2.1960 
  217.0000    57.5050    89.2510    81.9420   122.4460    24.9660   -26.4360     2.2050 
  217.1250    60.3130    77.5920    70.6330    92.1160    24.9700   -26.0560     2.2220 
  217.2500    63.4850    66.9420    60.8740    65.8640    24.9760   -25.7120     2.2420 
  217.3750    64.5230    58.9210    53.8020    54.6050    24.9810   -25.3960     2.2540 
  217.5000    61.8990    54.1630    49.7060    71.0900    24.9900   -25.1080     2.2480 
  217.6250    58.2250    51.3670    47.2630    86.4910    24.9660   -24.8350     2.2310 
  217.7500    57.4040    49.6730    45.6400    65.9480    24.8500   -24.6170     2.2170 
  217.8750    60.3650    48.5030    44.2740    44.1520    24.6300   -24.4870     2.2120 
  218.0000    61.6610    47.5570    42.9120    38.0080    24.5280   -24.4440     2.2160 
  218.1250    59.9140    46.7520    41.6290    40.1070    24.6590   -24.4630     2.2180 
  218.2500    58.5990    46.1310    40.5450    43.7330    24.8800   -24.5310     2.2160 
  218.3750    60.0540    45.5750    39.5780    45.7300    25.0070   -24.6460     2.2150 
  218.5000    61.4830    44.6500    38.3580    44.1830    25.0240   -24.7830     2.2200 
  218.6250    61.5660    43.1320    36.7110    40.3210    25.0000   -24.9110     2.2310 
  218.7500    62.0400    41.0740    34.7140    36.2020    24.9760   -25.0120     2.2490 
  218.8750    62.0720    38.6620    32.5440    32.6750    24.9590   -25.1280     2.2620 
  219.0000    61.1030    36.1160    30.4030    30.6470    24.9540   -25.2790     2.2530 
  219.1250    62.1130    33.6590    28.4310    28.3920    24.9710   -25.3990     2.2270 
  219.2500    64.0540    31.3910    26.6790    25.5790    25.0260   -25.4420     2.2010 
  219.3750    62.6720    29.3510    25.1510    24.3880    25.0840   -25.4510     2.1880 
  219.5000    57.9840    27.6390    23.9300    24.5340    25.1040   -25.5460     2.1920 
  219.6250    56.4660    26.3440    23.0990    25.3730    25.1090   -25.7170     2.2020 
  219.7500    58.8490    25.6590    22.8560    25.3150    25.1060   -25.8740     2.2150 
  219.8750    62.1300    25.8350    23.4740    23.8610    25.0920   -25.9950     2.2310 
  220.0000    63.0800    27.4950    25.6250    27.0520    25.0630   -26.1500     2.2480 
  220.1250    61.8610    31.0500    29.7110    35.9340    25.0420   -26.3390     2.2550 
  220.2500    60.0940    37.2440    36.3760    43.9660    25.0350   -26.5060     2.2490 
  220.3750    58.9630    46.8560    46.2470    51.9400    25.0340   -26.6960     2.2350 
  220.5000    56.8770    60.8760    60.2160    66.2520    25.0340   -26.8810     2.2200 
  220.6250    54.5670    77.6130    76.8560    90.4600    25.0340   -26.9860     2.2110 
  220.7500    55.5060    94.3590    93.6790   124.4230    25.0340   -27.0460     2.2070 
  220.8750    58.1770   107.2860   106.6610   145.9710    25.0330   -27.1240     2.2080 
  221.0000    56.3830   111.2400   109.9610   140.9600    25.0100   -27.1630     2.2150 
  221.1250    51.7350   106.2260   103.7530   136.4700    24.9670   -27.1450     2.2330 
  221.2500    49.9020    94.3380    90.9210   121.6830    24.9230   -27.1220     2.2600 
  221.3750    53.7730    79.6970    76.1370    94.1000    24.8600   -27.0870     2.2870 
  221.5000    60.0410    66.9500    63.8940    66.5330    24.7520   -27.0340     2.2910 
  221.6250    63.3190    58.1190    55.6210    49.7430    24.6590   -26.9860     2.2760 
  221.7500    62.8150    53.5740    51.4640    46.0820    24.6960   -26.9300     2.2580 
  221.8750    60.7620    52.9530    50.9650    54.0350    24.8660   -26.7940     2.2530 
  222.0000    60.8200    55.8540    53.5280    67.5570    24.9720   -26.6030     2.2760 
  222.1250    62.2740    60.2900    57.0960    78.6730    24.9600   -26.4070     2.3280 
  222.2500    62.8860    64.3690    59.7440    83.9570    24.8800   -26.1870     2.4090 
  222.3750    62.3820    65.8140    59.4110    90.6540    24.8310   -25.8970     2.5000 
  222.5000    60.6360    61.2730    53.7410    84.8090    24.8260   -25.4790     2.5660 
  222.6250    58.4260    51.2160    44.0610    70.4760    24.8250   -24.9970     2.5930 
  222.7500    57.1540    38.4660    32.8350    54.8960    24.7990   -24.5050     2.5840 
  222.8750    57.6560    26.7190    22.6930    37.6970    24.7310   -24.0350     2.5470 
  223.0000    57.8760    18.5180    15.5350    22.3460    24.6610   -23.5910     2.4860 
  223.1250    54.4660    13.2420    10.9370    11.6350    24.6260   -23.1410     2.4210 
  223.2500    49.2760    10.1280     8.3230     7.4380    24.6470   -22.7090     2.3720 
  223.3750    45.3850     8.4570     7.0550     7.0910    24.6690   -22.3510     2.3490 
  223.5000    44.4780     7.7810     6.6660     7.5970    24.6820   -22.1360     2.3540 
  223.6250    45.3340     7.5390     6.5900     7.5560    24.7060   -22.0360     2.3670 
  223.7500    46.7520     7.4370     6.5390     7.4500    24.7250   -22.0380     2.3800 
  223.8750    47.1650     7.2860     6.3700     7.2580    24.7120   -22.1920     2.3880 
  224.0000    48.4330     7.0760     6.1390     6.8130    24.6330   -22.5480     2.3860 
  224.1250    55.6480     6.9610     6.0480     6.1380    24.5280   -23.0710     2.3800 
  224.2500    67.2010     7.0600     6.2210     6.1730    24.4540   -23.7640     2.3800 
  224.3750    76.0990     7.4120     6.6730     7.4540    24.4600   -24.6090     2.3930 
  224.5000    76.0910     7.9850     7.3280     8.6900    24.5140   -25.5780     2.4040 
  224.6250    71.7090     8.6010     7.9890     9.0200    24.5590   -26.5930     2.3980 
  224.7500    70.2890     9.1220     8.5340     9.0220    24.5850   -27.6260     2.3830 
  224.8750    74.3310     9.4870     8.9290     9.1870    24.5860   -28.6010     2.3760 
