~V
VERS. 2.00: Ver 2.00
~W
STRT.M 50.0000:
STOP.M 224.0000:
STEP.M 0.1250:
NULL. -999.2500:
UWI. F10153:
~C
DEPT.M :
GR.API :
RML.OHMM :
RI. :
RXO.OHMM :
CALI.CM :
SP.MV :
DEN.GM/CC :
~A
   50.0000    57.8970     2.3790     1.6770     1.4180    25.0570  -999.2500     2.0320 
   50.1250    57.8970     2.1940     1.6770     1.4180    25.0270  -999.2500     2.0220 
   50.2500    57.8970     2.1060     1.6770     1.4180    24.9970  -999.2500     2.0200 
   50.3750    58.8930     2.1360     1.6490     1.5000    24.9860  -999.2500     2.0230 
   50.5000    61.3880     2.1430     1.6070     1.5030    24.9960  -999.2500     2.0290 
   50.6250    62.8920     2.1240     1.5850     1.4640    25.0200  -999.2500     2.0330 
   50.7500    60.1970     2.1100     1.6340     1.4370    25.0420  -999.2500     2.0330 
   50.8750    58.4650     2.0360     1.7050     1.3680    25.0380  -999.2500     2.0290 
   51.0000    57.7890     1.9890     1.7410     1.3210    25.0190  -999.2500     2.0200 
   51.1250    54.6220     1.9890     1.7570     1.3270    25.0330  -999.2500     2.0090 
   51.2500    51.7180     1.9890     1.7530     1.3550    25.0970  -999.2500     2.0000 
   51.3750    52.6870     1.9890     1.7330     1.3330    25.1710  -999.2500     1.9950 
   51.5000    55.0920     1.9890     1.7060     1.2340    25.1850  -999.2500     1.9940 
   51.6250    55.2500     1.9890     1.6790     1.1080    25.1550  -999.2500     1.9950 
   51.7500    52.8060     1.9870     1.6550     1.0160    25.1400  -999.2500     2.0000 
   51.8750    48.6840     1.9820     1.6340     1.0870    25.1690  -999.2500     2.0080 
   52.0000    45.1000     1.9660     1.6130     1.2080    25.1910  -999.2500     2.0190 
   52.1250    43.8600     1.9460     1.5920     1.2900    25.1880   258.4990     2.0280 
   52.2500    44.7580     1.9300     1.5710     1.3200    25.1770   258.4990     2.0310 
   52.3750    46.6890     1.9120     1.5530     1.2220    25.1700   264.4940     2.0290 
   52.5000    48.2090     1.9000     1.5400     1.1950    25.1650   268.4880     2.0230 
   52.6250    49.1260     1.8950     1.5300     1.3330    25.1750   268.4800     2.0190 
   52.7500    49.9750     1.8800     1.5230     1.5630    25.2000   268.4730     2.0210 
   52.8750    51.5750     1.8540     1.5090     1.6300    25.2330   268.4650     2.0300 
   53.0000    52.9570     1.8110     1.4920     1.5980    25.2680   268.4580     2.0430 
   53.1250    53.1190     1.7770     1.4730     1.6090    25.3170   268.4510     2.0530 
   53.2500    52.9840     1.7590     1.4530     1.5990    25.3810   268.4440     2.0580 
   53.3750    54.5760     1.7420     1.4350     1.4710    25.4370   268.4360     2.0550 
   53.5000    57.2820     1.7320     1.4170     1.3660    25.4670   268.4290     2.0420 
   53.6250    58.6620     1.7300     1.3960     1.3940    25.4720   268.4220     2.0220 
   53.7500    58.4650     1.7300     1.3700     1.5400    25.4660   268.4140     1.9970 
   53.8750    59.5150     1.7300     1.3390     1.5630    25.4600   268.4060     1.9700 
   54.0000    63.8940     1.7270     1.3120     1.4530    25.4500   268.3990     1.9480 
   54.1250    69.4150     1.7110     1.2970     1.3560    25.4320   268.2560     1.9360 
   54.2500    72.9120     1.6720     1.2990     1.3470    25.4180   267.6160     1.9330 
   54.3750    72.3780     1.6170     1.3220     1.4540    25.4270   265.5890     1.9370 
   54.5000    69.4270     1.5720     1.3540     1.6530    25.4410   262.0130     1.9450 
   54.6250    66.3040     1.5550     1.3820     1.8230    25.4460   257.1870     1.9530 
   54.7500    64.3200     1.5530     1.3990     1.8980    25.4440   251.7940     1.9610 
   54.8750    62.8360     1.5520     1.4010     1.7410    25.4380   246.3500     1.9720 
   55.0000    59.9450     1.5520     1.3930     1.5960    25.4270   241.0380     1.9850 
   55.1250    56.2610     1.5520     1.3830     1.5770    25.4160   235.9180     2.0020 
   55.2500    53.2730     1.5520     1.3730     1.6340    25.4090   230.8850     2.0200 
   55.3750    52.1930     1.5520     1.3660     1.7860    25.3980   225.0750     2.0330 
   55.5000    52.9620     1.5500     1.3590     1.9600    25.3680   218.1490     2.0350 
   55.6250    53.8330     1.5380     1.3460     2.0520    25.3080   210.6710     2.0270 
   55.7500    53.1280     1.5160     1.3260     2.0610    25.2300   203.2110     2.0130 
   55.8750    51.4480     1.4870     1.2970     2.0530    25.1650   196.0880     2.0010 
   56.0000    51.9030     1.4530     1.2620     2.0790    25.1380   189.7680     1.9960 
   56.1250    54.3110     1.4240     1.2320     2.1180    25.1390   184.3490     2.0000 
   56.2500    56.5130     1.3980     1.2110     2.1200    25.1530   179.2510     2.0090 
   56.3750    57.4100     1.3700     1.2040     2.0660    25.1790   174.9660     2.0190 
   56.5000    56.8330     1.3560     1.2090     2.0050    25.1990   171.9080     2.0260 
   56.6250    54.5930     1.3690     1.2200     2.0470    25.1880   169.2620     2.0260 
   56.7500    52.2220     1.3880     1.2330     2.2660    25.1560   165.9580     2.0210 
   56.8750    51.9900     1.4030     1.2430     2.6380    25.1300   160.8790     2.0140 
   57.0000    52.9010     1.4020     1.2480     2.6370    25.1270   153.4880     2.0110 
   57.1250    52.7220     1.3740     1.2450     2.3250    25.1340   143.7280     2.0110 
   57.2500    51.5600     1.3360     1.2370     2.0860    25.1420   132.8780     2.0110 
   57.3750    50.3960     1.3260     1.2270     2.1870    25.1510   121.9770     2.0080 
   57.5000    48.5010     1.3510     1.2200     2.4240    25.1750   111.2530     2.0020 
   57.6250    45.8040     1.3680     1.2170     2.4600    25.2430   100.8190     1.9990 
   57.7500    44.0490     1.3710     1.2150     2.3490    25.3510    90.7650     2.0010 
   57.8750    45.5120     1.3710     1.2070     2.5900    25.4530    81.2260     2.0080 
   58.0000    48.2330     1.3710     1.1850     2.5150    25.4970    72.2390     2.0160 
   58.1250    49.5470     1.3710     1.1400     2.2420    25.4900    63.9140     2.0290 
   58.2500    49.8490     1.3690     1.0600     2.1380    25.4690    56.1190     2.0530 
   58.3750    49.8310     1.3580     0.9080     2.1370    25.4420    48.8190     2.1150 
   58.5000    49.6080     1.3210     0.6920     2.1660    25.3490    41.8400     2.2220 
   58.6250    49.8730     1.2600     0.4680     2.1830    25.1320    34.9470     2.3520 
   58.7500    51.0500     1.1520     0.2800     2.1610    24.8230    27.9850     2.4740 
   58.8750    52.4080     1.0580     0.1630     2.1080    24.5070    20.9290     2.5270 
   59.0000    52.5040     0.9870     0.1080     2.0940    24.2160    13.8940     2.4930 
   59.1250    52.3070     0.9530     0.1040     2.1220    23.8930     7.0550     2.3950 
   59.2500    54.0880     1.0000     0.1440     2.1040    23.5240     0.5490     2.2780 
   59.3750    59.6020     1.3220     0.2680     2.3830    23.2370    -5.1910     2.1880 
   59.5000    65.5070     1.9550     0.5190     3.0870    23.2940    -9.9910     2.1330 
   59.6250    68.4730     2.8520     0.9540     4.1260    23.8270   -13.7110     2.0840 
   59.7500    69.2900     3.8970     1.5690     5.2500    24.6300   -16.4450     2.0130 
   59.8750    69.5910     4.8330     2.3610     5.7950    25.3700   -17.9790     1.9000 
   60.0000    69.3250     5.4640     3.2120     5.9900    25.8880   -18.5710     1.7740 
   60.1250    69.0140     5.8290     4.0170     6.4310    26.2470   -18.4490     1.6860 
   60.2500    69.4980     6.0810     4.7400     6.8940    26.5010   -17.8680     1.6640 
   60.3750    71.5280     6.2820     5.3120     6.7300    26.4940   -16.9690     1.7370 
   60.5000    75.5990     6.3980     5.6940     6.3640    26.0850   -15.9390     1.8730 
   60.6250    82.2690     6.3400     5.8400     6.4470    25.3750   -14.8800     2.0240 
   60.7500    91.0760     6.1120     5.7810     6.5450    24.6740   -13.8370     2.1570 
   60.8750   101.8960     5.7670     5.5500     5.9980    24.3490   -12.8740     2.2430 
   61.0000   112.8120     5.4540     5.2830     5.2080    24.3290   -12.0310     2.2870 
   61.1250   119.8030     5.2810     5.0840     4.7850    24.3730   -11.3490     2.3100 
