~V
VERS. 2.00: Ver 2.00
~W
STRT.M 55.0000:
STOP.M 215.0000:
STEP.M 0.1250:
NULL. -999.2500:
UWI. F10125:
~C
DEPT.M :
GR.API :
RML.OHMM :
RI. :
RXO.OHMM :
CALI.CM :
DEN.GM/CC :
SP.MV :
~A
# ...
   77.5000    66.8380    10.7650     7.5790    11.7630    24.3640     2.2060   -27.9160 
   77.6250    68.6000    10.8700     7.6180    11.7220    24.2400     2.2000   -27.9750 
   77.7500    68.6970    10.9830     7.6880    12.1580    24.1110     2.1900   -27.9730 
   77.8750    68.2860    11.0440     7.7680    12.5680    24.0980     2.1780   -27.9620 
   78.0000    68.8590    10.9730     7.8410    12.6350    24.2000     2.1670   -27.9210 
   78.1250    67.2200    10.7270     7.8870    12.6070    24.3470     2.1610   -27.8780 
   78.2500    63.7900    10.4060     7.8990    12.7200    24.5160     2.1610   -27.7920 
   78.3750    62.0860    10.1050     7.8740    12.6230    24.6360     2.1670   -27.7020 
   78.5000    62.2130     9.8870     7.8130    12.2360    24.6460     2.1740   -27.6210 
   78.6250    62.5780     9.7660     7.7230    11.9340    24.5330     2.1830   -27.5150 
   78.7500    64.6580     9.7060     7.6300    12.0070    24.3280     2.1920   -27.3880 
   78.8750    67.4390     9.7180     7.5660    11.5870    24.0660     2.1950   -27.2250 
   79.0000    68.4580     9.8450     7.5550    10.7700    23.7690     2.1920   -27.0640 
   79.1250    66.5100    10.1220     7.6080    10.3410    23.5620     2.1920   -26.8560 
   79.2500    64.6530    10.4490     7.6670    10.6080    23.4770     2.1990   -26.6580 
   79.3750    64.0170    10.6770     7.6580    10.9490    23.4600     2.2110   -26.4540 
   79.5000    63.5690    10.6630     7.5130    11.1580    23.4620     2.2230   -26.2270 
   79.6250    63.1960    10.2910     7.1910    11.4620    23.4830     2.2310   -25.9990 
   79.7500    64.0710     9.6950     6.7760    11.2340    23.5320     2.2350   -25.7770 
   79.8750    67.1380     9.0730     6.3760    10.4460    23.6180     2.2370   -25.5600 
   80.0000    71.3150     8.7090     6.1250    10.0200    23.7190     2.2430   -25.3400 
   80.1250    73.9310     9.0590     6.2390    10.6910    23.9390     2.2520   -25.1430 
   80.2500    71.7260    10.4000     6.8480    11.9850    24.3220     2.2720   -24.9710 
   80.3750    65.4820    13.0910     8.1620    14.2870    24.7410     2.3200   -24.8160 
   80.5000    58.1320    17.4390    10.4590    20.2170    25.0310     2.4080   -24.6680 
   80.6250    55.1730    23.6670    14.2300    38.0540    25.2570     2.5150   -24.5270 
   80.7500    55.2510    30.4780    19.0610    55.6530    25.4060     2.5920   -24.4080 
   80.8750    55.2350    35.6740    23.6720    62.6600    25.4420     2.6200   -24.3250 
   81.0000    54.3300    36.6680    25.8750    61.7890    25.4220     2.6100   -24.3000 
   81.1250    53.9890    32.2680    23.9740    54.8550    25.3970     2.5600   -24.3520 
   81.2500    54.5930    25.9260    20.1130    41.5840    25.3140     2.4720   -24.4550 
   81.3750    56.2780    20.0840    16.1200    26.2220    25.0910     2.3630   -24.6090 
   81.5000    60.2540    15.7900    12.9080    16.2010    24.7780     2.2690   -24.8360 
   81.6250    65.7620    13.2530    10.7740    13.7490    24.6590     2.2200   -25.0950 
   81.7500    67.4680    11.7790     9.3710    13.5020    24.6550     2.2020   -25.3480 
   81.8750    65.6470    10.9650     8.4870    13.6640    24.6230     2.1970   -25.5510 
   82.0000    66.1510    10.4870     7.9470    13.4790    24.5710     2.1930   -25.6530 
   82.1250    69.1630    10.1270     7.6340    12.3460    24.6210     2.1930   -25.5920 
   82.2500    70.4240     9.7620     7.4210    10.7000    24.7060     2.1960   -25.4140 
   82.3750    71.2500     9.3830     7.2630     9.9260    24.7250     2.2020   -25.1450 
   82.5000    73.8770     8.9900     7.1240    10.8470    24.7160     2.2090   -24.7910 
   82.6250    76.2620     8.5830     6.9600    11.0270    24.7470     2.2210   -24.3760 
   82.7500    74.8780     8.2000     6.7700     9.8710    24.7890     2.2340   -23.9360 
   82.8750    73.4250     7.8780     6.5810     8.4500    24.8140     2.2440   -23.5010 
   83.0000    73.9450     7.6260     6.4150     8.1270    24.7990     2.2490   -23.0810 
   83.1250    73.6780     7.4250     6.2700     8.7000    24.7450     2.2570   -22.7130 
   83.2500    74.2040     7.2010     6.1030     8.7080    24.7700     2.2710   -22.3450 
   83.3750    78.6670     6.8900     5.8670     7.7030    24.9560     2.2880   -21.9540 
   83.5000    86.3850     6.4600     5.5410     6.2270    25.2300     2.3030   -21.5660 
   83.6250    91.4070     5.9380     5.1460     5.6620    25.3900     2.3100   -21.2350 
   83.7500    91.7940     5.4270     4.7660     5.4050    25.3900     2.3130   -20.9760 
   83.8750    90.8690     5.0350     4.4750     5.1540    25.3330     2.3120   -20.7730 
   84.0000    93.6570     4.8870     4.3400     4.9990    25.5010     2.3020   -20.6490 
   84.1250    99.6420     5.1880     4.4630     4.8870    25.7700     2.2800   -20.6540 
   84.2500   100.6540     5.9520     4.8530     4.9910    25.7420     2.2570   -20.7980 
   84.3750    92.0310     7.0920     5.4970     5.8010    25.0750     2.2430   -21.0800 
   84.5000    78.1640     8.3050     6.2690     8.0710    24.1040     2.2400   -21.4720 
   84.6250    71.1070     8.9550     6.8220    10.4520    23.5820     2.2410   -21.9100 
   84.7500    71.9920     8.7300     6.8680    11.0140    23.4300     2.2390   -22.3080 
   84.8750    78.2930     7.7850     6.4140     9.3610    23.4690     2.2340   -22.6740 
   85.0000    86.0800     6.6930     5.7540     7.0040    23.5560     2.2220   -22.9910 
   85.1250    90.9410     6.2110     5.3010     5.6490    23.6400     2.2030   -23.2560 
   85.2500    90.4090     6.5470     5.2310     5.9050    23.6530     2.1850   -23.5000 
   85.3750    85.4170     7.6140     5.5710     7.3090    23.5450     2.1790   -23.7340 
   85.5000    80.3350     9.0850     6.2410     9.1000    23.3520     2.1850   -23.9350 
   85.6250    77.6760    10.3610     7.0020     9.7240    23.1050     2.2000   -24.0890 
   85.7500    76.9670    10.9330     7.4950     9.4490    22.8660     2.2130   -24.2610 
   85.8750    76.7250    10.6840     7.5400     9.0520    22.7030     2.2200   -24.4470 
   86.0000    75.8610     9.9150     7.2140     8.9110    22.5250     2.2240   -24.6610 
   86.1250    73.7290     9.2490     6.8120     8.9380    22.2580     2.2370   -24.8560 
   86.2500    71.4340     9.2590     6.6760     9.1710    21.9920     2.2660   -25.0320 
   86.3750    69.5040    10.3020     7.0250     9.7720    21.8690     2.3090   -25.1680 
   86.5000    69.4510    12.5230     7.9970    10.5030    22.0250     2.3650   -25.2700 
   86.6250    69.7060    15.8550     9.7100    12.6300    22.6190     2.4240   -25.3820 
   86.7500    67.8830    19.2980    11.7610    18.4610    23.2280     2.4660   -25.5040 
   86.8750    64.1510    21.5610    13.4620    25.8290    23.5150     2.4590   -25.6350 
   87.0000    61.1070    21.5150    13.9900    25.1150    23.3990     2.3910   -25.7750 
   87.1250    61.9160    19.0110    12.9790    17.2050    23.1060     2.3070   -25.9410 
   87.2500    64.3480    15.9160    11.4070    12.5890    22.9120     2.2570   -26.0830 
   87.3750    65.5400    13.4370     9.9620    11.2780    22.8690     2.2380   -26.2290 
   87.5000    65.3230    12.0630     8.9780    11.0170    22.9270     2.2340   -26.3900 
   87.6250    65.7130    11.8040     8.5800    10.7580    23.1270     2.2290   -26.5210 
   87.7500    66.6320    12.0390     8.5490    10.6460    23.4730     2.2200   -26.6430 
   87.8750    66.7330    12.3700     8.7070    10.9620    23.8250     2.2100   -26.7560 
   88.0000    65.8830    12.5420     8.8860    11.6130    24.0740     2.2010   -26.8470 
   88.1250    64.0240    12.4150     8.9340    12.0700    24.2890     2.1990   -26.8850 
   88.2500    61.7550    12.0260     8.8070    11.8280    24.5400     2.1980   -26.8860 
   88.3750    62.3340    11.4060     8.4950    10.9760    24.6140     2.1960   -26.8410 
   88.5000    66.4330    10.6110     8.0310    10.1340    24.4660     2.1950   -26.7660 
   88.6250    69.1870     9.7620     7.4800     9.6950    24.2310     2.2040   -26.6930 
