~V
VERS. 2.00: Ver 2.00
~W
STRT.M 55.0000:
STOP.M 288.0000:
STEP.M 0.1250:
NULL. -999.2500:
UWI. F10106:
~C
DEPT.M :
DEN.GM/CC :
SP.MV :
GR.API :
RML.OHMM :
RI. :
RXO.OHMM :
CALI.CM :
~A
# ...
   88.7500     2.3470    -8.4710    79.5830     7.5150     6.0370     7.2520    24.3140 
   88.8750     2.3580    -8.1850    82.3250     7.4510     5.9950     6.9100    24.3620 
   89.0000     2.3550    -7.9550    81.6990     7.3160     5.9080     6.2180    24.3820 
   89.1250     2.3440    -7.8090    79.4000     7.1190     5.7760     6.0800    24.3450 
   89.2500     2.3360    -7.7300    79.7210     6.8910     5.6180     6.2110    24.3210 
   89.3750     2.3350    -7.7180    80.6910     6.6510     5.4490     6.3280    24.3690 
   89.5000     2.3380    -7.7820    79.9330     6.4240     5.2910     6.1830    24.4960 
   89.6250     2.3400    -7.9200    80.5720     6.2630     5.1870     5.7270    24.6530 
   89.7500     2.3380    -8.1190    84.9400     6.2270     5.1770     5.2680    24.7720 
   89.8750     2.3310    -8.3600    88.7250     6.3720     5.3060     5.2110    24.8120 
   90.0000     2.3180    -8.6340    85.8260     6.7140     5.5990     5.3920    24.7750 
   90.1250     2.2960    -8.9310    77.7110     7.2270     6.0560     5.6350    24.6650 
   90.2500     2.2670    -9.2240    71.8610     7.7740     6.5730     5.8890    24.5020 
   90.3750     2.2360    -9.4870    70.0630     8.2230     7.0400     6.2120    24.3100 
   90.5000     2.2110    -9.6690    71.0490     8.4640     7.3420     6.5090    24.1250 
   90.6250     2.2020    -9.7510    71.8330     8.4140     7.3750     6.6640    23.9500 
   90.7500     2.2100    -9.7460    72.8620     8.1740     7.2040     6.6680    23.7950 
   90.8750     2.2290    -9.6570    74.6110     7.8430     6.9100     6.4750    23.6880 
   91.0000     2.2480    -9.5140    76.3610     7.5020     6.5740     6.0940    23.6390 
   91.1250     2.2580    -9.3030    77.1330     7.1960     6.2480     5.8140    23.6060 
   91.2500     2.2590    -9.1010    75.8240     6.9500     5.9610     5.7400    23.5750 
   91.3750     2.2600    -8.8990    73.4500     6.8600     5.7720     5.8520    23.5850 
   91.5000     2.2720    -8.7880    72.8410     7.1230     5.8060     6.0100    23.6720 
   91.6250     2.3080    -8.8160    76.5160     8.1340     6.3310     6.6260    23.8260 
   91.7500     2.3670    -8.9880    78.8730     9.9640     7.4420     9.0680    23.9800 
   91.8750     2.4420    -9.2970    75.0140    12.4610     9.1210    14.6620    24.0640 
   92.0000     2.5130    -9.7180    65.6930    15.0940    11.0960    22.2290    24.0580 
   92.1250     2.5440   -10.2650    58.0400    16.8130    12.7170    29.3000    24.0060 
   92.2500     2.5170   -10.8660    56.2480    16.9520    13.3590    31.4280    23.9480 
   92.3750     2.4380   -11.5130    58.2480    15.4270    12.7400    24.2520    23.9010 
   92.5000     2.3390   -12.1530    60.2050    12.9530    11.2070    12.6970    23.8610 
   92.6250     2.2540   -12.7490    58.8380    10.7340     9.5990     7.8420    23.8050 
   92.7500     2.1960   -13.2790    55.7400     9.3380     8.4630     6.6650    23.7250 
   92.8750     2.1650   -13.7210    52.9790     8.7020     7.8490     6.4840    23.6230 
   93.0000     2.1530   -14.0830    53.1880     8.5650     7.6370     6.5120    23.4930 
   93.1250     2.1510   -14.3400    57.2600     8.6860     7.6920     6.5710    23.3490 
   93.2500     2.1550   -14.5630    60.3110     8.8570     7.8380     6.6430    23.2160 
   93.3750     2.1630   -14.7460    60.3500     9.0150     8.0030     6.7180    23.1290 
   93.5000     2.1760   -14.9100    59.9510     9.1440     8.1560     6.8010    23.1140 
   93.6250     2.1890   -15.0270    61.2920     9.2310     8.2710     6.8520    23.1780 
   93.7500     2.2000   -15.1130    61.3970     9.2650     8.3360     6.8540    23.2860 
   93.8750     2.2050   -15.1800    59.2020     9.2320     8.3340     6.8330    23.4190 
   94.0000     2.2020   -15.2390    56.9510     9.1290     8.2580     6.8180    23.5770 
   94.1250     2.1910   -15.2960    56.9320     8.9690     8.1130     6.7990    23.8040 
   94.2500     2.1790   -15.3400    56.3160     8.8080     7.9470     6.7280    24.0910 
   94.3750     2.1720   -15.3750    55.8770     8.7000     7.8070     6.6040    24.3900 
   94.5000     2.1700   -15.3900    57.5850     8.6980     7.7400     6.5500    24.6110 
   94.6250     2.1690   -15.3780    59.4990     8.8520     7.7970     6.8280    24.6760 
   94.7500     2.1600   -15.3500    59.2490     9.1170     7.9520     7.6670    24.6370 
   94.8750     2.1340   -15.3120    57.3950     9.4350     8.1680     9.0280    24.5230 
   95.0000     2.0970   -15.2770    55.7050     9.7320     8.3890    10.5830    24.3410 
   95.1250     2.0630   -15.2390    53.3780     9.9020     8.5320    11.7210    24.0890 
   95.2500     2.0460   -15.2010    51.1170     9.9040     8.5520    11.1770    23.8360 
   95.3750     2.0530   -15.1720    51.0870     9.7290     8.4310     8.8980    23.5750 
   95.5000     2.0800   -15.1560    51.7890     9.4140     8.1940     7.4630    23.3460 
   95.6250     2.1140   -15.1560    52.0500     9.0640     7.9090     7.1670    23.2170 
   95.7500     2.1450   -15.1560    54.5610     8.8870     7.7230     7.1610    23.1410 
   95.8750     2.1720   -15.1460    59.2400     9.1530     7.8190     7.1490    23.0910 
   96.0000     2.2000   -15.0940    62.3890    10.1920     8.4320     7.3890    23.0870 
   96.1250     2.2380   -15.0200    61.1190    12.5010     9.9640     9.1450    23.1780 
   96.2500     2.2910   -14.9400    58.1850    15.8780    12.3850    14.9040    23.3620 
   96.3750     2.3550   -14.8720    56.0600    19.7560    15.4040    25.2230    23.6230 
   96.5000     2.4220   -14.8150    55.4520    23.0650    18.3000    37.3490    23.8830 
   96.6250     2.4660   -14.7890    55.5880    24.0960    19.7290    47.7210    23.9980 
   96.7500     2.4700   -14.8070    55.0150    22.4120    19.0150    46.1500    23.9160 
   96.8750     2.4290   -14.8500    53.0030    18.6450    16.3920    28.2680    23.6990 
   97.0000     2.3560   -14.9290    50.9000    14.4010    13.0970    14.3250    23.4420 
   97.1250     2.2780   -15.0230    50.1560    11.2990    10.4810     9.3220    23.2580 
   97.2500     2.2150   -15.1130    50.5060     9.4800     8.7890     7.6500    23.1750 
   97.3750     2.1750   -15.1890    50.1560     8.6270     7.8520     7.1690    23.1410 
   97.5000     2.1570   -15.2450    48.6690     8.3540     7.4250     7.0780    23.1220 
   97.6250     2.1570   -15.2670    50.2740     8.3780     7.3250     7.0750    23.1150 
   97.7500     2.1640   -15.2190    54.0350     8.4620     7.3430     7.0620    23.1260 
   97.8750     2.1690   -15.1160    56.4890     8.5330     7.3980     7.1040    23.1500 
   98.0000     2.1690   -14.9500    56.1130     8.5750     7.4540     7.2400    23.1760 
   98.1250     2.1640   -14.7320    54.6550     8.6010     7.4990     7.4260    23.1720 
   98.2500     2.1560   -14.4780    55.5120     8.6230     7.5360     7.5820    23.1190 
   98.3750     2.1500   -14.1880    59.2430     8.6410     7.5620     7.5230    23.0070 
   98.5000     2.1490   -13.8930    63.4860     8.6520     7.5740     7.1620    22.8500 
   98.6250     2.1540   -13.6100    64.6760     8.6560     7.5680     6.9510    22.6980 
   98.7500     2.1610   -13.3830    63.1060     8.6600     7.5480     6.8450    22.6080 
   98.8750     2.1670   -13.2250    62.5430     8.6670     7.5170     6.7920    22.5670 
   99.0000     2.1710   -13.1430    63.7740     8.6710     7.4790     6.7790    22.5540 
   99.1250     2.1720   -13.1730    65.0850     8.6560     7.4300     6.8060    22.5610 
   99.2500     2.1720   -13.2820    65.6880     8.6120     7.3670     6.8090    22.5880 
   99.3750     2.1710   -13.4450    64.1660     8.5430     7.2910     6.7860    22.6400 
   99.5000     2.1700   -13.6280    61.0950     8.4690     7.2130     6.7730    22.7170 
   99.6250     2.1700   -13.8200    58.9710     8.4290     7.1590     6.7440    22.8020 
   99.7500     2.1700   -13.9760    58.7670     8.4470     7.1500     6.7340    22.8580 
   99.8750     2.1710   -14.0960    59.2770     8.5310     7.1950     6.7440    22.8750 
