~V
VERS. 2.00: Ver 2.00
~W
STRT.M 49.0000:
STOP.M 251.0000:
STEP.M 0.1250:
NULL. -999.2500:
UWI. F10165:
~C
DEPT.M :
GR.API :
RML.OHMM :
RI. :
RXO.OHMM :
CALI.CM :
SP.MV :
DEN.GM/CC :
~A
# ...
  161.5000    59.7800   183.3510   162.4910   174.1920    28.3790   -32.5750     2.1200 
  161.6250    57.9300   191.6900   170.8490   180.3170    28.3920   -32.6920     2.1220 
  161.7500    57.1210   194.3030   174.9520   176.9700    28.3960   -32.7820     2.1260 
  161.8750    59.8600   186.8970   170.9000   163.8770    28.3950   -32.8410     2.1340 
  162.0000    61.2490   170.2650   158.0370   156.4450    28.3860   -32.9260     2.1500 
  162.1250    57.8650   151.6530   140.8500   148.3780    28.3620   -33.0430     2.1840 
  162.2500    53.8830   138.9300   127.0730   138.3660    28.3410   -33.1210     2.2290 
  162.3750    52.9280   135.6020   121.1350   135.2280    28.3630   -33.1790     2.2620 
  162.5000    54.4300   143.3930   125.4960   134.1820    28.4380   -33.2510     2.2530 
  162.6250    53.8470   165.6780   142.9000   134.1820    28.5070   -33.2820     2.2030 
  162.7500    50.8640   200.7370   170.2210   196.9060    28.5360   -33.3150     2.1550 
  162.8750    48.9170   245.5390   203.4830   265.7050    28.5430   -33.3720     2.1290 
  163.0000    50.0630   290.9490   235.6940   284.6830    28.5350   -33.3880     2.1190 
  163.1250    52.7920   319.6990   256.6070   300.6390    28.5060   -33.3490     2.1140 
  163.2500    54.0920   326.8070   263.7460   319.4290    28.4630   -33.3430     2.1130 
  163.3750    53.7730   314.8710   257.9010   309.7900    28.4230   -33.3560     2.1150 
  163.5000    53.2940   288.0090   240.8030   307.3930    28.3920   -33.3330     2.1190 
  163.6250    53.7640   249.6290   213.3800   261.6580    28.3460   -33.3150     2.1260 
  163.7500    53.9680   208.8990   181.7420   234.1730    28.2780   -33.2930     2.1410 
  163.8750    53.5070   172.2930   151.1880   147.8110    28.2110   -33.2300     2.1610 
  164.0000    53.2160   143.3720   125.7170   118.6760    28.1710   -33.1610     2.1830 
  164.1250    54.6480   124.1720   108.2030   111.6080    28.1370   -33.1350     2.1980 
  164.2500    57.3600   112.2590    97.1810   108.2850    28.0870   -33.0920     2.2050 
  164.3750    61.3070   106.2580    91.5770   100.2730    28.0010   -33.0100     2.2050 
  164.5000    66.4840   104.6930    90.1720    98.7100    27.8870   -32.9490     2.1990 
  164.6250    70.1760   106.1230    91.8810    97.2060    27.8180   -32.9120     2.1910 
  164.7500    71.0850   108.1020    94.5790    97.9580    27.8000   -32.8530     2.1840 
  164.8750    71.4650   109.0240    96.8620   103.3980    27.7430   -32.8230     2.1800 
  165.0000    72.6120   107.8470    97.6610   104.9610    27.6490   -32.8360     2.1800 
  165.1250    72.1060   104.2580    96.3480    97.9640    27.5570   -32.8140     2.1760 
  165.2500    69.8020    99.6700    93.8570    95.7260    27.4950   -32.7810     2.1670 
  165.3750    67.1230    95.1050    91.0510    94.6320    27.4630   -32.7890     2.1630 
  165.5000    63.8100    90.8840    88.3440    91.4170    27.4520   -32.7970     2.1710 
  165.6250    59.7130    86.1300    85.0300    88.6530    27.4300   -32.7750     2.1890 
  165.7500    59.3630    79.5780    79.8110    86.0130    27.3750   -32.7820     2.2080 
  165.8750    62.8920    70.6140    71.7940    66.0180    27.3050   -32.7810     2.2230 
  166.0000    65.4240    59.9090    61.4390    49.6130    27.2460   -32.7570     2.2380 
  166.1250    65.9700    49.4880    50.8800    33.9480    27.1910   -32.7730     2.2510 
  166.2500    68.6030    41.1670    42.3250    25.4310    27.1060   -32.7870     2.2560 
  166.3750    71.4320    35.7360    36.6270    23.8740    27.0500   -32.7710     2.2560 
  166.5000    71.5060    33.3460    33.8420    23.9970    27.0560   -32.7860     2.2550 
  166.6250    68.6600    34.2670    34.1450    21.7180    27.1350   -32.8420     2.2540 
  166.7500    65.8940    37.6280    36.8160    22.4290    27.1810   -32.8780     2.2460 
  166.8750    64.4750    42.8530    41.5090    25.9190    27.1870   -32.9330     2.2330 
  167.0000    63.6830    49.0650    47.5440    28.6750    27.1720   -33.0210     2.2190 
  167.1250    63.9040    54.8700    53.5710    31.9570    27.1830   -33.0780     2.2050 
  167.2500    64.5940    59.0770    58.1070    34.7500    27.1750   -33.1380     2.1890 
  167.3750    66.2090    61.1100    60.3780    36.2350    27.2190   -33.2280     2.1810 
  167.5000    67.7900    60.9520    60.2940    41.6000    27.2790   -33.3230     2.1860 
  167.6250    66.5450    58.8210    58.0620    40.4310    27.3040   -33.3950     2.2050 
  167.7500    66.3710    55.8430    54.8550    40.5450    27.3140   -33.4770     2.2270 
  167.8750    69.2820    52.9520    51.5940    38.0190    27.3310   -33.5640     2.2490 
  168.0000    72.6010    51.0930    49.1860    28.2930    27.3600   -33.6220     2.2690 
  168.1250    74.0700    51.3960    48.7020    21.5980    27.3920   -33.6930     2.2770 
  168.2500    73.3920    53.9720    50.3300    23.5330    27.4590   -33.8000     2.2680 
  168.3750    71.4810    58.8660    54.2330    35.9730    27.5560   -33.8860     2.2450 
  168.5000    69.5260    65.8520    60.3810    52.3130    27.6030   -33.9280     2.2190 
  168.6250    69.3750    74.2400    68.4900    61.5000    27.5860   -33.9900     2.2020 
  168.7500    70.0880    81.8290    76.6050    73.4140    27.5610   -34.0600     2.1950 
  168.8750    69.7380    86.0340    82.1900   106.8190    27.5710   -34.1040     2.1950 
  169.0000    68.1900    84.7960    82.8270   185.3830    27.6280   -34.1680     2.2020 
  169.1250    67.0620    77.6320    77.2060   170.3570    27.6580   -34.2430     2.2200 
  169.2500    68.1580    68.3560    68.6610   108.2050    27.6660   -34.2770     2.2480 
  169.3750    71.2940    59.9060    60.1830    61.3420    27.6680   -34.3170     2.2740 
  169.5000    73.7190    54.1100    53.8510    41.7550    27.6790   -34.4010     2.2840 
  169.6250    72.4980    52.0280    50.8820    52.4790    27.7150   -34.4730     2.2630 
  169.7500    70.3310    52.7940    50.5640    77.2820    27.7670   -34.5130     2.2290 
  169.8750    68.8560    55.9150    52.4700    88.9550    27.8010   -34.5660     2.2020 
  170.0000    67.0040    60.9500    56.2250    62.9280    27.8210   -34.6170     2.1940 
  170.1250    65.1620    68.0760    61.9460    44.1880    27.8690   -34.6450     2.1960 
  170.2500    64.3960    77.7370    69.9350    39.4690    27.9500   -34.7020     2.1910 
  170.3750    63.6560    91.3490    81.5610    49.3140    28.0300   -34.7860     2.1780 
  170.5000    62.0680   110.3190    98.2670    58.7160    28.1060   -34.8410     2.1690 
  170.6250    60.2600   135.3100   120.5820    56.3480    28.1890   -34.8660     2.1660 
  170.7500    60.1220   161.0580   143.4870    52.4450    28.2720   -34.9200     2.1640 
  170.8750    60.3440   179.1960   159.7970    67.8670    28.3330   -34.9800     2.1620 
  171.0000    59.1840   182.1340   163.2150   109.2950    28.4000   -35.0080     2.1680 
  171.1250    57.4540   170.2770   153.1030   111.8120    28.4830   -35.0430     2.1800 
  171.2500    55.9740   156.8230   140.0860    75.4950    28.5820   -35.0690     2.1810 
  171.3750    54.0440   149.5660   131.5080    54.9290    28.6940   -35.0460     2.1630 
  171.5000    51.7710   152.1700   131.5790    54.3970    28.7940   -35.0160     2.1350 
  171.6250    51.8000   168.0660   144.0760    83.7220    28.8550   -35.0320     2.1200 
  171.7500    54.2070   195.4510   167.2730   134.8760    28.9120   -35.0330     2.1200 
  171.8750    56.1960   232.1940   198.8510   214.1040    28.9640   -35.0060     2.1280 
  172.0000    56.3520   272.6510   233.6040   319.1340    29.0210   -35.0090     2.1340 
  172.1250    55.9650   306.1060   262.6460   396.7150    29.0760   -35.0020     2.1340 
  172.2500    55.9070   327.1920   281.3740   383.7700    29.1350   -34.9820     2.1280 
  172.3750    56.1530   337.7500   290.5960   348.9290    29.1570   -34.9850     2.1190 
  172.5000    57.1570   343.4660   294.6970   329.7520    29.1310   -34.9590     2.1090 
  172.6250    57.5850   348.8770   298.0110   348.8820    29.0910   -34.8720     2.1020 
