~V
VERS. 2.00: Ver 2.00
~W
STRT.M 50.0000:
STOP.M 246.0000:
STEP.M 0.1250:
NULL. -999.2500:
UWI. F10164:
~C
DEPT.M :
GR.API :
RML.OHMM :
RI. :
RXO.OHMM :
CALI.CM :
SP.MV :
DEN.GM/CC :
~A
# ...
  128.7500    62.4570    21.8060    19.5630    13.4500    23.4520    -9.9820     2.5730 
  128.8750    63.1210    22.5070    20.1450    14.0700    23.2160    -9.9260     2.5620 
  129.0000    63.9370    23.4540    20.9900    14.9890    22.9990    -9.8690     2.5450 
  129.1250    66.4310    24.4840    21.9940    17.4990    23.0430    -9.8520     2.5310 
  129.2500    68.7080    25.3560    22.9330    21.3000    23.3280    -9.7650     2.5190 
  129.3750    68.9920    25.8710    23.6070    24.6670    23.7000    -9.6330     2.5100 
  129.5000    68.5100    25.9030    23.8560    25.9760    24.1020    -9.5700     2.5060 
  129.6250    69.4090    25.3860    23.5570    25.0730    24.3110    -9.6190     2.5130 
  129.7500    69.5500    24.5720    22.9030    23.0260    24.3440    -9.6710     2.5250 
  129.8750    66.9660    23.7010    22.0980    20.4690    24.2720    -9.7180     2.5360 
  130.0000    64.7090    23.0060    21.3740    18.4420    24.1770    -9.7900     2.5420 
  130.1250    65.5560    22.7270    20.9830    17.8430    24.1670    -9.8190     2.5420 
  130.2500    66.4890    22.8460    20.9700    18.0880    24.2850    -9.8020     2.5440 
  130.3750    66.9100    23.2930    21.3090    18.7510    24.4370    -9.7850     2.5460 
  130.5000    68.7530    23.9280    21.8970    20.0560    24.5200    -9.7900     2.5460 
  130.6250    70.3600    24.5400    22.5670    21.8090    24.5090    -9.6890     2.5350 
  130.7500    68.1820    24.9250    23.1040    22.6170    24.4520    -9.5330     2.5160 
  130.8750    64.4610    24.9510    23.3450    21.9460    24.3900    -9.4330     2.4940 
  131.0000    64.1450    24.5550    23.1850    20.8840    24.3580    -9.3560     2.4760 
  131.1250    66.4820    23.7110    22.5350    20.7790    24.4230    -9.2760     2.4670 
  131.2500    67.3350    22.6140    21.5600    20.7560    24.5700    -9.2830     2.4650 
  131.3750    67.7240    21.4330    20.4200    19.3640    24.6030    -9.3690     2.4720 
  131.5000    67.9840    20.3480    19.3060    17.1570    24.2250    -9.4050     2.4900 
  131.6250    65.7140    19.5540    18.4280    16.0540    23.5790    -9.4570     2.5180 
  131.7500    61.5820    19.0730    17.8380    16.0530    23.1680    -9.5610     2.5450 
  131.8750    59.5930    18.8730    17.5310    16.9580    23.0370    -9.6370     2.5580 
  132.0000    61.1130    18.8600    17.4420    18.2970    22.9580    -9.7100     2.5500 
  132.1250    62.2680    18.9150    17.4800    18.2070    23.0060    -9.8540     2.5250 
  132.2500    60.0130    18.9380    17.5270    16.4250    23.3410   -10.0000     2.5020 
  132.3750    56.2980    18.9110    17.5370    15.0320    23.9530   -10.1100     2.4930 
  132.5000    54.5360    18.8560    17.5050    14.9120    24.4770   -10.2290     2.5000 
  132.6250    56.0930    18.7850    17.4340    14.9580    24.8590   -10.2900     2.5130 
  132.7500    58.3400    18.6640    17.3090    14.8100    25.0580   -10.3390     2.5190 
  132.8750    60.3870    18.4200    17.0710    15.0500    25.2000   -10.4150     2.5120 
  133.0000    61.8490    17.9900    16.6620    15.5520    25.2890   -10.4310     2.4960 
  133.1250    62.4250    17.3530    16.0420    15.3880    25.2730   -10.3830     2.4780 
  133.2500    63.4590    16.6450    15.3250    14.2780    25.2380   -10.3210     2.4670 
  133.3750    64.7800    15.9950    14.6280    12.7860    25.2190   -10.1990     2.4640 
  133.5000    62.0230    15.5030    14.0510    11.8910    25.2880   -10.0460     2.4680 
  133.6250    61.3000    15.2440    13.6800    12.0590    25.3810   -10.0190     2.4720 
  133.7500    69.8800    15.1610    13.4850    12.5680    25.4370    -9.9970     2.4740 
  133.8750    76.3270    15.2050    13.4320    12.5690    25.3650    -9.8890     2.4730 
  134.0000    68.8280    15.3260    13.4800    11.9860    25.3050    -9.7960     2.4730 
  134.1250    54.5720    15.4640    13.5800    11.9450    25.4850    -9.7360     2.4760 
  134.2500    49.2550    15.5490    13.6590    12.7900    25.6480    -9.6460     2.4790 
  134.3750    51.4560    15.5290    13.6570    14.1740    25.7240    -9.5930     2.4780 
  134.5000    52.9010    15.3750    13.5350    15.1640    25.7390    -9.6010     2.4710 
  134.6250    52.7480    15.1040    13.2820    14.5860    25.7070    -9.5110     2.4680 
  134.7500    51.2010    14.8230    12.9850    13.0960    25.6260    -9.3990     2.4770 
  134.8750    49.4840    14.6270    12.7270    11.7940    25.3860    -9.3790     2.5010 
  135.0000    49.2050    14.5810    12.5820    11.4440    24.8510    -9.3560     2.5290 
  135.1250    50.7100    14.7080    12.5990    11.9910    24.0970    -9.3120     2.5430 
  135.2500    53.1290    14.9020    12.7120    12.4630    23.9880    -9.3170     2.5370 
  135.3750    55.9190    15.0690    12.8440    12.5690    24.7380    -9.3210     2.5180 
  135.5000    58.5780    15.1350    12.9230    12.5570    25.9830    -9.3200     2.4980 
  135.6250    61.8480    15.0700    12.9020    12.5220    26.8590    -9.4100     2.4850 
  135.7500    65.7720    14.9390    12.8140    12.2220    27.2100    -9.5090     2.4740 
  135.8750    70.5750    14.7820    12.6910    11.9040    27.2410    -9.6040     2.4610 
  136.0000    75.3060    14.5990    12.5360    12.0050    27.1220    -9.7530     2.4440 
  136.1250    75.3000    14.3300    12.3050    12.2860    26.9150    -9.8750     2.4310 
  136.2500    70.7930    13.9430    11.9710    11.8910    26.7620    -9.9790     2.4260 
  136.3750    67.6700    13.4470    11.5370    10.7190    26.6230   -10.1100     2.4340 
  136.5000    70.0350    12.9100    11.0510     9.4870    26.2990   -10.1860     2.4480 
  136.6250    73.6060    12.4540    10.6080     8.9730    25.6460   -10.1700     2.4610 
  136.7500    72.4960    12.1630    10.2910     8.9480    25.0770   -10.1990     2.4660 
  136.8750    67.0020    12.0780    10.1480     8.9620    24.7610   -10.2370     2.4610 
  137.0000    60.7540    12.1980    10.1950     8.9670    24.6240   -10.2540     2.4530 
  137.1250    59.0450    12.5040    10.4450     9.3170    24.5900   -10.3770     2.4500 
  137.2500    62.8420    12.8690    10.8060    10.0330    24.6200   -10.5680     2.4570 
  137.3750    67.9470    13.1400    11.1600    10.7530    24.7400   -10.7400     2.4750 
  137.5000    69.2750    13.1150    11.3220    11.1170    24.7880   -10.9560     2.4980 
  137.6250    66.9400    12.5160    11.0050    11.2910    24.6930   -11.2560     2.5160 
  137.7500    65.8190    11.4080    10.1850    11.2500    24.5960   -11.4770     2.5180 
  137.8750    70.9300     9.9690     8.9780     9.9970    24.5440   -11.6800     2.5020 
  138.0000    80.9320     8.3690     7.6220     7.5530    24.5200   -11.9260     2.4710 
  138.1250    92.1480     6.8340     6.4170     5.5980    24.5070   -12.0860     2.4370 
  138.2500   101.1210     5.6500     5.4990     4.7090    24.5060   -12.1880     2.4100 
  138.3750   106.5200     4.9870     4.8890     4.4530    24.5200   -12.3140     2.3930 
  138.5000   109.0980     4.7660     4.5460     4.3310    24.5460   -12.3840     2.3800 
  138.6250   108.2190     4.7500     4.4190     4.2260    24.6040   -12.3850     2.3660 
  138.7500   105.7400     4.7780     4.3900     4.1850    24.6760   -12.4780     2.3510 
  138.8750   103.8620     4.8250     4.4040     4.1830    24.7360   -12.5710     2.3380 
  139.0000   102.9780     4.8840     4.4350     4.2280    24.7830   -12.6220     2.3310 
  139.1250   101.5130     4.9880     4.4930     4.3440    24.8450   -12.7390     2.3300 
  139.2500    98.7830     5.1670     4.6020     4.5350    24.9050   -12.8420     2.3350 
  139.3750    98.3260     5.4480     4.7830     4.9690    25.0350   -12.9030     2.3420 
  139.5000   100.5670     5.8410     5.0490     5.7900    25.2720   -13.0430     2.3500 
  139.6250    99.8670     6.3620     5.4190     6.8380    25.4140   -13.2050     2.3530 
  139.7500    96.3430     6.9760     5.8680     7.6360    25.4500   -13.3150     2.3460 
  139.8750    94.4070     7.6570     6.3820     8.0390    25.3920   -13.4660     2.3310 
