~V
VERS. 2.00: Ver 2.00
~W
STRT.M 55.0000:
STOP.M 251.0000:
STEP.M 0.1250:
NULL. -999.2500:
UWI. F10189:
~C
DEPT.M :
DEN.GM/CC :
SP.MV :
GR.API :
RML.OHMM :
RI. :
RXO.OHMM :
CALI.CM :
~A
# ...
  201.2500     2.3010   -29.9280    90.7390     7.5920     5.8480     8.1590    25.2880 
  201.3750     2.3070   -30.9420    92.5760     7.6480     5.8660     8.1620    25.3090 
  201.5000     2.3160   -31.8600    91.7840     7.7430     5.9020     7.9140    25.3920 
  201.6250     2.3110   -32.6160    87.2090     7.8500     5.9740     7.7990    25.6130 
  201.7500     2.3000   -33.1940    82.1140     7.9350     6.0770     8.0000    25.7310 
  201.8750     2.2930   -33.6260    79.0660     7.9850     6.1960     8.4010    25.6560 
  202.0000     2.2930   -33.9290    78.6550     8.0170     6.3180     8.8860    25.4650 
  202.1250     2.2930   -34.0510    80.8810     8.0710     6.4380     9.1970    25.2450 
  202.2500     2.2880   -33.9930    82.8540     8.1700     6.5410     9.0010    25.1410 
  202.3750     2.2780   -33.7710    82.6800     8.2880     6.6020     8.5710    25.1780 
  202.5000     2.2680   -33.4040    80.4010     8.3660     6.5960     8.1960    25.2470 
  202.6250     2.2690   -32.9070    79.0900     8.3420     6.5240     7.9420    25.1900 
  202.7500     2.2820   -32.3670    79.8670     8.2730     6.4460     7.8050    25.0050 
  202.8750     2.3080   -31.8270    82.3230     8.2600     6.4180     7.6740    24.6860 
  203.0000     2.3440   -31.3350    87.1070     8.3980     6.4820     7.7640    24.2570 
  203.1250     2.3690   -30.9450    90.1980     8.7310     6.6590     7.8630    23.9200 
  203.2500     2.3670   -30.6700    88.5720     9.1240     6.8920     8.3650    23.8990 
  203.3750     2.3440   -30.4780    84.6710     9.4430     7.1200     9.1260    24.1740 
  203.5000     2.3240   -30.3590    83.1890     9.5980     7.2790    10.0080    24.4530 
  203.6250     2.3160   -30.3080    84.5080     9.5790     7.3230    11.1310    24.6240 
  203.7500     2.3070   -30.2610    82.4230     9.5410     7.3160    11.8160    24.7240 
  203.8750     2.3000   -30.1590    77.4310     9.6430     7.3610    12.0600    24.7170 
  204.0000     2.3060   -29.9440    74.9850    10.0430     7.5810    12.9360    24.6150 
  204.1250     2.3280   -29.5550    77.5320    10.9830     8.1630    14.6170    24.4030 
  204.2500     2.3620   -28.9950    78.2190    12.5270     9.1780    16.5600    24.3230 
  204.3750     2.4060   -28.2930    75.0770    14.6890    10.6980    17.6860    24.1730 
  204.5000     2.4530   -27.4720    72.1750    17.2110    12.6540    17.9930    24.0170 
  204.6250     2.4850   -26.5460    71.7000    19.0900    14.5140    18.6280    23.8820 
  204.7500     2.5010   -25.5680    69.6380    19.0910    15.3000    18.7600    23.7160 
  204.8750     2.5000   -24.5710    65.5470    16.8000    14.3710    17.9710    23.5260 
  205.0000     2.4730   -23.5900    61.3100    13.2050    12.0440    15.9700    23.3590 
  205.1250     2.4220   -22.6870    57.0790     9.9490     9.3980    11.7740    23.2990 
  205.2500     2.3820   -21.8600    54.7600     7.6850     7.2820     6.9540    23.3110 
  205.3750     2.3760   -21.1430    57.0740     6.3430     5.8580     4.0910    23.3660 
  205.5000     2.3960   -20.5500    62.0840     5.6930     5.0450     3.3620    23.5210 
  205.6250     2.4120   -20.0590    63.9740     5.5690     4.7580     3.5500    23.8180 
  205.7500     2.4100   -19.6410    65.4280     5.6700     4.7530     3.9420    24.1190 
  205.8750     2.4020   -19.2870    70.7560     5.8220     4.8820     4.3640    24.2850 
  206.0000     2.3980   -18.9570    77.7110     5.9020     5.0220     4.5880    24.2880 
  206.1250     2.3920   -18.6110    80.4700     5.8640     5.0870     4.6370    24.2260 
  206.2500     2.3700   -18.2400    80.9000     5.7730     5.0840     4.5550    24.2770 
  206.3750     2.3380   -17.8190    81.5700     5.6740     5.0360     4.4610    24.4290 
  206.5000     2.3230   -17.3460    81.8910     5.5880     4.9570     4.4580    24.5060 
  206.6250     2.3430   -16.8910    81.4470     5.5150     4.8510     4.3070    24.1510 
  206.7500     2.3740   -16.4430    83.8720     5.4600     4.7340     4.2080    23.7740 
  206.8750     2.3900   -15.9990    86.1370     5.4600     4.6370     4.2800    23.5760 
  207.0000     2.3880   -15.5940    84.4280     5.5680     4.6080     4.6730    23.4970 
  207.1250     2.3800   -15.2660    82.5460     5.8650     4.7160     5.2400    23.4590 
  207.2500     2.3740   -15.0270    81.3090     6.3350     4.9630     5.7340    23.4880 
  207.3750     2.3670   -14.8650    77.7070     6.9350     5.3320     6.1690    23.6000 
  207.5000     2.3580   -14.7700    73.5800     7.5810     5.7700     6.7780    23.7520 
  207.6250     2.3500   -14.6870    76.4730     8.1410     6.1950     7.5220    23.7500 
  207.7500     2.3420   -14.6090    80.4460     8.5550     6.5440     8.1860    23.6330 
  207.8750     2.3330   -14.5400    80.4850     8.8510     6.8210     8.9180    23.5330 
  208.0000     2.3210   -14.4960    79.4380     9.1320     7.0900    10.0970    23.5980 
  208.1250     2.3070   -14.4820    79.4300     9.5430     7.4710    11.4670    23.8170 
  208.2500     2.2940   -14.4810    79.6410    10.1190     8.0080    13.0090    24.0930 
  208.3750     2.2880   -14.5020    82.2400    10.8040     8.6690    14.3360    24.2750 
  208.5000     2.2890   -14.5450    84.7060    11.4540     9.3460    15.3150    24.3400 
  208.6250     2.2950   -14.6260    80.9280    11.8060     9.8310    16.1720    24.4000 
  208.7500     2.3010   -14.7340    77.1140    11.7300     9.9930    16.6290    24.4730 
  208.8750     2.3110   -14.8740    78.1840    11.2200     9.8090    16.0690    24.5280 
  209.0000     2.3230   -15.0150    80.3850    10.4370     9.3780    14.2950    24.6140 
  209.1250     2.3270   -15.1640    79.1520     9.6800     8.9050    12.6400    24.8070 
  209.2500     2.3210   -15.3380    77.4370     9.2140     8.6030    12.0840    25.1630 
  209.3750     2.3100   -15.5260    76.0650     9.1550     8.5820    12.6290    25.5940 
  209.5000     2.3040   -15.7170    74.5830     9.4840     8.8630    13.8200    25.7890 
  209.6250     2.3140   -15.9150    75.9440    10.0860     9.4130    15.0150    25.5930 
  209.7500     2.3360   -16.1100    78.1240    10.6860    10.0360    16.0840    25.3040 
  209.8750     2.3560   -16.3010    78.2080    11.0660    10.5340    16.5400    25.1470 
  210.0000     2.3700   -16.4920    76.0800    11.0820    10.7130    16.4100    25.1040 
  210.1250     2.3870   -16.6530    74.2750    10.6900    10.4190    15.2910    25.0680 
  210.2500     2.4080   -16.7790    73.8700    10.1000     9.8190    13.6970    25.0140 
  210.3750     2.4110   -16.8850    76.3360     9.4890     9.1060    12.5330    25.0130 
  210.5000     2.3810   -16.9980    83.2040     9.0380     8.4840    12.2200    25.0890 
  210.6250     2.3340   -17.1250    88.6240     9.0180     8.2040    12.9790    25.1090 
  210.7500     2.3050   -17.2820    86.6810     9.6030     8.4080    15.3530    25.0080 
  210.8750     2.3010   -17.4760    81.9150    11.0630     9.3070    19.5140    24.7730 
  211.0000     2.3130   -17.7120    80.2880    13.7410    11.2080    25.2470    24.4830 
  211.1250     2.3180   -18.0010    80.6360    18.4280    14.9230    32.3140    24.2360 
  211.2500     2.3070   -18.3320    77.5480    25.4290    20.9160    40.2490    24.0000 
  211.3750     2.2860   -18.7180    74.0010    35.1980    29.7390    49.4020    23.7590 
  211.5000     2.2610   -19.1470    71.4980    47.7560    41.4480    59.4120    23.5590 
  211.6250     2.2330   -19.6010    67.5500    61.9940    55.0410    67.8540    23.5090 
  211.7500     2.2090   -20.0810    63.4500    74.6100    67.5760    75.3500    23.7180 
  211.8750     2.2000   -20.5690    62.0060    82.6490    76.5260    79.0020    24.0310 
  212.0000     2.2080   -21.0510    62.3050    84.9220    80.5380    74.3830    24.2240 
  212.1250     2.2210   -21.5410    61.7970    82.0670    79.4160    64.3450    24.2630 
  212.2500     2.2210   -22.0310    62.1190    77.1400    75.6510    58.0490    24.2820 
  212.3750     2.2140   -22.4930    63.8630    71.8450    70.9600    55.9490    24.2890 
