~V
VERS. 2.00: Ver 2.00
~W
STRT.M 55.0000:
STOP.M 248.0000:
STEP.M 0.1250:
NULL. -999.2500:
UWI. F10184:
~C
DEPT.M :
SP.MV :
GR.API :
RML.OHMM :
RI. :
RXO.OHMM :
CALI.CM :
DEN.GM/CC :
~A
# ...
  133.7500     1.1260    87.4730     8.8110     7.4270     9.4290    24.7750     2.3450 
  133.8750     0.9990    81.4350    11.8420     9.6940    17.1400    24.6790     2.3960 
  134.0000     0.9280    72.9160    15.6110    12.8320    31.4200    24.5500     2.4510 
  134.1250     0.8180    68.6060    19.0160    16.1830    35.6190    24.3210     2.4830 
  134.2500     0.6680    68.1270    20.9010    18.5020    27.8900    24.0560     2.4710 
  134.3750     0.6100    67.3360    21.0210    19.1840    20.1620    23.8090     2.4230 
  134.5000     0.5860    65.3580    20.1090    18.6430    17.3080    23.6820     2.3750 
  134.6250     0.5660    63.0610    19.2750    17.8100    17.7210    23.6160     2.3670 
  134.7500     0.6130    60.4830    19.0540    17.3350    17.4500    23.5200     2.3980 
  134.8750     0.6920    58.2880    19.4130    17.3210    16.7850    23.4460     2.4470 
  135.0000     0.7810    57.5900    20.1280    17.6740    17.1940    23.5720     2.4870 
  135.1250     0.9140    56.6150    20.9950    18.2750    18.5510    23.8380     2.5060 
  135.2500     1.0950    53.8040    21.8890    18.9930    19.9710    24.0660     2.5220 
  135.3750     1.2310    51.4710    22.7920    19.7940    21.0870    24.1200     2.5430 
  135.5000     1.3360    50.5530    23.6780    20.6530    21.4620    23.9880     2.5660 
  135.6250     1.4400    50.5670    24.4290    21.4880    21.0050    23.7440     2.5780 
  135.7500     1.5070    51.8530    24.9550    22.1920    20.2980    23.5570     2.5760 
  135.8750     1.5600    53.0630    25.2560    22.7130    20.5040    23.4320     2.5650 
  136.0000     1.6040    52.2180    25.4450    23.0890    21.4050    23.2810     2.5540 
  136.1250     1.6270    49.6530    25.6680    23.3990    22.2300    23.0510     2.5480 
  136.2500     1.6350    49.0960    25.8890    23.6500    23.3790    22.9030     2.5430 
  136.3750     1.6610    50.2920    25.8960    23.7180    25.1990    22.9370     2.5430 
  136.5000     1.6960    51.4570    25.4310    23.4310    27.1120    23.0940     2.5520 
  136.6250     1.7190    52.6830    24.3050    22.6370    26.3250    23.2200     2.5650 
  136.7500     1.7840    53.8500    22.8350    21.5350    22.4690    23.3570     2.5650 
  136.8750     1.8130    55.5420    21.3950    20.3760    18.3810    23.6060     2.5420 
  137.0000     1.8540    58.0940    20.3500    19.4350    16.5200    23.8670     2.5040 
  137.1250     1.9150    59.4090    20.0390    19.0220    16.6090    24.1110     2.4750 
  137.2500     1.9270    57.8580    20.3470    19.1490    17.9650    24.3090     2.4680 
  137.3750     1.9620    54.7160    21.0920    19.7400    18.3460    24.4060     2.4800 
  137.5000     2.0070    54.0060    22.0020    20.5950    19.3270    24.3110     2.5000 
  137.6250     2.0230    58.0650    22.7230    21.3880    21.1520    24.0830     2.5190 
  137.7500     2.0340    61.3500    23.0450    21.8530    23.3140    23.8870     2.5340 
  137.8750     2.0360    60.0900    22.9410    21.8990    23.4480    23.8700     2.5420 
  138.0000     2.0130    55.8850    22.5530    21.6060    23.1020    23.9930     2.5420 
  138.1250     1.9990    54.0760    22.1540    21.1960    22.3530    24.1490     2.5340 
  138.2500     1.9700    54.7340    21.9900    20.9340    21.3670    24.2150     2.5230 
  138.3750     1.9360    56.2100    22.1430    20.9450    21.1410    24.1880     2.5110 
  138.5000     1.9090    57.1350    22.5610    21.2250    22.5760    24.1500     2.5010 
  138.6250     1.8860    57.3190    23.1130    21.6840    25.1300    24.1340     2.4920 
  138.7500     1.8320    56.8890    23.6690    22.1850    25.7960    24.1270     2.4870 
  138.8750     1.7790    55.9550    24.2120    22.6920    25.1130    24.1180     2.4900 
  139.0000     1.7500    55.7760    24.7710    23.2220    24.0440    24.1370     2.4970 
  139.1250     1.7160    59.2970    25.4010    23.8150    26.2340    24.2010     2.4990 
  139.2500     1.6790    63.4000    26.0980    24.4750    28.7110    24.2910     2.4950 
  139.3750     1.6520    63.6710    26.7680    25.1550    29.4240    24.2940     2.4890 
  139.5000     1.6340    60.4990    27.2300    25.7100    27.5200    24.1630     2.4840 
  139.6250     1.5730    58.5060    27.2060    25.8680    27.4600    24.0570     2.4870 
  139.7500     1.5420    58.6260    26.7100    25.5720    28.2010    24.0700     2.4980 
  139.8750     1.5160    58.7420    25.8830    24.8950    27.9120    24.1340     2.5120 
  140.0000     1.4380    60.7120    24.9540    24.0310    24.8470    24.1480     2.5200 
  140.1250     1.4380    64.0400    24.1250    23.1800    20.9710    24.0720     2.5180 
  140.2500     1.4410    66.0260    23.4080    22.4240    20.1980    24.0120     2.5110 
  140.3750     1.3660    67.2640    22.7530    21.7520    20.9960    24.1140     2.5000 
  140.5000     1.3590    68.4440    22.1590    21.1690    22.9190    24.3380     2.4930 
  140.6250     1.3550    67.8010    21.7430    20.7640    22.8450    24.4960     2.4950 
  140.7500     1.3220    64.0140    21.5990    20.5830    21.0530    24.5190     2.5010 
  140.8750     1.2880    60.9250    21.7870    20.6740    20.3150    24.4400     2.5040 
  141.0000     1.2850    61.5230    22.2930    21.0510    21.5640    24.2740     2.5020 
  141.1250     1.2470    64.6520    23.0080    21.6820    24.1380    24.0840     2.4980 
  141.2500     1.1750    67.9870    23.6870    22.3570    25.4280    23.9700     2.4940 
  141.3750     1.1450    70.3450    24.1530    22.8750    24.8370    23.9810     2.4880 
  141.5000     1.1080    71.1430    24.3130    23.0890    24.1260    23.9890     2.4860 
  141.6250     1.0740    70.1690    24.1750    22.9580    24.2590    23.9210     2.4940 
  141.7500     1.0470    68.7000    23.9400    22.6900    23.5450    23.8830     2.5040 
  141.8750     1.0280    67.9420    23.7320    22.4310    22.7040    23.9370     2.5030 
  142.0000     0.9980    68.2260    23.5900    22.2490    22.5980    24.0090     2.4880 
  142.1250     0.9930    67.7090    23.4650    22.1230    23.4550    24.0190     2.4730 
  142.2500     1.0040    66.4250    23.2970    21.9890    24.4100    23.9910     2.4670 
  142.3750     0.9780    64.7100    23.0810    21.8200    23.9950    23.9640     2.4670 
  142.5000     0.9610    63.1190    22.8460    21.6250    23.1570    23.9230     2.4680 
  142.6250     0.9790    62.9250    22.6520    21.4420    21.8730    23.8390     2.4670 
  142.7500     0.9730    63.5180    22.5330    21.3140    21.3710    23.8030     2.4700 
  142.8750     1.0220    62.9960    22.4700    21.2460    22.0820    23.8690     2.4750 
  143.0000     1.0520    61.0870    22.3810    21.1770    23.0370    24.0910     2.4790 
  143.1250     1.0780    59.4890    22.1060    20.9660    22.9810    24.2940     2.4820 
  143.2500     1.1260    59.5580    21.5850    20.5380    22.4780    24.4070     2.4930 
  143.3750     1.1590    59.5960    20.8510    19.9000    22.2020    24.4300     2.5150 
  143.5000     1.1870    59.4050    20.0270    19.1540    21.4450    24.4270     2.5350 
  143.6250     1.2090    59.5430    19.3210    18.4710    20.9380    24.4280     2.5320 
  143.7500     1.2110    60.6800    18.8510    17.9710    19.6920    24.4360     2.5120 
  143.8750     1.2170    63.6830    18.6280    17.6860    19.0530    24.4490     2.4930 
  144.0000     1.2110    66.0630    18.5900    17.5890    19.2260    24.4630     2.4820 
  144.1250     1.1830    64.8010    18.6660    17.6390    19.5010    24.4770     2.4800 
  144.2500     1.1560    61.2550    18.7780    17.7510    19.0460    24.4610     2.4800 
  144.3750     1.1650    58.4730    18.8960    17.8780    18.4130    24.3800     2.4820 
  144.5000     1.1680    58.7220    19.0260    17.9940    17.4180    24.2240     2.4830 
  144.6250     1.1250    61.4750    19.2270    18.1290    17.0650    24.0000     2.4820 
  144.7500     1.1160    63.8520    19.5190    18.3310    18.3300    23.8310     2.4780 
  144.8750     1.1020    65.1860    19.8440    18.5840    19.2880    23.7240     2.4700 
