~V
VERS. 2.00: Ver 2.00
~W
STRT.M 52.0000:
STOP.M 322.0000:
STEP.M 0.1250:
NULL. -999.2500:
UWI. F10105:
~C
DEPT.M :
GR.API :
RML.OHMM :
RI. :
RXO.OHMM :
CALI.CM :
DEN.GM/CC :
SP.MV :
~A
# ...
   85.7500    78.0170    12.2330     9.5850    10.8070    25.6640     2.1920   -11.9370 
   85.8750    78.0740    13.0390    10.6980    16.5050    25.6580     2.3040   -11.6530 
   86.0000    80.1080    12.8000    10.9820    22.1810    25.6670     2.4150   -11.0960 
   86.1250    87.4320    11.4220    10.0620    15.1170    25.6280     2.4640   -10.1770 
   86.2500    96.2300     9.6740     8.6380     8.7430    25.5050     2.4440    -9.1880 
   86.3750   101.0760     8.1740     7.3000     6.8650    25.3110     2.3840    -8.2170 
   86.5000   100.3770     7.2780     6.3680     6.5740    25.1020     2.3250    -7.3910 
   86.6250    98.2200     7.1070     5.9970     6.5940    25.0170     2.2970    -7.0560 
   86.7500    96.7500     7.3430     6.0250     6.7390    24.9950     2.2860    -7.3040 
   86.8750    92.1510     7.7400     6.3000     7.0980    24.9950     2.2710    -8.0930 
   87.0000    82.2350     8.0910     6.6500     7.9790    24.9930     2.2430    -9.3570 
   87.1250    71.2780     8.2450     6.9080     8.4960    24.9680     2.2060   -10.9430 
   87.2500    65.7240     8.2290     7.0320     8.5490    24.9190     2.1730   -12.5100 
   87.3750    65.8730     8.1200     7.0480     8.3230    24.8760     2.1530   -14.0310 
   87.5000    68.1860     8.0070     7.0210     8.2190    24.8590     2.1450   -15.4110 
   87.6250    68.0110     7.9740     7.0290     8.2810    24.8580     2.1440   -16.4160 
   87.7500    64.9790     8.0270     7.1110     8.2570    24.8470     2.1450   -17.0290 
   87.8750    61.9720     8.1440     7.2580     8.1300    24.8170     2.1450   -17.2910 
   88.0000    61.7540     8.2860     7.4330     8.0860    24.8220     2.1440   -17.2660 
   88.1250    64.8800     8.4080     7.5840     8.3920    24.9890     2.1450   -16.9670 
   88.2500    69.1420     8.4870     7.6720     8.7710    25.2220     2.1480   -16.5670 
   88.3750    72.7630     8.5180     7.6870     8.7820    25.3300     2.1540   -16.1060 
   88.5000    75.9170     8.5090     7.6360     8.5580    25.3240     2.1650   -15.5090 
   88.6250    79.3010     8.4620     7.5270     8.4350    25.3030     2.1820   -14.6200 
   88.7500    82.3670     8.3670     7.3780     8.2990    25.3000     2.2020   -13.5860 
   88.8750    85.4000     8.1830     7.1760     8.1900    25.3230     2.2240   -12.4960 
   89.0000    89.0650     7.8770     6.8960     7.9580    25.3760     2.2450   -11.2930 
   89.1250    95.2430     7.4760     6.5180     7.6830    25.4650     2.2600   -10.1310 
   89.2500   100.7260     7.1850     6.1510     7.4040    25.5660     2.2660    -8.9750 
   89.3750   103.1390     7.3010     5.9860     7.3340    25.7890     2.2650    -7.7640 
   89.5000   102.9280     8.1630     6.2700     7.2620    26.1640     2.2650    -6.7060 
   89.6250   101.4170    10.2510     7.4450     7.6770    26.4400     2.2870    -6.1320 
   89.7500    96.6640    13.3810     9.6860    10.8250    26.5450     2.3360    -5.9330 
   89.8750    87.2920    16.9320    13.0010    23.7750    26.5710     2.4060    -6.1410 
   90.0000    77.0830    19.6180    16.6080    57.1750    26.5820     2.4750    -6.7740 
   90.1250    71.2580    19.6180    18.0720    82.4470    26.4960     2.5100    -7.8070 
   90.2500    68.2290    17.2230    16.5840    46.2990    26.2800     2.4970    -9.2800 
   90.3750    65.7480    13.7010    13.5290    19.4010    25.9740     2.4400   -11.1460 
   90.5000    62.4150    10.5320    10.6210    10.4940    25.7920     2.3540   -13.1050 
   90.6250    60.5410     8.6940     8.7510     8.5850    25.7770     2.2660   -14.9220 
   90.7500    61.6250     7.8760     7.7170     8.3280    25.7930     2.1950   -16.6040 
   90.8750    64.6730     7.6790     7.2700     8.3790    25.7960     2.1480   -17.9980 
   91.0000    66.9670     7.7270     7.1550     8.4930    25.7790     2.1230   -19.0600 
   91.1250    67.8140     7.7420     7.1200     8.4810    25.7690     2.1130   -19.7860 
   91.2500    69.4180     7.6790     7.0160     8.4010    25.7670     2.1070   -20.1670 
   91.3750    71.6370     7.6950     6.9160     8.3060    25.7760     2.1030   -20.3070 
   91.5000    73.5400     8.0390     7.0230     8.3220    25.8110     2.1010   -20.3180 
   91.6250    74.9130     9.0310     7.6440     8.5430    25.9190     2.1140   -20.2590 
   91.7500    75.9010    10.5730     8.8180     9.6830    26.0630     2.1550   -20.0770 
   91.8750    76.6960    12.3420    10.4320    14.1190    26.0690     2.2250   -19.6870 
   92.0000    77.9020    13.7410    12.0230    27.4450    25.7530     2.3060   -19.1530 
   92.1250    79.4680    13.9180    12.5720    34.2820    25.1370     2.3590   -18.4100 
   92.2500    78.9410    12.9110    11.8300    19.3760    24.7580     2.3610   -17.5470 
   92.3750    78.0610    11.2110    10.3200    10.6110    24.6460     2.3150   -16.6750 
   92.5000    79.2540     9.5320     8.7790     8.4390    24.6440     2.2490   -15.8360 
   92.6250    83.1510     8.4970     7.7380     8.3920    24.6420     2.1950   -14.9190 
   92.7500    86.5290     8.0860     7.2040     8.3230    24.6620     2.1670   -14.0240 
   92.8750    87.8800     8.1050     7.0700     8.2730    24.7050     2.1600   -13.2720 
   93.0000    87.4430     8.3110     7.1610     8.2500    24.7870     2.1620   -12.6240 
   93.1250    86.8900     8.4950     7.3030     8.1750    24.8330     2.1630   -12.1910 
   93.2500    89.3010     8.5680     7.3850     8.1040    24.8150     2.1580   -11.9340 
   93.3750    92.6130     8.5350     7.3880     8.0550    24.7300     2.1490   -11.7000 
   93.5000    92.0540     8.4310     7.3240     8.0300    24.6880     2.1370   -11.5150 
   93.6250    87.2380     8.2980     7.2150     7.9500    24.8330     2.1280   -11.5640 
   93.7500    83.1280     8.1700     7.0990     7.8950    25.1600     2.1220   -11.6870 
   93.8750    81.1060     8.0560     6.9890     7.8320    25.5780     2.1220   -11.8710 
   94.0000    80.7460     7.9510     6.8890     7.7440    25.9950     2.1230   -12.1930 
   94.1250    83.3390     7.8570     6.7960     7.7780    26.2100     2.1220   -12.5540 
   94.2500    87.3400     7.7830     6.7130     7.8570    26.2560     2.1170   -12.8740 
   94.3750    89.2480     7.7510     6.6480     7.9520    26.2000     2.1110   -13.2270 
   94.5000    87.2720     7.7780     6.6180     8.0860    26.0980     2.1070   -13.6050 
   94.6250    83.4790     7.8730     6.6460     7.9810    25.9810     2.1090   -13.8900 
   94.7500    82.2310     8.0030     6.7200     7.8480    25.8690     2.1130   -14.1530 
   94.8750    82.9260     8.1350     6.8210     7.8840    25.8000     2.1130   -14.4170 
   95.0000    83.2550     8.2430     6.9210     7.9470    25.7790     2.1050   -14.5600 
   95.1250    80.9130     8.3050     6.9880     7.8510    25.7650     2.0900   -14.5230 
   95.2500    76.6090     8.3370     7.0210     7.7230    25.7000     2.0750   -14.4710 
   95.3750    73.2900     8.3580     7.0300     7.6810    25.6060     2.0650   -14.3770 
   95.5000    74.5760     8.3790     7.0320     7.6810    25.4830     2.0620   -14.1290 
   95.6250    80.4060     8.3970     7.0340     7.7620    25.3970     2.0620   -13.8250 
   95.7500    85.4330     8.3860     7.0230     7.6380    25.3470     2.0630   -13.5180 
   95.8750    87.5590     8.3250     6.9820     7.5050    25.3280     2.0660   -13.1280 
   96.0000    87.2830     8.2100     6.8970     7.3920    25.3370     2.0710   -12.7540 
   96.1250    86.0150     8.0580     6.7750     7.2130    25.3520     2.0820   -12.4960 
   96.2500    85.1170     7.9120     6.6470     7.0130    25.3210     2.0950   -12.2080 
   96.3750    84.8980     7.7920     6.5340     6.8960    25.2480     2.1100   -11.9250 
   96.5000    84.2210     7.7030     6.4420     6.7950    25.1610     2.1220   -11.7060 
   96.6250    84.2980     7.6420     6.3740     6.7300    25.1100     2.1290   -11.4900 
   96.7500    86.2440     7.6000     6.3250     6.6760    25.0840     2.1310   -11.3050 
   96.8750    87.9770     7.5830     6.2960     6.6430    25.0920     2.1270   -11.2310 
