~V
VERS. 2.00: Ver 2.00
~W
STRT.M 64.0000:
STOP.M 215.0000:
STEP.M 0.1250:
NULL. -999.2500:
UWI. F10146:
~C
DEPT.M :
DEN.GM/CC :
GR.API :
RML.OHMM :
RI. :
RXO.OHMM :
CALI.CM :
SP.MV :
~A
# ...
  109.0000     2.3800    68.3330    10.9930     9.3990    11.7860    26.5370   -20.1670 
  109.1250     2.3080    72.2360     9.9060     8.5280     9.4800    26.5440   -20.5500 
  109.2500     2.2480    71.6170     9.0260     7.6970     8.7450    26.5810   -20.8760 
  109.3750     2.2090    69.9810     8.4660     7.0580     8.7500    26.6220   -21.1240 
  109.5000     2.1900    71.2700     8.1910     6.6410     8.9690    26.6430   -21.3170 
  109.6250     2.1820    75.0950     8.2350     6.4940     9.0480    26.7260   -21.3710 
  109.7500     2.1820    75.6460     8.6530     6.6330     8.9420    26.7660   -21.3550 
  109.8750     2.1990    73.9270     9.5690     7.1390     9.0700    26.7770   -21.3070 
  110.0000     2.2370    72.3490    11.0260     8.0670    10.4250    26.7810   -21.2290 
  110.1250     2.2970    70.6180    12.8770     9.4140    14.8240    26.8020   -21.1980 
  110.2500     2.3480    68.5630    14.5350    10.8220    22.1270    26.8510   -21.2360 
  110.3750     2.3630    68.1440    15.4110    11.8450    28.8130    26.9120   -21.3260 
  110.5000     2.3330    71.2540    15.2500    12.1430    30.7080    26.9420   -21.4820 
  110.6250     2.2720    73.1980    14.4160    11.7690    28.1290    26.9710   -21.6830 
  110.7500     2.2110    70.5350    13.7770    11.3310    23.4830    27.0370   -21.8990 
  110.8750     2.1660    66.3100    13.7420    11.1990    18.5040    27.1620   -22.1380 
  111.0000     2.1390    64.1080    14.3490    11.5100    16.4780    27.2270   -22.3580 
  111.1250     2.1250    65.2130    15.3360    12.1960    18.5820    27.2510   -22.5280 
  111.2500     2.1170    67.5560    16.1850    12.8990    20.9120    27.3060   -22.6470 
  111.3750     2.1110    67.3540    16.5810    13.3480    20.8990    27.3960   -22.6600 
  111.5000     2.1060    65.7250    16.4170    13.3980    19.5380    27.4990   -22.5750 
  111.6250     2.1040    65.9170    15.6740    12.9730    17.5800    27.5460   -22.4670 
  111.7500     2.1080    69.2850    14.5780    12.2240    16.2690    27.5540   -22.2960 
  111.8750     2.1230    73.7120    13.2860    11.2760    16.0600    27.5550   -22.1060 
  112.0000     2.1480    76.0160    11.9890    10.2870    15.7060    27.5550   -21.9860 
  112.1250     2.1780    75.3610    10.9670     9.4590    13.3280    27.5330   -21.8560 
  112.2500     2.2010    72.6630    10.3690     8.9060    11.4220    27.4140   -21.7560 
  112.3750     2.2060    69.7500    10.2620     8.6840    11.6520    27.1720   -21.7340 
  112.5000     2.1890    67.2080    10.6120     8.7920    14.3530    26.9280   -21.7030 
  112.6250     2.1540    65.4240    11.3540     9.2280    16.5100    26.7400   -21.6580 
  112.7500     2.1110    66.5560    12.2740     9.8670    17.3000    26.6920   -21.6000 
  112.8750     2.0710    69.0450    13.2020    10.6010    18.0750    26.6540   -21.4840 
  113.0000     2.0430    68.1860    13.9250    11.2610    16.1900    26.5270   -21.2850 
  113.1250     2.0340    64.3060    14.0700    11.5360    14.7290    26.3530   -21.0180 
  113.2500     2.0430    63.3520    13.5480    11.2780    15.9240    26.1910   -20.7090 
  113.3750     2.0670    66.3460    12.5100    10.5400    17.2780    26.1460   -20.4100 
  113.5000     2.1040    70.8300    11.3940     9.6150    15.8550    26.1260   -20.1950 
  113.6250     2.1560    74.0280    10.8160     8.9590    11.4850    26.0380   -20.1200 
  113.7500     2.2230    74.5140    10.9620     8.7840     8.8810    25.9340   -20.2330 
  113.8750     2.2960    72.8320    11.7410     9.1090     9.0050    25.8480   -20.5390 
  114.0000     2.3550    70.0770    12.8070     9.7810    12.1390    25.7510   -21.0410 
  114.1250     2.3660    65.3060    13.4720    10.3970    18.1690    25.5990   -21.7360 
  114.2500     2.3270    60.9050    13.2340    10.4970    21.9650    25.3670   -22.5010 
  114.3750     2.2560    60.2540    12.0850     9.9210    18.0280    25.1150   -23.2890 
  114.5000     2.1830    63.4910    10.5080     8.8960    13.8480    24.9570   -24.0710 
  114.6250     2.1360    66.6050     9.1620     7.8580    11.9620    24.8960   -24.7100 
  114.7500     2.1190    67.7230     8.3000     7.0920    10.8960    24.8860   -25.2110 
  114.8750     2.1200    68.2570     7.9040     6.6520    10.0730    24.8850   -25.5800 
  115.0000     2.1290    69.6090     7.8630     6.4890     9.7850    24.8840   -25.7650 
  115.1250     2.1380    70.5560     8.0620     6.5230    10.2460    24.8770   -25.8570 
  115.2500     2.1430    70.8580     8.3200     6.6120    10.8160    24.8430   -25.8950 
  115.3750     2.1470    70.3320     8.5180     6.6720    11.0510    24.7960   -25.8770 
  115.5000     2.1500    70.0990     8.5590     6.6440    10.9630    24.7210   -25.8420 
  115.6250     2.1530    69.3840     8.3900     6.5040    10.2910    24.6450   -25.8130 
  115.7500     2.1540    68.5520     8.1170     6.3150     9.5920    24.5720   -25.7450 
  115.8750     2.1530    70.0610     7.8370     6.1340     9.1440    24.4960   -25.6590 
  116.0000     2.1510    73.6260     7.6240     6.0000     8.9790    24.4270   -25.5700 
  116.1250     2.1490    72.2850     7.5180     5.9290     8.9610    24.4090   -25.4440 
  116.2500     2.1470    66.8620     7.4880     5.8960     8.9220    24.3770   -25.3430 
  116.3750     2.1450    64.1160     7.4950     5.8770     8.8490    24.3530   -25.2500 
  116.5000     2.1410    67.6550     7.5080     5.8570     8.8020    24.3480   -25.1640 
  116.6250     2.1360    71.1780     7.5080     5.8260     8.8650    24.3480   -25.1150 
  116.7500     2.1300    69.8330     7.4800     5.7840     8.9630    24.3480   -25.0870 
  116.8750     2.1260    68.5890     7.4170     5.7310     8.9440    24.3480   -25.0950 
  117.0000     2.1240    70.4470     7.3370     5.6710     8.8680    24.3480   -25.1430 
  117.1250     2.1240    72.5790     7.2850     5.6200     8.7300    24.3480   -25.1670 
  117.2500     2.1270    72.8490     7.2930     5.5970     8.7330    24.3480   -25.1510 
  117.3750     2.1320    70.1290     7.3650     5.6120     8.7890    24.3480   -25.0750 
  117.5000     2.1390    65.4410     7.4780     5.6590     8.9190    24.3480   -24.8660 
  117.6250     2.1470    62.1000     7.5890     5.7190     9.1190    24.3480   -24.5670 
  117.7500     2.1520    62.7770     7.6570     5.7690     9.2030    24.3480   -24.2380 
  117.8750     2.1530    65.5520     7.6590     5.7950     9.0510    24.3480   -23.8270 
  118.0000     2.1500    67.3190     7.5860     5.7840     8.7400    24.3480   -23.3670 
  118.1250     2.1480    70.0530     7.4340     5.7250     8.5400    24.3480   -22.8860 
  118.2500     2.1510    72.3980     7.2500     5.6370     8.4880    24.3480   -22.3530 
  118.3750     2.1600    72.8890     7.0910     5.5480     8.4300    24.3480   -21.8290 
  118.5000     2.1730    72.4590     7.0130     5.4910     8.2870    24.3480   -21.3750 
  118.6250     2.1800    72.6090     7.0680     5.5050     8.0280    24.3490   -20.8870 
  118.7500     2.1790    72.4050     7.2120     5.5800     8.0590    24.3550   -20.3540 
  118.8750     2.1700    70.1160     7.3900     5.6850     8.3460    24.3920   -19.7520 
  119.0000     2.1610    68.6240     7.5360     5.7730     8.6870    24.4110   -19.0520 
  119.1250     2.1640    70.8480     7.5860     5.7920     8.7390    24.4140   -18.2490 
  119.2500     2.1810    74.6140     7.5470     5.7420     8.5420    24.4140   -17.4000 
  119.3750     2.2060    77.6290     7.4540     5.6480     8.0200    24.4170   -16.5420 
  119.5000     2.2310    79.4290     7.3620     5.5530     7.3400    24.4260   -15.6620 
  119.6250     2.2490    79.5180     7.3330     5.5040     7.1900    24.4910   -14.7820 
  119.7500     2.2570    77.7420     7.3800     5.5170     6.9880    24.5620   -13.9450 
  119.8750     2.2590    77.2330     7.5070     5.6050     6.7610    24.6830   -13.2000 
  120.0000     2.2600    80.8750     7.7140     5.7690     6.6870    24.7310   -12.5770 
  120.1250     2.2630    85.3930     8.0040     6.0140     6.7780    24.7700   -12.1370 
