~V
VERS. 2.00: Ver 2.00
~W
STRT.M 50.0000:
STOP.M 268.0000:
STEP.M 0.1250:
NULL. -999.2500:
UWI. F10199:
~C
DEPT.M :
GR.API :
RML.OHMM :
RI. :
RXO.OHMM :
CALI.CM :
DEN.GM/CC :
SP.MV :
~A
# ...
  162.5000    59.2640   145.0310   133.8310    50.2360    21.2490     2.2120   -25.6100 
  162.6250    56.8420   139.0610   130.1540    46.7200    21.3870     2.2230   -25.6970 
  162.7500    57.2890   129.6830   123.0430    44.4660    21.5730     2.2430   -25.7450 
  162.8750    61.2650   120.0350   114.8650    43.6140    21.8020     2.2640   -25.7370 
  163.0000    64.9550   114.1350   109.1760    45.5740    22.0880     2.2830   -25.7510 
  163.1250    64.0200   117.1850   111.1820    52.9710    22.4370     2.2900   -25.8390 
  163.2500    61.4680   130.4760   122.8180    65.6200    22.8020     2.2870   -25.9150 
  163.3750    58.5990   155.0290   145.2590    82.4570    23.1470     2.2770   -26.0150 
  163.5000    54.3390   190.1380   177.6600   101.6530    23.4380     2.2640   -26.1660 
  163.6250    49.9180   232.5560   216.4460   122.5200    23.6750     2.2530   -26.3270 
  163.7500    48.2360   273.4950   253.1540   144.8760    23.9200     2.2440   -26.5070 
  163.8750    49.2570   305.1910   280.8180   163.7860    24.1670     2.2360   -26.7330 
  164.0000    49.7220   322.7970   295.5320   175.3130    24.3940     2.2260   -26.9410 
  164.1250    49.0510   326.5740   297.5930   181.3250    24.5780     2.2160   -27.0660 
  164.2500    49.9240   325.6390   295.0150   185.0670    24.6790     2.2060   -27.1970 
  164.3750    52.1860   324.3190   292.0790   189.8810    24.6870     2.1970   -27.2920 
  164.5000    54.2290   322.9840   289.8420   196.5570    24.6390     2.1890   -27.3130 
  164.6250    54.7860   319.1540   286.7910   201.7740    24.5520     2.1840   -27.2670 
  164.7500    54.9900   311.5960   281.6560   199.2120    24.4290     2.1810   -27.2310 
  164.8750    55.3880   300.6700   274.5120   188.5170    24.2870     2.1780   -27.1900 
  165.0000    57.3330   287.8250   266.3670   173.5540    24.1360     2.1760   -27.1060 
  165.1250    59.8070   273.7810   257.8510   159.2530    23.9720     2.1750   -27.0220 
  165.2500    60.5010   257.4360   247.7820   146.5880    23.8190     2.1730   -26.8860 
  165.3750    59.2060   236.6220   233.7300   136.6790    23.6920     2.1730   -26.7320 
  165.5000    58.1860   211.0790   213.7540   128.2240    23.5840     2.1750   -26.6230 
  165.6250    58.7150   182.9390   187.5450   118.8450    23.5060     2.1830   -26.5010 
  165.7500    59.3470   155.4460   159.6870   105.1460    23.4590     2.1970   -26.4220 
  165.8750    59.7620   133.8690   134.3250    90.0080    23.4180     2.2160   -26.3240 
  166.0000    60.9450   118.8380   114.2820    78.2410    23.3700     2.2350   -26.2080 
  166.1250    64.2050   100.5850   101.1770    72.7690    23.2960     2.2480   -26.1600 
  166.2500    65.9850    95.9660    92.9110    69.3860    23.1770     2.2540   -26.1260 
  166.3750    65.4360    91.7480    88.1130    67.4740    23.0220     2.2540   -26.1060 
  166.5000    64.3110    89.8560    85.7210    65.4800    22.8430     2.2510   -26.1600 
  166.6250    62.5360    91.5800    85.7190    61.2730    22.6280     2.2480   -26.2660 
  166.7500    62.1010    96.5360    88.4670    55.0700    22.3910     2.2490   -26.3520 
  166.8750    65.1830   106.2400    95.3880    48.2600    22.1580     2.2520   -26.5010 
  167.0000    69.8950   121.8120   108.2920    43.8070    21.9390     2.2550   -26.6720 
  167.1250    68.4990   142.7080   130.2660    46.3620    21.7790     2.2540   -26.7940 
  167.2500    61.3620   169.6530   160.1910    54.3380    21.6930     2.2490   -26.9620 
  167.3750    55.3190   200.4790   195.4520    65.2570    21.6510     2.2430   -27.1250 
  167.5000    53.8440   235.8100   230.5530    75.6900    21.6190     2.2400   -27.2160 
  167.6250    56.5200   262.8790   255.7830    82.5000    21.6030     2.2410   -27.3160 
  167.7500    59.2890   273.7680   265.8730    86.9820    21.6080     2.2430   -27.3890 
  167.8750    59.1940   267.2380   259.9810    87.2740    21.6650     2.2450   -27.4210 
  168.0000    57.1150   248.5220   242.5750    84.0960    21.7820     2.2460   -27.5210 
  168.1250    56.8890   226.2020   220.9770    80.6630    21.9650     2.2460   -27.6120 
  168.2500    57.9960   207.1440   201.8940    79.2020    22.2240     2.2460   -27.6980 
  168.3750    59.0470   193.4500   187.7900    83.6350    22.5730     2.2440   -27.8330 
  168.5000    59.6030   185.0580   179.0240    96.1940    22.9920     2.2400   -27.9420 
  168.6250    58.1540   180.8290   174.8170   111.3900    23.4240     2.2330   -28.0330 
  168.7500    56.0700   177.8800   172.2930   128.8100    23.7910     2.2260   -28.2100 
  168.8750    54.9190   174.6590   169.7710   145.0930    24.0530     2.2220   -28.3600 
  169.0000    54.7440   170.6420   166.4840   150.7520    24.2190     2.2210   -28.4550 
  169.1250    56.2370   166.7810   162.9950   144.3670    24.3200     2.2240   -28.6180 
  169.2500    58.6430   164.8230   160.9030   139.0070    24.3860     2.2270   -28.7470 
  169.3750    59.8500   166.0060   161.4900   140.6710    24.4280     2.2270   -28.8680 
  169.5000    57.2830   170.6260   165.2360   150.6780    24.4380     2.2230   -29.0470 
  169.6250    54.1820   178.2120   171.8690   162.9840    24.4020     2.2150   -29.2680 
  169.7500    54.4590   186.6850   179.4320   172.5690    24.3430     2.2070   -29.4430 
  169.8750    55.2580   194.6080   186.4630   171.6020    24.2670     2.2020   -29.6370 
  170.0000    54.7950   201.2480   192.1120   156.4460    24.1670     2.1970   -29.8890 
  170.1250    53.5840   207.0570   196.5980   136.5720    24.0400     2.1930   -30.0770 
  170.2500    53.8560   213.6850   201.5110   120.9910    23.8920     2.1870   -30.2640 
  170.3750    55.8590   222.2760   208.0490   109.7980    23.7060     2.1800   -30.4840 
  170.5000    59.0030   232.8720   216.4870   101.3110    23.4900     2.1720   -30.6640 
  170.6250    61.6880   243.6390   225.4710    97.7400    23.2690     2.1660   -30.7740 
  170.7500    59.8360   251.3120   232.0970    98.2180    23.0470     2.1620   -30.8900 
  170.8750    55.2230   253.2450   233.9030    99.1930    22.8480     2.1630   -30.9600 
  171.0000    51.9790   248.3560   229.7170    95.5600    22.7050     2.1710   -30.9690 
  171.1250    53.8180   237.1560   219.6560    86.6370    22.6120     2.1850   -31.0040 
  171.2500    56.8730   223.7430   207.1980    78.8870    22.5410     2.2020   -30.9660 
  171.3750    57.6750   211.0880   195.0090    76.4700    22.4800     2.2160   -30.8000 
  171.5000    57.8030   201.3150   185.1590    78.5130    22.4050     2.2260   -30.6460 
  171.6250    59.8710   195.9940   179.2880    78.6550    22.3020     2.2290   -30.4270 
  171.7500    62.5050   194.3400   176.8540    73.3500    22.1620     2.2290   -30.1670 
  171.8750    62.1980   195.7950   177.4120    65.5910    21.9880     2.2290   -29.8960 
  172.0000    58.2870   199.7010   180.3500    60.5000    21.7970     2.2300   -29.5410 
  172.1250    56.1030   205.6030   185.1930    59.7560    21.5890     2.2330   -29.0760 
  172.2500    57.1580   212.5070   190.9460    59.8230    21.3710     2.2340   -28.6250 
  172.3750    58.7570   219.8090   197.0250    57.0760    21.1650     2.2320   -28.1750 
  172.5000    60.4050   226.9220   202.8940    51.6580    20.9810     2.2290   -27.6730 
  172.6250    61.1380   233.1200   207.8920    46.5050    20.8440     2.2240   -27.1330 
  172.7500    59.0250   238.0030   211.6740    43.7730    20.7900     2.2200   -26.5720 
  172.8750    54.9960   241.0410   213.7700    43.6890    20.8360     2.2170   -26.0150 
  173.0000    52.7920   241.6350   213.6380    45.6950    20.9860     2.2180   -25.4450 
  173.1250    54.4400   238.9880   210.5300    48.9620    21.2620     2.2220   -24.9540 
  173.2500    56.2880   234.0850   205.2920    53.4250    21.6260     2.2240   -24.4840 
  173.3750    57.0480   228.0270   198.8760    59.1240    22.0590     2.2170   -24.0650 
  173.5000    56.8870   222.0100   192.3530    67.0650    22.5440     2.2020   -23.7120 
  173.6250    55.6830   217.3180   186.8680    80.0990    23.0280     2.1820   -23.3890 
