~V
VERS. 2.00: Ver 2.00
~W
STRT.M 49.0000:
STOP.M 251.0000:
STEP.M 0.1250:
NULL. -999.2500:
UWI. F10165:
~C
DEPT.M :
GR.API :
RML.OHMM :
RI. :
RXO.OHMM :
CALI.CM :
SP.MV :
DEN.GM/CC :
~A
# ...
  139.0000    69.5580     9.8820     8.9760     9.1600    26.1110   -19.2690     2.2040 
  139.1250    71.3220     9.7450     8.7470     8.5160    26.1020   -19.3260     2.2040 
  139.2500    71.1370     9.7900     8.6260     8.3390    26.0740   -19.3600     2.2000 
  139.3750    68.9010     9.9390     8.5770     8.8100    26.0100   -19.3810     2.1940 
  139.5000    66.9670    10.0480     8.5150     9.1590    25.9540   -19.4200     2.1900 
  139.6250    67.1730     9.9310     8.3260     8.9230    25.9780   -19.4650     2.1890 
  139.7500    69.7440     9.6120     8.0240     8.3130    26.0230   -19.4850     2.1870 
  139.8750    73.9630     9.2410     7.7050     7.8210    26.0680   -19.5140     2.1860 
  140.0000    77.0760     9.0420     7.5060     7.3820    26.1020   -19.5590     2.1850 
  140.1250    77.6740     9.2830     7.6050     7.3150    26.1370   -19.5710     2.1810 
  140.2500    75.6640     9.9640     8.0210     8.4250    26.1860   -19.5880     2.1700 
  140.3750    71.5310    10.9800     8.7140    10.4330    26.2390   -19.6240     2.1540 
  140.5000    67.3920    12.1060     9.5550    12.3570    26.2880   -19.6410     2.1400 
  140.6250    66.1410    13.0050    10.3250    13.0850    26.2970   -19.6480     2.1350 
  140.7500    66.5110    13.5100    10.8600    13.2420    26.2650   -19.6800     2.1400 
  140.8750    66.6550    13.6330    11.1200    12.9510    26.1950   -19.6990     2.1520 
  141.0000    66.5700    13.5190    11.1710    12.3760    26.1340   -19.7020     2.1650 
  141.1250    66.3430    13.3190    11.0960    12.2970    26.0990   -19.7230     2.1730 
  141.2500    66.0830    13.0980    10.9580    12.8910    26.1430   -19.7280     2.1770 
  141.3750    65.6320    12.8370    10.7620    12.9310    26.1680   -19.7370     2.1790 
  141.5000    64.9420    12.5270    10.5180    12.3950    26.1640   -19.7830     2.1760 
  141.6250    65.8100    12.1660    10.2330    11.5060    26.1310   -19.8160     2.1650 
  141.7500    67.9090    11.7650     9.9140    10.4000    26.0830   -19.8140     2.1550 
  141.8750    68.4910    11.2920     9.5380    10.0180    26.0370   -19.8280     2.1530 
  142.0000    66.6380    10.6790     9.0600    10.1800    26.0010   -19.8640     2.1620 
  142.1250    66.4980     9.8400     8.4210     9.4540    25.9670   -19.8860     2.1750 
  142.2500    70.0690     8.8600     7.6740     8.1500    25.9480   -19.9160     2.1880 
  142.3750    75.3010     7.8760     6.9050     6.8760    25.9290   -19.9460     2.2010 
  142.5000    81.1490     7.0320     6.2150     5.8070    25.8980   -19.9470     2.2190 
  142.6250    86.1490     6.4710     5.7150     5.0660    25.8550   -19.9440     2.2380 
  142.7500    86.3340     6.1730     5.4130     4.5530    25.7810   -19.9830     2.2490 
  142.8750    81.1320     6.1060     5.3000     4.3360    25.7050   -20.0410     2.2480 
  143.0000    75.3980     6.2090     5.3390     4.3850    25.6930   -20.0800     2.2410 
  143.1250    74.7860     6.4080     5.4810     4.5950    25.6410   -20.1400     2.2410 
  143.2500    77.6510     6.5970     5.6430     5.0570    25.5100   -20.2220     2.2490 
  143.3750    80.6380     6.7110     5.7690     5.4520    25.3450   -20.2920     2.2590 
  143.5000    82.1380     6.7270     5.8290     5.1930    25.2500   -20.3840     2.2670 
  143.6250    84.1640     6.6640     5.8130     4.7770    25.2040   -20.5090     2.2710 
  143.7500    88.2290     6.5790     5.7640     4.5490    25.1520   -20.6070     2.2760 
  143.8750    92.0180     6.4980     5.7080     4.5130    25.1060   -20.6820     2.2820 
  144.0000    92.7100     6.4360     5.6630     4.5680    25.0950   -20.7810     2.2850 
  144.1250    89.5640     6.4040     5.6350     4.6330    25.1120   -20.8720     2.2800 
  144.2500    86.8100     6.3970     5.6090     4.6060    25.1150   -20.9410     2.2690 
  144.3750    85.7710     6.4060     5.5760     4.5530    25.0740   -21.0190     2.2550 
  144.5000    84.7300     6.4240     5.5370     4.5340    25.0270   -21.0750     2.2440 
  144.6250    86.6820     6.4470     5.4980     4.5560    25.0070   -21.1000     2.2370 
  144.7500    91.5720     6.4870     5.4710     4.5530    24.9930   -21.1550     2.2360 
  144.8750    94.4860     6.5640     5.4700     4.5500    24.9590   -21.2330     2.2390 
  145.0000    91.8510     6.6690     5.4920     4.5580    24.9140   -21.2860     2.2420 
  145.1250    87.5760     6.7140     5.4920     4.5760    24.8030   -21.3160     2.2420 
  145.2500    87.0970     6.6140     5.4240     4.6470    24.6020   -21.3600     2.2430 
  145.3750    89.0130     6.3790     5.2930     4.7690    24.3350   -21.4040     2.2490 
  145.5000    90.5110     6.1690     5.1870     4.7950    24.1550   -21.4570     2.2590 
  145.6250    91.2770     6.3680     5.3280     4.6300    24.0740   -21.5350     2.2730 
  145.7500    87.7860     7.2540     5.8900     4.9790    24.0260   -21.6060     2.2900 
  145.8750    80.2740     9.0210     7.0360     6.6060    23.9570   -21.6450     2.3060 
  146.0000    72.9270    11.6470     8.8520    10.0690    23.8650   -21.6870     2.3170 
  146.1250    70.4700    14.6250    11.1890    13.5780    23.7770   -21.7720     2.3090 
  146.2500    72.4160    16.6740    13.1440    14.9490    23.8800   -21.8490     2.2770 
  146.3750    75.9000    16.7000    13.7140    13.8000    24.2740   -21.9210     2.2340 
  146.5000    77.1650    14.6490    12.5850    12.0500    24.8160   -22.0030     2.1990 
  146.6250    73.8000    11.6550    10.4510    11.1490    25.2080   -22.0550     2.1870 
  146.7500    71.0160     9.0820     8.4270     9.3930    25.3760   -22.1010     2.1920 
  146.8750    74.5980     7.3610     6.9230     7.2650    25.3820   -22.1650     2.2010 
  147.0000    81.5200     6.5510     6.0540     6.0040    25.2680   -22.2170     2.2090 
  147.1250    83.2430     6.7430     5.9370     5.7460    25.0270   -22.2480     2.2160 
  147.2500    80.2750     7.7530     6.4630     6.4680    24.7950   -22.3020     2.2240 
  147.3750    77.0250     9.4870     7.6150     8.7410    24.6660   -22.3580     2.2300 
  147.5000    73.9220    11.6450     9.2590    14.0930    24.5470   -22.4090     2.2280 
  147.6250    70.6220    13.4400    10.9130    15.3230    24.5290   -22.4950     2.2100 
  147.7500    69.6870    14.0930    11.8490    13.6770    24.8140   -22.5650     2.1870 
  147.8750    72.7290    13.4230    11.7330    12.4360    25.2110   -22.6220     2.1720 
  148.0000    77.0060    11.9770    10.8460    11.7190    25.4220   -22.7170     2.1690 
  148.1250    79.9530    10.6980     9.8600    10.4260    25.3650   -22.8370     2.1740 
  148.2500    81.5760    10.1180     9.2760     9.1100    25.2120   -22.9280     2.1810 
  148.3750    79.6460    10.2980     9.2200     8.8960    25.1330   -23.0110     2.1880 
  148.5000    73.3960    11.0510     9.6250    10.5670    25.1960   -23.1050     2.1890 
  148.6250    68.2280    12.0410    10.3100    13.5500    25.3850   -23.1790     2.1790 
  148.7500    66.9140    12.8590    10.9750    16.8340    25.5640   -23.2620     2.1700 
  148.8750    67.2880    13.3640    11.4900    17.0970    25.6410   -23.3760     2.1720 
  149.0000    66.2740    13.7060    11.9070    14.8500    25.6270   -23.4770     2.1870 
  149.1250    64.7120    14.3080    12.4740    13.5950    25.5750   -23.5280     2.2030 
  149.2500    64.3220    15.4020    13.3750    16.9880    25.5690   -23.5790     2.2110 
  149.3750    64.7860    16.9450    14.6460    21.8060    25.6630   -23.6490     2.2100 
  149.5000    66.0050    18.6580    16.1500    23.3770    25.7430   -23.7050     2.2070 
  149.6250    66.5500    20.0330    17.5330    21.8450    25.7150   -23.7510     2.2040 
  149.7500    64.8060    20.7480    18.4460    20.9780    25.6150   -23.8000     2.2030 
  149.8750    61.8360    20.7470    18.7350    20.4140    25.4690   -23.8130     2.2050 
  150.0000    59.8890    20.1780    18.4460    19.8270    25.3680   -23.8110     2.2100 
  150.1250    59.9370    19.1590    17.6570    19.1420    25.3300   -23.8500     2.2130 
