~V
VERS. 2.00: Ver 2.00
~W
STRT.M 50.0000:
STOP.M 232.0000:
STEP.M 0.1250:
NULL. -999.2500:
UWI. F10160:
~C
DEPT.M :
SP.MV :
DEN.GM/CC :
GR.API :
RML.OHMM :
RI. :
RXO.OHMM :
CALI.CM :
~A
# ...
  207.5000   -25.3350     2.4040    62.8820    44.7600    35.9230    48.2380    24.7310 
  207.6250   -25.2350     2.5170    65.2480    45.0440    36.1750    59.6590    24.5870 
  207.7500   -25.1150     2.6210    65.8270    43.8830    35.5520    78.3160    24.4350 
  207.8750   -24.9720     2.6710    63.8140    41.4920    34.1350    73.6830    24.3620 
  208.0000   -24.8040     2.6600    59.9470    38.5670    32.3030    59.9790    24.3610 
  208.1250   -24.6080     2.6050    56.7760    35.7300    30.4050    52.2880    24.4520 
  208.2500   -24.4040     2.5390    55.8300    32.9320    28.4290    61.5050    24.6260 
  208.3750   -24.1990     2.4810    56.2000    29.7710    26.1180    59.3710    24.7980 
  208.5000   -23.9900     2.4440    55.8300    25.9660    23.2870    49.0140    24.8790 
  208.6250   -23.7670     2.4290    54.0040    21.6760    20.0250    33.0410    24.8780 
  208.7500   -23.5430     2.4200    51.9730    17.6260    16.8460    20.1390    24.8770 
  208.8750   -23.3320     2.4050    49.3590    14.3000    14.1100    14.1050    24.8870 
  209.0000   -23.1410     2.3840    45.6550    11.8250    11.9580    12.7170    24.8980 
  209.1250   -22.9680     2.3710    41.6450    10.1350    10.3910    12.4600    24.9020 
  209.2500   -22.7990     2.3740    39.6780     8.8550     9.1620    11.1870    24.9020 
  209.3750   -22.6060     2.3930    40.5270     7.8030     8.1410     9.5910    24.9050 
  209.5000   -22.3640     2.4180    43.3680     6.8950     7.2650     7.8780    24.9090 
  209.6250   -22.0570     2.4390    48.5160     6.1830     6.5700     6.6160    24.9110 
  209.7500   -21.6950     2.4520    53.2170     5.7040     6.0790     5.8880    24.9120 
  209.8750   -21.2960     2.4560    54.1870     5.4650     5.8000     5.3990    24.9120 
  210.0000   -20.9110     2.4500    50.9330     5.4030     5.6900     5.5680    24.9120 
  210.1250   -20.5810     2.4320    46.6020     5.3930     5.6560     6.0690    24.9170 
  210.2500   -20.3180     2.4100    44.7120     5.2850     5.5580     6.0180    24.9170 
  210.3750   -20.1490     2.3870    46.1210     5.0090     5.3240     5.6770    24.8550 
  210.5000   -20.0740     2.3710    49.1190     4.6040     4.9590     5.2830    24.6740 
  210.6250   -20.0780     2.3700    53.5360     4.2200     4.5620     5.0730    24.4300 
  210.7500   -20.1190     2.3830    60.4590     4.0040     4.2590     5.0330    24.2670 
  210.8750   -20.1950     2.4050    70.7920     4.0240     4.1240     5.0190    24.2180 
  211.0000   -20.2790     2.4310    81.3870     4.2880     4.1870     5.1930    24.2240 
  211.1250   -20.3580     2.4510    86.8930     4.7540     4.4540     6.0620    24.2270 
  211.2500   -20.4300     2.4600    89.5880     5.2500     4.8080     6.7480    24.2260 
  211.3750   -20.4670     2.4560    93.1790     5.6110     5.1220     7.1350    24.2240 
  211.5000   -20.4590     2.4470    98.7670     5.6970     5.2620     7.3490    24.2210 
  211.6250   -20.3960     2.4430   102.6390     5.4290     5.1160     7.2250    24.2200 
  211.7500   -20.2930     2.4410   101.2180     5.0070     4.7950     6.6260    24.2180 
  211.8750   -20.1630     2.4370    97.1710     4.6410     4.4590     5.6730    24.2190 
  212.0000   -20.0210     2.4330    93.7580     4.5010     4.2560     4.8540    24.2860 
  212.1250   -19.8710     2.4360    92.8740     4.7000     4.3040     4.6540    24.4870 
  212.2500   -19.7210     2.4470    92.2160     5.1360     4.5520     5.6700    24.7180 
  212.3750   -19.5910     2.4560    89.7970     5.6610     4.9080     8.6540    24.8590 
  212.5000   -19.4830     2.4520    85.4410     6.0550     5.2200    11.7900    24.8910 
  212.6250   -19.3950     2.4280    81.7290     6.0580     5.3030     9.5900    24.8910 
  212.7500   -19.3010     2.3990    80.0530     5.7570     5.1650     6.5980    24.9070 
  212.8750   -19.1870     2.3810    77.5750     5.3600     4.9080     5.3830    24.9240 
  213.0000   -19.0430     2.3770    72.9070     5.0720     4.6620     5.0560    24.9250 
  213.1250   -18.8710     2.3770    68.6080     5.0100     4.5320     4.7760    24.9070 
  213.2500   -18.6680     2.3760    66.9480     5.0840     4.5090     4.7190    24.8870 
  213.3750   -18.4230     2.3730    66.3420     5.1880     4.5440     5.0020    24.8640 
  213.5000   -18.1410     2.3760    64.7990     5.2470     4.5850     5.9680    24.8320 
  213.6250   -17.8440     2.3900    62.5080     5.2520     4.6050     7.5070    24.7970 
  213.7500   -17.5710     2.4110    60.7390     5.2530     4.6130     9.5510    24.7800 
  213.8750   -17.3300     2.4350    60.7890     5.2800     4.6270    10.0800    24.7750 
  214.0000   -17.1240     2.4560    62.0530     5.3430     4.6560    10.5140    24.7610 
  214.1250   -16.9500     2.4660    62.7800     5.4410     4.7100     6.5670    24.7350 
  214.2500   -16.7930     2.4640    62.6250     5.5640     4.7830     5.4340    24.7220 
  214.3750   -16.6630     2.4490    62.3630     5.7090     4.8700     5.4260    24.7250 
  214.5000   -16.5670     2.4220    62.4650     5.8690     4.9650     5.9370    24.7300 
  214.6250   -16.4770     2.3840    61.8420     6.0280     5.0550     6.3140    24.7300 
  214.7500   -16.3860     2.3450    61.1520     6.1540     5.1260     6.4170    24.7280 
  214.8750   -16.3150     2.3180    61.5630     6.2130     5.1570     6.0810    24.7200 
  215.0000   -16.2760     2.3120    62.4780     6.1810     5.1290     5.6660    24.7070 
  215.1250   -16.2650     2.3350    63.0780     6.0530     5.0250     5.5400    24.6710 
  215.2500   -16.2670     2.3740    62.7540     5.8830     4.8780     5.5400    24.5650 
  215.3750   -16.2870     2.4160    60.4020     5.7230     4.7280     5.6570    24.3500 
  215.5000   -16.3060     2.4480    57.1810     5.6210     4.6180     6.2040    24.0970 
  215.6250   -16.3320     2.4620    57.6840     5.6320     4.6000     6.9640    24.0490 
  215.7500   -16.3580     2.4670    61.6530     5.7590     4.6780     7.4350    24.2600 
  215.8750   -16.3680     2.4680    64.5660     5.9900     4.8440     7.5250    24.5630 
  216.0000   -16.3790     2.4710    64.9000     6.2850     5.0660     7.5300    24.7560 
  216.1250   -16.3840     2.4750    64.5520     6.5650     5.2900     7.5290    24.7840 
  216.2500   -16.3760     2.4720    63.9930     6.7620     5.4610     7.4580    24.7740 
  216.3750   -16.3580     2.4560    64.2310     6.8470     5.5470     7.2880    24.7740 
  216.5000   -16.3470     2.4330    65.8460     6.8330     5.5460     6.9840    24.7790 
  216.6250   -16.3560     2.4160    67.0970     6.7520     5.4770     7.0920    24.7850 
  216.7500   -16.3650     2.4160    66.0900     6.6600     5.3940     7.4400    24.7900 
  216.8750   -16.3670     2.4310    65.0890     6.5900     5.3320     7.9680    24.7910 
  217.0000   -16.3810     2.4500    65.5360     6.5710     5.3170     8.7310    24.7910 
  217.1250   -16.4030     2.4570    66.2220     6.6410     5.3730    10.4190    24.7940 
  217.2500   -16.4300     2.4480    66.4410     6.7880     5.4800    13.0950    24.7960 
  217.3750   -16.4390     2.4260    66.5130     6.9710     5.6180    12.3160    24.7960 
  217.5000   -16.4220     2.4020    66.1070     7.1310     5.7570    10.0540    24.7960 
  217.6250   -16.4100     2.3890    65.3420     7.2110     5.8730     8.4540    24.8030 
  217.7500   -16.3930     2.3940    65.3100     7.2350     5.9650     7.4440    24.8210 
  217.8750   -16.3740     2.4210    65.9120     7.2660     6.0560     7.1390    24.8410 
  218.0000   -16.3630     2.4590    66.4900     7.3730     6.1740     7.4520    24.8510 
  218.1250   -16.3400     2.4840    66.4970     7.6090     6.3460     8.2910    24.8490 
  218.2500   -16.3430     2.4870    66.9500     7.9090     6.5510     9.0440    24.8450 
  218.3750   -16.3540     2.4740    67.8270     8.1930     6.7480     9.8160    24.8420 
  218.5000   -16.3790     2.4590    68.6980     8.3900     6.8970    10.2570    24.8440 
  218.6250   -16.4270     2.4520    69.7340     8.4570     6.9580     9.6870    24.8470 
