~V
VERS. 2.00: Ver 2.00
~W
STRT.M 50.0000:
STOP.M 230.0000:
STEP.M 0.1250:
NULL. -999.2500:
UWI. F10167:
~C
DEPT.M :
DEN.GM/CC :
GR.API :
RML.OHMM :
RI. :
RXO.OHMM :
CALI.CM :
SP.MV :
~A
# ...
  185.0000     2.2300    74.6260    76.9860    70.6640    51.8840    24.0210    -9.3760 
  185.1250     2.2250    71.4510    93.9010    82.5810    76.4840    23.9750    -9.6460 
  185.2500     2.2180    68.5250   110.7670    96.3060    97.2490    23.8980    -9.8520 
  185.3750     2.2120    66.8430   123.6160   108.9140   107.2700    23.8140   -10.1190 
  185.5000     2.2060    66.4520   130.1910   117.2070   111.4310    23.7700   -10.4410 
  185.6250     2.2020    67.2970   128.4630   118.0750   110.0040    23.7630   -10.6950 
  185.7500     2.2000    67.2860   120.9560   113.2470   104.3010    23.7640   -10.9550 
  185.8750     2.2040    66.1490   110.8030   105.1330    98.6690    23.7770   -11.1620 
  186.0000     2.2140    66.4410   100.9840    96.4410    88.9930    23.8000   -11.2530 
  186.1250     2.2300    69.3650    93.9390    89.6510    68.7900    23.8020   -11.3550 
  186.2500     2.2450    71.2370    89.9090    85.4710    54.1340    23.6720   -11.4680 
  186.3750     2.2520    72.3580    88.6270    83.8850    52.1490    23.4640   -11.5280 
  186.5000     2.2470    73.9470    89.4850    84.4220    58.2940    23.3020   -11.6130 
  186.6250     2.2300    74.8870    91.9930    86.6450    63.2150    23.3460   -11.6570 
  186.7500     2.2100    73.4840    95.4170    89.8150    66.0490    23.6250   -11.5870 
  186.8750     2.1940    70.5010    99.5400    93.7100    67.1920    24.0850   -11.6170 
  187.0000     2.1880    66.3410   104.1740    98.1680    74.2170    24.5050   -11.7830 
  187.1250     2.1900    61.7020   108.8320   102.7870    82.1050    24.7150   -11.8460 
  187.2500     2.1970    58.9250   112.6330   106.7290    90.1830    24.7400   -11.8620 
  187.3750     2.2070    59.0700   114.8250   109.2260    93.4540    24.6960   -11.9440 
  187.5000     2.2210    60.5130   115.2350   109.9970    94.4340    24.6530   -12.0360 
  187.6250     2.2370    62.9050   114.5930   109.5580    94.2680    24.6260   -12.0580 
  187.7500     2.2490    65.4260   114.5310   109.4550    89.7760    24.5470   -12.1370 
  187.8750     2.2540    67.1500   116.0420   110.7480    81.9910    24.3340   -12.2250 
  188.0000     2.2510    68.0980   119.1800   113.6830    85.1800    24.0980   -12.1810 
  188.1250     2.2460    66.9840   122.6640   117.2850   100.6760    24.0130   -12.1490 
  188.2500     2.2420    63.6540   124.3340   119.5110   119.2850    24.0320   -12.2020 
  188.3750     2.2380    60.2280   122.6500   118.7960   120.2230    24.0840   -12.1320 
  188.5000     2.2260    59.0960   117.0660   114.3930   107.8780    24.1300   -11.9380 
  188.6250     2.1980    60.2390   107.8420   106.1890    91.2900    24.2090   -11.7870 
  188.7500     2.1630    60.9660    97.1600    96.1130    82.6550    24.3590   -11.5440 
  188.8750     2.1350    59.8160    86.6340    85.7050    78.2990    24.5780   -11.1580 
  189.0000     2.1250    57.8420    77.6070    76.3770    73.5100    24.9510   -10.7880 
  189.1250     2.1360    58.7480    71.4890    69.6600    69.1680    25.6570   -10.4510 
  189.2500     2.1540    62.6640    68.3220    65.8140    67.8440    26.3540   -10.0230 
  189.3750     2.1660    65.1030    68.0710    64.9500    69.3200    26.6780    -9.6560 
  189.5000     2.1720    62.0380    70.3460    66.7920    68.7210    26.7390    -9.4480 
  189.6250     2.1810    57.1770    74.5840    70.9110    68.5430    26.8230    -9.2550 
  189.7500     2.2030    56.1490    79.3460    75.8580    67.3310    26.8190    -9.0880 
  189.8750     2.2390    57.6510    83.5010    80.4630    68.9850    26.5250    -9.0400 
  190.0000     2.2890    58.5310    86.0740    83.6530    75.2590    25.9680    -9.0460 
  190.1250     2.3530    58.4680    86.0830    84.3100    82.6990    25.3490    -8.9840 
  190.2500     2.4290    57.0700    83.7790    82.5670    87.1340    24.8770    -8.9440 
  190.3750     2.5090    54.4890    79.3560    78.5370    90.9850    24.6870    -8.9090 
  190.5000     2.5790    52.7250    73.2600    72.5900    91.9590    24.7020    -8.7910 
  190.6250     2.6190    53.6010    66.3600    65.4460    78.9570    24.7390    -8.6290 
  190.7500     2.6240    53.0390    60.1810    58.6080    70.5770    24.6960    -8.5490 
  190.8750     2.6050    50.3500    56.0790    53.4000    58.9920    24.6160    -8.5130 
  191.0000     2.5820    48.9440    55.2300    51.0760    42.8470    24.6400    -8.4280 
  191.1250     2.5750    48.9710    58.9970    53.2640    39.1870    24.7710    -8.3560 
  191.2500     2.5880    49.3120    65.9670    59.0360    49.6720    24.7720    -8.3670 
  191.3750     2.6160    51.3080    73.2550    65.9880    76.2720    24.6800    -8.3730 
  191.5000     2.6480    54.6350    76.2600    69.8240   122.8520    24.6000    -8.3630 
  191.6250     2.6680    55.2290    69.8340    65.2230   200.3410    24.5920    -8.4760 
  191.7500     2.6720    52.6560    56.6600    53.8370   158.6100    24.5810    -8.5470 
  191.8750     2.6600    50.6660    41.6450    39.9450    64.4010    24.5540    -8.4990 
  192.0000     2.6390    50.3740    29.2890    27.9830    26.4700    24.5680    -8.4380 
  192.1250     2.6270    49.5600    21.9400    20.5780    16.9460    24.5900    -8.3600 
  192.2500     2.6340    49.4410    17.9150    16.3950    13.3030    24.5960    -8.1620 
  192.3750     2.6570    51.0400    15.8610    14.2050    12.1020    24.5840    -7.9390 
  192.5000     2.6800    52.7350    14.7380    13.0360    12.1830    24.5940    -7.7200 
  192.6250     2.6730    52.7190    13.7030    12.2140    12.9910    24.5790    -7.4010 
  192.7500     2.6290    52.0650    12.1660    11.2920    13.5790    24.5380    -7.1000 
  192.8750     2.5580    51.1580    10.2090    10.1910    11.7840    24.5120    -6.8430 
  193.0000     2.4810    49.3180     8.3750     9.0080     9.4280    24.5520    -6.5570 
  193.1250     2.4250    47.3190     7.2080     7.9450     8.0700    24.5670    -6.2840 
  193.2500     2.3960    46.2690     6.5210     7.1050     7.2800    24.5240    -6.0710 
  193.3750     2.3880    45.5460     6.0790     6.5100     6.5110    24.4250    -5.8580 
  193.5000     2.3870    45.4800     5.8220     6.1260     6.3640    24.3630    -5.6540 
  193.6250     2.3820    46.9640     5.7110     5.9210     6.4290    24.3480    -5.5450 
  193.7500     2.3740    48.3300     5.6760     5.8170     6.6040    24.4450    -5.4730 
  193.8750     2.3660    48.9090     5.7020     5.7920     6.5080    24.5400    -5.4440 
  194.0000     2.3620    49.7210     5.7940     5.8430     6.3650    24.5260    -5.5520 
  194.1250     2.3630    52.0780     5.9760     5.9890     6.1990    24.4900    -5.7500 
  194.2500     2.3650    53.3480     6.2350     6.2130     6.5000    24.5560    -5.9600 
  194.3750     2.3630    52.5950     6.5500     6.4980     7.0140    24.7010    -6.1810 
  194.5000     2.3590    51.3930     6.8810     6.8050     7.6030    24.8510    -6.3310 
  194.6250     2.3570    50.4570     7.1660     7.0730     7.9920    24.9270    -6.4090 
  194.7500     2.3590    50.1350     7.3620     7.2540     8.1580    24.9490    -6.4230 
  194.8750     2.3640    50.3710     7.4490     7.3200     8.2910    24.9570    -6.3700 
  195.0000     2.3670    51.5340     7.4300     7.2690     8.4130    24.9710    -6.2790 
  195.1250     2.3680    53.8250     7.3180     7.1100     8.4310    25.0020    -6.1850 
  195.2500     2.3690    55.9810     7.1590     6.8930     8.2470    25.0160    -6.1140 
  195.3750     2.3680    57.3390     6.9840     6.6510     7.9970    25.0190    -6.1560 
  195.5000     2.3640    58.2300     6.8200     6.4120     7.9070    25.0190    -6.3800 
  195.6250     2.3540    60.6330     6.7100     6.2140     7.7600    25.0090    -6.7360 
  195.7500     2.3430    63.7490     6.6930     6.0910     7.4950    24.9660    -7.2330 
  195.8750     2.3390    65.0070     6.8100     6.0810     7.3410    24.8840    -7.7910 
  196.0000     2.3500    65.0400     7.0850     6.2130     7.4060    24.8260    -8.3270 
  196.1250     2.3800    64.9390     7.5110     6.5050     7.5250    24.7830    -8.9000 
