~V
VERS. 2.00: Ver 2.00
~W
STRT.M 55.0000:
STOP.M 248.0000:
STEP.M 0.1250:
NULL. -999.2500:
UWI. F10184:
~C
DEPT.M :
SP.MV :
GR.API :
RML.OHMM :
RI. :
RXO.OHMM :
CALI.CM :
DEN.GM/CC :
~A
# ...
  201.2500   -10.4440    66.3100   104.6760    83.2990    90.7790    24.5640     2.1860 
  201.3750   -10.7310    69.1550   103.2890    82.7200    93.1440    24.5360     2.1980 
  201.5000   -10.9330    70.1060   101.5110    81.5560    85.9640    24.4940     2.2110 
  201.6250   -11.1510    67.6130   100.9250    81.1500    73.9400    24.4170     2.2300 
  201.7500   -11.3660    64.9160   101.6650    81.8040    69.7950    24.3480     2.2440 
  201.8750   -11.4940    63.5840   103.4040    83.3950    77.7710    24.3750     2.2420 
  202.0000   -11.6650    63.3170   105.6200    85.6250    86.9000    24.4970     2.2200 
  202.1250   -11.7740    62.5700   107.8470    88.1680    80.6370    24.5720     2.1970 
  202.2500   -11.8120    62.3770   109.9410    90.7090    77.2610    24.5940     2.1880 
  202.3750   -11.9600    61.9100   112.0150    93.1830    76.1580    24.5920     2.1900 
  202.5000   -12.1230    60.2710   114.1850    95.6030    76.3930    24.5940     2.1960 
  202.6250   -12.1680    58.7310   116.5060    97.9770    76.4350    24.6030     2.2020 
  202.7500   -12.2610    60.4110   118.8540   100.2940    78.8090    24.5840     2.2070 
  202.8750   -12.3680    64.0500   120.9840   102.4400    86.9150    24.5250     2.2160 
  203.0000   -12.3860    66.0430   122.5240   104.1640    91.0220    24.4530     2.2250 
  203.1250   -12.5100    65.4980   123.0960   105.1220    83.3020    24.4380     2.2280 
  203.2500   -12.6360    65.7870   123.0390   105.4890    76.1470    24.4430     2.2200 
  203.3750   -12.6390    66.0050   122.7550   105.5290    71.9640    24.4510     2.2080 
  203.5000   -12.6910    63.3620   122.6030   105.4930    70.2420    24.4470     2.2010 
  203.6250   -12.7780    59.3360   122.8140   105.5440    70.6780    24.4140     2.2040 
  203.7500   -12.7710    57.7300   123.2220   105.6850    74.6180    24.3380     2.2170 
  203.8750   -12.8230    59.2280   123.5880   105.8530    77.0370    24.2550     2.2350 
  204.0000   -12.8930    62.2990   123.6820   105.9900    66.2580    24.2500     2.2410 
  204.1250   -12.8750    63.8000   123.2370   106.0400    54.9650    24.2150     2.2230 
  204.2500   -12.9140    62.8050   122.1840   105.9250    49.8310    24.1520     2.2000 
  204.3750   -12.9450    60.0560   120.5920   105.6350    50.3200    24.1050     2.1890 
  204.5000   -12.8930    58.5820   118.8200   105.3470    52.5560    24.0870     2.1870 
  204.6250   -12.9240    60.6120   117.3730   105.4110    55.7520    23.9990     2.1860 
  204.7500   -12.9630    62.6980   116.3350   105.9000    58.5280    23.8430     2.1840 
  204.8750   -12.9440    61.4780   115.2720   106.4490    58.9060    23.7590     2.1840 
  205.0000   -12.9970    58.6580   113.1180   106.1290    59.1380    23.7570     2.1840 
  205.1250   -12.9960    59.0090   107.7000   102.9510    62.0880    23.7890     2.1840 
  205.2500   -12.9480    60.9220    98.5490    96.1920    66.6330    23.7980     2.1850 
  205.3750   -13.0200    61.0060    86.4900    86.1860    68.1230    23.8310     2.1880 
  205.5000   -13.0890    59.3620    73.4660    74.4490    62.9580    23.9470     2.1950 
  205.6250   -12.9990    60.0470    61.9880    63.3130    54.7360    24.0700     2.2060 
  205.7500   -12.9820    61.4410    53.3270    54.4200    49.1400    24.1630     2.2190 
  205.8750   -12.9880    62.5930    48.0190    48.5150    46.2190    24.2290     2.2270 
  206.0000   -12.9000    65.7040    46.1980    45.8770    43.9470    24.2850     2.2310 
  206.1250   -12.9580    69.9520    48.4890    47.1970    40.7890    24.3010     2.2320 
  206.2500   -13.0310    69.6450    54.3890    52.1070    42.8870    24.3200     2.2340 
  206.3750   -13.0040    63.9390    63.8510    60.6620    53.0630    24.3640     2.2330 
  206.5000   -13.0770    58.6010    76.3460    72.4040    69.8040    24.4100     2.2250 
  206.6250   -13.2420    58.7590    90.3040    85.8870    78.8090    24.4290     2.2130 
  206.7500   -13.3520    59.5440   102.5720    98.0670    82.1010    24.4160     2.2070 
  206.8750   -13.5260    58.6320   110.7100   106.6080    80.9240    24.4070     2.2070 
  207.0000   -13.7490    57.8210   113.8710   110.5280    78.8540    24.4340     2.2100 
  207.1250   -13.9030    58.3370   112.6320   110.0380    77.8640    24.4420     2.2090 
  207.2500   -14.1060    58.6890   109.3890   107.2790    78.0350    24.4170     2.2030 
  207.3750   -14.3090    59.2920   105.1540   103.1720    76.3870    24.3930     2.1950 
  207.5000   -14.4260    60.4720   100.5730    98.3680    73.2400    24.3980     2.1880 
  207.6250   -14.6190    61.0380    96.3710    93.6800    71.4870    24.4220     2.1820 
  207.7500   -14.8170    61.6720    93.2080    89.9700    72.5520    24.4110     2.1770 
  207.8750   -14.8960    63.8540    91.7220    87.9480    74.6490    24.3960     2.1740 
  208.0000   -15.0370    65.6470    92.5930    88.2140    76.2980    24.4130     2.1730 
  208.1250   -15.1920    64.3360    97.0980    91.8110    77.3080    24.4500     2.1730 
  208.2500   -15.2290    62.3200   105.2730    98.7010    79.1380    24.4860     2.1750 
  208.3750   -15.3570    59.9710   117.2570   109.0500    79.6940    24.5370     2.1770 
  208.5000   -15.5500    57.8130   132.6350   122.5570    80.0670    24.5750     2.1750 
  208.6250   -15.6000    56.5280   150.1340   138.1640    87.9180    24.5940     2.1660 
  208.7500   -15.6840    56.9660   166.6210   153.1060    94.9810    24.6030     2.1540 
  208.8750   -15.8690    59.3960   179.1250   164.7880    94.4770    24.5700     2.1430 
  209.0000   -15.9470    61.3310   185.4770   171.2250    87.7480    24.4880     2.1380 
  209.1250   -16.0200    60.3380   184.3770   171.0110    85.5090    24.4440     2.1420 
  209.2500   -16.1600    57.4460   178.6970   166.4400    85.1890    24.4400     2.1470 
  209.3750   -16.1590    55.2550   170.7430   159.4850    84.9660    24.4530     2.1500 
  209.5000   -16.0870    53.8080   162.4990   151.9930    80.4280    24.4850     2.1510 
  209.6250   -16.0810    52.4700   155.6580   145.6200    77.6690    24.5610     2.1510 
  209.7500   -15.9650    53.9780   150.7910   141.0120    81.0650    24.5930     2.1520 
  209.8750   -15.7210    58.1220   148.0080   138.3260    88.8550    24.5700     2.1530 
  210.0000   -15.5440    61.3480   147.0530   137.3240    94.7440    24.4960     2.1530 
  210.1250   -15.2560    61.2530   147.6610   137.6440    92.0600    24.4640     2.1480 
  210.2500   -14.9220    59.9850   149.1960   138.5820    88.2510    24.4590     2.1390 
  210.3750   -14.7340    58.9310   151.4780   139.9240    87.2310    24.4580     2.1330 
  210.5000   -14.5190    58.4100   154.4510   141.6860    88.5710    24.4470     2.1340 
  210.6250   -14.2170    57.8030   158.2890   144.1730    89.6120    24.4130     2.1440 
  210.7500   -14.0670    57.3970   162.8430   147.4220    86.4590    24.3560     2.1560 
  210.8750   -13.9730    57.7010   167.8890   151.3430    82.1690    24.3070     2.1630 
  211.0000   -13.7870    57.9230   173.0510   155.6250    78.3080    24.2890     2.1660 
  211.1250   -13.7780    56.8830   177.4600   159.5030    76.4850    24.2790     2.1660 
  211.2500   -13.8170    55.5600   179.3580   161.5590    77.6410    24.2460     2.1700 
  211.3750   -13.7060    55.4190   175.2260   159.1440    79.8630    24.1540     2.1750 
  211.5000   -13.6340    57.2460   160.8820   148.8380    82.7770    24.0240     2.1830 
  211.6250   -13.7290    60.5940   134.7070   128.0250    83.8380    23.9910     2.1910 
  211.7500   -13.7380    63.0080   105.5210   102.6570    81.8140    24.0760     2.2000 
  211.8750   -13.6970    63.6480    80.3720    78.8920    69.3090    24.1300     2.2100 
  212.0000   -13.7810    64.5630    62.5500    60.8530    51.7680    24.1310     2.2210 
  212.1250   -13.7580    67.3550    53.0530    50.6070    42.5410    24.0820     2.2270 
  212.2500   -13.6830    68.1460    49.1610    45.9410    42.9080    24.0030     2.2260 
  212.3750   -13.7690    65.5910    49.6880    45.6350    48.0790    23.9770     2.2170 
