~V
VERS. 2.00: Ver 2.00
~W
STRT.M 45.0000:
STOP.M 252.0000:
STEP.M 0.1250:
NULL. -999.2500:
UWI. F10190:
~C
DEPT.M :
GR.API :
RML.OHMM :
RI. :
RXO.OHMM :
CALI.CM :
SP.MV :
DEN.GM/CC :
~A
# ...
  191.2500    59.0620   183.6500   160.0640   146.5640    24.8490   -32.4790     2.2180 
  191.3750    60.2490   197.4240   171.5570   149.2990    24.7720   -32.9890     2.2130 
  191.5000    61.0780   200.0730   173.2680   154.2690    24.7050   -33.5000     2.2040 
  191.6250    59.7020   193.2950   166.8310   150.7210    24.6250   -34.0050     2.2000 
  191.7500    57.4130   180.0340   155.1440   127.0230    24.5170   -34.4740     2.2040 
  191.8750    57.0060   164.5310   142.1170   108.1400    24.3870   -34.8750     2.2110 
  192.0000    59.1610   150.7610   131.1700   107.2180    24.3020   -35.1850     2.2100 
  192.1250    61.3120   140.4230   123.4110   110.4870    24.3590   -35.4340     2.1980 
  192.2500    62.3410   133.9790   118.9870   107.8740    24.5430   -35.6270     2.1820 
  192.3750    61.6330   131.0890   117.4560   101.6820    24.6610   -35.7660     2.1610 
  192.5000    59.2610   131.2840   118.3510    93.4780    24.5710   -35.8490     2.1410 
  192.6250    57.0990   133.1240   120.5090    97.6390    24.4540   -35.8760     2.1330 
  192.7500    57.5280   135.8610   123.3290   106.1810    24.4190   -35.8390     2.1440 
  192.8750    60.5030   139.0100   126.4450   102.3230    24.4530   -35.7360     2.1680 
  193.0000    62.3590   142.7190   130.0480    91.5870    24.5070   -35.5510     2.1940 
  193.1250    61.8630   147.5130   134.6770    92.2640    24.5800   -35.2810     2.2120 
  193.2500    60.6880   153.9850   140.9160   103.2070    24.6530   -34.9840     2.2210 
  193.3750    59.0360   162.3280   148.9390   115.3670    24.7030   -34.6860     2.2190 
  193.5000    56.9070   171.2780   157.4060   129.0310    24.7410   -34.3980     2.2120 
  193.6250    55.7410   176.7330   162.1150   146.5330    24.7540   -34.1060     2.2070 
  193.7500    57.2690   173.9460   158.3030   166.5140    24.7530   -33.7920     2.2050 
  193.8750    60.0250   160.7690   144.4400   185.9420    24.7310   -33.4710     2.2040 
  194.0000    59.6110   139.8850   124.5380   174.5420    24.6610   -33.1940     2.2080 
  194.1250    56.9000   119.2660   106.2550   121.3860    24.5670   -32.9830     2.2190 
  194.2500    54.8080   103.5270    93.1660    69.3540    24.5020   -32.8000     2.2310 
  194.3750    55.6800    94.8130    86.4720    53.8300    24.5630   -32.6170     2.2360 
  194.5000    58.0300    94.3100    86.8320    71.2480    24.7530   -32.4260     2.2300 
  194.6250    59.6590    99.3670    91.9920    95.9960    24.9550   -32.2540     2.2240 
  194.7500    60.0270   107.7330   100.0620   108.0570    25.0630   -32.1450     2.2220 
  194.8750    60.1190   116.2670   108.1570   121.6960    25.0680   -32.0980     2.2210 
  195.0000    60.9600   120.6670   112.0530   144.2710    25.0450   -32.0660     2.2160 
  195.1250    61.9720   119.9450   111.0130   142.4450    25.0050   -32.0160     2.2100 
  195.2500    61.8660   115.6520   106.9680   111.9430    24.9440   -31.9380     2.2080 
  195.3750    59.8700   110.7330   102.9630    91.4900    24.9290   -31.8420     2.2110 
  195.5000    57.7080   108.4550   102.0330    89.2300    24.9440   -31.7240     2.2170 
  195.6250    56.8670   110.0520   105.0400    98.6250    24.9150   -31.5790     2.2230 
  195.7500    57.1330   115.7930   112.1650   106.6760    24.8780   -31.3750     2.2220 
  195.8750    57.0330   124.8580   122.6460   130.7480    24.8480   -31.0850     2.2100 
  196.0000    56.0340   135.1400   134.3850   157.3650    24.8360   -30.6650     2.1990 
  196.1250    56.2440   143.6600   144.1370   161.6260    24.8320   -30.1110     2.2030 
  196.2500    57.0050   149.0190   150.2530   147.8740    24.8260   -29.4200     2.2350 
  196.3750    57.1970   151.6160   153.1670   149.8740    24.8050   -28.6010     2.2990 
  196.5000    56.2080   152.8630   154.5590   179.8180    24.7520   -27.7010     2.4040 
  196.6250    55.5420   153.7300   155.4870   212.2890    24.6950   -26.7610     2.5260 
  196.7500    56.1450   152.7340   153.8990   213.5830    24.6440   -25.8120     2.6290 
  196.8750    57.4960   145.4380   144.3040   215.7720    24.6200   -24.8720     2.6870 
  197.0000    59.2170   123.9060   119.3200   195.5850    24.6250   -23.9440     2.6990 
  197.1250    59.8660    89.5350    89.3060   161.0400    24.6480   -23.0440     2.6910 
  197.2500    58.6480    56.4760    60.7080   114.6670    24.6720   -22.2070     2.6740 
  197.3750    56.2090    34.7510    36.9990    59.6880    24.6910   -21.4470     2.6490 
  197.5000    54.0860    22.2530    23.4900    27.1470    24.7170   -20.7880     2.6210 
  197.6250    52.0620    15.0650    15.9140    12.5440    24.7620   -20.2390     2.5940 
  197.7500    49.3640    11.2040    11.8760     7.9860    24.8180   -19.7720     2.5690 
  197.8750    46.5920     9.3170     9.8200     7.7370    24.8740   -19.4030     2.5460 
  198.0000    45.4320     8.6540     9.0020     8.2460    24.8970   -19.1430     2.5310 
  198.1250    46.2240     8.4520     8.7190     9.1960    24.9020   -18.9760     2.5270 
  198.2500    48.0980     8.3620     8.6220     9.4680    24.9020   -18.8950     2.5280 
  198.3750    49.8000     8.2010     8.4780     8.7760    24.9080   -18.8900     2.5170 
  198.5000    50.3140     7.9440     8.2080     7.7630    24.9170   -18.9270     2.4870 
  198.6250    51.0870     7.6390     7.8530     6.7860    24.9120   -18.9570     2.4560 
  198.7500    51.9500     7.2580     7.3990     6.0180    24.8860   -18.9880     2.4400 
  198.8750    51.2130     6.7390     6.8010     6.0270    24.8670   -19.0000     2.4410 
  199.0000    49.7910     6.0350     6.0270     6.8960    24.8870   -19.0090     2.4460 
  199.1250    51.0920     5.2660     5.1980     6.0170    24.8980   -19.0180     2.4450 
  199.2500    55.3230     4.5930     4.4580     3.9450    24.9020   -19.0050     2.4370 
  199.3750    58.8460     4.1740     3.9420     3.0250    24.9090   -18.9570     2.4240 
  199.5000    58.7430     4.1780     3.7910     3.7940    24.9290   -18.8580     2.4110 
  199.6250    57.9110     4.5590     3.9770     5.0910    24.9540   -18.7160     2.4040 
  199.7500    58.2280     5.2340     4.4700     5.9520    24.9450   -18.5560     2.4080 
  199.8750    59.6540     6.0290     5.1670     6.7160    24.8350   -18.4380     2.4180 
  200.0000    61.3760     6.6870     5.8700     6.7490    24.6410   -18.4670     2.4280 
  200.1250    64.0700     7.1140     6.4110     6.8510    24.5000   -18.6150     2.4350 
  200.2500    69.4420     7.3940     6.7830     6.8530    24.4890   -18.8550     2.4360 
  200.3750    75.7630     7.6800     7.0750     7.1600    24.3520   -19.1830     2.4270 
  200.5000    80.1210     8.1020     7.3940     8.0710    24.1750   -19.6480     2.4200 
  200.6250    81.0580     8.6230     7.7660     9.3730    24.3690   -20.2480     2.4220 
  200.7500    80.9030     9.1570     8.1470    10.5450    24.6610   -20.9480     2.4320 
  200.8750    82.2240     9.6050     8.4680    11.3520    24.8020   -21.6790     2.4430 
  201.0000    84.1660     9.8780     8.6450    11.3580    24.7730   -22.3420     2.4490 
  201.1250    85.7580    10.0040     8.6920    10.8580    24.6120   -22.9700     2.4490 
  201.2500    87.4460    10.0280     8.6420    10.1830    24.2910   -23.6310     2.4420 
  201.3750    88.3340     9.9980     8.5370     9.5870    23.9180   -24.3650     2.4370 
  201.5000    86.8830     9.9280     8.4020     9.1510    23.9000   -25.1770     2.4390 
  201.6250    85.3070     9.8250     8.2520     8.8900    24.2590   -26.0520     2.4390 
  201.7500    87.4820     9.6940     8.0940     8.7480    24.6910   -27.0060     2.4310 
  201.8750    93.3860     9.5540     7.9400     8.6170    24.9230   -28.0570     2.4140 
  202.0000    98.4590     9.4390     7.8150     8.4350    24.9650   -29.2060     2.3990 
  202.1250    99.0470     9.3750     7.7320     8.3220    24.9760   -30.4230     2.3930 
  202.2500    95.6220     9.3630     7.6940     8.2850    24.9980   -31.6660     2.3970 
  202.3750    93.0030     9.3880     7.6970     8.2640    25.0490   -32.8790     2.4050 
