~V
VERS. 2.00: Ver 2.00
~W
STRT.M 57.0000:
STOP.M 214.0000:
STEP.M 0.1250:
NULL. -999.2500:
UWI. F10147:
~C
DEPT.M :
SP.MV :
GR.API :
RML.OHMM :
RI. :
RXO.OHMM :
CALI.CM :
DEN.GM/CC :
~A
# ...
  180.7500   -12.5850    62.4080   106.9660   108.1410    86.1610    25.1990     2.3040 
  180.8750   -12.6030    60.8710   111.1000   112.4240    92.6230    25.2330     2.2920 
  181.0000   -12.6140    59.3960   112.7320   113.8230    95.0990    25.2030     2.2750 
  181.1250   -12.5970    59.7250   112.4090   113.1200    91.4970    25.1190     2.2630 
  181.2500   -12.5600    62.6690   111.4310   111.6130    82.7880    25.0410     2.2640 
  181.3750   -12.5070    65.2950   111.4610   111.0240    77.5680    25.0600     2.2790 
  181.5000   -12.4190    64.7130   113.6180   112.5350    83.4360    25.1570     2.2960 
  181.6250   -12.2820    61.5400   118.2560   116.4940    97.3130    25.2320     2.3000 
  181.7500   -12.1060    58.3980   125.2040   122.6530   109.7310    25.2420     2.2850 
  181.8750   -11.9210    57.4710   133.8980   130.3560   114.6550    25.1980     2.2570 
  182.0000   -11.7360    58.0790   143.3470   138.6440   113.0790    25.1500     2.2310 
  182.1250   -11.5700    58.1810   152.7660   146.8630   106.5300    25.1380     2.2180 
  182.2500   -11.4380    57.2290   161.9290   154.9100    98.5130    25.1710     2.2190 
  182.3750   -11.3460    57.4700   170.9960   162.9960   101.5030    25.2090     2.2270 
  182.5000   -11.3080    59.9380   180.1970   171.2730   123.7980    25.2240     2.2340 
  182.6250   -11.3400    61.2670   189.5460   179.6510   160.4220    25.2240     2.2340 
  182.7500   -11.4320    58.7400   198.7950   187.8450   198.9650    25.2160     2.2280 
  182.8750   -11.5380    55.6590   207.4120   195.3710   226.2510    25.2110     2.2200 
  183.0000   -11.6600    55.9740   214.9750   201.8460   237.7310    25.2090     2.2150 
  183.1250   -11.7940    58.1350   221.3280   207.0550   238.1970    25.2110     2.2140 
  183.2500   -11.9070    58.7570   226.4880   210.9550   237.2970    25.2140     2.2180 
  183.3750   -12.0010    58.6290   230.5710   213.7430   243.4630    25.2110     2.2220 
  183.5000   -12.0870    59.9340   233.9870   216.0850   254.4570    25.2010     2.2230 
  183.6250   -12.1450    61.5390   237.3180   218.7980   263.4860    25.1820     2.2210 
  183.7500   -12.1750    61.0630   241.1780   222.5250   271.2730    25.1590     2.2180 
  183.8750   -12.2070    58.7140   246.1060   227.6200   288.3230    25.1430     2.2190 
  184.0000   -12.2230    56.8950   251.6600   233.3600   315.1720    25.1390     2.2250 
  184.1250   -12.2150    56.6230   256.2890   238.0510   333.9720    25.1260     2.2360 
  184.2500   -12.2120    56.8160   258.0770   239.8070   331.5470    25.0770     2.2470 
  184.3750   -12.1920    55.5310   255.6710   237.3340   312.6470    24.9740     2.2560 
  184.5000   -12.1450    52.2560   250.5380   232.0960   286.7110    24.9040     2.2640 
  184.6250   -12.1040    48.8020   246.0860   227.4740   260.5590    24.8920     2.2750 
  184.7500   -12.0700    47.5540   245.7310   226.9000   244.1130    24.8780     2.2960 
  184.8750   -12.0160    48.7750   252.1410   233.2030   246.0860    24.8160     2.3390 
  185.0000   -11.9560    50.5910   263.5590   245.2620   257.8050    24.7280     2.4110 
  185.1250   -11.9060    51.6250   274.3230   258.4490   267.1150    24.6390     2.5030 
  185.2500   -11.8530    52.3050   279.7190   266.8540   273.8120    24.5710     2.6000 
  185.3750   -11.7950    52.9980   277.4310   264.5980   277.9400    24.5420     2.6810 
  185.5000   -11.7430    54.1120   268.0140   252.2100   276.3340    24.5320     2.7350 
  185.6250   -11.6830    55.1460   254.3690   236.0380   267.8530    24.5230     2.7650 
  185.7500   -11.6060    55.4150   242.1350   223.9920   258.7680    24.5210     2.7770 
  185.8750   -11.5320    55.9090   233.6760   220.6900   261.6260    24.5380     2.7780 
  186.0000   -11.4580    56.7580   217.3970   217.4030   279.5080    24.5640     2.7690 
  186.1250   -11.3640    57.2050   179.6530   197.7890   295.9300    24.5810     2.7560 
  186.2500   -11.2490    57.6520   123.6300   154.6160   290.3000    24.5990     2.7430 
  186.3750   -11.1150    58.2240    70.3630    99.7760   254.8480    24.6350     2.7440 
  186.5000   -10.9480    57.4580    35.3130    53.7220   194.2020    24.6780     2.7610 
  186.6250   -10.7380    54.9810    17.5260    25.6080   119.1570    24.7170     2.7870 
  186.7500   -10.4810    53.1190     9.7230    11.9860    49.8860    24.7280     2.7980 
  186.8750   -10.1830    53.3340     6.7980     6.7220    12.0910    24.7180     2.7680 
  187.0000    -9.8760    54.0000     6.1300     5.1990     4.7390    24.7200     2.6950 
  187.1250    -9.5830    53.1830     6.5080     5.2240     6.3540    24.7520     2.6020 
  187.2500    -9.3030    50.3930     7.4440     6.0680     7.0160    24.7910     2.5150 
  187.3750    -9.0620    47.2150     8.4830     7.2090     7.0410    24.7960     2.4570 
  187.5000    -8.8810    46.6980     9.1670     8.1510     6.9950    24.7910     2.4310 
  187.6250    -8.7620    49.3720     9.2990     8.6190     6.8980    24.8190     2.4250 
  187.7500    -8.7130    52.1940     9.0370     8.6520     6.6930    24.8740     2.4290 
  187.8750    -8.7210    51.8610     8.7070     8.4740     6.3880    24.9300     2.4320 
  188.0000    -8.7630    48.9520     8.5280     8.3100     6.2310    24.9680     2.4300 
  188.1250    -8.8240    46.7910     8.5570     8.2600     6.5290    24.9640     2.4210 
  188.2500    -8.8990    46.7630     8.7790     8.3280     7.2490    24.9310     2.4100 
  188.3750    -8.9900    47.2750     9.1800     8.4940     7.9100    24.8980     2.4000 
  188.5000    -9.0860    46.8810     9.7470     8.7510     8.1850    24.8800     2.3950 
  188.6250    -9.1650    46.6320    10.4990     9.1240     8.2230    24.8760     2.3930 
  188.7500    -9.2260    47.4110    11.4240     9.6410     8.4440    24.8920     2.3940 
  188.8750    -9.2820    47.6000    12.1940    10.2770     9.4740    24.9110     2.3990 
  189.0000    -9.3240    46.2270    12.4370    10.8850    11.2180    24.9080     2.4080 
  189.1250    -9.3530    44.3330    12.1530    11.2690    12.5060    24.8790     2.4230 
  189.2500    -9.3830    43.4680    11.6340    11.2910    12.1540    24.8540     2.4380 
  189.3750    -9.4010    44.4200    11.1010    10.9490    10.3960    24.8430     2.4450 
  189.5000    -9.4010    46.1020    10.6130    10.4540     8.8470    24.7870     2.4370 
  189.6250    -9.4040    47.1540    10.2970    10.0650     8.4490    24.6840     2.4170 
  189.7500    -9.4220    46.7320    10.3010     9.9370     8.8860    24.6300     2.3940 
  189.8750    -9.4270    45.2770    10.6120    10.0990     9.5920    24.6570     2.3820 
  190.0000    -9.4250    44.2240    11.0030    10.3860    10.2950    24.7270     2.3880 
  190.1250    -9.4200    44.3140    11.2000    10.5640    10.7470    24.8050     2.4070 
  190.2500    -9.3960    45.2920    11.0420    10.4670    10.5620    24.9000     2.4270 
  190.3750    -9.3470    46.1820    10.5130    10.0390     9.6070    24.9830     2.4350 
  190.5000    -9.3010    46.5210     9.8090     9.4150     8.4480    24.9910     2.4280 
  190.6250    -9.2580    46.3040     9.1590     8.7870     7.7190    24.9170     2.4170 
  190.7500    -9.2050    45.1500     8.7000     8.2870     7.5450    24.8120     2.4150 
  190.8750    -9.1640    43.4660     8.4950     8.0000     7.6930    24.7490     2.4300 
  191.0000    -9.1360    42.2400     8.4970     7.9130     7.9060    24.7540     2.4550 
  191.1250    -9.1050    41.8860     8.6250     7.9700     8.0530    24.7820     2.4740 
  191.2500    -9.0680    41.4570     8.8200     8.1180     8.1050    24.7870     2.4790 
  191.3750    -9.0430    40.0320     9.0300     8.3060     8.0910    24.7860     2.4720 
  191.5000    -9.0150    39.2690     9.2120     8.4820     8.0510    24.7940     2.4620 
  191.6250    -8.9690    40.6480     9.3290     8.6000     7.9680    24.8030     2.4600 
  191.7500    -8.9220    43.0510     9.3560     8.6320     7.8070    24.8250     2.4690 
  191.8750    -8.8770    44.9300     9.2880     8.5670     7.6480    24.8290     2.4840 
