~V
VERS. 2.00: Ver 2.00
~W
STRT.M 52.0000:
STOP.M 322.0000:
STEP.M 0.1250:
NULL. -999.2500:
UWI. F10105:
~C
DEPT.M :
GR.API :
RML.OHMM :
RI. :
RXO.OHMM :
CALI.CM :
DEN.GM/CC :
SP.MV :
~A
# ...
  254.5000    93.1270     8.9740     8.7080     9.0630    26.6550     2.5390    -9.3390 
  254.6250    92.0880     9.2160     8.8270     9.7420    26.8490     2.5260    -9.8130 
  254.7500    89.8370     9.3110     8.8160    10.3000    26.9280     2.5170   -10.2360 
  254.8750    89.4210     9.3040     8.7120    10.0240    26.9520     2.5130   -10.5280 
  255.0000    89.3520     9.2730     8.5800     9.6320    26.9360     2.5120   -10.7750 
  255.1250    86.4570     9.3170     8.5050     9.3490    26.8820     2.5160   -11.0990 
  255.2500    85.8240     9.4820     8.5360     9.9610    26.8430     2.5310   -11.4720 
  255.3750    90.5590     9.7840     8.6940    11.0460    26.8640     2.5560   -11.8770 
  255.5000    95.7800    10.2050     8.9800    11.6520    26.9040     2.5810   -12.2480 
  255.6250    94.0360    10.6890     9.3820    11.1990    26.9220     2.5930   -12.5500 
  255.7500    90.7410    11.1120     9.7970    11.3500    26.8910     2.5940   -12.8830 
  255.8750    90.4640    11.3540    10.0970    12.4060    26.8650     2.5930   -13.2620 
  256.0000    93.3260    11.3200    10.1550    13.2560    26.8670     2.6000   -13.5550 
  256.1250    98.7700    10.9610     9.8630    12.6710    26.8370     2.6110   -13.5600 
  256.2500   102.5020    10.4420     9.3530    11.1950    26.7560     2.6100   -13.3390 
  256.3750   103.0810     9.9460     8.7850     9.3950    26.6580     2.5890   -13.0080 
  256.5000   100.7820     9.6580     8.3350     8.6690    26.6370     2.5470   -12.6490 
  256.6250    98.2040     9.7820     8.1960     9.4470    26.7070     2.5000   -12.2470 
  256.7500    96.4790    10.3150     8.3960    10.1400    26.6910     2.4630   -11.7980 
  256.8750    94.4900    11.2340     8.9580    10.2240    26.6050     2.4440   -11.3920 
  257.0000    92.3200    12.4720     9.8730    11.1390    26.5810     2.4430   -11.1570 
  257.1250    89.5810    13.9460    11.1250    14.3490    26.6340     2.4610   -11.1460 
  257.2500    86.1540    15.5120    12.5640    17.5250    26.7230     2.4920   -11.2220 
  257.3750    83.7160    17.1210    14.1010    20.6060    26.7940     2.5330   -11.3020 
  257.5000    82.8070    18.8000    15.6980    23.0220    26.8270     2.5730   -11.3670 
  257.6250    82.5250    20.6320    17.4240    24.2430    26.8370     2.5990   -11.4280 
  257.7500    81.9240    22.5100    19.3230    25.3180    26.8530     2.6080   -11.4590 
  257.8750    80.1400    24.0430    21.2010    27.4200    26.8970     2.6080   -11.3330 
  258.0000    78.5140    24.5610    22.4170    32.2720    26.9590     2.6160   -10.9660 
  258.1250    78.3910    23.1380    21.7130    41.7080    27.0060     2.6410   -10.4180 
  258.2500    79.3790    20.1160    19.1210    44.7450    26.9860     2.6700    -9.8130 
  258.3750    80.3890    16.2680    15.4880    29.2860    26.8530     2.6800    -9.1260 
  258.5000    80.5440    12.5730    11.9390    13.7560    26.6030     2.6560    -8.3150 
  258.6250    81.0340     9.9060     9.3240     8.1990    26.4500     2.5920    -7.3950 
  258.7500    80.9920     8.2780     7.6120     6.6680    26.3700     2.5170    -6.4850 
  258.8750    79.7900     7.5180     6.6600     6.0200    26.2280     2.4530    -5.6750 
  259.0000    79.5300     7.3740     6.2990     5.7400    26.0050     2.4160    -5.0050 
  259.1250    83.2330     7.6290     6.4110     6.0040    25.9290     2.4110    -4.4490 
  259.2500    89.6420     7.9920     6.7310     6.6910    26.0750     2.4210    -3.9940 
  259.3750    94.8150     8.3100     7.0950     7.4340    26.3510     2.4350    -3.6780 
  259.5000    94.6850     8.4830     7.3710     7.8650    26.5940     2.4470    -3.5070 
  259.6250    92.4440     8.4430     7.4500     8.0610    26.6650     2.4550    -3.4820 
  259.7500    94.8170     8.2530     7.3500     7.8270    26.6500     2.4620    -3.4820 
  259.8750   100.7310     7.9840     7.1260     7.4020    26.6100     2.4700    -3.4780 
  260.0000   103.3130     7.7230     6.8590     7.2560    26.5910     2.4770    -3.5130 
  260.1250   100.5850     7.5660     6.6370     7.2090    26.5780     2.4780    -3.6160 
  260.2500   100.2980     7.5400     6.5090     7.1620    26.5780     2.4730    -3.6920 
  260.3750   103.6990     7.6550     6.4970     7.2720    26.5580     2.4630    -3.7810 
  260.5000   105.4250     7.8930     6.6030     7.5880    26.4550     2.4480    -3.9880 
  260.6250   102.5870     8.2300     6.8240     8.0780    26.2650     2.4310    -4.3670 
  260.7500   100.3930     8.6010     7.1070     8.4050    26.0870     2.4170    -4.8760 
  260.8750   100.6280     8.9540     7.4090     8.9370    25.9720     2.4100    -5.4260 
  261.0000   100.4930     9.2360     7.6810     9.4390    25.9530     2.4080    -5.9420 
  261.1250   100.0090     9.3800     7.8520    10.0620    26.0280     2.4080    -6.4690 
  261.2500   100.8360     9.3870     7.8970    10.7720    26.1380     2.4050    -7.0790 
  261.3750   101.7350     9.2770     7.8140    10.7720    26.2130     2.4010    -7.6480 
  261.5000   100.8440     9.1090     7.6430    10.2860    26.2680     2.3990    -8.0500 
  261.6250    99.3880     8.9830     7.4700     9.2140    26.3390     2.4020    -8.2690 
  261.7500   100.3550     8.9790     7.3850     8.5900    26.3690     2.4090    -8.4420 
  261.8750   101.9380     9.1360     7.4420     8.9390    26.3120     2.4140    -8.6740 
  262.0000   100.6340     9.4490     7.6580     9.7350    26.2210     2.4140    -8.9630 
  262.1250    94.9440     9.8850     8.0240    10.6130    26.1940     2.4110    -9.1340 
  262.2500    90.8500    10.3670     8.4670    10.8490    26.2090     2.4080    -9.1660 
  262.3750    92.5080    10.8490     8.9500    11.4710    26.2300     2.4080    -9.2220 
  262.5000    96.9260    11.2910     9.4450    12.2400    26.2380     2.4090    -9.4070 
  262.6250    97.6000    11.6200     9.9000    12.5330    26.2370     2.4080    -9.6530 
  262.7500    94.0450    11.7780    10.2460    13.0150    26.2320     2.4050    -9.8200 
  262.8750    90.3760    11.7100    10.4010    13.5390    26.2230     2.4010    -9.7960 
  263.0000    89.5220    11.3990    10.3090    13.5980    26.2300     2.3990    -9.6410 
  263.1250    89.8740    10.8790     9.9500    12.4200    26.2350     2.4000    -9.5620 
  263.2500    89.4020    10.3100     9.4690    10.9000    26.2340     2.4040    -9.5360 
  263.3750    90.6330     9.8190     8.9900    10.1750    26.2180     2.4120    -9.4590 
  263.5000    96.1160     9.4860     8.6140    10.2040    26.2040     2.4210    -9.3020 
  263.6250   100.5380     9.3480     8.4070    10.2320    26.2410     2.4300    -9.1040 
  263.7500   100.5110     9.3030     8.3100     9.6130    26.2960     2.4370    -8.8950 
  263.8750    98.6370     9.2540     8.2460     9.5290    26.2810     2.4410    -8.7360 
  264.0000    97.6890     9.1240     8.1330    10.1990    26.1950     2.4430    -8.6050 
  264.1250    98.6810     8.8870     7.9070     9.8980    26.1710     2.4460    -8.3400 
  264.2500   102.2940     8.6600     7.6380     8.7040    26.2000     2.4510    -7.9980 
  264.3750   107.4260     8.6170     7.4630     8.3190    26.2290     2.4540    -7.6650 
  264.5000   108.9410     8.9530     7.5420     8.5420    26.2340     2.4480    -7.3910 
  264.6250   101.9110     9.9330     8.1060     8.9080    26.1780     2.4300    -7.3170 
  264.7500    93.5030    11.5110     9.2040    10.2160    26.0380     2.4040    -7.5510 
  264.8750    89.3420    13.5690    10.8580    14.4580    25.8770     2.3790    -8.0770 
  265.0000    88.8400    15.8260    12.9400    20.8780    25.8470     2.3630    -8.7840 
  265.1250    88.4830    17.8220    15.0780    23.1960    25.8820     2.3580    -9.6270 
  265.2500    86.9420    19.2610    16.8000    22.9610    25.9090     2.3590   -10.5840 
  265.3750    85.5350    20.0910    17.8880    22.5420    25.9140     2.3600   -11.6430 
  265.5000    84.4350    20.4880    18.4200    22.7190    25.9190     2.3600   -12.7170 
  265.6250    83.0580    20.7540    18.6710    23.6040    25.9320     2.3550   -13.7020 
