~V
VERS. 2.00: Ver 2.00
~W
STRT.M 50.0000:
STOP.M 236.0000:
STEP.M 0.1250:
NULL. -999.2500:
UWI. F10180:
~C
DEPT.M :
SP.MV :
GR.API :
RML.OHMM :
RI. :
RXO.OHMM :
CALI.CM :
DEN.GM/CC :
~A
# ...
  230.0000     0.4340    61.1030    11.0150    10.3020    13.1730    24.8450     2.5040 
  230.1250     0.4540    61.1030    11.0800    10.3810    11.8500    24.8200     2.5010 
  230.2500     0.4750    61.1030    11.1650    10.4690    13.2220    24.8000     2.5000 
  230.3750     0.5370    61.1030    11.2570    10.5560    18.9990    24.7690     2.5080 
  230.5000     0.6020    61.1030    11.3470    10.6370    27.9450    24.7360     2.5270 
  230.6250     0.6370    61.1030    11.4300    10.7050    30.8170    24.7090     2.5580 
  230.7500     0.6890    61.1030    11.4980    10.7510    23.0130    24.7020     2.5950 
  230.8750     0.7670    61.1030    11.5390    10.7750    22.9660    24.6950     2.6270 
  231.0000     0.8440    61.1030    11.5620    10.7900    23.4050    24.6890     2.6420 
  231.1250     0.9210    61.1030    11.5770    10.8040    20.6780    24.7030     2.6340 
  231.2500     1.0120    61.1030    11.5920    10.8190    16.8620    24.7490     2.6070 
  231.3750     1.0170    61.1030    11.6060    10.8290    14.8110    24.7510     2.5700 
  231.5000     0.9810    61.1030    11.6160    10.8340    13.1990    24.7340     2.5390 
  231.6250     1.0070    61.1030    11.6200    10.8350    12.2380    24.7080     2.5210 
  231.7500     1.0720    61.1030    11.6210    10.8350    11.9290    24.6930     2.5210 
  231.8750     1.1320    61.1030    11.6210    10.8350    12.0200    24.7060     2.5360 
  232.0000     1.2030    61.1030    11.6210    10.8350    11.8500    24.7360     2.5580 
  232.1250     1.2840    61.1030    11.6210    10.8350    11.5290    24.7420     2.5760 
  232.2500     1.3940    61.1030    11.6210    10.8350    11.5360    24.7240     2.5850 
  232.3750     1.6410    61.1030    11.6210    10.8350    12.3040    24.7510     2.5780 
  232.5000     1.9310    61.1030    11.6210    10.8350    13.0740    24.7760     2.5700 
  232.6250     2.1560    61.1030    11.6210    10.8350    13.7470    24.7510     2.5410 
  232.7500     2.2940    61.1030    11.6210    10.8350    14.5320    24.6960     2.5290 
  232.8750     2.3850    61.1030    11.6210    10.8350    16.3160    24.6660     2.5260 
  233.0000     2.4150    61.1030    11.6210    10.8350    17.8020    24.6440     2.5300 
  233.1250     2.3750    61.1030    11.6210    10.8350    19.3960    24.6150     2.5410 
  233.2500     2.2810    61.1030    11.6210    10.8350    19.8940    24.5370     2.5590 
  233.3750     2.0560    61.1030    11.6210    10.8350    19.7390    24.4830     2.5780 
  233.5000     1.7970    61.1030    11.6210    10.8350    19.0770    24.4810     2.5910 
  233.6250     1.6900    61.1030    11.6210    10.8350    17.9550    24.5170     2.5930 
  233.7500     1.6900    61.1030    11.6210    10.8350    16.5650    24.5230     2.5810 
  233.8750     1.6900    61.1030    11.6210    10.8350    16.0040    24.5020     2.5680 
  234.0000  -999.2500    61.1030    11.6210    10.8350    15.8210    24.4420     2.5600 
  234.1250  -999.2500    61.1030    11.6210    10.8350    16.4330    24.4110     2.5630 
  234.2500  -999.2500    61.1030    11.6210    10.8350    18.8890    24.4390     2.5690 
  234.3750  -999.2500    61.1030    11.6210    10.8350    23.5500    24.4630     2.5720 
  234.5000  -999.2500    61.1030    11.6210    10.8350    29.5160    24.4620     2.5700 
  234.6250  -999.2500    61.1030    11.6210    10.8350    29.3510    24.4710     2.5670 
  234.7500  -999.2500    61.1030    11.6210    10.8350    25.9340    24.5200     2.5620 
  234.8750  -999.2500    61.1030    11.6210    10.8350    21.8430    24.5730     2.5500 
  235.0000  -999.2500    61.1030    11.6210    10.8350    17.6340    24.5850     2.5260 
  235.1250  -999.2500    61.1030    11.6210    10.8350    14.9210    24.5250     2.4860 
  235.2500  -999.2500    61.1030    11.6210    10.8350    13.6390    24.3460     2.4310 
  235.3750  -999.2500    61.1030    11.6210    10.8350    12.4570    23.8030     2.3670 
  235.5000  -999.2500    61.1030    11.6210    10.8350    10.7790    22.0910     2.3000 
  235.6250  -999.2500    61.1030    11.6210    10.8350     9.1410    19.4820     2.2370 
  235.7500  -999.2500    61.1030    11.6210    10.8350     8.2860    17.5720     2.1790 
  235.8750  -999.2500    61.1030    11.6210    10.8350     8.0510    16.9000     2.1330 
  236.0000  -999.2500    61.1030    11.6210    10.8350     8.0460    16.8970     2.1350 
