~V
VERS. 2.00: Ver 2.00
~W
STRT.M 64.0000:
STOP.M 235.0000:
STEP.M 0.1250:
NULL. -999.2500:
UWI. F10178:
~C
DEPT.M :
GR.API :
RML.OHMM :
RI. :
RXO.OHMM :
CALI.CM :
DEN.GM/CC :
SP.MV :
~A
# ...
  154.0000    53.1730    12.0950    10.5300     9.1930    23.5900     2.5160   -14.5020 
  154.1250    56.0720    13.2110    11.2330     9.2280    23.5800     2.4940   -14.6000 
  154.2500    59.3730    15.2310    12.6360    10.1160    23.5420     2.4580   -14.7710 
  154.3750    60.3930    18.2770    14.9160    13.0650    23.5320     2.4070   -14.9190 
  154.5000    60.9350    22.2950    18.1710    19.0690    23.6200     2.3480   -15.0020 
  154.6250    64.1950    27.0040    22.3700    25.6020    23.8410     2.2970   -15.0940 
  154.7500    67.6950    31.6230    26.7840    29.6710    24.1150     2.2690   -15.2590 
  154.8750    70.7600    35.4830    30.6260    34.2570    24.3640     2.2670   -15.4860 
  155.0000    75.4890    38.1340    33.2650    40.4440    24.5730     2.2820   -15.6820 
  155.1250    81.0560    39.3700    34.4270    41.6720    24.6870     2.3010   -15.7650 
  155.2500    82.9460    39.8060    34.7840    39.5750    24.6990     2.3090   -15.7940 
  155.3750    78.1220    39.9210    34.7950    37.2830    24.7180     2.3040   -15.8420 
  155.5000    68.4490    40.1320    34.8160    34.0550    24.7790     2.2910   -15.9380 
  155.6250    60.6150    40.8430    35.2170    37.2000    24.8230     2.2750   -16.0020 
  155.7500    58.5810    42.1410    36.1460    42.0390    24.8140     2.2600   -16.0370 
  155.8750    60.6260    43.9940    37.6170    45.2740    24.7930     2.2480   -16.0820 
  156.0000    60.6530    46.2180    39.5010    44.2470    24.7940     2.2380   -16.1110 
  156.1250    57.4590    48.4900    41.5560    51.2510    24.8130     2.2320   -16.1140 
  156.2500    55.8180    50.4660    43.4620    53.4960    24.8150     2.2300   -16.1370 
  156.3750    57.1520    51.9800    45.0720    49.4440    24.7750     2.2310   -16.1590 
  156.5000    57.8940    53.0800    46.4390    43.2810    24.7160     2.2320   -16.1490 
  156.6250    55.4650    54.0840    47.8700    40.8430    24.7350     2.2350   -16.1480 
  156.7500    52.5060    55.4930    49.7890    44.4460    24.8000     2.2370   -16.1080 
  156.8750    52.8440    57.6380    52.5480    50.7910    24.8480     2.2400   -15.9960 
  157.0000    56.9950    60.5190    56.2260    55.7500    24.8550     2.2450   -15.8930 
  157.1250    61.5320    63.5000    60.2970    63.7470    24.7910     2.2520   -15.8320 
  157.2500    64.0700    65.2660    63.4330    65.6960    24.6380     2.2590   -15.7420 
  157.3750    62.9290    64.3830    64.0960    60.0540    24.4540     2.2620   -15.6580 
  157.5000    60.1270    59.7410    60.6700    49.0990    24.3750     2.2590   -15.6300 
  157.6250    60.6480    50.8460    51.8120    41.5870    24.3780     2.2520   -15.6540 
  157.7500    64.8260    40.0660    40.3760    34.9940    24.3570     2.2500   -15.7330 
  157.8750    71.0600    29.5940    29.4530    29.1250    24.2750     2.2610   -15.8400 
  158.0000    77.0010    21.1290    21.0860    19.8090    24.2310     2.2900   -15.8870 
  158.1250    83.8080    15.8060    16.1140    12.4060    24.3000     2.3320   -15.8820 
  158.2500    89.3630    12.9160    13.4480     8.7370    24.4150     2.3720   -15.9470 
  158.3750    92.1280    11.9350    12.5060     8.6590    24.4810     2.3970   -16.0370 
  158.5000    94.0570    12.3640    12.9100    10.3880    24.5300     2.4030   -16.0600 
  158.6250    94.8300    13.8310    14.5500    12.7120    24.5630     2.3910   -16.0480 
  158.7500    93.2800    15.6440    16.8400    15.1610    24.5810     2.3730   -16.0630 
  158.8750    89.2060    17.3210    19.1780    17.1250    24.6070     2.3570   -16.0920 
  159.0000    85.1820    18.4980    20.9270    18.5770    24.6310     2.3460   -16.1430 
  159.1250    83.8720    18.9560    21.6110    19.0990    24.6260     2.3450   -16.2490 
  159.2500    83.3600    18.9770    21.5730    17.6680    24.6180     2.3490   -16.3320 
  159.3750    83.2590    18.8230    21.1960    16.1690    24.6010     2.3520   -16.3190 
  159.5000    83.3750    18.6880    20.7760    16.5190    24.5560     2.3500   -16.2450 
  159.6250    84.9640    18.6410    20.3910    18.1580    24.4940     2.3380   -16.1320 
  159.7500    87.7300    18.6610    19.9920    18.9690    24.3800     2.3230   -15.9760 
  159.8750    90.3140    18.8290    19.6580    18.5620    24.2380     2.3140   -15.8500 
  160.0000    90.7060    19.4130    19.6330    22.9130    24.1190     2.3130   -15.7780 
  160.1250    87.0880    21.1670    20.5230    24.2760    24.0530     2.3190   -15.6860 
  160.2500    82.2540    24.7250    22.9290    24.2180    24.0140     2.3230   -15.6170 
  160.3750    77.7450    30.7800    27.6670    30.9330    23.9920     2.3220   -15.6780 
  160.5000    73.7430    39.7000    35.4340    47.5500    23.9880     2.3170   -15.8350 
  160.6250    70.6680    51.3240    46.6770    63.8780    23.9660     2.3100   -15.9860 
  160.7500    69.7970    63.4090    59.2000    68.4740    23.9510     2.3050   -16.1270 
  160.8750    70.6200    73.6310    70.1130    69.6030    23.9570     2.3000   -16.2340 
  161.0000    71.5070    80.1880    76.8390    71.0390    23.9920     2.2920   -16.2710 
  161.1250    73.2310    82.2480    78.4900    66.0110    24.1140     2.2780   -16.2420 
  161.2500    75.3140    81.8240    77.7500    60.1320    24.2820     2.2620   -16.1780 
  161.3750    75.4750    80.3700    76.1690    55.5110    24.3340     2.2470   -16.0900 
  161.5000    73.7020    78.8880    74.5930    60.1480    24.1410     2.2380   -16.0720 
  161.6250    73.0430    78.0320    73.6150    57.3530    23.9270     2.2380   -16.1930 
  161.7500    73.1630    77.8650    73.3250    57.8560    23.9240     2.2430   -16.3320 
  161.8750    71.2540    78.1440    73.5590    63.4780    24.1620     2.2490   -16.4230 
  162.0000    69.1460    78.2700    73.8220    71.3160    24.4980     2.2550   -16.4830 
  162.1250    70.1280    77.1930    73.0700    74.9500    24.6970     2.2590   -16.5260 
  162.2500    72.7360    74.5150    70.7140    73.7230    24.7610     2.2600   -16.4790 
  162.3750    73.2510    70.4020    66.8000    68.2630    24.7600     2.2590   -16.3320 
  162.5000    70.9050    65.6140    62.0640    60.8790    24.6950     2.2570   -16.1170 
  162.6250    68.4180    61.3780    57.7450    49.6000    24.5070     2.2530   -15.8980 
  162.7500    67.4420    58.5010    54.7170    41.2790    24.2540     2.2500   -15.7780 
  162.8750    68.8120    57.2710    53.3120    39.9330    24.0260     2.2500   -15.7920 
  163.0000    71.5940    57.5590    53.4390    42.6400    23.8160     2.2550   -15.9060 
  163.1250    72.0460    59.0550    54.8560    43.4120    23.7010     2.2660   -16.1480 
  163.2500    68.2040    61.0160    56.8180    44.4920    23.5910     2.2760   -16.5210 
  163.3750    64.2340    63.0710    58.8770    46.4660    23.5580     2.2810   -16.9280 
  163.5000    65.2600    65.0860    60.8070    46.8210    23.7000     2.2780   -17.2710 
  163.6250    70.3090    67.1810    62.6990    48.9130    23.9010     2.2670   -17.4310 
  163.7500    73.7870    69.5160    64.7570    53.4370    24.0680     2.2540   -17.4050 
  163.8750    73.8050    72.1240    67.0210    59.5020    24.2400     2.2420   -17.2360 
  164.0000    71.2560    74.8250    69.3840    69.1180    24.4360     2.2310   -16.9830 
  164.1250    67.4060    77.0200    71.3860    78.6480    24.5970     2.2230   -16.6410 
  164.2500    63.6080    78.1100    72.3530    79.5450    24.6780     2.2180   -16.2520 
  164.3750    62.2910    77.7720    71.8190    74.6240    24.7090     2.2190   -15.9060 
  164.5000    65.2660    76.2670    69.9850    75.1900    24.7510     2.2260   -15.6110 
  164.6250    70.9040    74.5850    67.8040    77.4550    24.7630     2.2390   -15.3610 
  164.7500    73.8350    74.0450    66.5640    69.1170    24.7140     2.2530   -15.1460 
  164.8750    71.9710    75.4980    67.1440    56.0330    24.5940     2.2630   -14.9560 
  165.0000    67.2650    79.1780    69.8930    60.4840    24.4430     2.2670   -14.7650 
  165.1250    64.4160    84.6050    74.5080    88.2450    24.4010     2.2630   -14.5360 
