~V
VERS. 2.00: Ver 2.00
~W
STRT.M 53.0000:
STOP.M 219.0000:
STEP.M 0.1250:
NULL. -999.2500:
UWI. F10171:
~C
DEPT.M :
SP.MV :
DEN.GM/CC :
GR.API :
RML.OHMM :
RI. :
RXO.OHMM :
CALI.CM :
~A
# ...
   64.2500   -22.3940     2.1020    66.0450     7.4130     8.0030     8.9030    24.8450 
   64.3750   -23.0800     2.0960    69.3240     7.5800     8.0520     8.7570    24.8550 
   64.5000   -23.5870     2.0890    67.2140     7.7160     8.0660     8.6630    24.8310 
   64.6250   -23.9790     2.0870    60.6950     7.8150     8.0500     8.4930    24.7810 
   64.7500   -24.3650     2.0860    56.0550     7.8840     8.0200     8.4390    24.6840 
   64.8750   -24.6900     2.0830    55.9850     7.9510     8.0000     8.3480    24.5030 
   65.0000   -24.9450     2.0810    57.2210     8.0470     8.0100     8.5420    24.3400 
   65.1250   -25.2460     2.0850    58.7680     8.1780     8.0520     8.9420    24.2500 
   65.2500   -25.5680     2.0960    61.1160     8.3330     8.1160     9.2680    24.2330 
   65.3750   -25.8160     2.1050    63.8870     8.4700     8.1720     9.3550    24.2950 
   65.5000   -26.0830     2.1020    64.9180     8.5530     8.1910     9.4450    24.4600 
   65.6250   -26.4190     2.0870    64.9610     8.5710     8.1630     9.5430    24.7170 
   65.7500   -26.7210     2.0630    65.1900     8.5450     8.1000     9.4980    24.9690 
   65.8750   -26.9520     2.0440    66.0100     8.5220     8.0340     9.2450    25.0510 
   66.0000   -27.1940     2.0390    67.1330     8.5360     7.9960     8.8390    24.9340 
   66.1250   -27.4280     2.0540    67.0680     8.5960     7.9940     8.7730    24.7110 
   66.2500   -27.6310     2.0770    66.0540     8.6840     8.0170     9.0880    24.5770 
   66.3750   -27.8260     2.0870    64.5930     8.7630     8.0340     9.3760    24.5820 
   66.5000   -27.9940     2.0750    64.2630     8.8040     8.0190     9.3690    24.6350 
   66.6250   -28.1300     2.0470    64.3520     8.8020     7.9660     9.2100    24.6860 
   66.7500   -28.2900     2.0160    63.8250     8.7660     7.8800     9.0930    24.7080 
   66.8750   -28.4740     1.9900    62.7990     8.7140     7.7750     8.9950    24.7830 
   67.0000   -28.6130     1.9640    62.3940     8.6680     7.6730     9.0430    25.0030 
   67.1250   -28.7060     1.9420    62.3030     8.6330     7.5850     9.1700    25.2260 
   67.2500   -28.7660     1.9370    60.9820     8.6080     7.5150     8.9960    25.2550 
   67.3750   -28.7470     1.9670    59.1540     8.5930     7.4650     8.8190    25.0590 
   67.5000   -28.7200     2.0220    58.3220     8.5900     7.4310     8.7590    24.8510 
   67.6250   -28.6740     2.0790    59.1070     8.6090     7.4150     8.7590    24.8310 
   67.7500   -28.5580     2.1170    61.0610     8.6640     7.4210     8.7570    24.9410 
   67.8750   -28.4420     2.1280    63.1950     8.7740     7.4630     8.7540    25.0660 
   68.0000   -28.4060     2.1300    63.4790     8.9370     7.5430     8.8780    25.2190 
   68.1250   -28.4150     2.1260    62.6080     9.1450     7.6600     8.9870    25.3320 
   68.2500   -28.4360     2.1180    63.8540     9.3740     7.8000     9.1200    25.2930 
   68.3750   -28.5870     2.1110    68.3760     9.5490     7.9120     9.3120    25.1670 
   68.5000   -28.8390     2.1080    71.2660     9.5890     7.9320     9.5340    25.1770 
   68.6250   -29.1370     2.1020    70.9380     9.4510     7.8150     9.6210    25.3750 
   68.7500   -29.5170     2.0840    70.2880     9.1600     7.5690     9.3160    25.6180 
   68.8750   -30.0170     2.0560    70.8960     8.8190     7.2600     8.3610    25.7560 
   69.0000   -30.5820     2.0460    71.5580     8.5720     7.0000     7.3880    25.5890 
   69.1250   -31.1870     2.0690    71.9640     8.4950     6.8540     7.2800    25.2090 
   69.2500   -31.8360     2.1150    71.1570     8.6000     6.8400     7.9120    24.9440 
   69.3750   -32.4860     2.1350    67.8950     8.8410     6.9380     8.5600    25.1560 
   69.5000   -33.0900     2.1070    63.7630     9.0910     7.0620     9.2900    25.6720 
   69.6250   -33.6120     2.0440    61.1470     9.2690     7.1550     9.7000    26.3930 
   69.7500   -34.0150     1.9680    58.6250     9.3360     7.1840     9.6750    27.1930 
   69.8750   -34.2570     1.9010    55.9240     9.3050     7.1480     9.2740    27.5650 
   70.0000   -34.3540     1.8710    55.5970     9.2550     7.0940     9.0680    27.2110 
   70.1250   -34.3120     1.8910    57.1110     9.2300     7.0500     9.3120    26.4130 
   70.2500   -34.1310     1.9500    56.9450     9.2470     7.0310     9.4150    25.7090 
   70.3750   -33.7550     2.0080    53.2020     9.3110     7.0430     9.7080    25.4190 
   70.5000   -33.2580     2.0340    50.7460     9.4000     7.0750     9.8310    25.4260 
   70.6250   -32.7010     2.0340    52.8730     9.4950     7.1190     9.8760    25.4370 
   70.7500   -32.0860     2.0300    57.7580     9.5800     7.1660     9.8700    25.2960 
   70.8750   -31.4060     2.0380    62.2570     9.6310     7.2040    10.1440    24.9760 
   71.0000   -30.6490     2.0530    64.0400     9.6500     7.2290    10.6050    24.5720 
   71.1250   -29.7820     2.0690    62.4540     9.6460     7.2440    10.6540    24.2260 
   71.2500   -28.8940     2.0820    59.7830     9.6320     7.2540    10.4810    24.0520 
   71.3750   -28.0060     2.0890    59.9280     9.6230     7.2600    10.4830    24.1000 
   71.5000   -27.0020     2.0960    62.2230     9.6240     7.2690    10.6010    24.2510 
   71.6250   -25.9250     2.1090    64.8380     9.6240     7.2760    10.5430    24.4770 
   71.7500   -24.8290     2.1280    68.1430     9.5850     7.2600     9.9290    24.8120 
   71.8750   -23.6850     2.1540    71.9730     9.4570     7.1840     8.9810    24.9390 
   72.0000   -22.6410     2.1940    74.9740     9.2550     7.0480     8.4850    24.8340 
   72.1250   -21.8120     2.2410    77.5230     9.0250     6.8740     8.3300    24.6360 
   72.2500   -21.1430     2.2660    80.8070     8.8370     6.7020     7.1590    24.4700 
   72.3750   -20.6300     2.2490    85.7940     8.7720     6.5810     6.4480    24.3680 
   72.5000   -20.3520     2.2310    90.7170     8.7890     6.5060     6.3560    24.3020 
   72.6250   -20.3220     2.2330    93.0570     8.7860     6.4310     6.6130    24.2500 
   72.7500   -20.5140     2.2450    92.0310     8.6310     6.2870     6.7620    24.1970 
   72.8750   -20.9370     2.2500    91.3020     8.2080     6.0040     6.5400    24.1970 
   73.0000   -21.5000     2.2590    92.0800     7.6860     5.6590     6.1050    24.2010 
   73.1250   -22.1590     2.2830    91.0100     7.3480     5.4040     5.6520    24.1020 
   73.2500   -22.8880     2.3200    87.1450     7.4670     5.4040     5.3590    23.9040 
   73.3750   -23.7210     2.3580    83.6860     8.2760     5.8290     5.8070    23.7670 
   73.5000   -24.6550     2.3880    81.2180     9.5760     6.6030     8.2520    23.7240 
   73.6250   -25.6850     2.4110    76.2000    11.0240     7.5650    13.4890    23.7320 
   73.7500   -26.7820     2.4140    67.0410    12.0720     8.3920    17.5770    23.7720 
   73.8750   -27.9300     2.3640    58.5410    12.0730     8.6360    12.2320    23.8920 
   74.0000   -29.0740     2.2730    55.5540    11.2930     8.3400     9.7290    24.1640 
   74.1250   -30.1450     2.1860    57.1170    10.2640     7.7730     9.3050    24.5310 
   74.2500   -31.1100     2.1340    59.3190     9.4600     7.2280     9.8870    24.8640 
   74.3750   -31.9590     2.1180    60.3980     9.1430     6.9210    10.1060    25.0650 
   74.5000   -32.7150     2.1120    60.6490     9.1470     6.8290    10.0510    25.2460 
   74.6250   -33.3010     2.1000    60.2600     9.2950     6.8720    10.0260    25.4270 
   74.7500   -33.7580     2.0790    59.5900     9.4580     6.9610    10.2700    25.5880 
   74.8750   -34.1800     2.0620    59.0990     9.5810     7.0420    10.5670    25.6760 
   75.0000   -34.5090     2.0620    59.2420     9.6560     7.0920    10.5920    25.6720 
   75.1250   -34.7700     2.0760    59.0160     9.6600     7.0960    10.3050    25.6120 
   75.2500   -35.0590     2.0850    58.3910     9.5780     7.0460    10.0670    25.5660 
   75.3750   -35.3820     2.0710    58.2190     9.4090     6.9340    10.0020    25.6020 
