~V
VERS. 2.00: Ver 2.00
~W
STRT.M 60.0000:
STOP.M 245.0000:
STEP.M 0.1250:
NULL. -999.2500:
UWI. F10162:
~C
DEPT.M :
SP.MV :
DEN.GM/CC :
GR.API :
RML.OHMM :
RI. :
RXO.OHMM :
CALI.CM :
~A
# ...
  217.5000    -4.1040     2.4620    98.9590     8.9640     8.0860     8.7900    25.0420 
  217.6250    -4.2000     2.4710    96.6910     9.0430     8.2390     9.3730    25.0620 
  217.7500    -4.2860     2.4790    97.5680     9.0810     8.3380     9.8020    25.0710 
  217.8750    -4.3410     2.4820   102.3350     9.0930     8.3870     9.9380    25.0720 
  218.0000    -4.3760     2.4780   106.4620     9.0900     8.3880     9.8700    25.0730 
  218.1250    -4.3560     2.4670   104.4610     9.0770     8.3300     9.9400    25.1030 
  218.2500    -4.2470     2.4530   100.2640     9.0540     8.2300    10.0110    25.1300 
  218.3750    -4.2480     2.4400    99.5260     9.0200     8.1080    10.0730    25.1610 
  218.5000    -4.4690     2.4300   104.1440     8.9800     7.9830     9.9580    25.2230 
  218.6250    -4.7800     2.4240   109.6030     8.9440     7.8710     9.4890    25.3140 
  218.7500    -5.1510     2.4190   112.9920     8.9190     7.7710     9.0620    25.3820 
  218.8750    -5.5900     2.4140   114.8740     8.9050     7.6770     8.9150    25.3650 
  219.0000    -5.9630     2.4080   116.7560     8.8930     7.5840     9.0090    25.2890 
  219.1250    -6.3160     2.4020   118.0050     8.8710     7.4810     8.9790    25.2450 
  219.2500    -6.6810     2.4010   117.0370     8.8370     7.3540     8.9180    25.2450 
  219.3750    -6.8660     2.4040   116.0140     8.8130     7.2000     8.7690    25.2350 
  219.5000    -6.9040     2.4110   117.0420     8.8700     7.0560     8.7550    25.1950 
  219.6250    -6.8530     2.4180   120.0430     9.2120     7.0660     8.6120    25.1410 
  219.7500    -6.6420     2.4210   123.1690    10.0280     7.3880     8.6870    25.1040 
  219.8750    -6.3120     2.4240   123.8430    10.4740     7.5980     8.7710    25.0920 
  220.0000    -6.0860     2.4320   118.5160    13.7750     9.6400    11.5080    25.0670 
  220.1250    -6.0200     2.4450   112.0950    16.7000    11.8940    18.9910    24.9930 
  220.2500    -6.0230     2.4640   101.8050    19.5890    14.5210    27.9060    24.8100 
  220.3750    -6.0080     2.4720    87.2150    21.7150    16.8030    29.4580    24.5700 
  220.5000    -6.0000     2.4630    73.1020    22.5750    17.9920    25.8030    24.4290 
  220.6250    -5.9760     2.4380    70.9380    22.0810    17.7930    22.8950    24.5030 
  220.7500    -5.9230     2.4110    78.5290    21.0690    17.0300    20.1850    24.7020 
  220.8750    -5.8650     2.3940    86.5040    20.0990    16.2710    17.9230    24.8420 
  221.0000    -5.7800     2.3870    88.0590    19.3970    15.7410    17.9620    24.8520 
  221.1250    -5.5700     2.3840    83.6070    18.8570    15.3270    20.7570    24.8110 
  221.2500    -5.2380     2.3770    78.8720    18.2220    14.8030    20.3490    24.8140 
  221.3750    -4.8400     2.3660    74.6440    17.3880    14.1200    17.6640    24.8610 
  221.5000    -4.4160     2.3550    70.2380    16.3580    13.3090    15.2110    24.9140 
  221.6250    -4.0070     2.3490    66.4900    15.1450    12.3530    13.5780    24.9370 
  221.7500    -3.5950     2.3430    64.2780    13.7990    11.2430    13.3250    24.9400 
  221.8750    -3.1020     2.3310    63.6950    12.3350     9.9720    14.5880    24.9440 
  222.0000    -2.4840     2.3140    67.5860    10.6810     8.6010    14.5750    24.9530 
  222.1250    -1.7400     2.3000    81.7950     8.8850     7.3130    11.0110    24.8810 
  222.2500    -0.9600     2.3050    92.1970     7.3350     6.2790     7.7890    24.6270 
  222.3750    -0.2860     2.3290    87.5960     6.3390     5.5740     6.0910    24.2310 
  222.5000     0.3270     2.3650    72.5430     5.8930     5.1900     5.4040    23.9040 
  222.6250     0.9310     2.3970    62.7550     5.7750     5.0930     5.2640    23.7660 
  222.7500     1.4820     2.4060    60.8580     5.7730     5.1260     5.2990    23.8570 
  222.8750     1.9800     2.3940    60.3580     5.8170     5.1870     5.2960    24.2300 
  223.0000     2.3660     2.3690    60.7580     5.8420     5.2120     5.1310    24.5700 
  223.1250     2.6220     2.3430    60.9530     5.8210     5.1840     5.0110    24.7280 
  223.2500     2.7590     2.3280    60.1450     5.7770     5.1340     5.1040    24.7740 
  223.3750     2.8690     2.3250    57.5860     5.7330     5.0880     5.2710    24.7530 
  223.5000     2.9550     2.3330    54.9940     5.7040     5.0600     5.3110    24.6920 
  223.6250     2.9520     2.3460    55.5270     5.6920     5.0530     5.5190    24.6250 
  223.7500     2.8850     2.3580    58.1380     5.6810     5.0490     5.6850    24.5690 
  223.8750     2.7360     2.3660    59.2530     5.6590     5.0310     5.5070    24.5620 
  224.0000     2.5890     2.3700    57.0250     5.6140     4.9880     5.1130    24.5770 
  224.1250     2.4230     2.3710    55.5170     5.5460     4.9180     4.8420    24.6050 
  224.2500     2.3060     2.3740    58.4140     5.4700     4.8410     4.6380    24.6190 
  224.3750     2.3350     2.3760    61.3560     5.4010     4.7720     4.5380    24.6370 
  224.5000     2.3330     2.3750    60.2770     5.3550     4.7250     4.4930    24.6330 
  224.6250     2.3410     2.3680    57.5130     5.3480     4.7170     4.4760    24.6650 
  224.7500     2.3260     2.3580    57.8360     5.3800     4.7480     4.5230    24.6720 
  224.8750     2.2550     2.3550    59.2880     5.4490     4.8160     4.5860    24.6170 
  225.0000     2.1400     2.3620    57.2190     5.5420     4.9110     4.7460    24.4570 
  225.1250     2.1150     2.3780    55.3650     5.6400     5.0110     5.0790    24.3280 
  225.2500     2.1800     2.3950    56.0220     5.7200     5.0910     5.3210    24.3190 
  225.3750     2.2050     2.4030    55.4890     5.7690     5.1370     5.3680    24.4010 
  225.5000     2.3330     2.4020    53.1890     5.7880     5.1510     5.4230    24.5740 
  225.6250     2.4860     2.3950    53.8650     5.7900     5.1470     5.5440    24.6610 
  225.7500     2.6060     2.3890    57.7550     5.7940     5.1470     5.6370    24.7010 
  225.8750     2.7270     2.3870    59.9470     5.8080     5.1610     5.6960    24.7020 
  226.0000     2.8790     2.3900    59.4150     5.8340     5.1890     5.8110    24.6930 
  226.1250     2.9250     2.3960    58.7730     5.8670     5.2220     6.0060    24.6760 
  226.2500     2.8520     2.4040    58.9480     5.8980     5.2510     6.1790    24.7030 
  226.3750     2.6520     2.4120    58.9180     5.9290     5.2790     6.5490    24.7200 
  226.5000     2.4200     2.4210    59.4740     5.9630     5.3090     7.0790    24.6890 
  226.6250     2.1970     2.4310    60.2250     6.0050     5.3490     7.5200    24.6480 
  226.7500     2.1000     2.4430    59.6550     6.0500     5.3960     7.7770    24.6580 
  226.8750     2.1650     2.4580    57.9460     6.0890     5.4370     7.4010    24.7020 
  227.0000     2.1870     2.4720    57.1130     6.1100     5.4600     6.9340    24.7240 
  227.1250     2.2230     2.4830    59.7400     6.1020     5.4500     7.2420    24.7080 
  227.2500     2.3000     2.4860    62.3910     6.0750     5.4190     6.9060    24.7010 
  227.3750     2.4790     2.4810    61.2810     6.0410     5.3850     6.3600    24.7150 
  227.5000     2.7090     2.4710    59.0420     6.0220     5.3670     6.0920    24.7220 
  227.6250     2.9190     2.4580    60.3140     6.1540     5.4130     6.0800    24.6540 
  227.7500     3.0250     2.4460    62.0930     6.6400     5.7740     6.1370    24.6160 
  227.8750     2.9600     2.4350    60.3770     7.6190     6.7340     6.1840    24.6820 
  228.0000     2.8590     2.4240    57.0460     8.9300     8.1850     6.1490    24.7280 
  228.1250     2.7470     2.4130    55.3210     9.9150     9.3770     6.1030    24.7090 
  228.2500     2.6920     2.4020    55.9260    10.0220     9.5050     6.2770    24.7020 
  228.3750     2.6940     2.3920    57.8960     9.2160     8.5120     6.5350    24.7200 
  228.5000     2.6090     2.3870    61.2440     7.9600     7.0730     6.8260    24.7570 
  228.6250     2.5290     2.3890    73.7710     6.9490     6.0570     7.0370    24.7260 
