~V
VERS. 2.00: Ver 2.00
~W
STRT.M 52.0000:
STOP.M 233.0000:
STEP.M 0.1250:
NULL. -999.2500:
UWI. F10175:
~C
DEPT.M :
GR.API :
RML.OHMM :
RI. :
RXO.OHMM :
CALI.CM :
DEN.GM/CC :
SP.MV :
~A
# ...
  130.7500    79.2130     4.3400     3.2530     7.6210    24.3120     2.4240    -6.8480 
  130.8750    78.4060     4.3680     3.3220     6.2640    24.2740     2.4630    -6.9260 
  131.0000    77.0260     4.3900     3.3560     5.2680    24.1580     2.4920    -7.1330 
  131.1250    76.1340     4.5370     3.4600     6.5510    24.2730     2.5090    -7.4060 
  131.2500    74.1440     4.8370     3.6790     7.7870    24.4830     2.5140    -7.7380 
  131.3750    69.6400     5.2560     4.0130     8.1380    24.6770     2.5110    -8.0590 
  131.5000    64.6630     5.7110     4.4140     7.6000    24.8300     2.5080    -8.3680 
  131.6250    62.0890     6.0710     4.7800     7.8640    24.8930     2.5140    -8.6010 
  131.7500    62.2180     6.2650     5.0200     8.6640    24.9220     2.5290    -8.7470 
  131.8750    61.8420     6.2670     5.0970     9.2050    24.9410     2.5470    -8.8240 
  132.0000    59.8410     6.1120     5.0230     8.9810    24.9490     2.5550    -8.8340 
  132.1250    59.5020     5.8740     4.8440     7.9450    24.9680     2.5450    -8.8540 
  132.2500    62.5140     5.6640     4.6610     7.2090    25.0150     2.5220    -8.9150 
  132.3750    67.0940     5.5370     4.5340     6.7000    25.0770     2.5010    -9.0440 
  132.5000    67.3440     5.4980     4.4840     6.6680    25.0820     2.4930    -9.2350 
  132.6250    60.4030     5.5030     4.4880     7.3930    25.0310     2.5040    -9.4540 
  132.7500    53.5660     5.4780     4.4790     8.0440    24.9620     2.5210    -9.6490 
  132.8750    50.3750     5.3930     4.4230     7.7190    24.9260     2.5360    -9.7530 
  133.0000    50.3040     5.2610     4.3220     6.9050    24.9610     2.5450    -9.7920 
  133.1250    51.7460     5.1460     4.2190     5.9020    24.9580     2.5490    -9.7140 
  133.2500    54.5400     5.1060     4.1710     6.0250    24.9260     2.5520    -9.5750 
  133.3750    56.5320     5.1610     4.2040     6.6570    24.9420     2.5520    -9.3920 
  133.5000    56.6500     5.2950     4.3180     7.2280    25.0040     2.5460    -9.1580 
  133.6250    58.2810     5.4580     4.4860     7.4010    25.0390     2.5310    -8.9360 
  133.7500    61.5350     5.5910     4.6480     7.6190    25.0740     2.5130    -8.7760 
  133.8750    62.9790     5.6690     4.7700     7.5990    25.1260     2.4980    -8.7420 
  134.0000    60.9700     5.6930     4.8440     7.4720    25.1730     2.4900    -8.7690 
  134.1250    59.7580     5.6860     4.8830     7.3860    25.1680     2.4910    -8.8970 
  134.2500    62.3140     5.6790     4.9150     7.4940    25.1190     2.4950    -9.0380 
  134.3750    66.0920     5.6780     4.9460     7.7350    25.0740     2.4980    -9.1500 
  134.5000    68.0950     5.6700     4.9700     8.2200    25.1140     2.4980    -9.2420 
  134.6250    67.8260     5.6070     4.9500     7.9850    25.1560     2.4970    -9.2790 
  134.7500    67.9050     5.4620     4.8570     7.4690    25.1590     2.4970    -9.2810 
  134.8750    69.8700     5.2480     4.6790     6.9890    25.1150     2.4980    -9.2240 
  135.0000    71.7840     5.0220     4.4340     6.5430    25.0870     2.5000    -9.1640 
  135.1250    70.8730     4.8550     4.1610     6.0120    25.0660     2.5000    -9.0770 
  135.2500    69.0810     4.7460     3.9190     5.6240    25.0300     2.4990    -9.0510 
  135.3750    68.2150     4.6700     3.7450     5.5680    25.0390     2.4980    -9.0930 
  135.5000    67.9240     4.6270     3.6590     5.7100    25.0660     2.4980    -9.1710 
  135.6250    67.4100     4.6470     3.6700     5.7020    25.0150     2.5010    -9.2510 
  135.7500    67.1330     4.7210     3.7430     5.6990    24.9180     2.5050    -9.3060 
  135.8750    66.7560     4.8220     3.8480     5.9060    24.8240     2.5100    -9.3030 
  136.0000    64.0690     4.9220     3.9560     6.1430    24.8020     2.5140    -9.2290 
  136.1250    59.1280     5.0130     4.0470     6.2640    24.8160     2.5130    -9.0960 
  136.2500    56.4610     5.1040     4.1310     6.2390    24.8830     2.5020    -8.9470 
  136.3750    57.5650     5.2020     4.2200     6.1680    24.8780     2.4840    -8.8180 
  136.5000    61.2740     5.3020     4.3160     6.1200    24.8260     2.4630    -8.7760 
  136.6250    65.0350     5.3740     4.4010     6.3370    24.8560     2.4460    -8.8370 
  136.7500    66.6600     5.3940     4.4490     6.8330    24.8750     2.4360    -8.9930 
  136.8750    66.0670     5.3520     4.4450     6.9940    24.8760     2.4350    -9.2300 
  137.0000    64.8810     5.2640     4.3920     6.6120    24.8510     2.4390    -9.5260 
  137.1250    66.1550     5.1690     4.3160     5.9440    24.8410     2.4460    -9.8500 
  137.2500    68.5780     5.1100     4.2630     5.7860    24.8850     2.4540   -10.1280 
  137.3750    68.1530     5.1120     4.2580     6.1750    24.9840     2.4640   -10.3580 
  137.5000    64.5280     5.1770     4.3160     6.4650    25.0480     2.4770   -10.5230 
  137.6250    61.2480     5.2920     4.4330     6.4990    25.0230     2.4920   -10.6310 
  137.7500    60.7080     5.4220     4.5740     6.8570    25.0490     2.5050   -10.7010 
  137.8750    62.1050     5.5480     4.7140     7.3250    25.1190     2.5120   -10.7560 
  138.0000    63.9780     5.6620     4.8390     7.4830    25.1600     2.5080   -10.8400 
  138.1250    66.3110     5.7670     4.9510     7.3350    25.1510     2.4930   -10.9820 
  138.2500    67.3010     5.8740     5.0600     7.1830    25.1370     2.4760   -11.1500 
  138.3750    65.7450     5.9840     5.1750     7.3960    25.1550     2.4620   -11.3280 
  138.5000    63.3580     6.0950     5.2970     7.9100    25.1560     2.4570   -11.4610 
  138.6250    63.5020     6.1970     5.4230     8.3740    25.0890     2.4600   -11.5370 
  138.7500    64.7130     6.2830     5.5390     8.3360    25.0130     2.4650   -11.5030 
  138.8750    64.6020     6.3460     5.6310     8.2220    24.9410     2.4690   -11.4110 
  139.0000    62.0970     6.3780     5.6910     8.3270    24.9330     2.4730   -11.2730 
  139.1250    61.6640     6.3630     5.7050     8.5160    24.9960     2.4810   -11.1200 
  139.2500    63.6970     6.3050     5.6800     8.8940    25.0300     2.4920   -10.9500 
  139.3750    63.3930     6.2200     5.6240     8.8890    25.0310     2.5040   -10.7750 
  139.5000    57.8990     6.1350     5.5610     7.9890    25.0240     2.5120   -10.6720 
  139.6250    52.1940     6.0990     5.5320     7.3690    25.0290     2.5130   -10.6590 
  139.7500    52.1540     6.1320     5.5630     7.4880    25.0330     2.5110   -10.7850 
  139.8750    54.7290     6.2320     5.6610     8.0430    25.0290     2.5090   -10.9690 
  140.0000    54.4380     6.3630     5.8030     8.6870    25.0010     2.5080   -11.1760 
  140.1250    52.6950     6.4590     5.9320     9.1330    24.9320     2.5110   -11.3640 
  140.2500    53.6120     6.4680     5.9880     9.1360    24.8560     2.5160   -11.5190 
  140.3750    55.1430     6.3730     5.9420     8.5050    24.8000     2.5220   -11.6260 
  140.5000    52.9340     6.1950     5.8070     8.1130    24.7790     2.5280   -11.6550 
  140.6250    48.8380     5.9950     5.6360     7.8490    24.8200     2.5290   -11.6520 
  140.7500    48.8070     5.8470     5.5060     7.5750    24.8630     2.5270   -11.6100 
  140.8750    51.9570     5.7970     5.4640     7.1550    24.8160     2.5230   -11.5680 
  141.0000    53.8030     5.8620     5.5370     6.9330    24.6850     2.5190   -11.5260 
  141.1250    52.2890     6.0410     5.7430     7.4430    24.5800     2.5180   -11.5050 
  141.2500    52.0790     6.2670     6.0220     8.0590    24.5370     2.5180   -11.5060 
  141.3750    54.3260     6.4840     6.3160     8.4490    24.5570     2.5200   -11.5130 
  141.5000    56.7500     6.6360     6.5530     8.8630    24.6270     2.5240   -11.5390 
  141.6250    57.1420     6.6700     6.6480     9.2120    24.6540     2.5310   -11.5130 
  141.7500    56.7900     6.6090     6.6100     8.9910    24.6270     2.5380   -11.4410 
  141.8750    56.8740     6.4930     6.4830     8.3820    24.5810     2.5420   -11.3510 
