~V
VERS. 2.00: Ver 2.00
~W
STRT.M 49.0000:
STOP.M 290.0000:
STEP.M 0.1250:
NULL. -999.2500:
UWI. F10103:
~C
DEPT.M :
DEN.GM/CC :
SP.MV :
GR.API :
RML.OHMM :
RI. :
RXO.OHMM :
CALI.CM :
~A
# ...
  262.7500     2.4270    -7.4250    43.2370     8.6890     7.5640     8.6990    23.3370 
  262.8750     2.4230    -7.5530    40.8570     8.9360     7.6870     8.9020    23.2970 
  263.0000     2.4190    -7.6450    39.2510     9.3000     7.9110     8.9970    23.2780 
  263.1250     2.4190    -7.7380    40.2960     9.7640     8.2340     8.9070    23.2730 
  263.2500     2.4240    -7.7920    41.7630    10.2320     8.5900     8.6080    23.2790 
  263.3750     2.4330    -7.8620    41.0710    10.5590     8.8550     8.3970    23.2940 
  263.5000     2.4450    -7.9680    38.7220    10.6290     8.9220     8.3650    23.3180 
  263.6250     2.4550    -8.0900    36.5210    10.3960     8.7360     8.3290    23.3510 
  263.7500     2.4560    -8.1900    37.6260     9.8960     8.3100     8.2860    23.3620 
  263.8750     2.4450    -8.2960    40.5270     9.3320     7.8090     8.1790    23.3420 
  264.0000     2.4290    -8.4000    41.8350     8.7930     7.3560     8.1130    23.3180 
  264.1250     2.4170    -8.4740    40.9660     8.3860     7.0260     8.0670    23.3350 
  264.2500     2.4170    -8.5000    41.5820     8.0730     6.8530     8.0750    23.4130 
  264.3750     2.4290    -8.4440    44.2110     7.7710     6.7690     8.2700    23.5140 
  264.5000     2.4450    -8.3190    45.0890     7.6090     6.7190     8.5180    23.5870 
  264.6250     2.4560    -8.1270    42.3060     7.5670     6.6560     8.6130    23.6000 
  264.7500     2.4540    -7.9080    39.7670     7.4440     6.5500     8.5360    23.5320 
  264.8750     2.4400    -7.6690    40.1850     7.2650     6.4140     7.9680    23.4180 
  265.0000     2.4200    -7.4260    41.4960     7.0630     6.2650     7.2490    23.2840 
  265.1250     2.4000    -7.1900    42.0400     6.8730     6.1170     6.7620    23.0840 
  265.2500     2.3860    -6.9640    41.6540     6.7210     5.9730     6.4610    22.8120 
  265.3750     2.3770    -6.7640    42.1420     6.5900     5.8270     6.2490    22.4970 
  265.5000     2.3710    -6.5660    43.6430     6.4570     5.6740     6.1590    22.1790 
  265.6250     2.3680    -6.4060    45.4110     6.2980     5.5120     5.9790    21.9320 
  265.7500     2.3670    -6.2420    45.3740     6.1210     5.3520     5.7820    21.8190 
  265.8750     2.3650    -6.0650    44.0720     5.9690     5.2080     5.4360    21.9030 
  266.0000     2.3610    -5.9120    43.2050     5.8750     5.0930     5.0870    22.1850 
  266.1250     2.3550    -5.7550    43.1130     5.8500     5.0150     4.8990    22.6100 
  266.2500     2.3470    -5.6220    43.3960     5.8800     4.9840     4.8740    22.9080 
  266.3750     2.3400    -5.4980    42.8180     5.9190     4.9850     4.9680    22.9920 
  266.5000     2.3360    -5.3870    41.1330     5.9450     5.0040     5.1130    22.9450 
  266.6250     2.3360    -5.2830    38.6530     5.9540     5.0290     5.1850    22.8530 
  266.7500     2.3390    -5.1820    37.8180     5.9550     5.0460     5.1300    22.7520 
  266.8750     2.3430    -5.1160    38.6840     5.9590     5.0510     5.0670    22.6240 
  267.0000     2.3460    -5.0360    39.5090     5.9670     5.0460     5.0130    22.5110 
  267.1250     2.3490    -4.9530    40.2700     5.9800     5.0340     5.0130    22.5090 
  267.2500     2.3500    -4.8910    41.8280     5.9950     5.0230     5.1090    22.6060 
  267.3750     2.3490    -4.8360    44.1180     6.0120     5.0170     5.2570    22.7260 
  267.5000     2.3470    -4.7990    45.4880     6.0300     5.0170     5.3820    22.8450 
  267.6250     2.3440    -4.7680    44.8450     6.0500     5.0210     5.4220    22.9890 
  267.7500     2.3430    -4.7760    43.3940     6.0700     5.0270     5.5010    23.2050 
  267.8750     2.3440    -4.7950    42.0730     6.0900     5.0330     5.5120    23.4480 
  268.0000     2.3480    -4.8130    40.9410     6.1100     5.0410     5.4710    23.6110 
  268.1250     2.3550    -4.8320    39.9870     6.1340     5.0530     5.4470    23.6740 
  268.2500     2.3620    -4.8330    40.0140     6.1610     5.0680     5.4350    23.6880 
  268.3750     2.3670    -4.8290    40.6720     6.1860     5.0820     5.4400    23.6970 
  268.5000     2.3690    -4.8320    41.4440     6.2040     5.0910     5.4800    23.7140 
  268.6250     2.3660    -4.8250    43.0400     6.2110     5.0910     5.5020    23.7380 
  268.7500     2.3610    -4.7790    46.9970     6.2000     5.0820     5.4620    23.7570 
  268.8750     2.3540    -4.6990    51.2300     6.1780     5.0710     5.3770    23.7290 
  269.0000     2.3470    -4.6090    52.8810     6.1510     5.0610     5.2650    23.6730 
  269.1250     2.3410    -4.5170    50.9860     6.1240     5.0560     5.2250    23.6180 
  269.2500     2.3360    -4.4180    48.0550     6.0990     5.0580     5.2260    23.5800 
  269.3750     2.3350    -4.3260    48.1120     6.0770     5.0650     5.2440    23.5480 
  269.5000     2.3370    -4.2520    48.7040     6.0590     5.0760     5.2130    23.5350 
  269.6250     2.3420    -4.2080    47.6580     6.0480     5.0880     5.2330    23.5540 
  269.7500     2.3480    -4.1890    45.9310     6.0470     5.1020     5.2360    23.5810 
  269.8750     2.3520    -4.2020    46.2240     6.0540     5.1180     5.1890    23.5820 
  270.0000     2.3540    -4.2490    47.3430     6.0650     5.1380     5.1320    23.5430 
  270.1250     2.3540    -4.3350    46.4290     6.0780     5.1600     5.1060    23.5000 
  270.2500     2.3550    -4.4540    44.3640     6.0860     5.1840     5.0900    23.5150 
  270.3750     2.3580    -4.5830    43.4300     6.0930     5.2100     5.0660    23.5780 
  270.5000     2.3620    -4.7040    43.6210     6.1040     5.2410     5.0250    23.6300 
  270.6250     2.3660    -4.8000    45.6000     6.1350     5.2870     5.0130    23.6620 
  270.7500     2.3680    -4.8710    48.6100     6.2060     5.3580     5.0960    23.6430 
  270.8750     2.3690    -4.9110    48.8300     6.3130     5.4520     5.3590    23.5810 
  271.0000     2.3680    -4.9130    45.8140     6.4420     5.5610     5.8350    23.5150 
  271.1250     2.3680    -4.8700    44.4390     6.5720     5.6740     6.3670    23.5130 
  271.2500     2.3700    -4.8020    46.9020     6.6780     5.7760     6.3670    23.5950 
  271.3750     2.3750    -4.7340    48.3870     6.7550     5.8590     6.1770    23.7010 
  271.5000     2.3800    -4.6740    46.3500     6.8010     5.9170     6.0040    23.7790 
  271.6250     2.3860    -4.6380    43.5190     6.8160     5.9520     5.9400    23.8140 
  271.7500     2.3930    -4.6260    43.0240     6.8090     5.9760     5.9270    23.8360 
  271.8750     2.4020    -4.6330    44.1680     6.8270     6.0210     6.0080    23.8660 
  272.0000     2.4130    -4.6650    46.0560     6.9250     6.1230     6.2100    23.9030 
  272.1250     2.4260    -4.7300    48.3980     7.1550     6.3180     6.6660    23.9440 
  272.2500     2.4390    -4.8270    50.1490     7.5650     6.6500     7.3590    23.9890 
  272.3750     2.4510    -4.9360    49.9340     8.1050     7.0990     8.4560    24.0090 
  272.5000     2.4580    -5.0540    47.7710     8.7170     7.6390    10.1070    23.9990 
  272.6250     2.4620    -5.1830    45.3520     9.3270     8.2230    12.0240    23.9550 
  272.7500     2.4600    -5.3240    43.3660     9.8420     8.7780    13.5310    23.8820 
  272.8750     2.4550    -5.4640    42.5290    10.2200     9.2470    16.3300    23.8130 
  273.0000     2.4470    -5.5900    43.2200    10.4520     9.6010    21.7210    23.7500 
  273.1250     2.4400    -5.7190    44.8120    10.5680     9.8400    19.9630    23.6390 
  273.2500     2.4380    -5.8330    45.5870    10.6060     9.9770    13.9610    23.5020 
  273.3750     2.4410    -5.9330    46.2630    10.6180    10.0530    11.2830    23.3950 
  273.5000     2.4480    -6.0220    46.7440    10.6080    10.0810    11.9550    23.3190 
  273.6250     2.4550    -6.0940    46.1200    10.5610    10.0560    13.9360    23.2270 
  273.7500     2.4580    -6.1580    44.1070    10.4390     9.9530    14.8100    23.1640 
  273.8750     2.4570    -6.2430    42.7630    10.2450     9.7800    13.2190    23.2460 
