~V
VERS. 2.00: Ver 2.00
~W
STRT.M 57.0000:
STOP.M 214.0000:
STEP.M 0.1250:
NULL. -999.2500:
UWI. F10147:
~C
DEPT.M :
SP.MV :
GR.API :
RML.OHMM :
RI. :
RXO.OHMM :
CALI.CM :
DEN.GM/CC :
~A
# ...
  192.0000    -8.8240    46.5900     9.1720     8.4490     7.6390    24.7930     2.4910 
  192.1250    -8.7800    48.2250     9.0820     8.3520     7.7830    24.7460     2.4850 
  192.2500    -8.7510    49.1590     9.0940     8.3400     7.9390    24.7180     2.4670 
  192.3750    -8.7280    49.9920     9.2790     8.4650     8.1650    24.7090     2.4480 
  192.5000    -8.7160    51.4130     9.6220     8.7190     8.7880    24.7200     2.4340 
  192.6250    -8.7190    52.8670    10.0310     9.0370     9.8300    24.7490     2.4270 
  192.7500    -8.7190    54.1700    10.3900     9.3470    10.6980    24.7750     2.4210 
  192.8750    -8.7130    56.2200    10.5900     9.5690    10.6690    24.7700     2.4120 
  193.0000    -8.7070    58.8830    10.6400     9.6900     9.9410    24.7330     2.4020 
  193.1250    -8.6900    61.3390    10.6510     9.7670     9.2660    24.7160     2.3960 
  193.2500    -8.6620    63.0220    10.7560     9.8900     9.1650    24.7640     2.3970 
  193.3750    -8.6300    63.7170    11.0690    10.1630     9.8090    24.8260     2.4040 
  193.5000    -8.5850    63.3950    11.5600    10.5900    10.9010    24.8480     2.4100 
  193.6250    -8.5270    62.3340    12.0610    11.0560    11.9940    24.8530     2.4120 
  193.7500    -8.4590    61.4670    12.3470    11.3850    12.7440    24.8520     2.4080 
  193.8750    -8.3740    61.1750    12.1880    11.3670    12.7070    24.8240     2.4000 
  194.0000    -8.2760    60.3350    11.5980    10.9670    11.7120    24.7780     2.3900 
  194.1250    -8.1760    57.9690    10.7930    10.3230    10.1630    24.7470     2.3820 
  194.2500    -8.0900    55.3820    10.0210     9.6310     8.8260    24.7210     2.3780 
  194.3750    -8.0140    54.6470     9.5050     9.0900     8.2860    24.6950     2.3780 
  194.5000    -7.9500    55.0040     9.2950     8.7830     8.3940    24.6840     2.3800 
  194.6250    -7.8980    55.2780     9.3090     8.6800     8.7760    24.6950     2.3820 
  194.7500    -7.8650    55.0410     9.4260     8.7050     9.2260    24.7150     2.3840 
  194.8750    -7.8520    53.4860     9.5320     8.7720     9.4400    24.7440     2.3890 
  195.0000    -7.8500    51.7710     9.5820     8.8330     9.1790    24.7770     2.3970 
  195.1250    -7.8650    52.1850     9.5970     8.8850     8.6280    24.7950     2.4030 
  195.2500    -7.8930    54.5180     9.6090     8.9400     8.3280    24.7920     2.4030 
  195.3750    -7.9120    55.6070     9.6230     8.9930     8.5930    24.7740     2.3960 
  195.5000    -7.9130    54.9850     9.5960     9.0150     9.0230    24.7480     2.3870 
  195.6250    -7.9170    54.7420     9.4830     8.9690     9.2260    24.7200     2.3820 
  195.7500    -7.9260    55.7400     9.2650     8.8350     9.3520    24.7340     2.3830 
  195.8750    -7.9350    56.9470     8.9760     8.6240     9.5410    24.7760     2.3850 
  196.0000    -7.9460    56.8770     8.7030     8.3930     9.4460    24.7880     2.3830 
  196.1250    -7.9530    55.3610     8.5410     8.2250     8.8260    24.7600     2.3740 
  196.2500    -7.9580    53.4890     8.5610     8.1990     8.0970    24.7390     2.3630 
  196.3750    -7.9750    52.7550     8.8200     8.3890     8.0750    24.7790     2.3580 
  196.5000    -8.0010    53.0940     9.2710     8.7720     8.9120    24.8310     2.3650 
  196.6250    -8.0200    53.7720     9.7860     9.2440    10.0290    24.8630     2.3810 
  196.7500    -8.0270    55.1060    10.1920     9.6550    10.7420    24.8640     2.4010 
  196.8750    -8.0260    57.8200    10.2750     9.8020    10.5700    24.8040     2.4180 
  197.0000    -8.0190    60.6790     9.9720     9.6050     9.6210    24.7150     2.4280 
  197.1250    -8.0010    61.2080     9.3880     9.1250     8.3630    24.7080     2.4290 
  197.2500    -7.9620    58.9690     8.6990     8.4910     7.2850    24.8030     2.4200 
  197.3750    -7.9120    56.0290     8.1000     7.8740     6.7680    24.8740     2.3970 
  197.5000    -7.8700    53.9280     7.7070     7.4110     6.7550    24.8580     2.3660 
  197.6250    -7.8380    52.9620     7.5620     7.1860     6.9760    24.8120     2.3350 
  197.7500    -7.8070    53.4080     7.6890     7.2480     7.3660    24.7930     2.3160 
  197.8750    -7.7840    54.2040     8.1230     7.6370     8.1850    24.7860     2.3180 
  198.0000    -7.7710    53.2470     8.8200     8.2990     9.4690    24.7560     2.3390 
  198.1250    -7.7610    50.6780     9.6480     9.1060    10.7920    24.7160     2.3700 
  198.2500    -7.7430    48.7180    10.4090     9.8880    11.6610    24.6820     2.4000 
  198.3750    -7.7110    48.8550    10.8310    10.4020    11.8280    24.6630     2.4210 
  198.5000    -7.6670    50.5520    10.7850    10.5100    11.2830    24.6540     2.4290 
  198.6250    -7.6190    52.8910    10.3430    10.2250    10.0830    24.7150     2.4270 
  198.7500    -7.5670    55.3030     9.6800     9.6620     8.5680    24.7830     2.4210 
  198.8750    -7.5070    57.1560     9.0120     9.0030     7.4270    24.8210     2.4170 
  199.0000    -7.4390    58.0750     8.4920     8.4210     6.9520    24.8310     2.4170 
  199.1250    -7.3800    57.9090     8.1800     8.0200     6.9020    24.8260     2.4170 
  199.2500    -7.3350    57.2980     8.0770     7.8340     7.0250    24.7870     2.4130 
  199.3750    -7.3010    57.4000     8.1500     7.8590     7.2660    24.6820     2.4030 
  199.5000    -7.2700    57.7090     8.3060     8.0110     7.5730    24.5520     2.3870 
  199.6250    -7.2370    56.4010     8.4330     8.1700     7.8120    24.4710     2.3740 
  199.7500    -7.1970    53.4320     8.4470     8.2410     7.8620    24.4850     2.3660 
  199.8750    -7.1620    52.1500     8.2950     8.1590     7.7080    24.5410     2.3650 
  200.0000    -7.1400    54.0260     8.0160     7.9440     7.4670    24.6060     2.3670 
  200.1250    -7.1190    56.4250     7.6880     7.6570     7.2220    24.6810     2.3690 
  200.2500    -7.1040    56.6060     7.3870     7.3630     6.9760    24.7650     2.3700 
  200.3750    -7.0950    55.1430     7.1990     7.1420     6.7670    24.8290     2.3720 
  200.5000    -7.0930    54.8960     7.1850     7.0590     6.7280    24.8520     2.3770 
  200.6250    -7.1140    56.9010     7.3820     7.1660     6.9900    24.8490     2.3810 
  200.7500    -7.1620    60.0060     7.8190     7.5070     7.6100    24.8220     2.3820 
  200.8750    -7.2110    63.3470     8.5090     8.1150     8.6110    24.7900     2.3780 
  201.0000    -7.2440    66.0390     9.3540     8.9120     9.9150    24.7820     2.3700 
  201.1250    -7.2630    66.9960    10.1540     9.7160    11.3560    24.7920     2.3620 
  201.2500    -7.2620    66.0460    10.6780    10.3060    12.6340    24.7920     2.3590 
  201.3750    -7.2440    65.0680    10.6980    10.4490    13.1480    24.7830     2.3640 
  201.5000    -7.2140    66.1840    10.2590    10.1410    12.5550    24.7720     2.3720 
  201.6250    -7.1600    67.8940     9.6300     9.5880    11.0670    24.7610     2.3800 
  201.7500    -7.0840    67.2480     9.1240     9.0670     9.2450    24.7490     2.3810 
  201.8750    -7.0010    64.3420     9.0510     8.8800     7.8980    24.7190     2.3760 
  202.0000    -6.9240    63.1690     9.4870     9.1440     8.0130    24.6800     2.3700 
  202.1250    -6.8570    65.2570    10.2680     9.7700    10.2590    24.6730     2.3730 
  202.2500    -6.7940    67.2990    11.0750    10.5230    13.5260    24.6910     2.3890 
  202.3750    -6.7390    66.3340    11.4610    11.0310    14.6360    24.7170     2.4150 
  202.5000    -6.6900    64.1810    11.2460    11.0630    12.5460    24.7560     2.4370 
  202.6250    -6.6450    63.7930    10.6160    10.6650     9.5640    24.7970     2.4450 
  202.7500    -6.6070    65.0640     9.9220    10.0700     8.2010    24.8200     2.4390 
  202.8750    -6.5880    65.8440     9.5030     9.5780     8.6550    24.8300     2.4240 
  203.0000    -6.5790    65.5960     9.4230     9.3300     9.4700    24.8370     2.4130 
  203.1250    -6.5650    64.6590     9.5300     9.2860     9.7600    24.8380     2.4090 
