~V
VERS. 2.00: Ver 2.00
~W
STRT.M 64.0000:
STOP.M 235.0000:
STEP.M 0.1250:
NULL. -999.2500:
UWI. F10178:
~C
DEPT.M :
GR.API :
RML.OHMM :
RI. :
RXO.OHMM :
CALI.CM :
DEN.GM/CC :
SP.MV :
~A
# ...
   97.7500    72.1100     9.9600     7.9770     7.8510    23.4960     2.1930   -14.9060 
   97.8750    75.1870     9.6690     7.8490     7.7950    23.5120     2.2050   -14.5310 
   98.0000    78.7870     9.1080     7.4640     7.4620    23.5930     2.2240   -14.0730 
   98.1250    84.6520     8.4320     6.9370     6.6350    23.7180     2.2420   -13.5280 
   98.2500    90.4850     7.8270     6.4360     5.9310    23.8430     2.2540   -12.9420 
   98.3750    95.6650     7.3690     6.0340     6.1760    23.9210     2.2610   -12.3270 
   98.5000   102.1530     7.0570     5.7430     6.6340    23.9650     2.2650   -11.6830 
   98.6250   107.3490     6.8540     5.5500     6.3630    24.0660     2.2690   -11.0240 
   98.7500   107.6770     6.6870     5.4050     5.6300    24.2160     2.2770   -10.4170 
   98.8750   104.1730     6.5420     5.2870     5.2620    24.3640     2.2850    -9.8620 
   99.0000   102.3010     6.4300     5.1950     5.2340    24.4360     2.2900    -9.3690 
   99.1250   103.8150     6.3850     5.1520     5.3410    24.4650     2.2910    -8.9720 
   99.2500   105.5430     6.3910     5.1570     5.4130    24.4490     2.2890    -8.5940 
   99.3750   104.4180     6.4080     5.1870     5.4430    24.4110     2.2860    -8.2630 
   99.5000   100.7380     6.3980     5.2060     5.4290    24.3720     2.2850    -8.0300 
   99.6250   101.8780     6.3400     5.1900     5.4370    24.3710     2.2890    -7.9410 
   99.7500   108.7030     6.2720     5.1580     5.3900    24.3720     2.2980    -7.9270 
   99.8750   115.1570     6.2410     5.1410     5.2350    24.3480     2.3070    -7.9900 
  100.0000   113.6620     6.2850     5.1680     5.1810    24.3790     2.3100    -8.1510 
  100.1250   105.9650     6.4240     5.2620     5.5800    24.4050     2.3040    -8.3080 
  100.2500   100.9250     6.6080     5.3950     6.4470    24.4340     2.2920    -8.5070 
  100.3750   100.3080     6.7740     5.5260     7.1320    24.4650     2.2780    -8.7540 
  100.5000   101.7700     6.8650     5.6040     6.4640    24.4390     2.2670    -9.0360 
  100.6250   101.7120     6.8330     5.5840     6.1290    24.3530     2.2630    -9.3580 
  100.7500   100.2150     6.7210     5.4970     6.0570    24.2990     2.2650    -9.6860 
  100.8750    97.8630     6.5950     5.3990     5.8510    24.3080     2.2740   -10.0050 
  101.0000    97.0430     6.5250     5.3500     5.6090    24.3600     2.2870   -10.3110 
  101.1250    98.7110     6.5840     5.4040     5.4190    24.3520     2.2990   -10.6030 
  101.2500    99.7590     6.7640     5.5450     5.6850    24.3080     2.3040   -10.8590 
  101.3750    99.4140     7.0370     5.7510     6.2440    24.2560     2.2980   -11.0670 
  101.5000    98.2050     7.3500     5.9910     6.5900    24.2290     2.2820   -11.2400 
  101.6250    98.2360     7.6280     6.2110     6.5900    24.2160     2.2610   -11.4410 
  101.7500    97.5100     7.8180     6.3640     6.5520    24.1900     2.2420   -11.6920 
  101.8750    96.4250     7.8990     6.4270     7.0660    24.1500     2.2300   -11.9920 
  102.0000    95.1680     7.8780     6.4000     7.8510    24.1170     2.2250   -12.3170 
  102.1250    93.3730     7.7750     6.3000     7.7600    24.1150     2.2230   -12.7940 
  102.2500    92.8160     7.6470     6.1780     6.5480    24.0870     2.2200   -13.4160 
  102.3750    93.8660     7.5260     6.0640     6.1000    23.9730     2.2150   -14.0950 
  102.5000    95.7900     7.4400     5.9770     6.4070    23.8310     2.2090   -14.7650 
  102.6250    95.7390     7.4350     5.9540     6.6140    23.7190     2.2090   -15.3900 
  102.7500    93.3940     7.5350     6.0220     6.5570    23.6710     2.2170   -16.0020 
  102.8750    91.2510     7.7690     6.2040     6.4030    23.6620     2.2320   -16.5660 
  103.0000    90.6290     8.1410     6.4990     6.4110    23.6650     2.2480   -17.1490 
  103.1250    88.9180     8.6140     6.8900     8.0300    23.7000     2.2560   -17.7370 
  103.2500    84.7750     9.0560     7.2850    12.1480    23.7650     2.2520   -18.2610 
  103.3750    80.6290     9.3530     7.5840    14.1600    23.7480     2.2360   -18.7660 
  103.5000    79.1320     9.4400     7.7070    10.3140    23.5980     2.2140   -19.2830 
  103.6250    80.1250     9.3300     7.6340     8.0340    23.3620     2.1920   -19.8280 
  103.7500    80.6720     9.1720     7.4810     7.3100    23.2340     2.1760   -20.4340 
  103.8750    79.4810     9.0690     7.3400     7.4550    23.2230     2.1680   -21.0970 
  104.0000    77.5410     9.0630     7.2670     7.6640    23.2960     2.1660   -21.7120 
  104.1250    76.1930     9.1320     7.2710     7.6100    23.3990     2.1660   -22.2410 
  104.2500    75.4300     9.2030     7.2930     7.5010    23.4660     2.1650   -22.7210 
  104.3750    72.6420     9.2510     7.3040     7.2870    23.5070     2.1610   -23.1680 
  104.5000    67.9820     9.2850     7.3080     7.1340    23.5230     2.1540   -23.5770 
  104.6250    67.1000     9.3480     7.3360     7.0880    23.4880     2.1460   -23.8720 
  104.7500    71.6460     9.4690     7.4170     7.2870    23.4510     2.1410   -24.0580 
  104.8750    77.5770     9.6630     7.5690     7.5680    23.4550     2.1440   -24.1190 
  105.0000    81.5350     9.9320     7.7950     7.6520    23.4960     2.1570   -24.0960 
  105.1250    83.4770    10.2790     8.0950     7.8340    23.5770     2.1820   -23.9950 
  105.2500    82.9740    10.6630     8.4290     8.1780    23.6420     2.2100   -23.8330 
  105.3750    80.9760    11.0310     8.7490     8.3840    23.6900     2.2340   -23.6520 
  105.5000    79.4870    11.3060     8.9950     8.3470    23.7020     2.2430   -23.5190 
  105.6250    79.3520    11.3660     9.0730     8.4290    23.6760     2.2300   -23.5100 
  105.7500    76.8580    11.1910     8.9740     8.6000    23.5910     2.2010   -23.5260 
  105.8750    71.7840    10.8100     8.7170     8.3900    23.4610     2.1670   -23.5900 
  106.0000    66.8300    10.3130     8.3720     7.9500    23.2810     2.1410   -23.7370 
  106.1250    65.6030     9.8310     8.0310     7.6080    23.1880     2.1330   -23.9200 
  106.2500    69.0640     9.4660     7.7660     7.4460    23.1630     2.1410   -24.1310 
  106.3750    74.0630     9.2570     7.6060     7.3920    23.1810     2.1600   -24.3330 
  106.5000    76.4920     9.1940     7.5500     7.4280    23.2120     2.1840   -24.4870 
  106.6250    75.4210     9.2370     7.5780     7.4560    23.2510     2.2060   -24.6100 
  106.7500    73.9550     9.2910     7.6240     7.4850    23.2770     2.2180   -24.7470 
  106.8750    73.2770     9.2960     7.6460     7.5820    23.2780     2.2130   -24.8590 
  107.0000    73.4330     9.2200     7.6160     7.6420    23.2490     2.1920   -24.9040 
  107.1250    74.5330     9.0650     7.5260     7.6370    23.3880     2.1600   -24.8940 
  107.2500    74.0550     8.8980     7.4140     7.4970    23.4740     2.1300   -24.8200 
  107.3750    70.4870     8.7770     7.3190     7.2770    23.2830     2.1110   -24.6700 
  107.5000    66.0810     8.7400     7.2770     7.0960    23.0420     2.1050   -24.4230 
  107.6250    62.6820     8.7920     7.3150     7.0290    22.9670     2.1090   -24.0450 
  107.7500    61.8760     8.8570     7.3910     7.0150    22.9380     2.1160   -23.5030 
  107.8750    64.0580     8.8530     7.4440     7.1810    22.9480     2.1250   -22.8030 
  108.0000    68.2830     8.7090     7.3970     7.4450    23.1300     2.1370   -21.9620 
  108.1250    72.0370     8.3700     7.1750     7.5730    23.6150     2.1570   -20.9250 
  108.2500    76.1550     7.9050     6.8140     7.1540    24.0710     2.1820   -19.7960 
  108.3750    82.8990     7.3830     6.3770     6.3900    23.8350     2.2080   -18.6380 
  108.5000    91.4550     6.8730     5.9380     5.7130    23.5390     2.2280   -17.4820 
  108.6250    98.3700     6.4330     5.5640     5.1500    23.6310     2.2420   -16.3160 
  108.7500   101.9510     6.0710     5.2650     4.9670    23.9020     2.2530   -15.2010 
  108.8750   104.2650     5.7860     5.0300     4.9520    24.0990     2.2640   -14.1960 
