~V
VERS. 2.00: Ver 2.00
~W
STRT.M 50.0000:
STOP.M 237.0000:
STEP.M 0.1250:
NULL. -999.2500:
UWI. F10163:
~C
DEPT.M :
DEN.GM/CC :
GR.API :
RML.OHMM :
RI. :
RXO.OHMM :
CALI.CM :
SP.MV :
~A
# ...
  128.7500     2.5530    59.4730    24.7790    23.2330    19.7960    23.1090    -6.3140 
  128.8750     2.5640    57.1110    25.4170    23.8200    22.0850    23.0330    -6.4300 
  129.0000     2.5600    54.4700    25.7820    24.2730    24.8430    23.1280    -6.5250 
  129.1250     2.5390    54.5140    25.7060    24.4250    26.2860    23.2210    -6.6090 
  129.2500     2.5110    55.0150    25.3270    24.3110    23.5370    23.2580    -6.6830 
  129.3750     2.4850    55.1550    24.8320    24.0210    20.9640    23.3530    -6.7350 
  129.5000     2.4670    55.9620    24.4130    23.6860    19.7280    23.2360    -6.7810 
  129.6250     2.4650    57.7450    24.2140    23.4570    18.1520    22.8720    -6.8330 
  129.7500     2.4750    57.1440    24.1690    23.3650    17.4980    22.6880    -6.8700 
  129.8750     2.4900    52.5490    24.1560    23.3490    17.5370    22.7800    -6.8830 
  130.0000     2.4990    48.5290    24.0520    23.3020    18.1100    22.8010    -6.9030 
  130.1250     2.4880    48.8320    23.7720    23.1120    18.9050    22.9410    -6.9470 
  130.2500     2.4600    50.7530    23.3910    22.8090    19.4150    23.3510    -6.9830 
  130.3750     2.4280    53.0570    23.0100    22.4770    19.7820    23.4470    -7.0040 
  130.5000     2.4060    54.7740    22.7120    22.2100    18.9990    23.0280    -7.0070 
  130.6250     2.4050    52.9020    22.5460    22.0750    17.7420    22.9870    -6.9900 
  130.7500     2.4180    50.0680    22.4830    22.0470    16.9070    22.8350    -6.9730 
  130.8750     2.4330    49.6890    22.4870    22.0800    16.6070    22.3360    -6.9660 
  131.0000     2.4390    52.6330    22.4780    22.0960    16.1920    21.9100    -6.9460 
  131.1250     2.4330    55.0010    22.3260    21.9730    15.3100    21.9340    -6.9170 
  131.2500     2.4250    54.9910    21.9820    21.6700    15.7500    22.3020    -6.9000 
  131.3750     2.4210    54.0890    21.4400    21.1860    17.3540    22.8130    -6.9060 
  131.5000     2.4280    53.1370    20.7670    20.5790    18.2290    23.3280    -6.9340 
  131.6250     2.4440    53.3530    20.1100    19.9620    17.0510    23.7280    -6.9690 
  131.7500     2.4600    54.0640    19.5940    19.4360    16.0590    23.9590    -6.9830 
  131.8750     2.4680    53.3280    19.2610    19.0470    15.8310    24.1920    -6.9830 
  132.0000     2.4660    51.5150    19.1000    18.8030    16.2810    24.3450    -6.9640 
  132.1250     2.4550    50.6650    19.0550    18.6970    17.0640    24.6140    -6.9180 
  132.2500     2.4490    51.4450    19.0090    18.6450    16.8780    25.0630    -6.8760 
  132.3750     2.4540    53.3800    18.9080    18.5820    16.5630    25.4050    -6.8240 
  132.5000     2.4670    55.5330    18.7610    18.4750    16.7060    25.2910    -6.7380 
  132.6250     2.4800    55.6550    18.6540    18.3520    17.3600    25.1500    -6.6270 
  132.7500     2.4820    52.3480    18.6720    18.2940    17.0190    25.0990    -6.4940 
  132.8750     2.4750    49.2920    18.8510    18.3510    16.7600    25.2450    -6.3710 
  133.0000     2.4640    49.6360    19.1480    18.5160    16.8960    25.5900    -6.2870 
  133.1250     2.4560    50.7130    19.4180    18.6900    18.0100    25.7740    -6.2150 
  133.2500     2.4530    49.9110    19.4640    18.6980    18.6990    25.8090    -6.1130 
  133.3750     2.4550    49.4550    19.1510    18.4110    18.2680    25.6870    -5.9790 
  133.5000     2.4600    50.4590    18.4910    17.8180    16.9940    25.2110    -5.8840 
  133.6250     2.4660    50.7900    17.6810    17.0610    16.1590    24.7950    -5.8530 
  133.7500     2.4730    51.4250    17.0190    16.3860    15.1960    24.5290    -5.9110 
  133.8750     2.4770    53.1650    16.6520    15.9310    14.2840    24.3710    -6.0150 
  134.0000     2.4790    53.8630    16.5880    15.7320    14.1140    24.0290    -6.1220 
  134.1250     2.4790    52.7480    16.7290    15.7510    14.9270    23.9210    -6.2380 
  134.2500     2.4790    51.6230    16.8780    15.8250    15.8980    23.9450    -6.3690 
  134.3750     2.4780    51.7020    16.9350    15.8520    16.0310    24.2070    -6.5230 
  134.5000     2.4790    51.4430    16.8820    15.7860    15.6770    24.5920    -6.6410 
  134.6250     2.4810    48.8580    16.7790    15.6480    14.8060    24.6740    -6.6670 
  134.7500     2.4800    45.9250    16.7220    15.5200    14.3670    24.5790    -6.6220 
  134.8750     2.4770    44.1800    16.7540    15.4490    14.0870    24.4360    -6.5370 
  135.0000     2.4720    42.9440    16.8540    15.4410    14.3250    24.3400    -6.4330 
  135.1250     2.4700    41.7410    16.9380    15.4490    14.6670    24.3350    -6.2840 
  135.2500     2.4760    43.1630    16.9090    15.3940    15.0390    24.3660    -6.1160 
  135.3750     2.4880    46.3240    16.7130    15.2160    14.9720    24.3730    -5.9530 
  135.5000     2.5020    48.7470    16.3460    14.8920    14.3360    24.2240    -5.8290 
  135.6250     2.5120    50.0450    15.8700    14.4460    13.7370    24.1260    -5.7510 
  135.7500     2.5130    51.7200    15.4320    13.9940    13.3460    24.1950    -5.6640 
  135.8750     2.5060    55.1760    15.1420    13.6380    12.8030    24.3080    -5.5730 
  136.0000     2.4960    60.8420    15.0550    13.4420    12.1220    24.3950    -5.4870 
  136.1250     2.4880    65.8170    15.1620    13.4190    12.2950    24.3970    -5.4110 
  136.2500     2.4840    65.0220    15.3160    13.4530    13.2020    24.3400    -5.3380 
  136.3750     2.4840    60.3040    15.3830    13.4340    14.2720    24.2520    -5.2740 
  136.5000     2.4850    57.0540    15.2690    13.2800    14.1300    24.2130    -5.2000 
  136.6250     2.4860    56.7510    14.9540    12.9640    13.1410    24.1130    -5.1470 
  136.7500     2.4850    58.1480    14.5780    12.5950    12.2400    24.1580    -5.1360 
  136.8750     2.4800    61.4620    14.2730    12.2850    11.6420    24.0720    -5.1530 
  137.0000     2.4700    63.8210    14.1610    12.1320    11.7100    24.1020    -5.1880 
  137.1250     2.4540    62.4000    14.3970    12.2600    12.7510    24.1680    -5.2600 
  137.2500     2.4410    59.4180    15.0200    12.6870    13.9110    24.1680    -5.3380 
  137.3750     2.4400    56.5410    16.0730    13.4440    14.6590    24.2390    -5.3930 
  137.5000     2.4580    54.8430    17.4910    14.5220    14.8130    24.1150    -5.4380 
  137.6250     2.4990    55.9400    18.8970    15.7530    15.8190    23.9130    -5.4870 
  137.7500     2.5480    59.3880    19.5590    16.6000    17.5210    23.8770    -5.5420 
  137.8750     2.5870    62.6670    18.7780    16.4220    19.3060    23.8630    -5.5600 
  138.0000     2.5990    65.4920    16.3560    14.8650    19.8310    23.9800    -5.5180 
  138.1250     2.5670    70.7920    12.9010    12.2070    17.4720    24.0700    -5.4280 
  138.2500     2.5040    77.6070     9.6850     9.4950    12.8230    24.2610    -5.3530 
  138.3750     2.4280    83.1850     7.2760     7.2720     8.0690    24.3110    -5.2920 
  138.5000     2.3590    86.6670     5.7470     5.7050     5.3620    24.2920    -5.2060 
  138.6250     2.3170    89.6470     4.9960     4.8130     4.4530    24.1870    -5.0750 
  138.7500     2.3040    92.9200     4.6740     4.3480     4.2470    24.1120    -4.8950 
  138.8750     2.3150    94.3050     4.6140     4.1820     4.2500    24.0570    -4.7110 
  139.0000     2.3360    92.9390     4.6920     4.2000     4.1720    23.9590    -4.5840 
  139.1250     2.3490    90.7410     4.8100     4.2970     4.1900    23.9030    -4.5050 
  139.2500     2.3480    88.3630     4.8950     4.3860     4.3550    23.8890    -4.4010 
  139.3750     2.3350    87.5570     4.9190     4.4350     4.5490    23.8830    -4.2740 
  139.5000     2.3170    88.6260     4.8710     4.4360     4.5180    23.8830    -4.1630 
  139.6250     2.3010    89.1440     4.7580     4.3890     4.3950    23.8880    -4.0940 
  139.7500     2.2940    89.5120     4.6350     4.3160     4.2690    23.9060    -4.0680 
  139.8750     2.2940    91.5770     4.5480     4.2320     4.2190    23.8780    -4.0600 
