~V
VERS. 2.00: Ver 2.00
~W
STRT.M 50.0000:
STOP.M 284.0000:
STEP.M 0.1250:
NULL. -999.2500:
UWI. F10107:
~C
DEPT.M :
DEN.GM/CC :
SP.MV :
GR.API :
RML.OHMM :
RI. :
RXO.OHMM :
CALI.CM :
~A
# ...
  140.0000     2.2210    -2.4920    75.7370     7.3220     6.4280     6.6340    22.7960 
  140.1250     2.2170    -2.7020    75.2310     7.4120     6.5020     6.5900    22.7310 
  140.2500     2.2090    -2.9220    74.5800     7.4750     6.5620     6.5250    22.6970 
  140.3750     2.1980    -3.1430    73.9630     7.5060     6.5990     6.4610    22.6870 
  140.5000     2.1880    -3.3690    72.6700     7.5130     6.6150     6.4250    22.6840 
  140.6250     2.1800    -3.6070    71.2810     7.5060     6.6140     6.4060    22.6770 
  140.7500     2.1760    -3.8380    70.4230     7.4930     6.6080     6.4170    22.6640 
  140.8750     2.1760    -4.0550    70.4730     7.4830     6.6040     6.4730    22.6360 
  141.0000     2.1780    -4.2390    70.8620     7.4840     6.6090     6.5320    22.6170 
  141.1250     2.1800    -4.3970    70.4300     7.5160     6.6380     6.5700    22.6390 
  141.2500     2.1790    -4.5440    70.2860     7.5850     6.6970     6.5890    22.7150 
  141.3750     2.1750    -4.6740    69.7130     7.6950     6.7890     6.6230    22.8120 
  141.5000     2.1680    -4.7810    67.4560     7.8370     6.9110     6.6680    22.8570 
  141.6250     2.1600    -4.8480    64.4730     7.9900     7.0520     6.7040    22.8520 
  141.7500     2.1550    -4.8850    63.0000     8.1300     7.1890     6.7070    22.8450 
  141.8750     2.1530    -4.9020    63.9100     8.2410     7.3090     6.6930    22.8310 
  142.0000     2.1530    -4.9080    65.1100     8.3190     7.4030     6.7000    22.7920 
  142.1250     2.1530    -4.8980    63.2970     8.3640     7.4650     6.7040    22.7600 
  142.2500     2.1530    -4.8840    60.7030     8.3920     7.5070     6.6980    22.7260 
  142.3750     2.1510    -4.8640    59.7620     8.4100     7.5350     6.6790    22.6810 
  142.5000     2.1500    -4.8380    61.1080     8.4200     7.5550     6.6840    22.6330 
  142.6250     2.1500    -4.8040    63.1540     8.4240     7.5680     6.7150    22.6160 
  142.7500     2.1520    -4.7440    64.1770     8.4300     7.5820     6.7740    22.6230 
  142.8750     2.1540    -4.6410    64.1890     8.4490     7.6050     6.8230    22.6500 
  143.0000     2.1570    -4.4900    63.9980     8.4970     7.6470     6.8390    22.6620 
  143.1250     2.1600    -4.2830    64.9290     8.5930     7.7250     6.7970    22.6270 
  143.2500     2.1640    -4.0250    66.0020     8.7290     7.8370     6.7330    22.5500 
  143.3750     2.1700    -3.7290    65.7080     8.8810     7.9720     6.6900    22.4890 
  143.5000     2.1780    -3.4110    62.9100     9.0130     8.1070     6.6880    22.4650 
  143.6250     2.1930    -3.0950    59.6920     9.1140     8.1910     6.7460    22.4640 
  143.7500     2.2130    -2.7910    59.8700     9.1190     8.1950     6.8380    22.4650 
  143.8750     2.2400    -2.5090    63.8210     9.0410     8.1050     6.9470    22.4720 
  144.0000     2.2720    -2.2550    68.5580     8.9990     7.9550     7.0540    22.4980 
  144.1250     2.3040    -2.0560    71.2020     8.8440     7.8520     7.2660    22.5640 
  144.2500     2.3310    -1.9230    72.9120     8.9190     7.9090     7.6100    22.6600 
  144.3750     2.3480    -1.8630    74.9190     9.2650     8.1820     8.0240    22.7790 
  144.5000     2.3550    -1.8670    75.0990     9.8000     8.6310     8.4260    22.8830 
  144.6250     2.3510    -1.9200    70.3740    10.2890     9.0980     8.8620    22.9050 
  144.7500     2.3410    -2.0100    63.5670    10.4780     9.3600    10.3670    22.9090 
  144.8750     2.3280    -2.1360    59.7200    10.2340     9.2740    11.3290    22.9540 
  145.0000     2.3150    -2.2960    60.6890     9.6000     8.8290    10.2480    23.0470 
  145.1250     2.3040    -2.5000    61.2460     8.8040     8.1740     8.3080    23.1470 
  145.2500     2.2930    -2.7290    59.0690     8.1540     7.5850     7.1540    23.2040 
  145.3750     2.2810    -2.9620    57.2380     7.8030     7.2120     6.7150    23.1860 
  145.5000     2.2680    -3.1820    58.1810     7.7850     7.1150     6.7910    23.0590 
  145.6250     2.2570    -3.3810    60.2300     8.1400     7.3440     6.9330    22.8320 
  145.7500     2.2550    -3.5640    60.1990     8.8470     7.8760     7.3310    22.5910 
  145.8750     2.2660    -3.7310    60.2930    10.0110     8.7840     7.7810    22.4050 
  146.0000     2.2940    -3.8970    63.4610    11.7410    10.1670     8.3660    22.3730 
  146.1250     2.3370    -4.0500    65.7530    14.0770    12.1260    10.3580    22.5860 
  146.2500     2.3800    -4.1850    62.8600    16.5670    14.3580    14.0570    22.9370 
  146.3750     2.4130    -4.3130    56.6170    18.6050    16.3970    19.9130    23.2420 
  146.5000     2.4280    -4.4260    51.4540    19.5170    17.6430    29.8070    23.2830 
  146.6250     2.4200    -4.5190    52.5200    18.6220    17.3510    31.9310    23.0540 
  146.7500     2.4020    -4.5910    56.9870    16.4990    15.8360    23.1980    22.8160 
  146.8750     2.3820    -4.6430    61.5780    14.0120    13.8070    15.1050    22.7030 
  147.0000     2.3660    -4.6700    63.1930    12.0190    12.0500    11.3740    22.6770 
  147.1250     2.3530    -4.6800    61.8120    11.1220    11.1390     9.1260    22.6600 
  147.2500     2.3450    -4.6840    60.9650    11.0860    10.9730     8.6530    22.6210 
  147.3750     2.3380    -4.6850    60.1810    11.6020    11.3540     8.8920    22.5890 
  147.5000     2.3340    -4.6870    59.4570    12.2940    11.9930     9.9860    22.6260 
  147.6250     2.3310    -4.7010    60.3490    12.7310    12.5020    10.6790    22.6580 
  147.7500     2.3290    -4.7250    61.7060    12.6920    12.6030    11.1610    22.6850 
  147.8750     2.3270    -4.7540    62.9200    12.1540    12.2030    11.0550    22.7090 
  148.0000     2.3260    -4.7810    61.8620    11.2870    11.4130    10.1250    22.6970 
  148.1250     2.3290    -4.7910    57.6610    10.4450    10.5420     8.8910    22.6220 
  148.2500     2.3360    -4.7850    54.6520     9.9820     9.9480     8.2170    22.5800 
  148.3750     2.3480    -4.7620    55.8890    10.1270     9.8570     8.4260    22.6620 
  148.5000     2.3640    -4.7300    60.7790    11.0360    10.4190     9.1740    22.8030 
  148.6250     2.3830    -4.6930    64.6950    12.9540    11.8800    10.2930    22.7590 
  148.7500     2.4070    -4.6700    66.5230    15.7230    14.1610    12.5560    22.5890 
  148.8750     2.4350    -4.6930    66.7740    19.1720    17.1870    16.2020    22.5330 
  149.0000     2.4670    -4.7840    64.7160    22.9370    20.7030    18.4990    22.7180 
  149.1250     2.4980    -4.9610    60.8550    26.2910    24.1150    21.1590    23.0610 
  149.2500     2.5190    -5.1950    58.1210    28.5230    26.6640    25.8050    23.2730 
  149.3750     2.5250    -5.4610    57.9170    29.1420    27.7590    31.5610    23.3050 
  149.5000     2.5140    -5.7330    59.5040    28.1000    27.2020    34.7900    23.1820 
  149.6250     2.4900    -6.0080    60.9350    25.8040    25.2500    31.1340    22.9500 
  149.7500     2.4650    -6.2820    61.6190    23.3490    22.9590    24.7930    22.8090 
  149.8750     2.4460    -6.5280    60.7370    21.4070    21.0000    18.9370    22.8780 
  150.0000     2.4320    -6.7170    60.3360    20.3230    19.7510    16.5170    23.1390 
  150.1250     2.4230    -6.8050    61.6830    20.2500    19.4260    16.2370    23.3100 
  150.2500     2.4160    -6.7890    61.3600    20.8380    19.7720    16.6570    23.3510 
  150.3750     2.4130    -6.6940    58.2220    21.8200    20.5850    17.2700    23.3630 
  150.5000     2.4130    -6.5590    54.8180    22.9050    21.6130    18.4540    23.4140 
  150.6250     2.4150    -6.3930    54.4540    23.7850    22.5670    20.3160    23.4910 
  150.7500     2.4140    -6.1950    55.2840    24.3380    23.2620    23.4050    23.4920 
  150.8750     2.4100    -5.9730    55.9840    24.5550    23.6430    26.1130    23.4830 
  151.0000     2.4070    -5.7360    57.6520    24.5040    23.7390    25.5710    23.5360 
  151.1250     2.4140    -5.5200    58.6670    24.2610    23.5990    22.8940    23.5710 
