~V
VERS. 2.00: Ver 2.00
~W
STRT.M 59.0000:
STOP.M 212.0000:
STEP.M 0.1250:
NULL. -999.2500:
UWI. F10143:
~C
DEPT.M :
GR.API :
RML.OHMM :
RI. :
RXO.OHMM :
CALI.CM :
SP.MV :
DEN.GM/CC :
~A
# ...
  137.7500    75.4480    12.4430    10.7570    12.9370    25.2950   -20.1840     2.2650 
  137.8750    75.5420    11.8070    10.1070    11.9600    25.2930   -20.2330     2.2390 
  138.0000    73.4340    11.7610     9.8930    10.7200    25.2790   -20.3190     2.2210 
  138.1250    71.4400    12.7230    10.4210    11.4200    25.2490   -20.4240     2.2140 
  138.2500    70.3290    14.7110    11.7100    14.4670    25.2170   -20.5230     2.2140 
  138.3750    68.2310    17.6530    13.7820    18.7950    25.1660   -20.6220     2.2160 
  138.5000    66.4450    21.2090    16.5240    21.9620    25.0760   -20.7150     2.2140 
  138.6250    66.2780    24.6620    19.6140    22.9070    25.0620   -20.8050     2.2020 
  138.7500    65.6310    27.3450    22.5130    24.3830    25.0970   -20.8890     2.1830 
  138.8750    64.9110    29.1040    24.9170    27.0390    25.1130   -20.9730     2.1660 
  139.0000    65.8400    30.2000    26.7500    29.3740    25.0770   -21.0390     2.1590 
  139.1250    68.6910    30.9530    28.0190    30.7580    25.0650   -21.0950     2.1610 
  139.2500    69.8130    31.5220    28.8600    31.7100    25.1170   -21.1640     2.1690 
  139.3750    68.0100    31.7880    29.2420    32.3390    25.1830   -21.2280     2.1790 
  139.5000    64.7940    31.5310    29.0640    31.3780    25.2170   -21.2890     2.1860 
  139.6250    62.2480    30.3660    28.0510    29.3240    25.2210   -21.3530     2.1850 
  139.7500    61.9020    28.3480    26.2630    26.6000    25.2150   -21.4320     2.1800 
  139.8750    62.5810    25.6680    23.8180    23.9290    25.1790   -21.5160     2.1790 
  140.0000    63.6430    22.6350    20.9780    20.3310    25.0840   -21.6060     2.1860 
  140.1250    67.0870    19.6050    18.1210    15.9260    24.9260   -21.6890     2.2060 
  140.2500    70.9850    16.8760    15.6070    13.4600    24.7970   -21.7680     2.2340 
  140.3750    73.7360    14.6600    13.6610    12.0720    24.7430   -21.8610     2.2550 
  140.5000    74.8480    13.1710    12.4140    10.7450    24.7590   -21.9730     2.2580 
  140.6250    74.0030    12.7550    12.0480     9.6800    24.8200   -22.0950     2.2440 
  140.7500    70.2310    13.2940    12.4120     9.6410    24.8460   -22.2200     2.2310 
  140.8750    65.2240    14.6250    13.4040    11.3530    24.8450   -22.3540     2.2250 
  141.0000    63.2620    16.3700    14.8340    13.6650    24.8260   -22.4910     2.2290 
  141.1250    65.8750    17.8960    16.3450    15.6790    24.8030   -22.6270     2.2380 
  141.2500    69.5240    18.7480    17.4800    16.8400    24.8080   -22.7540     2.2440 
  141.3750    71.1020    18.8640    18.0020    16.6470    24.8330   -22.8760     2.2470 
  141.5000    69.4570    18.5670    17.9900    15.6960    24.8540   -22.9860     2.2450 
  141.6250    67.2030    18.4170    17.7830    15.5000    24.8730   -23.0650     2.2400 
  141.7500    66.9980    18.8270    17.8280    15.6720    24.8990   -23.1140     2.2320 
  141.8750    67.4560    20.0630    18.4510    16.4640    24.9190   -23.1260     2.2230 
  142.0000    66.7830    22.3600    19.9380    18.1490    24.9200   -23.1140     2.2140 
  142.1250    63.9160    26.1440    22.7040    21.3010    24.9000   -23.0970     2.2070 
  142.2500    61.4910    31.1640    26.5830    25.7360    24.8910   -23.0650     2.1990 
  142.3750    61.9590    36.8560    31.2000    33.0250    24.9290   -23.0010     2.1910 
  142.5000    63.6530    41.9770    35.6520    40.9640    24.9940   -22.9190     2.1870 
  142.6250    62.2300    44.2990    38.2520    41.6710    25.0550   -22.8330     2.1910 
  142.7500    59.1070    43.4010    38.4600    37.9010    25.1190   -22.7390     2.2010 
  142.8750    57.1290    40.2450    36.7720    34.5750    25.2540   -22.6390     2.2080 
  143.0000    56.8460    36.5420    34.3530    30.6350    25.4550   -22.5400     2.2030 
  143.1250    58.3610    33.9570    32.4730    26.0210    25.5830   -22.4270     2.1850 
  143.2500    60.5810    32.9740    31.6960    23.8170    25.5360   -22.3270     2.1690 
  143.3750    61.2200    33.5850    32.1310    25.3270    25.3380   -22.2170     2.1670 
  143.5000    58.8680    35.5400    33.6510    31.1590    25.1760   -22.0640     2.1780 
  143.6250    58.2480    38.4370    36.0700    35.8020    25.1740   -21.9070     2.1870 
  143.7500    60.7530    41.1660    38.6210    38.5990    25.1780   -21.7680     2.1880 
  143.8750    63.6950    42.3550    40.1510    38.7680    25.1560   -21.6430     2.1850 
  144.0000    64.4090    40.6840    39.2480    37.6470    25.1100   -21.5210     2.1810 
  144.1250    63.1220    35.7760    35.1300    37.1970    25.1130   -21.4030     2.1800 
  144.2500    63.4040    29.9660    29.8260    35.1950    25.1490   -21.2680     2.1850 
  144.3750    65.7730    25.0270    25.0360    26.3030    25.1650   -21.1460     2.1960 
  144.5000    69.0410    21.8620    21.6740    16.2230    25.1270   -21.0690     2.2120 
  144.6250    69.2710    20.8510    20.1650    14.4020    25.1260   -21.0100     2.2220 
  144.7500    65.8720    21.2750    19.9800    19.6030    25.1670   -20.9620     2.2230 
  144.8750    61.2180    22.5840    20.7470    26.4860    25.2040   -20.9240     2.2210 
  145.0000    59.0410    24.1250    22.0100    27.5510    25.2120   -20.8920     2.2230 
  145.1250    62.2710    25.1960    23.2090    24.2050    25.2140   -20.8710     2.2310 
  145.2500    65.8770    25.7690    24.1060    22.3860    25.2310   -20.8620     2.2400 
  145.3750    67.1010    26.3850    24.9640    23.6150    25.2550   -20.8570     2.2460 
  145.5000    65.2250    27.7600    26.2880    25.8550    25.3000   -20.8500     2.2440 
  145.6250    62.0770    30.3710    28.5490    29.2640    25.3400   -20.8500     2.2320 
  145.7500    59.2230    33.2940    31.1660    33.9820    25.3420   -20.8430     2.2150 
  145.8750    56.8510    34.9680    32.8080    40.6410    25.3150   -20.8240     2.1980 
  146.0000    55.6650    33.8260    31.8990    43.3430    25.3330   -20.7950     2.1880 
  146.1250    55.8160    29.3670    27.8420    40.0930    25.3380   -20.7520     2.1870 
  146.2500    58.2180    23.9950    22.9370    30.8470    25.2950   -20.7310     2.1920 
  146.3750    62.4420    19.5390    18.8370    19.3340    25.1830   -20.7460     2.2040 
  146.5000    67.0720    16.9130    16.2690    12.1680    25.0540   -20.8010     2.2210 
  146.6250    69.0160    16.4900    15.5230    11.0910    24.9290   -20.8710     2.2380 
  146.7500    66.3660    17.4870    16.0320    13.3330    24.8570   -20.9530     2.2560 
  146.8750    62.8800    19.1620    17.2940    17.6920    24.8510   -21.0590     2.2780 
  147.0000    62.6510    20.4910    18.4890    21.3020    24.8870   -21.1850     2.2970 
  147.1250    65.1100    20.1610    18.3900    21.7300    24.9170   -21.3180     2.2970 
  147.2500    65.2530    18.2900    16.9580    19.2280    24.9260   -21.4200     2.2820 
  147.3750    63.4650    15.7590    14.9230    15.3100    24.9190   -21.4810     2.2610 
  147.5000    65.2560    13.6120    13.1140    11.5950    24.8990   -21.5030     2.2440 
  147.6250    70.0400    12.6540    12.1160     9.9270    24.8670   -21.5000     2.2290 
  147.7500    72.0640    12.7780    11.8880     9.6770    24.8420   -21.4840     2.2140 
  147.8750    71.2560    13.7760    12.3450    10.8590    24.8170   -21.4690     2.1980 
  148.0000    70.7360    15.3390    13.3470    13.3770    24.8190   -21.4480     2.1880 
  148.1250    71.8100    17.0460    14.6780    15.3810    24.8760   -21.4280     2.1900 
  148.2500    70.6580    18.4150    15.9530    16.0930    24.9510   -21.4230     2.2000 
  148.3750    67.0680    19.1760    16.9130    16.5770    25.0290   -21.4320     2.2110 
  148.5000    64.3040    19.2920    17.4500    18.2300    25.1190   -21.4540     2.2210 
  148.6250    65.1440    18.9620    17.6400    20.1990    25.1500   -21.4680     2.2290 
  148.7500    68.0750    18.6850    17.8030    19.7160    25.0850   -21.4660     2.2310 
  148.8750    70.1820    18.7860    18.1620    17.1840    25.0200   -21.4320     2.2280 
