~V
VERS. 2.00: Ver 2.00
~W
STRT.M 43.0000:
STOP.M 249.0000:
STEP.M 0.1250:
NULL. -999.2500:
UWI. F10197:
~C
DEPT.M :
GR.API :
RML.OHMM :
RI. :
RXO.OHMM :
CALI.CM :
SP.MV :
DEN.GM/CC :
~A
# ...
  110.5000    58.9150    11.5150     9.2590    14.1890    22.8290   -21.7650     2.1440 
  110.6250    62.6500    10.9800     8.9890    14.1870    23.3640   -22.6620     2.1260 
  110.7500    65.4070    10.4600     8.6430    14.1490    24.2420   -23.2630     2.1140 
  110.8750    65.5460    10.1080     8.3610    14.0350    25.2470   -23.5580     2.1080 
  111.0000    65.4410     9.9430     8.1960    13.9920    25.6640   -23.5470     2.1070 
  111.1250    66.0430     9.9290     8.1560    14.2020    25.0140   -23.2060     2.1080 
  111.2500    66.6190    10.0000     8.2060    14.5100    24.3010   -22.5950     2.1080 
  111.3750    67.1020    10.1650     8.3450    14.5260    23.9380   -21.7060     2.1050 
  111.5000    67.0070    10.4430     8.5790    14.4150    23.8360   -20.5870     2.1030 
  111.6250    65.8460    10.7920     8.8820    14.4980    23.8400   -19.2550     2.1090 
  111.7500    66.3420    11.0180     9.1130    14.5500    23.8670   -17.7060     2.1250 
  111.8750    68.6510    10.8850     9.0920    14.4670    23.8960   -15.9420     2.1490 
  112.0000    72.4980    10.2380     8.6750    13.9140    23.8900   -13.9890     2.1790 
  112.1250    75.9090     9.0950     7.8270    12.1630    23.8190   -11.8960     2.2100 
  112.2500    78.6930     7.8340     6.8190     9.1920    23.6540    -9.8210     2.2420 
  112.3750    82.7830     6.7310     5.8660     6.4010    23.2390    -7.8870     2.2750 
  112.5000    88.5490     5.9540     5.1160     5.0900    22.6000    -6.1400     2.3030 
  112.6250    95.2940     5.5990     4.6740     4.9140    22.1270    -4.6330     2.3200 
  112.7500   100.1630     5.5460     4.4900     4.9120    21.9880    -3.3840     2.3270 
  112.8750   102.0030     5.6990     4.5220     4.8210    22.0050    -2.4200     2.3300 
  113.0000   101.0620     5.9420     4.6950     4.8780    21.9930    -1.7270     2.3340 
  113.1250    98.4190     6.1480     4.9080     5.1450    22.1240    -1.2890     2.3390 
  113.2500    96.6620     6.2520     5.0670     5.3960    22.6100    -0.9460     2.3390 
  113.3750    96.8010     6.2550     5.1440     5.5190    23.4210    -0.6440     2.3270 
  113.5000    99.6730     6.1830     5.1490     5.7190    24.1910    -0.3780     2.3060 
  113.6250   103.4220     6.0510     5.0920     5.7700    24.6970    -0.1630     2.2930 
  113.7500   105.2890     5.8800     4.9940     5.6950    24.8560     0.0150     2.2920 
  113.8750   104.7220     5.6820     4.8630     5.5500    24.8890     0.1660     2.2990 
  114.0000   101.9070     5.4840     4.7110     5.2860    24.9140     0.2870     2.3060 
  114.1250    97.6990     5.3270     4.5700     4.9780    24.9800     0.3540     2.3060 
  114.2500    94.4440     5.2380     4.4680     4.9120    24.9940     0.3600     2.3000 
  114.3750    95.1280     5.2250     4.4240     5.0250    24.9350     0.3200     2.2980 
  114.5000    99.0480     5.2770     4.4390     5.1880    24.8450     0.2750     2.3060 
  114.6250   102.5420     5.3780     4.5050     5.2910    24.7520     0.2270     2.3260 
  114.7500   104.4990     5.4860     4.5890     5.3720    24.6370     0.1770     2.3430 
  114.8750   106.7290     5.5570     4.6590     5.7300    24.5800     0.1360     2.3510 
  115.0000   109.4920     5.5570     4.6860     6.0590    24.5680     0.1100     2.3510 
  115.1250   108.4340     5.4610     4.6430     5.7540    24.5430     0.1020     2.3510 
  115.2500   102.3820     5.3130     4.5530     5.2560    24.5280     0.0950     2.3540 
  115.3750    96.6610     5.1680     4.4470     4.9120    24.5200     0.0780     2.3580 
  115.5000    96.8190     5.0850     4.3700     4.8130    24.5130     0.0370     2.3600 
  115.6250   102.5410     5.1150     4.3640     4.8280    24.5130    -0.0660     2.3600 
  115.7500   108.3760     5.2210     4.4160     4.9970    24.4760    -0.2290     2.3620 
  115.8750   112.4320     5.3450     4.4880     5.4030    24.3970    -0.4610     2.3610 
  116.0000   114.5060     5.4130     4.5300     5.9440    24.3140    -0.7630     2.3560 
  116.1250   110.9920     5.3450     4.4790     5.8890    24.2800    -1.1370     2.3510 
  116.2500   103.4090     5.1530     4.3420     5.3390    24.3040    -1.6080     2.3520 
  116.3750    98.8950     4.8970     4.1540     5.0940    24.3450    -2.1900     2.3550 
  116.5000   101.4650     4.6870     3.9870     5.1600    24.3470    -2.8930     2.3570 
  116.6250   106.7190     4.7460     3.9830     5.3860    24.3030    -3.7430     2.3610 
  116.7500   109.0700     5.2260     4.2600     5.7700    24.2800    -4.7120     2.3650 
  116.8750   107.2740     6.2390     4.9320     6.7380    24.1850    -5.8090     2.3660 
  117.0000   100.0890     7.7980     6.0770     9.7440    24.0790    -7.0430     2.3650 
  117.1250    86.6610     9.7490     7.7180    18.2050    23.9780    -8.4170     2.3650 
  117.2500    74.3470    11.4800     9.4230    27.6720    23.8370    -9.8140     2.3630 
  117.3750    70.1980    12.3310    10.5890    24.4920    23.5660   -11.1620     2.3470 
  117.5000    72.9500    11.9890    10.7710    15.9310    23.2560   -12.3780     2.3040 
  117.6250    76.9780    10.8230    10.0610    13.0690    23.0840   -13.3410     2.2390 
  117.7500    78.9020     9.7310     9.1900    12.3500    23.0420   -14.0260     2.1840 
  117.8750    78.6540     9.0970     8.5350    12.2570    23.0810   -14.4040     2.1560 
  118.0000    77.1110     8.9610     8.2310    12.1170    23.1690   -14.4470     2.1520 
  118.1250    75.3480     9.2070     8.2770    12.0700    23.2460   -14.0950     2.1600 
  118.2500    75.3750     9.6000     8.5120    12.2500    23.2990   -13.4190     2.1760 
  118.3750    76.6170    10.0530     8.8710    12.8960    23.3880   -12.4680     2.2040 
  118.5000    76.9110    10.5120     9.3060    14.0960    23.5550   -11.3100     2.2430 
  118.6250    73.6480    10.9040     9.7500    13.7330    23.7020   -10.0200     2.2890 
  118.7500    69.7430    11.2520    10.1750    13.8190    23.8220    -8.7430     2.3310 
  118.8750    67.7880    11.6610    10.6390    15.6810    23.8690    -7.5120     2.3630 
  119.0000    66.5540    12.2520    11.2280    15.5420    23.7680    -6.3420     2.3880 
  119.1250    64.3500    13.0720    12.0030    13.6260    23.6890    -5.2280     2.3980 
  119.2500    62.5260    13.8610    12.7820    14.3220    23.7930    -4.2360     2.3940 
  119.3750    60.7560    14.2000    13.2160    17.7540    23.9450    -3.4360     2.3940 
  119.5000    58.0050    13.6790    12.9150    20.7350    23.9910    -2.8320     2.4120 
  119.6250    57.8030    12.1570    11.6850    17.3440    23.9400    -2.4020     2.4360 
  119.7500    62.2000    10.3430    10.1080    11.6890    23.9000    -2.0420     2.4320 
  119.8750    66.4560     8.8780     8.7090     8.3330    23.9080    -1.7460     2.3950 
  120.0000    68.1910     8.2370     7.8740     7.8400    23.9220    -1.5080     2.3530 
  120.1250    68.4350     8.9050     8.0050     8.5010    23.9250    -1.3790     2.3420 
  120.2500    65.8870    10.8880     9.1930     9.5620    23.9230    -1.3310     2.3640 
  120.3750    59.5020    14.3650    11.7080    12.7750    23.9540    -1.3090     2.4140 
  120.5000    52.8800    20.6680    15.8630    21.2040    23.9190    -1.3060     2.4820 
  120.6250    50.3460    27.9270    22.0330    32.2020    23.7840    -1.3080     2.5520 
  120.7500    49.1110    35.4860    29.0690    39.9540    23.5010    -1.3060     2.5980 
  120.8750    48.6430    41.2320    35.1270    41.3300    23.1260    -1.2860     2.6040 
  121.0000    50.2210    43.6050    38.5080    38.8950    22.9190    -1.3000     2.5780 
  121.1250    51.7030    42.9120    38.8880    37.3400    22.9230    -1.3500     2.5360 
  121.2500    50.5050    41.5100    38.1210    36.8180    22.9680    -1.4250     2.4940 
  121.3750    48.0800    40.4080    37.1810    35.6590    23.0020    -1.5000     2.4670 
  121.5000    47.3240    39.8450    36.4640    33.9630    23.0660    -1.5560     2.4600 
  121.6250    47.4130    39.6650    36.0300    35.6130    23.1980    -1.5980     2.4650 
