~V
VERS. 2.00: Ver 2.00
~W
STRT.M 50.0000:
STOP.M 246.0000:
STEP.M 0.1250:
NULL. -999.2500:
UWI. F10164:
~C
DEPT.M :
GR.API :
RML.OHMM :
RI. :
RXO.OHMM :
CALI.CM :
SP.MV :
DEN.GM/CC :
~A
# ...
  173.7500    80.9570   113.0810    94.7920   110.7900    25.8000   -22.1040     2.2720 
  173.8750    76.5280   113.0520    94.7500   114.0780    25.7030   -21.6140     2.2790 
  174.0000    72.0420   109.7870    92.1540   110.5810    25.5810   -21.2340     2.2870 
  174.1250    74.1090   102.9590    86.4990    98.8490    25.3920   -20.8840     2.2950 
  174.2500    77.6300    94.7730    79.4700    86.7390    25.1420   -20.4680     2.3040 
  174.3750    76.8020    87.2050    72.6910    76.2460    24.9340   -20.1840     2.3130 
  174.5000    74.2270    81.8300    67.5460    65.0010    24.7890   -20.0010     2.3190 
  174.6250    76.0940    80.0030    65.3260    57.5750    24.6220   -19.7960     2.3170 
  174.7500    79.6190    81.0350    65.7330    58.7380    24.4120   -19.6960     2.3080 
  174.8750    80.3470    83.6810    68.0410    67.1440    24.1720   -19.6360     2.2950 
  175.0000    79.8670    85.5490    70.4820    74.1850    24.0360   -19.5740     2.2850 
  175.1250    81.2560    82.5860    69.5740    75.4790    24.2820   -19.5840     2.2890 
  175.2500    81.4330    73.6440    63.5800    80.4370    24.8130   -19.5770     2.3080 
  175.3750    80.1210    60.0130    52.9940    84.7100    25.3390   -19.4910     2.3400 
  175.5000    80.4930    45.0270    40.4770    63.7460    25.5980   -19.3910     2.3750 
  175.6250    84.3650    32.7000    29.6730    33.4500    25.5410   -19.2520     2.4040 
  175.7500    90.4230    24.1580    21.9900    18.6830    25.5590   -19.0950     2.4240 
  175.8750    97.8480    19.0140    17.2310    13.1900    25.7220   -18.9970     2.4360 
  176.0000   102.3080    16.3240    14.6170    11.7710    25.8860   -18.9020     2.4400 
  176.1250    99.7390    15.3540    13.5540    11.8400    25.9590   -18.8280     2.4330 
  176.2500    96.3760    15.1800    13.2740    12.0110    25.9420   -18.8290     2.4170 
  176.3750    96.8560    15.4290    13.4610    12.1000    25.8210   -18.8350     2.4000 
  176.5000    99.0220    15.8690    13.8900    12.1340    25.7170   -18.8840     2.3910 
  176.6250    98.1500    16.3680    14.4040    12.4340    25.6430   -18.9630     2.3950 
  176.7500    95.4230    16.8460    14.8890    12.9890    25.6240   -18.9880     2.4060 
  176.8750    93.7410    17.2650    15.2880    13.6030    25.6490   -19.0300     2.4190 
  177.0000    93.2540    17.5850    15.5540    14.0910    25.6570   -19.0670     2.4270 
  177.1250    93.8690    17.9000    15.6430    14.6550    25.6530   -19.0110     2.4260 
  177.2500    95.8430    18.0260    15.6350    15.3820    25.6830   -18.9690     2.4200 
  177.3750    98.8050    17.6720    15.6590    15.8300    25.6240   -18.9600     2.4100 
  177.5000    99.6800    17.1710    15.8990    15.6590    25.5280   -18.8720     2.4000 
  177.6250    97.1310    17.7370    16.6780    15.8140    25.4160   -18.8140     2.3890 
  177.7500    93.0860    19.7640    18.1480    17.6050    25.4740   -18.7740     2.3730 
  177.8750    88.6790    22.8340    20.4020    21.2610    25.7080   -18.6800     2.3500 
  178.0000    86.9160    26.2890    23.3190    25.6790    25.9910   -18.5910     2.3230 
  178.1250    88.6200    29.4590    26.4010    29.6130    26.0990   -18.5160     2.3050 
  178.2500    90.7570    31.6430    28.8760    34.2440    26.0770   -18.4540     2.3080 
  178.3750    89.9790    32.4990    30.2430    39.8980    25.9460   -18.4140     2.3310 
  178.5000    88.4400    32.1510    30.4370    39.2840    25.7910   -18.3900     2.3620 
  178.6250    89.3630    31.0730    29.7770    30.6560    25.6480   -18.3500     2.3840 
  178.7500    90.1770    29.9550    28.9500    24.6410    25.5490   -18.3500     2.3870 
  178.8750    89.7420    29.0370    28.2480    23.3710    25.5000   -18.3590     2.3740 
  179.0000    89.2280    28.3060    27.7260    25.2070    25.4270   -18.3770     2.3540 
  179.1250    90.2490    27.6050    27.2810    26.7020    25.2190   -18.4550     2.3420 
  179.2500    93.4920    26.7880    26.7500    26.1730    25.0460   -18.4690     2.3420 
  179.3750    96.6970    25.8030    26.0410    24.7270    25.2020   -18.4140     2.3530 
  179.5000    97.2870    24.6390    25.1080    23.1340    25.6210   -18.3710     2.3700 
  179.6250    94.1780    23.2510    23.8750    23.2110    25.8430   -18.2780     2.3830 
  179.7500    91.7370    21.6560    22.3650    21.5640    25.8870   -18.1580     2.3910 
  179.8750    93.2480    19.9040    20.6190    18.9580    25.8410   -18.0460     2.4030 
  180.0000    97.5220    18.1520    18.7830    17.6960    25.8140   -17.8710     2.4250 
  180.1250   100.4650    16.7520    17.1670    16.0950    25.8520   -17.6570     2.4560 
  180.2500   101.1970    16.0130    16.0570    14.2670    25.8760   -17.5470     2.4790 
  180.3750   101.0820    16.2630    15.7240    13.2970    25.8530   -17.5110     2.4810 
  180.5000   100.1140    17.8430    16.4530    13.6440    25.8520   -17.5110     2.4540 
  180.6250    96.1980    21.4190    18.9000    15.8750    25.9850   -17.6750     2.4060 
  180.7500    91.4350    26.9530    23.2840    20.2130    26.2110   -17.9170     2.3550 
  180.8750    87.5040    34.2840    29.8110    27.7860    26.4060   -18.1760     2.3160 
  181.0000    81.6900    42.6130    38.0600    42.2100    26.4400   -18.5540     2.2950 
  181.1250    73.1090    50.0290    46.3690    68.2500    26.3750   -19.0090     2.2930 
  181.2500    69.9910    54.7180    52.4410    81.8500    26.3710   -19.4150     2.3000 
  181.3750    75.9910    55.8890    54.9520    68.3630    26.3770   -19.8440     2.3080 
  181.5000    84.6880    54.0940    54.0170    51.8110    26.3540   -20.2940     2.3150 
  181.6250    89.3400    50.8620    50.9030    47.3970    26.3390   -20.6460     2.3160 
  181.7500    90.3190    48.0650    47.7300    48.7930    26.2590   -20.9560     2.3140 
  181.8750    89.5070    46.4840    45.5020    47.8680    26.1150   -21.2890     2.3090 
  182.0000    89.5120    46.3480    44.6240    41.1340    25.9080   -21.5630     2.3050 
  182.1250    89.9360    47.8360    45.3740    36.6780    25.7340   -21.8380     2.3080 
  182.2500    88.0710    50.6040    47.4470    37.1290    25.5580   -22.1680     2.3160 
  182.3750    84.5460    54.5820    50.7750    40.4830    25.3870   -22.4470     2.3210 
  182.5000    83.0030    59.7660    55.3410    44.7640    25.2390   -22.6860     2.3150 
  182.6250    84.2230    66.4790    61.4950    51.3420    25.3160   -22.9640     2.2910 
  182.7500    82.9170    74.4600    69.0960    64.7360    25.5290   -23.2330     2.2600 
  182.8750    78.6090    83.0490    77.6630    86.5950    25.7490   -23.4550     2.2320 
  183.0000    75.2720    90.7320    85.8050   109.1370    25.9220   -23.7000     2.2140 
  183.1250    74.4600    94.9630    90.8940   120.4560    26.0540   -23.9590     2.2100 
  183.2500    74.6220    95.5230    92.1710   135.7070    26.0590   -24.1730     2.2150 
  183.3750    76.6800    93.9520    90.6480   161.5260    25.9630   -24.3770     2.2280 
  183.5000    81.6010    93.2790    89.1020   156.7700    25.8620   -24.6400     2.2460 
  183.6250    85.7890    97.8290    92.0810   131.4530    25.6950   -24.9190     2.2630 
  183.7500    84.5490   109.1140   101.8590   156.9140    25.5470   -25.2040     2.2720 
  183.8750    79.0830   127.3570   119.0790   288.5950    25.4870   -25.5400     2.2720 
  184.0000    75.1280   150.7200   142.0720   526.3410    25.4430   -25.8600     2.2650 
  184.1250    76.1420   174.1530   166.0650   443.2470    25.2420   -26.1010     2.2570 
  184.2500    77.5820   191.0930   184.8330   268.2850    24.8990   -26.3420     2.2490 
  184.3750    76.8920   198.3480   195.0910   196.8830    24.3890   -26.5650     2.2410 
  184.5000    75.6780   201.1430   197.1100   196.1940    23.8890   -26.6660     2.2330 
  184.6250    76.8120   206.7510   193.3240   219.6590    23.8780   -26.7410     2.2260 
  184.7500    76.9150   211.8760   187.6540   232.5000    24.4300   -26.8190     2.2220 
  184.8750    74.5570   210.2680   181.3770   238.6880    25.1150   -26.8280     2.2200 
