~V
VERS. 2.00: Ver 2.00
~W
STRT.M 50.0000:
STOP.M 224.0000:
STEP.M 0.1250:
NULL. -999.2500:
UWI. F10153:
~C
DEPT.M :
GR.API :
RML.OHMM :
RI. :
RXO.OHMM :
CALI.CM :
SP.MV :
DEN.GM/CC :
~A
# ...
  196.2500    64.6570   164.8970   163.2110   174.6840    22.6330   -16.4670     2.4570 
  196.3750    65.3430   143.8310   147.2550   186.2820    22.5240   -16.1590     2.5010 
  196.5000    69.9220   102.6120   108.6680   176.7210    22.6280   -15.8570     2.5270 
  196.6250    72.3000    64.1120    68.5260   126.2190    22.7880   -15.6090     2.5270 
  196.7500    69.5350    35.6430    38.1150    57.2240    22.9800   -15.4050     2.5030 
  196.8750    63.2260    20.5260    21.7350    20.5500    23.1970   -15.2420     2.4590 
  197.0000    58.2270    13.5530    13.8430    10.6740    23.3580   -15.1040     2.4130 
  197.1250    55.9500    10.0730    10.0170     8.5580    23.3830   -14.9970     2.3790 
  197.2500    55.8240     8.3250     8.0520     7.8040    23.3060   -14.9340     2.3590 
  197.3750    57.6610     7.7080     7.2700     7.0330    23.2420   -14.9420     2.3530 
  197.5000    59.3210     7.6250     7.0970     6.5640    23.2730   -15.0050     2.3560 
  197.6250    59.5360     7.7620     7.2130     6.5710    23.3750   -15.0880     2.3610 
  197.7500    58.9500     7.9740     7.4430     6.9820    23.4860   -15.1730     2.3650 
  197.8750    58.1500     8.1870     7.6960     7.2460    23.5300   -15.2370     2.3650 
  198.0000    57.1470     8.3400     7.9020     7.2090    23.4910   -15.2890     2.3610 
  198.1250    56.1220     8.4050     8.0150     7.1420    23.4090   -15.3490     2.3530 
  198.2500    55.4880     8.4090     8.0490     7.1420    23.3330   -15.4210     2.3440 
  198.3750    55.6530     8.4100     8.0220     7.2260    23.3040   -15.4860     2.3360 
  198.5000    56.8410     8.4570     7.9820     7.3340    23.3130   -15.5180     2.3320 
  198.6250    59.0850     8.5370     7.9380     7.4170    23.3450   -15.4910     2.3320 
  198.7500    61.2100     8.5990     7.8720     7.4600    23.4020   -15.3950     2.3340 
  198.8750    60.9050     8.5590     7.7280     7.4380    23.4780   -15.2170     2.3380 
  199.0000    59.1730     8.4030     7.4960     7.3190    23.5320   -14.9980     2.3410 
  199.1250    59.0640     8.1930     7.2120     7.1570    23.5180   -14.7630     2.3410 
  199.2500    60.7750     8.0030     6.9380     6.9240    23.4350   -14.5240     2.3390 
  199.3750    61.8750     7.9240     6.7600     6.6630    23.3110   -14.2980     2.3340 
  199.5000    61.2550     7.9540     6.6920     6.5500    23.2230   -14.0850     2.3260 
  199.6250    60.7290     8.0270     6.6950     6.7960    23.1940   -13.8770     2.3190 
  199.7500    61.1460     8.0800     6.7090     7.2970    23.1890   -13.6800     2.3200 
  199.8750    61.9530     8.0630     6.6890     7.3510    23.1820   -13.4670     2.3370 
  200.0000    62.5870     8.0150     6.6500     6.8940    23.1780   -13.1890     2.3680 
  200.1250    63.4880     8.0070     6.6400     6.3510    23.1880   -12.8190     2.3980 
  200.2500    65.0660     8.0720     6.6790     5.9110    23.2100   -12.3650     2.4170 
  200.3750    66.3340     8.2150     6.7720     6.6300    23.2430   -11.8120     2.4100 
  200.5000    67.2490     8.3590     6.8680     7.6560    23.2650   -11.2120     2.3870 
  200.6250    69.6140     8.4210     6.9080     7.7680    23.2620   -10.6090     2.3620 
  200.7500    73.3340     8.3870     6.8760     7.2500    23.2500   -10.0070     2.3480 
  200.8750    78.6020     8.2800     6.7740     6.7840    23.2470    -9.4300     2.3510 
  201.0000    86.6060     8.1950     6.6640     6.6720    23.2430    -8.9010     2.3650 
  201.1250    95.5970     8.2010     6.6000     6.7920    23.2240    -8.4470     2.3810 
  201.2500   101.8380     8.2910     6.5920     6.9690    23.1900    -8.0680     2.3980 
  201.3750   103.0810     8.4330     6.6350     7.0150    23.1450    -7.7780     2.4100 
  201.5000   103.0350     8.5600     6.6850     7.1600    23.0920    -7.5530     2.4150 
  201.6250   103.3600     8.6390     6.7160     7.1960    23.0390    -7.3770     2.4170 
  201.7500   103.1650     8.6830     6.7290     7.0520    22.9980    -7.2430     2.4190 
  201.8750   102.8070     8.7120     6.7360     6.9610    22.9880    -7.1580     2.4230 
  202.0000   102.7520     8.7550     6.7570     7.1310    22.9940    -7.1050     2.4310 
  202.1250   100.4110     8.8300     6.8020     7.3310    22.9990    -7.0420     2.4390 
  202.2500    94.7470     8.9460     6.8760     7.2750    23.0010    -6.9430     2.4460 
  202.3750    87.2910     9.1480     7.0100     7.1070    22.9970    -6.7960     2.4470 
  202.5000    82.3230     9.4660     7.2280     6.9150    22.9640    -6.6320     2.4410 
  202.6250    81.6290     9.9000     7.5480     7.0710    22.8960    -6.4740     2.4290 
  202.7500    82.3450    10.3950     7.9480     7.4150    22.8210    -6.3260     2.4140 
  202.8750    81.4720    10.8420     8.3690     7.4710    22.8030    -6.1990     2.3990 
  203.0000    80.2630    11.1330     8.7140     7.3530    22.8650    -6.0870     2.3910 
  203.1250    81.0660    11.2430     8.9140     7.3760    22.9810    -5.9910     2.3940 
  203.2500    83.2730    11.2450     8.9900     7.6310    23.1100    -5.9150     2.4050 
  203.3750    84.1730    11.2220     8.9730     8.1850    23.2260    -5.8670     2.4250 
  203.5000    83.9090    11.2470     8.9410     8.6360    23.3220    -5.8200     2.4430 
  203.6250    84.1880    11.3380     8.9370     8.8520    23.3750    -5.7560     2.4550 
  203.7500    84.8420    11.4680     8.9580     9.0140    23.3770    -5.6810     2.4590 
  203.8750    84.2920    11.6060     8.9910     9.2090    23.3370    -5.5890     2.4530 
  204.0000    82.0780    11.7260     9.0120     9.3250    23.3010    -5.4820     2.4420 
  204.1250    80.0620    11.8220     9.0160     9.2910    23.2680    -5.3710     2.4310 
  204.2500    79.4540    11.9080     9.0140     9.1590    23.2230    -5.2580     2.4240 
  204.3750    80.2330    12.0060     9.0300     8.7970    23.1610    -5.1220     2.4270 
  204.5000    80.6380    12.1360     9.0820     8.4900    23.1000    -4.9640     2.4360 
  204.6250    80.1980    12.2900     9.1650     8.5430    23.0490    -4.7940     2.4490 
  204.7500    80.5300    12.4440     9.2640     8.9980    23.0100    -4.6190     2.4600 
  204.8750    82.4950    12.5590     9.3620     9.9040    22.9990    -4.4590     2.4630 
  205.0000    83.2460    12.6310     9.4450    10.4670    23.0100    -4.3230     2.4600 
  205.1250    81.4980    12.6760     9.5130    10.3130    23.0260    -4.1980     2.4550 
  205.2500    79.2070    12.7110     9.5720     9.8240    23.0430    -4.0820     2.4510 
  205.3750    78.8440    12.7450     9.6240     9.3650    23.0800    -3.9770     2.4490 
  205.5000    79.2810    12.7800     9.6760     9.1810    23.1300    -3.8760     2.4510 
  205.6250    78.0640    12.8160     9.7320     8.9740    23.1580    -3.7700     2.4540 
  205.7500    75.4310    12.8630     9.7950     8.6170    23.1520    -3.6590     2.4550 
  205.8750    74.0030    12.9500     9.8750     8.4150    23.1270    -3.5280     2.4560 
  206.0000    75.0690    13.0840     9.9770     8.4730    23.1170    -3.3740     2.4590 
  206.1250    76.2120    13.2450    10.0940     8.7690    23.1290    -3.2060     2.4650 
  206.2500    75.7460    13.4090    10.2180     9.2340    23.1480    -3.0370     2.4670 
  206.3750    74.9600    13.5320    10.3290     9.7060    23.1730    -2.8810     2.4620 
  206.5000    76.2550    13.5780    10.4110    10.1000    23.1990    -2.7540     2.4490 
  206.6250    78.7780    13.5330    10.4520    10.3800    23.2230    -2.6680     2.4380 
  206.7500    80.5340    13.4300    10.4620    10.4730    23.2560    -2.6090     2.4340 
  206.8750    80.6280    13.3470    10.4670    10.1880    23.3300    -2.5710     2.4410 
  207.0000    80.5990    13.3700    10.5120     9.5980    23.4370    -2.5440     2.4530 
  207.1250    81.4870    13.5320    10.6310     9.0640    23.5040    -2.5160     2.4640 
  207.2500    83.0900    13.7830    10.8130     9.1400    23.4800    -2.4800     2.4720 
  207.3750    84.8220    14.0110    11.0060    10.7210    23.3630    -2.4330     2.4770 
