~V
VERS. 2.00: Ver 2.00
~W
STRT.M 64.0000:
STOP.M 235.0000:
STEP.M 0.1250:
NULL. -999.2500:
UWI. F10178:
~C
DEPT.M :
GR.API :
RML.OHMM :
RI. :
RXO.OHMM :
CALI.CM :
DEN.GM/CC :
SP.MV :
~A
# ...
  131.5000   101.2350     6.0980     5.3110     5.7270    24.7270     2.3090   -13.6880 
  131.6250    95.2720     6.5800     5.7150     6.6940    24.7180     2.3070   -13.7620 
  131.7500    90.8070     7.3130     6.4000     7.7280    24.7440     2.3090   -13.9320 
  131.8750    88.5070     8.2750     7.3010     8.9810    24.7990     2.3060   -14.1840 
  132.0000    87.6240     9.5250     8.4300     9.2060    24.8640     2.2900   -14.5020 
  132.1250    85.2950    11.1560     9.9080     9.4980    24.8680     2.2570   -14.8020 
  132.2500    78.6660    12.9280    11.6490    12.2850    24.7960     2.2260   -15.0210 
  132.3750    70.0080    14.3780    13.2910    20.0140    24.7110     2.2150   -15.1590 
  132.5000    64.5010    14.9310    14.1350    26.5690    24.6610     2.2320   -15.2070 
  132.6250    65.2350    14.0450    13.3640    22.4580    24.6220     2.2690   -15.1240 
  132.7500    70.7530    12.2230    11.5450    15.4610    24.5070     2.3020   -14.9350 
  132.8750    79.9650    10.1320     9.4850    10.2930    24.4470     2.3150   -14.6790 
  133.0000    88.3960     8.4280     7.8210     7.5520    24.4390     2.3080   -14.4060 
  133.1250    90.5950     7.6740     6.9730     6.8590    24.4550     2.2970   -14.1880 
  133.2500    90.2270     7.8790     6.8870     6.8430    24.4470     2.2980   -14.0600 
  133.3750    90.1180     9.0610     7.5950     7.2790    24.4060     2.3220   -14.0180 
  133.5000    87.2430    11.1890     9.1610     9.4170    24.3550     2.3690   -14.0410 
  133.6250    77.4440    14.1280    11.7190    15.5080    24.3620     2.4310   -14.1050 
  133.7500    66.8360    17.1490    14.7650    21.8890    24.4530     2.4960   -14.2140 
  133.8750    60.2780    19.4840    17.4970    22.5980    24.5240     2.5520   -14.3330 
  134.0000    58.8780    20.5020    18.9780    20.5510    24.5510     2.5900   -14.4060 
  134.1250    60.8750    19.8870    18.6130    19.8920    24.5440     2.6020   -14.4270 
  134.2500    61.7680    18.4500    17.3040    18.1860    24.4330     2.5950   -14.4320 
  134.3750    59.2470    16.8940    15.8320    16.1060    24.2100     2.5750   -14.4270 
  134.5000    56.2690    15.7370    14.6850    14.0940    23.9270     2.5500   -14.4250 
  134.6250    57.1230    15.3140    14.1430    13.4780    23.9460     2.5290   -14.4670 
  134.7500    59.2690    15.4960    14.1270    13.4320    23.9280     2.5180   -14.5060 
  134.8750    58.7560    16.1410    14.5700    14.6400    23.9210     2.5180   -14.5300 
  135.0000    56.5700    17.0330    15.3300    16.9550    23.9510     2.5250   -14.5730 
  135.1250    55.7690    17.8690    16.1610    17.2510    24.0360     2.5350   -14.6240 
  135.2500    55.8380    18.4010    16.7700    16.0990    24.1270     2.5430   -14.6500 
  135.3750    55.5080    18.5200    17.0020    15.7450    24.2560     2.5480   -14.6660 
  135.5000    57.2980    18.2520    16.8430    15.6620    24.3790     2.5480   -14.6820 
  135.6250    62.4060    17.7140    16.3940    15.4920    24.4730     2.5400   -14.6800 
  135.7500    65.8640    17.1260    15.8840    14.8820    24.4530     2.5270   -14.6790 
  135.8750    65.0330    16.6040    15.4270    14.4140    24.4140     2.5130   -14.6960 
  136.0000    62.4770    16.2020    15.0790    15.0060    24.4400     2.5050   -14.7140 
  136.1250    63.1480    15.9490    14.8700    15.7410    24.5000     2.5060   -14.7120 
  136.2500    65.7140    15.8050    14.7670    15.7240    24.4980     2.5100   -14.7010 
  136.3750    67.6560    15.7570    14.7530    14.9280    24.4910     2.5100   -14.6750 
  136.5000    67.2260    15.8090    14.8250    14.7100    24.4750     2.5030   -14.5980 
  136.6250    65.3210    15.9950    15.0180    15.3260    24.5050     2.4890   -14.4330 
  136.7500    64.6460    16.2810    15.3190    15.8500    24.4770     2.4760   -14.2560 
  136.8750    63.3420    16.5870    15.6750    15.8460    24.4500     2.4670   -14.0780 
  137.0000    59.8510    16.7770    15.9590    16.3960    24.4570     2.4660   -13.8810 
  137.1250    56.8380    16.6480    15.9500    17.1180    24.4570     2.4780   -13.6880 
  137.2500    57.2260    16.1940    15.5950    17.2680    24.4450     2.4980   -13.4900 
  137.3750    61.9220    15.5140    14.9710    16.2890    24.4340     2.5180   -13.2810 
  137.5000    67.2790    14.8080    14.2700    14.0230    24.4390     2.5300   -13.1310 
  137.6250    67.8580    14.3520    13.7640    12.5260    24.4290     2.5250   -13.1290 
  137.7500    63.8330    14.2370    13.5740    12.7600    24.4040     2.5070   -13.1920 
  137.8750    58.8980    14.4200    13.6920    13.5020    24.3320     2.4820   -13.2880 
  138.0000    55.9850    14.7380    13.9920    14.3780    24.2430     2.4650   -13.4260 
  138.1250    54.0600    14.9560    14.2450    15.1790    24.2220     2.4660   -13.5380 
  138.2500    52.7720    14.9680    14.2970    15.0460    24.1320     2.4810   -13.6080 
  138.3750    52.8300    14.8310    14.1650    13.6370    23.8820     2.5000   -13.6450 
  138.5000    54.5840    14.7100    13.9990    12.1790    23.6760     2.5150   -13.6310 
  138.6250    57.7520    14.8390    14.0290    12.5460    23.6440     2.5180   -13.5840 
  138.7500    59.3530    15.2660    14.3360    13.5220    23.6540     2.5150   -13.5540 
  138.8750    58.8940    15.9200    14.8920    14.8890    23.6710     2.5090   -13.5430 
  139.0000    57.5310    16.6320    15.5650    16.0700    23.7780     2.5020   -13.5350 
  139.1250    55.5050    17.1640    16.1200    16.8980    23.9110     2.4940   -13.5620 
  139.2500    53.0640    17.4150    16.4050    17.6140    24.0100     2.4850   -13.5990 
  139.3750    52.6110    17.4000    16.4010    16.9900    23.9550     2.4780   -13.6500 
  139.5000    54.9240    17.2300    16.2180    15.4620    23.8100     2.4760   -13.7530 
  139.6250    56.2900    17.0830    16.0320    14.5330    23.6320     2.4820   -13.8470 
  139.7500    55.2060    17.0960    15.9810    14.2020    23.5160     2.4930   -13.8900 
  139.8750    53.5070    17.3200    16.1240    13.8730    23.4750     2.5070   -13.9100 
  140.0000    52.3660    17.7320    16.4600    14.2300    23.4750     2.5200   -13.9260 
  140.1250    52.6290    18.2390    16.9160    15.1680    23.5240     2.5300   -13.9660 
  140.2500    53.5660    18.6970    17.3380    15.8540    23.6360     2.5350   -14.0510 
  140.3750    54.1790    19.0340    17.6440    16.8040    23.8200     2.5310   -14.1350 
  140.5000    53.0080    19.2390    17.8280    17.7080    24.0420     2.5190   -14.1560 
  140.6250    50.1740    19.3220    17.9070    18.3210    24.2720     2.5050   -14.1560 
  140.7500    47.6660    19.3170    17.9160    18.4990    24.4010     2.4980   -14.1980 
  140.8750    47.1840    19.2170    17.8510    19.2380    24.4370     2.5040   -14.2440 
  141.0000    49.0570    19.0140    17.7010    20.5930    24.3780     2.5230   -14.2780 
  141.1250    51.2230    18.7070    17.4540    19.3600    24.1780     2.5470   -14.3230 
  141.2500    51.0400    18.3720    17.1630    16.4260    23.9660     2.5680   -14.4000 
  141.3750    47.7970    18.0750    16.8860    14.7160    23.8070     2.5840   -14.5300 
  141.5000    44.1840    17.8600    16.6710    15.1100    23.7380     2.5950   -14.7270 
  141.6250    44.8670    17.7210    16.5360    15.7380    23.7490     2.6060   -14.9110 
  141.7500    48.2100    17.5710    16.4120    15.6500    23.7730     2.6170   -15.0020 
  141.8750    51.3470    17.3410    16.2230    14.8320    23.8040     2.6250   -15.0360 
  142.0000    53.1110    17.0100    15.9280    14.6620    23.8110     2.6230   -15.0410 
  142.1250    53.8380    16.6380    15.5730    14.3170    23.7760     2.6060   -14.9620 
  142.2500    54.2910    16.3440    15.2730    13.8170    23.7260     2.5800   -14.8000 
  142.3750    54.8150    16.2000    15.1060    13.3730    23.7130     2.5580   -14.5570 
  142.5000    55.7150    16.2210    15.0950    13.8660    23.7330     2.5470   -14.2720 
  142.6250    57.6230    16.3680    15.2130    15.2620    23.7590     2.5500   -14.0760 
