~V
VERS. 2.00: Ver 2.00
~W
STRT.M 50.0000:
STOP.M 252.0000:
STEP.M 0.1250:
NULL. -999.2500:
UWI. F10101:
~C
DEPT.M :
DEN.GM/CC :
SP.MV :
GR.API :
RML.OHMM :
RI. :
RXO.OHMM :
CALI.CM :
~A
# ...
   61.2500     2.1540   -21.9310    68.8810     8.6640     6.6770     7.7950    22.7410 
   61.3750     2.1160   -21.8220    67.6250     8.5080     6.6220     7.7810    22.8480 
   61.5000     2.0800   -21.6020    63.9300     8.3720     6.5660     7.6090    22.8580 
   61.6250     2.0520   -21.2550    61.9340     8.3240     6.5120     7.3860    22.7050 
   61.7500     2.0310   -20.8420    64.6210     8.3170     6.4480     7.2730    22.4540 
   61.8750     2.0210   -20.3280    69.2990     8.2410     6.3460     7.3060    22.2270 
   62.0000     2.0320   -19.7590    74.0580     7.9970     6.1720     7.3630    22.0830 
   62.1250     2.0780   -19.1470    82.6080     7.5640     5.9110     7.2310    22.0050 
   62.2500     2.1500   -18.5410    94.9350     7.1400     5.6450     6.5930    21.9980 
   62.3750     2.2240   -17.9630   103.7260     6.9570     5.4990     5.9370    22.0130 
   62.5000     2.2740   -17.4760   103.4840     7.2040     5.6150     5.7720    21.9730 
   62.6250     2.2930   -17.0680    98.7410     8.0370     6.1430     6.0290    21.8050 
   62.7500     2.3110   -16.8010    94.2370     9.2510     6.9780     7.0150    21.5730 
   62.8750     2.3430   -16.6120    91.2120    10.5030     7.9070     9.3100    21.4630 
   63.0000     2.3830   -16.5420    90.1200    11.2290     8.5580    12.2330    21.5680 
   63.1250     2.4090   -16.5630    91.8860    10.7920     8.4610    11.1320    21.7630 
   63.2500     2.3990   -16.6670    94.5300     9.6080     7.7780     8.2250    22.0270 
   63.3750     2.3540   -16.8300    97.1870     8.3090     6.8760     6.5880    22.3330 
   63.5000     2.3010   -17.0550   100.4480     7.3720     6.1020     6.1190    22.6600 
   63.6250     2.2690   -17.3600   103.9480     7.0570     5.6990     6.2000    22.8840 
   63.7500     2.2500   -17.6920   105.1730     7.1960     5.6340     6.6830    22.9420 
   63.8750     2.2300   -18.0850   103.7790     7.5980     5.8210     7.6580    22.8260 
   64.0000     2.2050   -18.4770    99.7560     8.0500     6.1280     7.9610    22.6880 
   64.1250     2.1780   -18.8920    93.5970     8.3980     6.4330     7.5180    22.4970 
   64.2500     2.1590   -19.2490    87.8150     8.6660     6.6900     7.1680    22.2350 
   64.3750     2.1510   -19.6010    84.1330     8.9130     6.9090     6.9940    21.9570 
   64.5000     2.1550   -19.8680    82.1070     9.1710     7.1090     6.9200    21.7070 
   64.6250     2.1690   -20.0880    80.0000     9.3890     7.2790     7.1560    21.4720 
   64.7500     2.1850   -20.2320    77.9930     9.4530     7.3600     7.5030    21.3130 
   64.8750     2.1940   -20.3290    78.2890     9.2690     7.2830     7.6720    21.3000 
   65.0000     2.1910   -20.3630    79.9490     8.8740     7.0460     7.5940    21.3960 
   65.1250     2.1890   -20.3570    80.9450     8.4930     6.7640     7.3100    21.5680 
   65.2500     2.2080   -20.3690    82.7330     8.3850     6.6080     6.9280    21.7700 
   65.3750     2.2480   -20.3810    88.0060     8.6730     6.6830     6.8300    21.9800 
   65.5000     2.2880   -20.4300    93.3300     9.3370     7.0210     7.6160    22.1790 
   65.6250     2.3060   -20.4880    89.8280    10.1850     7.5580    10.0870    22.2940 
   65.7500     2.3000   -20.5950    80.1340    10.8350     8.0540    13.8130    22.2680 
   65.8750     2.2650   -20.7060    72.9860    11.0420     8.3110    13.2090    22.0960 
   66.0000     2.2060   -20.8510    71.8530    10.7930     8.2490     9.5070    21.8480 
   66.1250     2.1530   -21.0080    70.9940    10.2930     7.9360     8.0560    21.6760 
   66.2500     2.1240   -21.1810    69.3500     9.8590     7.6050     7.7000    21.6100 
   66.3750     2.1180   -21.3350    70.2630     9.6150     7.3860     7.7100    21.6370 
   66.5000     2.1230   -21.4800    73.0460     9.5530     7.3100     7.8020    21.7190 
   66.6250     2.1300   -21.5560    71.3870     9.5900     7.3340     7.9120    21.8730 
   66.7500     2.1350   -21.6320    67.3280     9.6280     7.3640     8.0140    22.0010 
   66.8750     2.1390   -21.6630    65.4830     9.6530     7.3730     7.9790    22.0930 
   67.0000     2.1450   -21.7180    64.8540     9.6680     7.3610     7.9140    22.1800 
   67.1250     2.1500   -21.7540    64.5250     9.6570     7.3350     8.0410    22.2530 
   67.2500     2.1510   -21.7760    64.7170     9.5960     7.2920     8.1990    22.3150 
   67.3750     2.1480   -21.7790    65.6060     9.4770     7.2260     8.2450    22.3480 
   67.5000     2.1480   -21.7670    65.9260     9.3180     7.1340     8.1290    22.3520 
   67.6250     2.1520   -21.7940    65.1460     9.1730     7.0230     7.9470    22.3460 
   67.7500     2.1590   -21.7640    64.9120     9.0820     6.9130     7.8990    22.3230 
   67.8750     2.1660   -21.7650    66.1720     9.0470     6.8210     7.9740    22.2670 
   68.0000     2.1690   -21.7240    69.8160     9.0450     6.7570     8.0010    22.2320 
   68.1250     2.1650   -21.6890    74.4230     9.0380     6.7230     7.9590    22.2610 
   68.2500     2.1510   -21.6290    77.9150     9.0100     6.7060     7.9830    22.3330 
   68.3750     2.1330   -21.5700    79.0650     8.9740     6.7010     7.9080    22.4120 
   68.5000     2.1190   -21.4860    77.5120     8.9610     6.7120     7.7430    22.5340 
   68.6250     2.1140   -21.4100    75.3610     9.0160     6.7560     7.7170    22.6820 
   68.7500     2.1180   -21.3150    74.9390     9.1310     6.8280     7.8150    22.7650 
   68.8750     2.1250   -21.2200    75.2870     9.2650     6.9060     7.8590    22.7570 
   69.0000     2.1360   -21.1070    75.1130     9.3420     6.9500     7.8230    22.6330 
   69.1250     2.1480   -20.9880    76.3050     9.2530     6.8920     7.8140    22.4200 
   69.2500     2.1600   -20.8850    78.8940     8.9900     6.7150     7.7740    22.3960 
   69.3750     2.1760   -20.7760    81.9110     8.6050     6.4400     7.6270    22.6770 
   69.5000     2.2000   -20.7230    86.1330     8.2140     6.1320     7.1850    23.0310 
   69.6250     2.2280   -20.6480    90.9670     7.9820     5.9000     6.8530    23.2000 
   69.7500     2.2440   -20.6890    94.9950     7.9710     5.8040     6.5980    23.2350 
   69.8750     2.2440   -20.7530    96.7210     8.1740     5.8640     6.6530    23.1570 
   70.0000     2.2320   -20.9060    93.9520     8.5320     6.0540     6.9350    23.0220 
   70.1250     2.2150   -21.0710    85.5360     8.9420     6.3150     7.4420    22.9480 
   70.2500     2.1960   -21.2780    77.4990     9.2820     6.5590     7.7760    22.9060 
   70.3750     2.1770   -21.4720    73.3310     9.4830     6.7360     8.0000    22.8490 
   70.5000     2.1610   -21.6570    70.2980     9.5260     6.8200     8.1190    22.7730 
   70.6250     2.1470   -21.8840    68.3390     9.4210     6.8000     8.1200    22.7090 
   70.7500     2.1370   -22.0140    71.1240     9.2540     6.7190     8.0820    22.7180 
   70.8750     2.1310   -22.1530    75.8620     9.0850     6.6100     7.8620    22.7620 
   71.0000     2.1280   -22.2370    75.7500     8.9480     6.5030     7.5280    22.7950 
   71.1250     2.1250   -22.3340    71.1240     8.8640     6.4260     7.4250    22.8030 
   71.2500     2.1240   -22.4040    69.2610     8.8290     6.3920     7.5440    22.7790 
   71.3750     2.1300   -22.5200    71.8320     8.8430     6.4030     7.6900    22.7200 
   71.5000     2.1400   -22.5840    75.2880     8.9020     6.4540     7.8920    22.6800 
   71.6250     2.1500   -22.6390    74.7350     8.9900     6.5300     8.3340    22.6440 
   71.7500     2.1550   -22.7000    72.0530     9.0840     6.5960     8.8970    22.5890 
   71.8750     2.1600   -22.7020    69.5720     9.1600     6.6300     9.2060    22.5360 
   72.0000     2.1660   -22.6820    68.3050     9.2010     6.6280     9.1960    22.5160 
   72.1250     2.1710   -22.6360    68.2820     9.1850     6.5900     9.0930    22.5260 
   72.2500     2.1730   -22.5660    68.9270     9.1240     6.5280     8.7970    22.5670 
   72.3750     2.1680   -22.4820    69.9470     9.0350     6.4490     8.3000    22.6530 
