~V
VERS. 2.00: Ver 2.00
~W
STRT.M 50.0000:
STOP.M 294.0000:
STEP.M 0.1250:
NULL. -999.2500:
UWI. F10104:
~C
DEPT.M :
GR.API :
RML.OHMM :
RI. :
RXO.OHMM :
CALI.CM :
DEN.GM/CC :
SP.MV :
~A
# ...
  207.5000    79.5190    92.8460    83.4180    65.1010    24.9210     2.1970   -24.0480 
  207.6250    79.8530    90.2980    81.0610    63.5040    25.1160     2.1960   -23.9920 
  207.7500    79.1710    87.3590    78.2510    64.3110    25.2900     2.1910   -23.9550 
  207.8750    79.1150    83.9690    75.0340    64.6290    25.0920     2.1830   -23.9450 
  208.0000    79.7490    80.3570    71.7130    59.4090    24.7700     2.1780   -23.9340 
  208.1250    79.1950    77.3160    69.0950    51.7770    24.9950     2.1800   -23.9320 
  208.2500    76.9940    75.6680    67.8620    47.3370    25.2390     2.1850   -23.9420 
  208.3750    74.9300    75.9400    68.3810    48.2860    25.3300     2.1890   -23.9700 
  208.5000    75.3310    78.0930    70.5060    51.9250    25.3400     2.1900   -23.9850 
  208.6250    75.4630    81.4210    73.5270    57.1470    25.3650     2.1930   -24.0100 
  208.7500    71.0310    84.4580    76.1750    59.6170    25.0850     2.1990   -24.0200 
  208.8750    67.3870    86.4190    77.8290    60.7460    25.0350     2.2070   -24.0300 
  209.0000    69.7790    87.3210    78.6210    61.5410    25.2700     2.2140   -24.0180 
  209.1250    72.2670    87.8740    79.2730    64.1000    25.2480     2.2160   -24.0090 
  209.2500    70.6120    88.8220    80.3660    66.4970    25.0160     2.2100   -23.9910 
  209.3750    70.2520    90.2520    81.8640    67.1750    24.8620     2.1970   -23.9550 
  209.5000    73.9370    91.7540    83.3000    67.2200    24.9160     2.1850   -23.9160 
  209.6250    76.1730    92.4810    83.9020    67.5350    25.0320     2.1820   -23.8560 
  209.7500    74.8230    92.0700    83.4870    67.6700    25.0700     2.1850   -23.7950 
  209.8750    73.5780    90.5360    82.1890    67.2670    25.1320     2.1900   -23.7120 
  210.0000    74.0470    88.2050    80.3230    67.1950    24.8870     2.1910   -23.6560 
  210.1250    74.3060    85.5280    78.2050    66.7550    24.6730     2.1920   -23.5910 
  210.2500    75.1490    83.0080    76.1930    64.7820    24.7130     2.1940   -23.5220 
  210.3750    78.9440    81.0730    74.6930    61.0850    24.6320     2.1990   -23.4590 
  210.5000    83.6360    80.2040    74.1860    59.5050    24.4890     2.2040   -23.4140 
  210.6250    81.8150    81.0370    75.2220    60.0340    24.7630     2.2070   -23.3730 
  210.7500    75.9370    83.2770    77.4400    61.4870    24.9860     2.2100   -23.3440 
  210.8750    73.3760    86.4180    80.3200    61.2710    25.0780     2.2160   -23.3250 
  211.0000    76.3050    89.7060    83.1700    60.2440    25.0240     2.2230   -23.2870 
  211.1250    78.7060    92.1600    85.1210    61.9760    25.0980     2.2270   -23.2500 
  211.2500    77.1970    93.2830    85.7870    66.6320    25.1670     2.2240   -23.2000 
  211.3750    75.0050    92.8160    84.9680    69.6330    25.0930     2.2180   -23.1590 
  211.5000    75.6650    90.6720    82.6320    70.4120    25.2330     2.2100   -23.1000 
  211.6250    79.4380    86.7250    78.7420    69.2030    25.5160     2.1990   -23.0640 
  211.7500    81.1230    81.7020    74.0040    64.6220    25.5460     2.1870   -23.0100 
  211.8750    77.8370    76.3250    69.0780    59.8950    25.3840     2.1800   -22.9600 
  212.0000    73.4890    71.4200    64.6740    58.3970    25.1070     2.1840   -22.9010 
  212.1250    73.0140    67.9800    61.6790    56.1500    24.9530     2.1970   -22.8480 
  212.2500    73.6220    66.3400    60.3560    52.6200    24.9670     2.2100   -22.8010 
  212.3750    73.1820    66.6800    60.7690    51.8750    25.0740     2.2190   -22.7500 
  212.5000    73.0410    68.7270    62.5540    56.7610    24.9040     2.2230   -22.6950 
  212.6250    75.3160    71.6880    64.9170    60.3080    24.5080     2.2220   -22.6290 
  212.7500    76.6230    74.1890    66.7230    60.4520    23.9590     2.2170   -22.5770 
  212.8750    75.1310    75.3690    67.3130    59.5000    23.7030     2.2090   -22.5170 
  213.0000    72.2620    74.9260    66.5370    60.0970    23.6220     2.1990   -22.4900 
  213.1250    70.3370    72.9370    64.5340    61.4200    23.5640     2.1930   -22.4600 
  213.2500    69.8340    70.0790    61.8040    62.0860    23.5080     2.1910   -22.4540 
  213.3750    71.4490    66.5670    58.4640    61.2850    23.4630     2.1930   -22.4620 
  213.5000    75.0900    62.5920    54.7280    56.6430    23.4110     2.1980   -22.5040 
  213.6250    79.5310    58.7770    51.2960    49.3850    23.3290     2.2060   -22.5620 
  213.7500    81.7340    56.0310    49.0540    42.5460    23.2160     2.2170   -22.6390 
  213.8750    82.0290    55.0430    48.5990    40.1410    23.1160     2.2280   -22.7480 
  214.0000    80.5830    55.9880    49.9490    43.0080    23.0580     2.2330   -22.8600 
  214.1250    76.5880    58.4410    52.5010    45.2150    23.0450     2.2340   -23.0020 
  214.2500    73.3640    60.8770    54.7830    46.6320    23.0380     2.2350   -23.1480 
  214.3750    73.4190    62.0380    55.6740    49.3980    23.0410     2.2360   -23.2980 
  214.5000    74.8120    61.1870    54.5910    51.2370    23.0570     2.2350   -23.4300 
  214.6250    74.7340    58.2240    51.5750    47.7390    23.0800     2.2320   -23.5840 
  214.7500    74.5130    54.4240    47.9130    39.7970    23.0690     2.2330   -23.7140 
  214.8750    75.8810    50.9230    44.7370    33.5500    23.0480     2.2410   -23.8350 
  215.0000    77.5550    48.8330    43.1050    31.6920    23.0360     2.2500   -23.9260 
  215.1250    78.0580    49.4560    44.0970    33.9310    23.0350     2.2510   -23.9920 
  215.2500    77.1030    52.5430    47.1320    39.4180    23.0350     2.2440   -24.0340 
  215.3750    74.9890    57.1060    51.0260    48.3480    23.0370     2.2330   -24.0340 
  215.5000    72.1810    61.0960    53.8650    52.3510    23.0410     2.2260   -24.0260 
  215.6250    70.0600    61.5380    53.2870    49.1940    23.0400     2.2270   -23.9650 
  215.7500    70.1090    58.3180    49.7420    47.5010    23.0370     2.2340   -23.9140 
  215.8750    73.4090    52.8350    44.7120    45.4910    23.0350     2.2420   -23.8390 
  216.0000    77.6370    46.9180    39.7280    39.6480    23.0350     2.2530   -23.7830 
  216.1250    80.0580    42.0290    35.8420    35.0710    23.0350     2.2630   -23.7280 
  216.2500    81.3650    38.4520    33.1160    32.7600    23.0350     2.2680   -23.6840 
  216.3750    82.5720    36.1890    31.5560    31.6120    23.0350     2.2680   -23.6630 
  216.5000    83.0980    35.2200    31.2320    29.5890    23.0350     2.2660   -23.6820 
  216.6250    83.3800    35.8610    32.5770    27.6230    23.0350     2.2640   -23.7420 
  216.7500    83.6850    38.1560    35.6090    28.5360    23.0350     2.2590   -23.8290 
  216.8750    81.6770    42.4290    40.4510    33.3560    23.0350     2.2470   -23.9580 
  217.0000    76.6350    48.7230    46.8660    44.3580    23.0350     2.2290   -24.0870 
  217.1250    72.3260    56.2590    53.8010    51.0370    23.0360     2.2140   -24.2430 
  217.2500    71.4000    62.8040    59.3030    53.4740    23.0480     2.2050   -24.3960 
  217.3750    71.9070    66.5760    62.0250    52.9660    23.0950     2.2010   -24.5630 
  217.5000    71.5390    67.1660    62.0110    51.1310    23.1950     2.1980   -24.6990 
  217.6250    70.7550    65.6480    60.5770    51.0880    23.3220     2.1950   -24.8340 
  217.7500    71.1310    63.9910    59.3590    52.1000    23.4340     2.1920   -24.9470 
  217.8750    72.9310    62.8950    58.8370    51.7270    23.5100     2.1880   -25.0280 
  218.0000    74.2650    62.4500    59.0170    50.8300    23.5470     2.1850   -25.0920 
  218.1250    73.7170    62.5380    59.7230    52.2940    23.5190     2.1830   -25.1300 
  218.2500    73.2970    62.7580    60.4310    58.6070    23.5040     2.1820   -25.1660 
  218.3750    73.6560    62.7120    60.6190    61.9930    23.5730     2.1840   -25.1650 
  218.5000    73.6880    62.0350    59.9110    60.1310    23.7510     2.1860   -25.1670 
  218.6250    72.4870    60.4840    58.1760    56.3670    24.0260     2.1890   -25.1290 
