~V
VERS. 2.00: Ver 2.00
~W
STRT.M 55.0000:
STOP.M 239.0000:
STEP.M 0.1250:
NULL. -999.2500:
UWI. F10186:
~C
DEPT.M :
GR.API :
RML.OHMM :
RI. :
RXO.OHMM :
CALI.CM :
DEN.GM/CC :
SP.MV :
~A
# ...
  190.0000    42.9630     8.5220     7.8250     8.8790    24.4950     2.4430    -8.6990 
  190.1250    43.5100     8.3270     7.6910     8.2160    24.5300     2.4120    -8.7340 
  190.2500    42.4250     8.1510     7.5830     7.5640    24.5630     2.3840    -8.7440 
  190.3750    41.3380     8.0160     7.4910     7.2840    24.5690     2.3660    -8.7460 
  190.5000    41.2690     7.8980     7.4000     7.1940    24.5510     2.3580    -8.7840 
  190.6250    41.0510     7.7540     7.2960     7.1440    24.5480     2.3520    -8.8330 
  190.7500    41.0770     7.6500     7.1920     7.1950    24.5690     2.3430    -8.9150 
  190.8750    43.6360     7.6320     7.1250     7.1410    24.5960     2.3310    -9.0480 
  191.0000    47.9590     7.7380     7.1610     7.1340    24.6420     2.3230    -9.2110 
  191.1250    49.5080     8.1530     7.4200     7.3850    24.6990     2.3290    -9.4200 
  191.2500    48.1210     8.8380     7.9180     7.9440    24.7350     2.3500    -9.6780 
  191.3750    46.8990     9.7100     8.6100     9.0060    24.7060     2.3810    -9.9180 
  191.5000    46.5200    10.5720     9.3530    10.8360    24.5710     2.4180   -10.1390 
  191.6250    46.0130    11.0880     9.8660    13.5940    24.3840     2.4540   -10.4150 
  191.7500    46.7830    11.1060     9.9730    16.4830    24.2900     2.4810   -10.6640 
  191.8750    48.5530    10.6480     9.6400    18.0320    24.2820     2.4880   -10.8070 
  192.0000    48.2830     9.9310     9.0230    15.5170    24.3640     2.4720   -10.8900 
  192.1250    46.1680     9.3180     8.4240    10.7130    24.5110     2.4400   -10.9720 
  192.2500    45.1320     9.0430     8.0750     8.2410    24.6000     2.4100   -11.0300 
  192.3750    44.8510     9.1370     8.0380     7.8850    24.6000     2.3940   -11.0470 
  192.5000    43.5110     9.4830     8.2540     8.7850    24.5280     2.3950   -11.0550 
  192.6250    41.0680     9.8530     8.5710     9.7490    24.4670     2.4090   -11.0650 
  192.7500    39.8270    10.0200     8.7810    10.5540    24.4520     2.4190   -11.0850 
  192.8750    42.0220     9.8840     8.7640    11.3100    24.4770     2.4150   -11.0960 
  193.0000    47.8470     9.4660     8.4930    11.3660    24.5260     2.3950   -11.1040 
  193.1250    51.6550     8.8960     8.0440    10.2370    24.5470     2.3670   -11.1080 
  193.2500    49.6400     8.3810     7.5910     8.5690    24.5590     2.3460   -11.1520 
  193.3750    45.3820     8.0280     7.2360     7.8710    24.5870     2.3390   -11.2420 
  193.5000    43.7170     7.8690     7.0240     7.6030    24.5980     2.3490   -11.3170 
  193.6250    47.3930     7.8920     6.9620     7.8240    24.6040     2.3730   -11.3740 
  193.7500    53.3620     8.0010     6.9870     8.5550    24.6970     2.3980   -11.5150 
  193.8750    59.6790     8.1370     7.0560     9.0190    24.8490     2.4140   -11.7670 
  194.0000    67.4410     8.2680     7.1450     8.0750    24.9020     2.4170   -12.0920 
  194.1250    76.7090     8.3870     7.2480     7.7080    24.9030     2.4090   -12.5010 
  194.2500    80.9100     8.5140     7.3700     7.7070    24.9420     2.4000   -12.9830 
  194.3750    77.2200     8.6580     7.5170     7.8120    25.0870     2.3970   -13.5340 
  194.5000    71.9490     8.8110     7.6780     8.5070    25.2350     2.4040   -14.1490 
  194.6250    73.4150     8.9260     7.8090     8.8140    25.2950     2.4160   -14.8390 
  194.7500    77.1250     8.9610     7.8690     9.0830    25.4100     2.4250   -15.5290 
  194.8750    79.3980     8.8910     7.8300     9.5500    25.7940     2.4210   -16.1950 
  195.0000    80.8840     8.7280     7.6970     9.6250    26.5060     2.4030   -16.8350 
  195.1250    83.8450     8.5210     7.5040     9.1820    27.3950     2.3700   -17.3820 
  195.2500    89.7140     8.3520     7.3250     8.3760    28.0960     2.3350   -17.8880 
  195.3750    94.2260     8.2710     7.2070     7.6970    28.2900     2.3090   -18.3830 
  195.5000    92.4270     8.2960     7.1720     7.3640    27.8510     2.3030   -18.8670 
  195.6250    86.3260     8.4120     7.2250     7.6630    27.1130     2.3200   -19.2270 
  195.7500    82.5600     8.5540     7.3170     8.3770    26.7410     2.3440   -19.4900 
  195.8750    80.5630     8.6690     7.4040     8.8530    26.7980     2.3620   -19.7290 
  196.0000    75.9350     8.7230     7.4500     8.9920    27.0950     2.3650   -19.9540 
  196.1250    71.5510     8.7010     7.4300     9.0020    27.3750     2.3590   -20.1030 
  196.2500    72.1120     8.6440     7.3690     8.9420    27.5440     2.3550   -20.1460 
  196.3750    75.4600     8.5990     7.3080     8.8820    27.6180     2.3590   -20.1150 
  196.5000    78.5060     8.6120     7.2910     8.7220    27.6200     2.3720   -20.1000 
  196.6250    79.5160     8.7290     7.3620     8.4060    27.5920     2.3880   -20.1980 
  196.7500    78.0040     8.9280     7.5120     8.4300    27.6250     2.3930   -20.3530 
  196.8750    73.3220     9.1750     7.7120     8.6530    27.6360     2.3780   -20.4910 
  197.0000    67.5750     9.4160     7.9190     8.5000    27.4280     2.3430   -20.6010 
  197.1250    66.1380     9.5760     8.0720     8.1650    26.8490     2.3000   -20.7710 
  197.2500    69.2140     9.6310     8.1410     8.1110    26.1240     2.2690   -20.9940 
  197.3750    73.3850     9.5890     8.1240     8.4510    25.4540     2.2570   -21.1940 
  197.5000    76.1160     9.4900     8.0450     8.8060    24.8780     2.2650   -21.2720 
  197.6250    75.4560     9.4020     7.9520     8.9440    24.6400     2.2840   -21.2230 
  197.7500    72.0110     9.3820     7.9030     8.7700    24.5770     2.3020   -21.1220 
  197.8750    68.5500     9.4630     7.9390     8.5530    24.5750     2.3130   -20.9900 
  198.0000    65.7720     9.6850     8.1020     8.6710    24.5750     2.3190   -20.7900 
  198.1250    63.6380    10.1620     8.4900     9.1330    24.5710     2.3230   -20.4370 
  198.2500    61.4610    10.9570     9.1430     9.7750    24.5450     2.3280   -19.9540 
  198.3750    60.2550    12.0820    10.0820    10.7980    24.4600     2.3400   -19.3920 
  198.5000    59.6640    13.3760    11.2030    12.6040    24.3140     2.3660   -18.7760 
  198.6250    61.3180    14.3410    12.1540    15.3080    24.1610     2.4150   -18.0600 
  198.7500    66.3330    14.4880    12.5140    18.6910    24.0680     2.4790   -17.2100 
  198.8750    69.4010    13.5510    11.9920    21.4640    24.0000     2.5380   -16.2460 
  199.0000    65.8650    11.6720    10.6150    22.0600    23.9360     2.5680   -15.2420 
  199.1250    58.2480     9.4360     8.8010    16.9850    23.9460     2.5480   -14.3030 
  199.2500    53.3770     7.5700     7.1850    10.2900    24.0890     2.5020   -13.4470 
  199.3750    52.5480     6.3450     6.0330     6.0450    24.3040     2.4490   -12.6690 
  199.5000    53.3120     5.7400     5.3780     4.7280    24.4620     2.4010   -11.9890 
  199.6250    55.5540     5.6340     5.1880     4.7300    24.4820     2.3620   -11.4270 
  199.7500    60.1770     5.7600     5.2660     4.8830    24.3240     2.3300   -10.9750 
  199.8750    67.3800     5.9890     5.5040     5.0120    24.1610     2.3130   -10.6340 
  200.0000    73.7460     6.2390     5.8150     5.2550    24.1010     2.3170   -10.3890 
  200.1250    74.5220     6.4550     6.1310     5.4790    24.1220     2.3490   -10.1790 
  200.2500    73.0660     6.6170     6.4090     5.7320    24.1480     2.3930    -9.9350 
  200.3750    73.4040     6.7070     6.6160     6.0620    24.1580     2.4280    -9.6630 
  200.5000    74.4940     6.7110     6.7230     6.5270    24.1600     2.4450    -9.4190 
  200.6250    73.3690     6.6170     6.6940     6.8250    24.1600     2.4400    -9.1960 
  200.7500    72.9330     6.4720     6.5610     6.8370    24.1600     2.4220    -9.0190 
  200.8750    74.4190     6.3230     6.3680     6.5760    24.1600     2.4000    -8.8700 
  201.0000    75.9050     6.2280     6.1750     6.2090    24.1600     2.3820    -8.7050 
  201.1250    77.7090     6.2580     6.0610     6.0430    24.1600     2.3750    -8.5840 
