~V
VERS. 2.00: Ver 2.00
~W
STRT.M 56.0000:
STOP.M 221.0000:
STEP.M 0.1250:
NULL. -999.2500:
UWI. F10169:
~C
DEPT.M :
GR.API :
RML.OHMM :
RI. :
RXO.OHMM :
CALI.CM :
SP.MV :
DEN.GM/CC :
~A
# ...
  123.5000    42.7270    26.9880    23.9200    17.9620    25.8790   -17.5220     2.5110 
  123.6250    43.7510    26.1830    23.3960    18.4060    25.6590   -17.2670     2.5040 
  123.7500    43.2820    25.4070    22.8430    20.4580    25.4780   -17.0230     2.5170 
  123.8750    42.2510    24.8190    22.4050    20.5900    25.3500   -16.8120     2.5400 
  124.0000    42.9290    24.4520    22.1250    18.5970    25.2960   -16.6110     2.5600 
  124.1250    45.9020    24.2880    21.9920    17.4010    25.2850   -16.4550     2.5720 
  124.2500    48.3040    24.2630    21.9520    18.2760    25.2960   -16.3540     2.5860 
  124.3750    48.8300    24.1980    21.8670    19.0320    25.3160   -16.2990     2.6020 
  124.5000    47.6350    23.9320    21.6150    18.4830    25.3520   -16.2900     2.6140 
  124.6250    45.2150    23.3880    21.1350    16.6250    25.4660   -16.3150     2.6100 
  124.7500    43.4220    22.6540    20.4970    15.8650    25.7810   -16.3890     2.5800 
  124.8750    43.2780    22.0560    19.9520    15.6370    26.1280   -16.5040     2.5330 
  125.0000    44.7110    21.8650    19.7160    15.2610    26.3750   -16.6780     2.4790 
  125.1250    47.3250    22.2110    19.9110    15.4530    26.5020   -16.8880     2.4260 
  125.2500    49.1850    23.0650    20.5590    17.0800    26.3980   -17.1250     2.3960 
  125.3750    48.7080    24.0640    21.3940    18.8940    26.0920   -17.3580     2.4050 
  125.5000    47.0720    24.9160    22.1820    19.6600    25.7670   -17.6010     2.4560 
  125.6250    45.7630    25.3900    22.7080    19.6710    25.5640   -17.8220     2.5300 
  125.7500    44.1580    25.2980    22.7530    18.3800    25.5080   -18.0100     2.5830 
  125.8750    41.5010    24.8020    22.3940    17.7370    25.4990   -18.1400     2.5970 
  126.0000    39.7200    24.0580    21.7540    17.8380    25.5110   -18.2050     2.5870 
  126.1250    40.3360    23.2130    20.9750    17.6710    25.5300   -18.1950     2.5740 
  126.2500    43.0320    22.4260    20.2100    15.9370    25.5300   -18.0940     2.5670 
  126.3750    46.1000    21.8410    19.6000    14.8940    25.4780   -17.9200     2.5650 
  126.5000    47.7290    21.5340    19.2220    15.4080    25.4390   -17.6960     2.5650 
  126.6250    46.6140    21.4930    19.0840    16.4620    25.4330   -17.4250     2.5670 
  126.7500    45.3640    21.6580    19.1670    16.9660    25.4630   -17.1230     2.5670 
  126.8750    46.2950    21.8690    19.3460    17.1480    25.5210   -16.8370     2.5640 
  127.0000    46.8550    22.0330    19.5340    17.2040    25.5820   -16.5540     2.5530 
  127.1250    44.8140    22.1300    19.6890    16.0970    25.6000   -16.3090     2.5360 
  127.2500    44.0810    22.2150    19.8260    15.8490    25.5590   -16.1130     2.5190 
  127.3750    48.3300    22.3280    19.9710    16.8350    25.5160   -15.9790     2.5150 
  127.5000    52.9810    22.4490    20.1090    17.6580    25.5000   -15.8900     2.5270 
  127.6250    53.2140    22.5080    20.1890    18.4570    25.4980   -15.8630     2.5460 
  127.7500    50.8880    22.3770    20.1080    18.7640    25.4970   -15.8980     2.5630 
  127.8750    49.3830    22.0450    19.8510    18.2830    25.4880   -15.9480     2.5760 
  128.0000    49.3280    21.5830    19.4660    17.1890    25.4660   -16.0670     2.5810 
  128.1250    50.0780    21.1020    19.0410    15.9770    25.4470   -16.2050     2.5760 
  128.2500    52.7160    20.7040    18.6580    14.6040    25.4570   -16.3890     2.5660 
  128.3750    56.1390    20.3800    18.3220    14.7440    25.4790   -16.5830     2.5630 
  128.5000    57.5510    20.0820    18.0080    15.7730    25.4860   -16.8000     2.5660 
  128.6250    56.0540    19.7720    17.6950    16.3210    25.4740   -17.0350     2.5660 
  128.7500    51.8040    19.4950    17.4250    15.9640    25.4420   -17.2590     2.5570 
  128.8750    48.1110    19.3570    17.2740    15.5670    25.4270   -17.4770     2.5430 
  129.0000    47.1420    19.4530    17.3150    16.3760    25.4230   -17.6310     2.5270 
  129.1250    48.1300    19.8170    17.5840    18.8980    25.4230   -17.7610     2.5150 
  129.2500    48.3820    20.3880    18.0660    19.3330    25.4230   -17.8500     2.5170 
  129.3750    46.7360    20.9520    18.5980    18.2070    25.4240   -17.9080     2.5260 
  129.5000    44.8190    21.3600    19.0460    17.2450    25.4350   -17.9060     2.5260 
  129.6250    44.0240    21.5470    19.3240    17.4080    25.4700   -17.8220     2.5100 
  129.7500    45.9590    21.5090    19.4020    17.5870    25.5020   -17.6730     2.4880 
  129.8750    48.8900    21.3360    19.3470    17.2900    25.4880   -17.4800     2.4770 
  130.0000    50.5830    21.0400    19.1770    17.0850    25.4460   -17.2700     2.4760 
  130.1250    50.6140    20.5850    18.8650    17.8420    25.4240   -17.0350     2.4790 
  130.2500    49.0450    19.9170    18.3560    16.7840    25.4450   -16.7680     2.4810 
  130.3750    45.9660    19.1120    17.7070    15.7340    25.5240   -16.4980     2.4820 
  130.5000    42.9000    18.2530    16.9850    14.5380    25.6640   -16.2460     2.4820 
  130.6250    43.0120    17.4200    16.2590    13.5680    25.7620   -16.0090     2.4780 
  130.7500    47.0380    16.6860    15.5960    13.9390    25.7990   -15.8200     2.4660 
  130.8750    51.3170    16.0370    14.9990    14.2240    25.8530   -15.6800     2.4580 
  131.0000    54.5770    15.4320    14.4400    13.4160    25.9900   -15.5760     2.4570 
  131.1250    55.0860    14.8310    13.8810    12.5240    26.1570   -15.5090     2.4570 
  131.2500    53.5230    14.2540    13.3330    11.8070    26.2560   -15.4880     2.4470 
  131.3750    53.7150    13.7860    12.8680    11.0560    26.3020   -15.5150     2.4340 
  131.5000    54.8350    13.5330    12.5760    10.3980    26.3700   -15.5840     2.4250 
  131.6250    53.1720    13.5640    12.5220     9.5490    26.5010   -15.7100     2.4200 
  131.7500    49.4120    13.8980    12.7440     9.6000    26.6200   -15.8750     2.4190 
  131.8750    48.2540    14.3570    13.1100    10.8770    26.6500   -16.0740     2.4320 
  132.0000    49.3320    14.7710    13.4840    12.1130    26.6550   -16.3090     2.4570 
  132.1250    50.6070    15.0140    13.7480    12.1520    26.7120   -16.5650     2.4790 
  132.2500    50.9400    15.0560    13.8380    11.1240    26.7580   -16.8500     2.4730 
  132.3750    51.1270    15.0620    13.8600    10.4440    26.6760   -17.1230     2.4540 
  132.5000    50.5220    15.1830    13.9300    10.7160    26.4540   -17.3970     2.4480 
  132.6250    49.6430    15.4920    14.1230    11.6820    26.1870   -17.6640     2.4630 
  132.7500    48.9840    15.9540    14.4420    12.5220    26.0110   -17.9230     2.4890 
  132.8750    48.7620    16.3920    14.7590    13.0480    25.9480   -18.1490     2.5100 
  133.0000    49.6040    16.6670    14.9580    13.2780    25.9410   -18.3470     2.5210 
  133.1250    52.5480    16.7130    14.9680    13.3580    25.9550   -18.5420     2.5220 
  133.2500    59.4440    16.5990    14.8180    12.7820    25.9850   -18.7120     2.5140 
  133.3750    66.6370    16.5890    14.7130    12.1670    26.0020   -18.8750     2.5020 
  133.5000    70.6120    16.9280    14.8500    12.0860    26.0140   -18.9970     2.4920 
  133.6250    71.0890    17.8040    15.3910    12.6720    26.0360   -19.1100     2.4830 
  133.7500    72.2310    19.3640    16.4900    13.8880    26.0670   -19.1970     2.4740 
  133.8750    74.3020    21.3560    17.9970    17.0740    26.1000   -19.2990     2.4600 
  134.0000    72.6260    23.4800    19.7110    20.6580    26.1740   -19.3880     2.4390 
  134.1250    68.5410    25.3920    21.3590    21.5990    26.3130   -19.4580     2.4110 
  134.2500    68.4310    26.7620    22.6340    19.6320    26.5150   -19.5240     2.3820 
  134.3750    70.8230    27.6790    23.5200    19.0620    26.7740   -19.5830     2.3620 
  134.5000    70.6620    28.3320    24.1250    20.1890    27.1670   -19.6610     2.3490 
  134.6250    68.8290    28.9270    24.6160    22.7810    27.6290   -19.7570     2.3320 
