~V
VERS. 2.00: Ver 2.00
~W
STRT.M 43.0000:
STOP.M 249.0000:
STEP.M 0.1250:
NULL. -999.2500:
UWI. F10197:
~C
DEPT.M :
GR.API :
RML.OHMM :
RI. :
RXO.OHMM :
CALI.CM :
SP.MV :
DEN.GM/CC :
~A
# ...
  234.2500    71.3300    11.3480     9.9540     9.9830    22.3900    -5.3380     2.4110 
  234.3750    68.5550    11.2750     9.8910    10.6050    22.3180    -5.3570     2.4230 
  234.5000    63.9980    11.3320     9.9400    11.5140    22.6660    -5.4260     2.4410 
  234.6250    65.8480    11.5540    10.1350    11.8000    23.1250    -5.4960     2.4530 
  234.7500    71.8470    11.8820    10.4230    11.5010    23.1230    -5.5240     2.4600 
  234.8750    75.4670    12.2550    10.7500    11.0250    22.5700    -5.4960     2.4670 
  235.0000    75.3590    12.6030    11.0550    11.1680    22.2260    -5.4500     2.4710 
  235.1250    75.3200    12.8460    11.2680    11.5880    22.5450    -5.4370     2.4650 
  235.2500    74.7520    12.9640    11.3720    12.5830    22.9240    -5.4410     2.4540 
  235.3750    73.1210    12.9580    11.3670    14.0950    22.8920    -5.4640     2.4460 
  235.5000    72.8710    12.8540    11.2760    15.6170    22.5730    -5.4630     2.4400 
  235.6250    73.1960    12.6860    11.1280    14.1510    22.4240    -5.4260     2.4360 
  235.7500    72.5970    12.5060    10.9700    12.7530    22.4860    -5.4200     2.4350 
  235.8750    73.4430    12.3530    10.8360    11.6430    22.7380    -5.4820     2.4330 
  236.0000    76.8480    12.2600    10.7540    11.1230    23.1470    -5.5540     2.4240 
  236.1250    78.2070    12.2650    10.7580    11.0180    23.5580    -5.5760     2.4100 
  236.2500    73.7810    12.3770    10.8570    11.1590    23.6880    -5.5880     2.4000 
  236.3750    67.6960    12.6140    11.0650    11.7020    23.4100    -5.6090     2.3980 
  236.5000    67.1320    12.9650    11.3730    12.7890    23.0180    -5.6700     2.4080 
  236.6250    71.4300    13.3720    11.7300    13.5560    22.8500    -5.7490     2.4280 
  236.7500    74.7580    13.7200    12.0350    14.4080    22.9770    -5.7890     2.4490 
  236.8750    76.3740    13.9110    12.2020    15.1020    23.2380    -5.7690     2.4620 
  237.0000    78.3080    13.8820    12.1770    14.6650    23.4730    -5.7070     2.4640 
  237.1250    79.4660    13.6150    11.9430    14.6550    23.7120    -5.6500     2.4540 
  237.2500    77.3500    13.2550    11.6270    15.0960    23.8810    -5.5660     2.4360 
  237.3750    73.7400    12.9520    11.3620    15.1460    23.9220    -5.4640     2.4120 
  237.5000    70.7070    12.8560    11.2770    15.3970    23.8870    -5.3650     2.3930 
  237.6250    69.4200    13.0850    11.4780    15.5990    23.9170    -5.2830     2.3890 
  237.7500    71.4510    13.5100    11.8510    15.8110    23.9220    -5.1970     2.4100 
  237.8750    75.7180    13.9270    12.2160    17.2630    23.8670    -5.1030     2.4320 
  238.0000    78.1520    14.0950    12.3640    20.3910    23.8440    -5.0350     2.4550 
  238.1250    78.1520    13.8040    12.1090    18.0330    23.8420    -5.0030     2.4700 
  238.2500    78.1520    13.2200    11.5970    14.2920    23.8340    -5.0540     2.4700 
  238.3750    78.1520    12.5630    11.0200    12.3600    23.8570    -5.1410     2.4470 
  238.5000    78.1520    12.0310    10.5530    11.7730    23.9090    -5.2180     2.4160 
  238.6250    78.1520    11.7750    10.3290    11.4570    23.8880    -5.2870     2.3890 
  238.7500    78.1520    11.7590    10.3150    11.1940    23.8240    -5.4110     2.3760 
  238.8750    78.1520    11.9240    10.4600    11.4570    23.7950    -5.5660     2.3880 
  239.0000    78.1520    12.1990    10.7010    12.0860    23.8170    -5.7010     2.4150 
  239.1250    78.1520    12.5440    11.0040    13.1900    23.9130    -5.7880     2.4470 
  239.2500    78.1520    12.9170    11.3310    15.4060    23.9790    -5.8110     2.4680 
  239.3750    78.1520    13.2670    11.6370    19.3410    23.9550    -5.8150     2.4710 
  239.5000    78.1520    13.5120    11.8530    23.0430    23.8920    -5.8110     2.4600 
  239.6250    78.1520    13.5390    11.8760    23.0870    23.9540    -5.7950     2.4410 
  239.7500    78.1520    13.3560    11.7160    21.2910    24.0100    -5.7250     2.4220 
  239.8750    78.1520    13.0240    11.4240    17.8200    24.0320    -5.6320     2.4070 
  240.0000    78.1520    12.6450    11.0920    12.7680    23.9990    -5.5850     2.3920 
  240.1250    78.1520    12.3540    10.8370    10.6140    23.9710    -5.5440     2.3760 
  240.2500    78.1520    12.2040    10.7050    10.5280    23.9190    -5.5020     2.3630 
  240.3750    78.1520    12.1920    10.6950    11.4080    23.8400    -5.4700     2.3680 
  240.5000    78.1520    12.2720    10.7650    12.2930    23.7700    -5.4320     2.3930 
  240.6250    78.1520    12.3710    10.8520    12.5750    23.7360    -5.4090     2.4230 
  240.7500    78.1520    12.4350    10.9080    12.7500    23.7350    -5.4530     2.4480 
  240.8750    78.1520    12.4680    10.9370    12.9600    23.7240    -5.5660     2.4580 
  241.0000    78.1520    12.5050    10.9690    13.1350    23.7210    -5.6520     2.4600 
  241.1250    78.1520    12.5770    11.0330    12.6100    23.7320    -5.7340     2.4570 
  241.2500    78.1520    12.6580    11.1040    12.7160    23.7150    -5.8650     2.4490 
  241.3750    78.1520    12.6990    11.1390    13.4150    23.7310    -5.9920     2.4350 
  241.5000    78.1520    12.6600    11.1050    13.8550    23.7500    -6.1520     2.4190 
  241.6250    78.1520    12.5680    11.0240    13.5320    23.7330    -6.3030     2.4110 
  241.7500    78.1520    12.4510    10.9220    12.8310    23.6960    -6.3930     2.4180 
  241.8750    78.1520    12.7590    10.8100    11.7480    23.6810    -6.4290     2.4290 
  242.0000    78.1520    12.8210    10.7380    11.0640    23.6970    -6.4640     2.4310 
  242.1250    78.1520    12.8730    10.7040    10.6330    23.7320    -6.5140     2.4270 
  242.2500    78.1520    12.8990    10.6910    10.5660    23.7520    -6.5150     2.4220 
  242.3750    78.1520    12.9010    10.6850    11.0840    23.7490    -6.5030     2.4200 
  242.5000    78.1520    12.8850    10.6830    12.0880    23.7060    -6.4640     2.4260 
  242.6250    78.1520    12.8620    10.6840    12.5740    23.6780    -6.4360     2.4390 
  242.7500    78.1520    12.8460    10.6900    12.1200    23.6710    -6.4150     2.4550 
  242.8750    78.1520    12.8430    10.6980    11.5860    23.6640    -6.3980     2.4670 
  243.0000    78.1520    12.8460    10.7080    11.3610    23.6540    -6.4210     2.4740 
  243.1250    78.1520    12.8480    10.7160    11.3300    23.6490    -6.4470     2.4760 
  243.2500    78.1520    12.8500    10.7160    11.5160    23.6440    -6.4450     2.4720 
  243.3750    78.1520    12.8680    10.7040    11.4620    23.5900    -6.4300     2.4680 
  243.5000    78.1520    12.9130    10.6840    11.3000    23.4710    -6.4390     2.4650 
  243.6250    78.1520    12.9840    10.6600    11.4930    23.3310    -6.4420     2.4620 
  243.7500    78.1520    13.0630    10.6380    11.1230    23.2010    -6.4820     2.4610 
  243.8750    78.1520    13.1240    10.6250     9.9700    23.1880    -6.5440     2.4660 
  244.0000    78.1520    13.1510    10.6200     8.8200    23.1790    -6.5730     2.4780 
  244.1250    78.1520    13.1510    10.6200     8.8520    23.1870    -6.5890     2.4820 
  244.2500    78.1520    13.1510    10.6200     9.7230    23.2750    -6.6470     2.4690 
  244.3750    78.1520    13.1510    10.6200    10.5540    23.4590    -6.7090     2.4420 
  244.5000    78.1520    13.1510    10.6200    11.2080    23.5480    -6.7630     2.4160 
  244.6250    78.1520    13.1510    10.6200    11.6690    23.6090    -6.8250     2.3990 
  244.7500    78.1520    13.1510    10.6200    11.9860    23.6110    -6.8970     2.3960 
  244.8750    78.1520    13.1510    10.6200    13.7190    23.4780    -7.1110     2.4080 
  245.0000    78.1520    13.1510    10.6200    16.0100    23.2570    -7.3850     2.4230 
  245.1250    78.1520    13.1510    10.6200    16.9350    23.0810    -7.6640     2.4290 
  245.2500    78.1520    13.1510    10.6200    13.7070    22.8940    -7.9560     2.4210 
  245.3750    78.1520    13.1510    10.6200    11.4610    22.3620    -8.2570     2.4010 
