~V
VERS. 2.00: Ver 2.00
~W
STRT.M 56.0000:
STOP.M 221.0000:
STEP.M 0.1250:
NULL. -999.2500:
UWI. F10169:
~C
DEPT.M :
GR.API :
RML.OHMM :
RI. :
RXO.OHMM :
CALI.CM :
SP.MV :
DEN.GM/CC :
~A
# ...
  101.0000    71.7700    11.5500     7.7110     7.9020    25.8730   -19.6490     2.1940 
  101.1250    71.4600    11.9000     7.9300     8.1150    25.8820   -20.2090     2.1890 
  101.2500    72.6520    12.0390     8.0060     8.9420    25.9060   -20.8600     2.1850 
  101.3750    73.6470    11.9670     7.9380    10.2230    25.9340   -21.5760     2.1770 
  101.5000    73.5100    11.6940     7.7450    10.5320    25.9460   -22.3010     2.1640 
  101.6250    72.0030    11.3240     7.5040     9.7600    25.9470   -23.0350     2.1530 
  101.7500    69.6760    11.1700     7.3980     8.9860    25.9530   -23.7610     2.1600 
  101.8750    67.3940    11.6060     7.6210     8.9350    25.9720   -24.4600     2.1880 
  102.0000    66.4350    13.0250     8.3890     9.6960    25.9990   -25.1170     2.2350 
  102.1250    66.2730    15.7780     9.9430    11.8390    26.0130   -25.7200     2.3100 
  102.2500    66.1340    20.2480    12.6760    17.7070    26.0120   -26.2980     2.4290 
  102.3750    65.8490    25.6040    16.2790    26.6490    26.0200   -26.8860     2.5640 
  102.5000    66.2050    30.1620    19.8220    34.4960    26.0490   -27.5470     2.6630 
  102.6250    66.5650    31.5050    21.6220    37.3320    26.1120   -28.2590     2.6820 
  102.7500    65.5830    28.0260    20.1380    34.8290    26.2160   -29.0800     2.6220 
  102.8750    63.2670    22.6380    16.9510    25.7160    26.3650   -29.9710     2.5260 
  103.0000    60.2930    17.7150    13.6490    16.1880    26.5960   -30.8710     2.4110 
  103.1250    57.4850    14.2870    11.0750    11.6750    26.9530   -31.7570     2.3020 
  103.2500    56.2580    12.5500     9.5150    10.6840    27.4300   -32.5320     2.2270 
  103.3750    56.5630    11.8520     8.6740    10.4850    27.9040   -33.2000     2.1740 
  103.5000    57.0530    11.8100     8.3690    10.3610    28.3600   -33.6990     2.1250 
  103.6250    56.2680    12.0730     8.4020    10.1530    28.8110   -34.0450     2.0690 
  103.7500    56.0100    12.3540     8.5860     9.3140    29.1580   -34.1490     2.0060 
  103.8750    57.5590    12.5400     8.7750     8.2160    29.2800   -34.1250     1.9470 
  104.0000    58.8010    12.6530     8.9430     8.0360    29.0860   -34.0360     1.9230 
  104.1250    58.5000    12.7390     9.0980     8.9850    28.4120   -33.9170     1.9580 
  104.2500    58.7930    12.8120     9.2300     9.8570    27.6760   -33.8380     2.0540 
  104.3750    60.3070    12.8460     9.3090    11.3390    27.2470   -33.7920     2.1490 
  104.5000    60.6240    12.7900     9.2930    13.8960    27.0230   -33.8150     2.2090 
  104.6250    59.3660    12.6120     9.1570    16.0040    26.9520   -33.9420     2.2340 
  104.7500    59.7130    12.3300     8.9120    12.3410    27.0700   -34.1950     2.2330 
  104.8750    61.6240    12.0440     8.6420    10.3510    27.3450   -34.5370     2.2140 
  105.0000    62.7750    11.8250     8.4050     9.6110    27.6490   -34.9430     2.1930 
  105.1250    61.1970    11.6970     8.2340     9.3530    27.8670   -35.4130     2.1820 
  105.2500    57.5520    11.6220     8.1290     9.3230    28.0200   -35.9070     2.1800 
  105.3750    55.5260    11.5250     8.0430     9.4030    28.2550   -36.4200     2.1780 
  105.5000    56.0800    11.3820     7.9530     9.4770    28.6160   -36.8770     2.1700 
  105.6250    57.4360    11.2240     7.8590     9.5570    29.0380   -37.2860     2.1560 
  105.7500    56.3770    11.1140     7.7910     9.3840    29.2960   -37.6190     2.1380 
  105.8750    55.1200    11.0750     7.7610     9.1470    29.3140   -37.9030     2.1240 
  106.0000    55.8640    11.0990     7.7670     9.0240    29.1530   -38.1360     2.1190 
  106.1250    57.8640    11.1590     7.8010     9.1220    28.9680   -38.3060     2.1260 
  106.2500    59.7290    11.2210     7.8460     9.3130    28.9440   -38.4410     2.1430 
  106.3750    61.7740    11.2550     7.8780     9.3340    29.0410   -38.5440     2.1600 
  106.5000    63.6950    11.2410     7.8780     9.4420    29.1860   -38.6500     2.1710 
  106.6250    63.2950    11.1780     7.8370     9.6900    29.3720   -38.7390     2.1700 
  106.7500    58.7800    11.0780     7.7570     9.6900    29.6800   -38.8150     2.1610 
  106.8750    54.0640    10.9780     7.6680     9.4540    30.0250   -38.8240     2.1500 
  107.0000    52.7190    10.8970     7.5910     9.1610    30.2300   -38.8150     2.1430 
  107.1250    54.6860    10.8480     7.5360     9.0690    30.2790   -38.7570     2.1390 
  107.2500    55.8480    10.8580     7.5180     9.3400    30.2980   -38.6550     2.1370 
  107.3750    56.4860    10.9470     7.5500     9.5340    30.3300   -38.4950     2.1360 
  107.5000    58.7870    11.1300     7.6520     9.6090    30.3720   -38.3160     2.1330 
  107.6250    61.4080    11.3950     7.8240     9.5760    30.4330   -38.1160     2.1210 
  107.7500    60.1430    11.6920     8.0390     9.3240    30.3240   -37.9550     2.1120 
  107.8750    56.9080    11.9280     8.2320     8.8170    29.8830   -37.8810     2.1320 
  108.0000    55.6860    12.0260     8.3440     8.5110    29.3220   -37.8580     2.1890 
  108.1250    57.0150    11.9530     8.3370     8.8500    29.0040   -37.9580     2.2430 
  108.2500    59.1990    11.7320     8.2080     9.4450    28.9720   -38.1550     2.2400 
  108.3750    59.3800    11.4830     8.0290     9.7040    29.0650   -38.4580     2.2140 
  108.5000    57.1560    11.2840     7.8530     9.7670    29.2300   -38.8210     2.2030 
  108.6250    55.1130    11.1730     7.7160     9.7900    29.4500   -39.2580     2.2080 
  108.7500    56.2210    11.1460     7.6370     9.7730    29.6990   -39.7140     2.2170 
  108.8750    58.5850    11.1480     7.5900     9.7900    29.9480   -40.1610     2.2220 
  109.0000    59.7350    11.1500     7.5620     9.8030    30.2180   -40.5850     2.2210 
  109.1250    58.0600    11.1480     7.5460     9.5410    30.4710   -40.9360     2.2050 
  109.2500    54.8380    11.1330     7.5340     8.9050    30.5200   -41.1940     2.1770 
  109.3750    51.8030    11.0930     7.5150     8.8640    30.3890   -41.3600     2.1510 
  109.5000    51.2230    11.0200     7.4810     9.4030    30.5420   -41.4350     2.1330 
  109.6250    52.7660    10.9240     7.4380     9.4980    31.0450   -41.3820     2.1180 
  109.7500    54.7690    10.8520     7.4100     9.0040    31.2180   -41.2060     2.0990 
  109.8750    55.8170    10.8490     7.4170     8.4300    30.7880   -40.9120     2.0820 
  110.0000    55.9760    10.9280     7.4680     8.3870    30.0360   -40.5210     2.0750 
  110.1250    57.3390    11.0640     7.5540     9.0620    29.4060   -40.0330     2.0840 
  110.2500    59.2400    11.2020     7.6490     9.7720    29.0660   -39.4870     2.1060 
  110.3750    59.4170    11.2930     7.7250    10.0880    28.9080   -38.8790     2.1330 
  110.5000    58.8580    11.3270     7.7680    10.0670    28.8700   -38.2450     2.1570 
  110.6250    58.1990    11.3220     7.7810     9.9460    28.8940   -37.5850     2.1760 
  110.7500    57.3050    11.2990     7.7710    10.0970    28.9550   -36.9200     2.1900 
  110.8750    56.0290    11.2750     7.7520    10.1810    29.0510   -36.2430     2.1990 
  111.0000    54.9170    11.2520     7.7280    10.1700    29.1930   -35.5510     2.2010 
  111.1250    54.2360    11.2290     7.7010    10.0760    29.3290   -34.8140     2.1950 
  111.2500    53.0300    11.2080     7.6760     9.9980    29.3680   -34.0000     2.1790 
  111.3750    51.9890    11.1810     7.6530     9.8370    29.3130   -33.1270     2.1610 
  111.5000    50.5110    11.1100     7.6140     9.4760    29.2290   -32.1620     2.1470 
  111.6250    50.5720    10.9300     7.5170     8.8810    29.1050   -31.1160     2.1370 
  111.7500    57.3690    10.5590     7.3010     8.3530    28.8240   -29.9530     2.1280 
  111.8750    66.3470    10.0350     6.9750     7.7580    28.2890   -28.7380     2.1300 
  112.0000    73.9230     9.4400     6.5830     6.9130    27.5890   -27.5280     2.1570 
  112.1250    79.9940     8.9130     6.2050     5.6770    27.0170   -26.4100     2.2110 
