~V
VERS. 2.00: Ver 2.00
~W
STRT.M 52.0000:
STOP.M 224.0000:
STEP.M 0.1250:
NULL. -999.2500:
UWI. F10155:
~C
DEPT.M :
SP.MV :
GR.API :
RML.OHMM :
RI. :
RXO.OHMM :
CALI.CM :
DEN.GM/CC :
~A
# ...
   74.5000   -21.3770    78.3300    10.3530     8.0160    10.0720    24.1200     2.2110 
   74.6250   -21.2450    79.4250    10.0130     7.8070    10.2420    24.3100     2.1920 
   74.7500   -20.7720    79.4430     9.3810     7.3470    10.1350    24.4080     2.1800 
   74.8750   -20.0420    83.8880     8.5760     6.7270     9.1280    24.4800     2.1770 
   75.0000   -19.2810    93.1520     7.8500     6.1400     7.1280    24.5450     2.1850 
   75.1250   -18.6880    99.8040     7.4280     5.7560     5.8130    24.4130     2.1960 
   75.2500   -18.3960    99.8070     7.4320     5.6690     5.6460    24.0550     2.2070 
   75.3750   -18.4730    95.1770     7.8790     5.9160     6.4930    23.5940     2.2120 
   75.5000   -18.8920    89.2820     8.6740     6.5020     7.9840    23.1510     2.2130 
   75.6250   -19.5210    83.4470     9.4710     7.2070     9.3330    22.8210     2.2120 
   75.7500   -20.2250    78.3780     9.9630     7.7630    11.1150    22.5550     2.2140 
   75.8750   -20.7670    76.7150     9.9420     7.9050    12.8470    22.5400     2.2240 
   76.0000   -20.8180    81.5670     9.3620     7.5040    11.5400    23.0830     2.2450 
   76.1250   -20.4280    89.3150     8.5820     6.8680     8.4300    23.9990     2.2690 
   76.2500   -19.7460    97.2070     7.8990     6.2600     6.1710    24.7410     2.2890 
   76.3750   -18.8950   102.6850     7.5130     5.8530     5.5600    24.9750     2.2940 
   76.5000   -17.9710   100.4540     7.5200     5.7510     5.9450    24.8750     2.2810 
   76.6250   -17.0760    92.5220     7.7590     5.8630     6.8220    24.8020     2.2590 
   76.7500   -16.3740    85.4850     8.0850     6.0920     7.3680    24.7950     2.2430 
   76.8750   -16.0150    82.9960     8.3830     6.3380     7.4690    24.7970     2.2390 
   77.0000   -16.0430    82.1720     8.6040     6.5390     7.3880    24.7820     2.2480 
   77.1250   -16.2320    80.6970     8.8030     6.7160     7.2450    24.7500     2.2570 
   77.2500   -16.4220    79.9540     9.0300     6.9050     7.0470    24.5680     2.2520 
   77.3750   -16.5550    80.5270     9.2850     7.1130     7.2430    24.1720     2.2310 
   77.5000   -16.6800    82.6380     9.4940     7.2940     8.0090    23.8780     2.1960 
   77.6250   -16.8650    84.3270     9.5730     7.3850     8.5650    23.7390     2.1620 
   77.7500   -17.0840    82.3630     9.4950     7.3540     7.9930    23.7020     2.1400 
   77.8750   -17.3130    78.8780     9.2980     7.2180     7.0060    23.6160     2.1330 
   78.0000   -17.5920    79.4460     9.0890     7.0480     6.6040    23.4490     2.1410 
   78.1250   -17.8900    83.6160     8.9700     6.9350     6.5200    23.2850     2.1580 
   78.2500   -18.1440    87.5700     8.9770     6.9200     6.6970    23.1430     2.1770 
   78.3750   -18.3150    87.1160     9.0890     7.0000     7.1170    23.0370     2.1940 
   78.5000   -18.3830    83.6800     9.2480     7.1340     8.0370    23.0370     2.2040 
   78.6250   -18.3580    79.4420     9.3780     7.2560     8.3650    23.1280     2.2060 
   78.7500   -18.2290    76.8160     9.4360     7.3250     7.9490    23.2870     2.2010 
   78.8750   -17.9790    78.6200     9.3940     7.3090     7.3500    23.5360     2.1950 
   79.0000   -17.5590    82.8200     9.2350     7.1840     7.4290    23.9080     2.1970 
   79.1250   -17.0070    83.7640     9.0080     6.9860     7.7120    24.3130     2.2100 
   79.2500   -16.4000    82.1400     8.7700     6.7590     7.5830    24.6000     2.2320 
   79.3750   -15.8630    83.4300     8.5790     6.5520     6.9330    24.8070     2.2560 
   79.5000   -15.5090    86.4710     8.4950     6.4170     6.2180    24.9250     2.2700 
   79.6250   -15.2860    83.7420     8.5070     6.3580     6.4030    25.0160     2.2690 
   79.7500   -15.1480    77.9370     8.5920     6.3640     6.8990    25.1190     2.2570 
   79.8750   -15.1050    74.9120     8.7320     6.4240     7.0170    25.1460     2.2410 
   80.0000   -15.2710    76.6650     8.9450     6.5560     6.8960    25.0830     2.2280 
   80.1250   -15.7110    79.6920     9.2540     6.7710     6.8500    24.9860     2.2210 
   80.2500   -16.4330    80.8370     9.6800     7.0820     6.8240    24.8770     2.2150 
   80.3750   -17.3400    78.7390    10.2100     7.4840     7.1360    24.7270     2.2070 
   80.5000   -18.3460    75.0720    10.7590     7.9370     8.1070    24.4810     2.1970 
   80.6250   -19.4260    72.5700    11.1880     8.3340     9.3700    24.2410     2.1860 
   80.7500   -20.6140    70.5090    11.4040     8.5840     9.7900    23.9930     2.1790 
   80.8750   -21.8940    68.1280    11.3830     8.6490     9.8200    23.7660     2.1770 
   81.0000   -23.2230    66.3200    11.1760     8.5380    10.2970    23.7180     2.1820 
   81.1250   -24.4690    65.3040    10.9330     8.3650    10.7800    23.8210     2.1910 
   81.2500   -25.5270    64.5670    10.7420     8.2030    10.9220    23.9250     2.2040 
   81.3750   -26.3770    63.8590    10.6410     8.0950    10.9780    23.8120     2.2170 
   81.5000   -26.9900    65.7520    10.6330     8.0520    10.7590    23.7400     2.2260 
   81.6250   -27.4250    70.4450    10.6750     8.0490    10.6170    23.7760     2.2250 
   81.7500   -27.6720    74.3230    10.7580     8.0740    10.5770    23.9150     2.2130 
   81.8750   -27.7020    73.1330    10.8840     8.1240    10.5700    24.0950     2.1930 
   82.0000   -27.4070    68.0770    11.0310     8.1940    10.5730    24.2650     2.1690 
   82.1250   -26.8420    64.3630    11.1070     8.2280    10.6540    24.2990     2.1500 
   82.2500   -26.0390    63.4700    10.9950     8.1380    10.6740    24.2820     2.1400 
   82.3750   -24.9600    64.2720    10.6120     7.8510    10.6380    24.2720     2.1430 
   82.5000   -23.5520    67.6120     9.9520     7.3510    10.2940    24.2770     2.1620 
   82.6250   -22.0070    75.1550     9.2350     6.7900     9.2350    24.3570     2.1930 
   82.7500   -20.5000    83.4320     8.6760     6.3170     7.5560    24.3820     2.2280 
   82.8750   -19.1850    87.4040     8.4470     6.0480     6.3760    24.2970     2.2560 
   83.0000   -18.1870    84.9040     8.6810     6.0910     6.6280    24.0620     2.2660 
   83.1250   -17.4780    81.8930     9.2460     6.3910     7.3340    23.8150     2.2600 
   83.2500   -17.0860    81.7310    10.0010     6.8900     8.0070    23.6430     2.2420 
   83.3750   -17.0630    83.2100    10.7790     7.4830     8.3010    23.5700     2.2220 
   83.5000   -17.4850    84.6750    11.3920     8.0130     8.3350    23.5270     2.2110 
   83.6250   -18.1700    84.7040    11.7690     8.3820     8.8290    23.4320     2.2100 
   83.7500   -18.9740    84.0630    11.8900     8.5530    10.2340    23.2680     2.2160 
   83.8750   -19.7650    83.0060    11.7620     8.5230    11.8820    23.0390     2.2250 
   84.0000   -20.4160    80.6890    11.4030     8.2910    10.6490    22.8830     2.2300 
   84.1250   -20.9220    78.9760    10.9460     7.9640     9.3380    22.8150     2.2320 
   84.2500   -21.3040    78.4980    10.5140     7.6380     8.6580    22.8000     2.2300 
   84.3750   -21.6110    78.6240    10.2260     7.3980     8.5060    22.8070     2.2280 
   84.5000   -21.8580    76.9030    10.1980     7.3320     8.4900    22.8520     2.2290 
   84.6250   -22.0560    75.6520    10.3860     7.4280     9.0490    22.9510     2.2330 
   84.7500   -22.1990    76.4430    10.7070     7.6420     9.6760    23.0830     2.2390 
   84.8750   -22.2970    76.9790    11.0380     7.9020    10.2450    23.2210     2.2410 
   85.0000   -22.4020    74.8590    11.2250     8.0990    10.5960    23.3990     2.2300 
   85.1250   -22.5370    74.0140    11.2090     8.1620    10.5390    23.6190     2.2070 
   85.2500   -22.6330    76.7290    11.0030     8.0720    10.4200    23.8650     2.1760 
   85.3750   -22.6000    79.9340    10.6830     7.8700    10.1780    24.0580     2.1500 
   85.5000   -22.4370    80.6230    10.3750     7.6450     9.7280    24.0430     2.1430 
   85.6250   -22.2640    81.6180    10.1680     7.4820     9.4620    23.9720     2.1540 
