~V
VERS. 2.00: Ver 2.00
~W
STRT.M 58.0000:
STOP.M 228.0000:
STEP.M 0.1250:
NULL. -999.2500:
UWI. F10151:
~C
DEPT.M :
SP.MV :
GR.API :
RML.OHMM :
RI. :
RXO.OHMM :
CALI.CM :
DEN.GM/CC :
~A
   58.0000   123.7140    45.8390     0.2730     0.4720     6.7940    25.7980     2.1220 
   58.1250   116.9930    44.2880     0.1700     0.3080     6.4790    25.7860     2.2010 
   58.2500   109.5730    42.6390     0.0910     0.1870     5.9790    25.7590     2.3230 
   58.3750   101.1200    42.9860     0.0410     0.1130     5.3060    25.7860     2.4530 
   58.5000    91.3630    45.0310     0.0180     0.0800     4.2510    26.1470     2.5390 
   58.6250    80.2820    50.5270     0.0280     0.0860     2.8690    27.0220     2.5340 
   58.7500    68.4070    59.5500     0.0900     0.1420     2.3640    27.5080     2.4660 
   58.8750    55.9980    69.6800     0.2630     0.2910     2.7230    26.7770     2.3840 
   59.0000    43.2660    78.5250     0.6540     0.6120     3.9480    25.5370     2.3300 
   59.1250    30.5080    82.7310     1.4230     1.2630     5.5980    24.4930     2.3160 
   59.2500    18.1920    81.4970     2.4330     2.2170     7.8500    23.8720     2.3110 
   59.3750     6.9000    78.0270     3.4070     3.2680     9.3440    23.5990     2.2910 
   59.5000    -2.8060    76.4680     4.0740     4.1110    10.2850    23.4940     2.2510 
   59.6250   -10.6040    76.5710     4.3470     4.5640    10.6310    23.6940     2.2060 
   59.7500   -16.9440    74.6780     4.4760     4.7890    11.0310    24.2630     2.1740 
   59.8750   -22.1150    71.3520     4.6210     4.9090    11.4710    24.8850     2.1640 
   60.0000   -26.4280    68.6390     4.8280     5.0050    12.2990    25.2080     2.1700 
   60.1250   -29.8570    66.8540     5.0680     5.1280    12.4450    25.3430     2.1850 
   60.2500   -32.5070    66.8080     5.2870     5.2840    12.1580    25.5590     2.1980 
   60.3750   -34.4650    67.9360     5.4610     5.4700    12.1090    25.9260     2.2020 
   60.5000   -35.9070    68.1530     5.5850     5.6650    12.1610    26.3520     2.1920 
   60.6250   -36.6250    66.6460     5.6420     5.8000    12.3290    26.7680     2.1620 
   60.7500   -36.5960    67.0410     5.6190     5.8130    12.5250    26.8850     2.1250 
   60.8750   -35.7550    71.2510     5.4870     5.6690    12.4020    26.7060     2.0930 
   61.0000   -34.0680    77.8870     5.2400     5.3830    10.8770    26.3070     2.0820 
   61.1250   -31.6390    84.8980     4.9210     5.0260     8.6480    25.7250     2.1030 
   61.2500   -28.8510    90.9440     4.6460     4.7140     7.0180    24.9530     2.1450 
   61.3750   -25.9430    93.5710     4.5040     4.5270     6.1740    24.2880     2.1960 
   61.5000   -23.0700    94.2110     4.5430     4.5080     5.8740    24.0290     2.2450 
   61.6250   -20.5020    95.4810     4.7660     4.6770     5.7740    24.0070     2.2840 
   61.7500   -18.3310    96.5740     5.0600     4.9410     6.4630    23.8860     2.3110 
   61.8750   -16.5540    98.1590     5.3200     5.1950     7.7580    23.6520     2.3210 
   62.0000   -15.1810   103.1090     5.4640     5.3390     8.3500    23.4790     2.3150 
   62.1250   -14.1060   112.1230     5.4490     5.3070     6.8930    23.4570     2.2940 
   62.2500   -13.2040   120.8990     5.3570     5.1730     5.4890    23.5140     2.2710 
   62.3750   -12.4030   126.9190     5.2600     5.0070     5.0110    23.5810     2.2570 
   62.5000   -11.5920   129.4480     5.2020     4.8620     4.9270    23.4960     2.2640 
   62.6250   -10.7160   126.7560     5.1820     4.7620     4.8720    23.3270     2.2970 
   62.7500    -9.9070   121.7270     5.1410     4.6660     4.8910    23.1990     2.3440 
   62.8750    -9.2760   117.9980     5.0610     4.5420     4.9700    23.1480     2.3870 
   63.0000    -8.8430   116.3690     4.9910     4.4190     5.0600    23.1400     2.4090 
   63.1250    -8.5270   117.4250     5.1080     4.4410     5.1500    23.1340     2.4030 
   63.2500    -8.2210   117.9410     5.5690     4.7330     5.1530    23.1680     2.3880 
   63.3750    -7.9010   114.0550     6.4340     5.3910     5.6380    23.2310     2.3850 
   63.5000    -7.6190   106.5430     7.6340     6.4380     7.3450    23.3100     2.4020 
   63.6250    -7.4560    98.2740     8.9290     7.7090    11.3540    23.3930     2.4290 
   63.7500    -7.4070    93.3940     9.8550     8.6750    12.0200    23.5290     2.4450 
   63.8750    -7.4120    92.0610    10.0120     8.8760    10.0560    23.6570     2.4380 
   64.0000    -7.4720    95.7750     9.3240     8.2500     8.4930    23.7510     2.4130 
   64.1250    -7.7450   104.1110     8.1840     7.2000     6.9320    23.9780     2.3840 
   64.2500    -8.1760   111.9380     7.2510     6.2980     5.9610    24.2880     2.3630 
   64.3750    -8.8050   116.4770     6.8050     5.7690     5.5260    24.4950     2.3520 
   64.5000    -9.6950   116.6110     6.9090     5.6720     5.5380    24.6490     2.3460 
   64.6250   -10.9050   110.8300     7.5610     6.0540     6.4350    24.8970     2.3350 
   64.7500   -12.2460   100.2060     8.5150     6.7700     8.6150    25.1960     2.3180 
   64.8750   -13.6830    88.0150     9.5670     7.6830    10.4220    25.4130     2.2940 
   65.0000   -15.1300    79.2150    10.4930     8.5920    10.7680    25.6590     2.2690 
   65.1250   -16.4560    73.5570    11.0500     9.2340    10.2630    25.7250     2.2520 
   65.2500   -17.6550    69.3470    11.2430     9.5320    10.0600    25.6980     2.2450 
   65.3750   -18.6750    67.1930    11.1570     9.5260     9.9410    25.6880     2.2450 
   65.5000   -19.4810    67.3640    10.9360     9.3360     9.6560    25.7640     2.2450 
   65.6250   -19.9990    67.2870    10.7300     9.0990     9.3250    25.9820     2.2390 
   65.7500   -20.3660    67.5520    10.6190     8.9060     9.0090    26.2260     2.2290 
   65.8750   -20.6610    69.2480    10.6230     8.7910     8.9320    26.3550     2.2190 
   66.0000   -20.9360    70.3190    10.7240     8.7620     9.1360    26.3850     2.2130 
   66.1250   -21.1400    69.4690    10.8640     8.8040     9.5620    26.3360     2.2080 
   66.2500   -21.1860    68.0420    10.9370     8.8390     9.9490    26.3670     2.2020 
   66.3750   -20.9830    67.6740    10.8490     8.7880    10.3070    26.5340     2.1950 
   66.5000   -20.4680    68.7140    10.5500     8.5880    10.6000    26.4380     2.1940 
   66.6250   -19.6690    72.8920    10.0480     8.2090     9.8820    25.7990     2.2090 
   66.7500   -18.7440    80.1560     9.5060     7.7640     8.4370    24.9870     2.2360 
   66.8750   -17.8390    86.7560     9.0730     7.3690     7.5740    24.5240     2.2660 
   67.0000   -17.0330    89.8680     8.8650     7.1180     7.4960    24.3700     2.2860 
   67.1250   -16.4080    91.4660     8.9600     7.0890     7.8970    24.3520     2.2890 
   67.2500   -15.9950    92.8740     9.2420     7.2310     8.3230    24.3700     2.2800 
   67.3750   -15.8320    90.3860     9.5760     7.4790     8.5810    24.4180     2.2660 
   67.5000   -15.9050    83.1550     9.8090     7.7220     8.7500    24.5170     2.2520 
   67.6250   -16.0990    78.1030     9.7850     7.8090     8.9670    24.6660     2.2380 
   67.7500   -16.2420    78.9140     9.5380     7.7130     9.5450    24.8120     2.2290 
   67.8750   -16.1920    84.1910     9.1650     7.4800    10.1080    24.8760     2.2290 
   68.0000   -15.9570    91.5960     8.7980     7.2050     8.8630    24.7620     2.2390 
   68.1250   -15.6760    97.9850     8.5940     7.0180     7.3260    24.6500     2.2580 
   68.2500   -15.4280   100.5360     8.5970     6.9830     7.2110    24.5170     2.2750 
   68.3750   -15.1840    99.5710     8.7920     7.1050     8.0490    24.4210     2.2820 
   68.5000   -14.9440    96.2520     9.1090     7.3430     8.4190    24.3760     2.2780 
   68.6250   -14.7600    90.3640     9.4160     7.6090     8.4590    24.3680     2.2660 
   68.7500   -14.5600    87.5080     9.5770     7.7900     8.4930    24.3700     2.2540 
   68.8750   -14.3110    90.4880     9.5240     7.8110     8.4810    24.3680     2.2480 
   69.0000   -13.9640    94.6180     9.2700     7.6590     8.2760    24.3560     2.2510 
   69.1250   -13.3900    94.4480     8.9080     7.3750     7.8590    24.3200     2.2650 
