~V
VERS. 2.00: Ver 2.00
~W
STRT.M 53.0000:
STOP.M 246.0000:
STEP.M 0.1250:
NULL. -999.2500:
UWI. F10192:
~C
DEPT.M :
DEN.GM/CC :
GR.API :
RML.OHMM :
RI. :
RXO.OHMM :
CALI.CM :
SP.MV :
~A
# ...
   64.2500     2.2180    92.2520     6.6160     7.3460     8.0600    24.7720   -22.4490 
   64.3750     2.2390    94.7020     6.2310     6.9390     7.6690    25.0610   -22.9060 
   64.5000     2.2620    98.3540     5.7140     6.3340     6.9350    25.1270   -23.3230 
   64.6250     2.2820   100.5930     5.2290     5.7000     6.0540    24.9600   -23.7910 
   64.7500     2.3010   103.6970     4.9550     5.2470     5.6750    24.8030   -24.3680 
   64.8750     2.3200   106.1400     4.9830     5.1080     5.8500    24.7440   -25.0790 
   65.0000     2.3420   106.0460     5.4140     5.4000     6.5000    24.7730   -25.9920 
   65.1250     2.3680   103.6090     6.3500     6.2050     7.0710    24.8780   -27.1730 
   65.2500     2.4050    99.6450     7.9720     7.6130     9.0540    24.9770   -28.6280 
   65.3750     2.4350    94.2290    10.0660     9.3330    14.4740    25.0130   -30.2310 
   65.5000     2.4200    85.4710    12.0250    10.8750    23.6680    24.9800   -31.8790 
   65.6250     2.3430    75.1340    12.8770    11.6070    23.4350    24.8580   -33.4960 
   65.7500     2.2470    66.3270    12.1600    11.1450    15.4740    24.6970   -35.0390 
   65.8750     2.1810    60.4050    11.0040    10.1530    11.3910    24.6680   -36.4780 
   66.0000     2.1500    58.0880    10.0880     9.1830    10.1350    24.7170   -37.7010 
   66.1250     2.1380    57.7100     9.6200     8.5480     9.8420    24.7860   -38.6110 
   66.2500     2.1360    60.6300     9.5870     8.3590     9.7570    24.8900   -39.2260 
   66.3750     2.1450    67.7080     9.7520     8.4180     9.8010    25.0050   -39.6480 
   66.5000     2.1650    76.6070     9.9640     8.5680    10.0330    25.0640   -39.9340 
   66.6250     2.1880    81.3140    10.1370     8.7110    10.4350    25.0600   -40.1240 
   66.7500     2.1980    79.6580    10.2610     8.8170    10.7520    25.0290   -40.2080 
   66.8750     2.1940    76.8580    10.3610     8.8980    10.8450    24.9430   -40.2010 
   67.0000     2.1860    74.2470    10.4320     8.9490    10.7940    24.8550   -40.1470 
   67.1250     2.1800    71.1400    10.4500     8.9480    10.7020    24.8100   -40.1240 
   67.2500     2.1830    69.6900    10.3820     8.8650    10.6010    24.8000   -40.1380 
   67.3750     2.1890    71.1000    10.2540     8.7180    10.5430    24.7930   -40.1880 
   67.5000     2.1930    72.2930    10.1140     8.5410    10.4380    24.7860   -40.2430 
   67.6250     2.1900    70.7060    10.0200     8.3710    10.3240    24.7820   -40.2650 
   67.7500     2.1820    68.2440    10.0370     8.2410    10.3210    24.8030   -40.2770 
   67.8750     2.1720    67.3240    10.1860     8.1510    10.3890    24.8780   -40.3320 
   68.0000     2.1620    68.4810    10.5040     8.0960    10.3150    25.0110   -40.4560 
   68.1250     2.1500    71.5960    11.0370     8.0640    10.1840    25.1320   -40.6310 
   68.2500     2.1380    73.2280    11.7410     8.0470    10.2480    25.1880   -40.8430 
   68.3750     2.1310    69.2010    12.2670     8.0330    10.3820    25.1550   -41.0340 
   68.5000     2.1310    62.6680    12.4090     8.0090    10.3720    25.0700   -41.1930 
   68.6250     2.1370    60.5770    12.2750     7.9670    10.1620    24.9610   -41.3270 
   68.7500     2.1480    66.9470    12.0120     7.9070     9.8540    24.7790   -41.4340 
   68.8750     2.1610    73.4420    11.7690     7.8480     9.6160    24.6020   -41.5310 
   69.0000     2.1700    73.4560    11.6540     7.8070     9.6350    24.5180   -41.5920 
   69.1250     2.1690    68.2550    11.6880     7.8010     9.7320    24.5030   -41.6080 
   69.2500     2.1600    63.5820    11.6740     7.8430    10.2620    24.5050   -41.5180 
   69.3750     2.1570    61.6690    11.3300     7.9100    10.4420    24.4950   -41.3660 
   69.5000     2.1620    61.7810    10.7600     7.9760    10.5860    24.4840   -41.2150 
   69.6250     2.1690    63.0400    10.2900     8.0120    10.7980    24.5050   -41.0950 
   69.7500     2.1690    64.3130    10.0380     7.9780    10.9050    24.5620   -40.9580 
   69.8750     2.1700    64.8900     9.8950     7.8750    10.7670    24.6060   -40.7710 
   70.0000     2.1760    67.0370     9.8040     7.7170    10.4790    24.6230   -40.5300 
   70.1250     2.1870    71.3390     9.7300     7.5280    10.1580    24.5960   -40.2460 
   70.2500     2.1960    73.9090     9.6510     7.3270     9.7390    24.5380   -39.9790 
   70.3750     2.1980    73.4720     9.5410     7.1250     9.3110    24.5120   -39.7580 
   70.5000     2.1910    71.4770     9.3700     6.9150     9.2880    24.5070   -39.5780 
   70.6250     2.1820    69.9170     9.1260     6.6880     9.4900    24.5130   -39.4470 
   70.7500     2.1840    69.7090     8.9190     6.4880     9.4790    24.5340   -39.4070 
   70.8750     2.2010    69.1310     9.0230     6.4530     9.4260    24.5670   -39.4560 
   71.0000     2.2270    67.4840     9.7270     6.7510     9.6480    24.6260   -39.5870 
   71.1250     2.2600    65.8360    11.1940     7.5240    10.4000    24.7560   -39.7700 
   71.2500     2.3100    64.0640    13.4140     8.9020    13.1770    24.9280   -40.0050 
   71.3750     2.3660    61.2370    15.7290    10.6000    21.2740    24.9690   -40.2770 
   71.5000     2.3930    58.9860    17.2730    12.0750    37.3580    24.8760   -40.5710 
   71.6250     2.3530    59.5280    17.2060    12.5760    37.4430    24.6800   -40.8390 
   71.7500     2.2680    61.7480    15.2950    11.6290    21.4670    24.4610   -41.0170 
   71.8750     2.2060    62.8940    12.8860    10.0800    13.1770    24.3260   -41.1250 
   72.0000     2.1820    62.5320    10.9180     8.6140    10.7790    24.2820   -41.1830 
   72.1250     2.1860    62.0570     9.7740     7.5770    10.2830    24.2780   -41.2290 
   72.2500     2.2020    62.8150     9.4650     7.0890    10.1270    24.2910   -41.2520 
   72.3750     2.2120    66.4710     9.5370     6.9370    10.1810    24.3180   -41.2170 
   72.5000     2.2130    71.1860     9.7330     6.9680    10.2670    24.3430   -41.1040 
   72.6250     2.2080    73.1830     9.9510     7.0820    10.0880    24.3530   -40.9360 
   72.7500     2.1980    71.4860    10.2220     7.2670     9.8100    24.3720   -40.7640 
   72.8750     2.1830    67.9350    10.5540     7.5140     9.9470    24.5010   -40.6100 
   73.0000     2.1710    67.6520    10.8790     7.7830    10.2230    24.7980   -40.4650 
   73.1250     2.1730    71.8270    11.0700     7.9950    10.0160    25.0680   -40.2710 
   73.2500     2.1910    77.4180    10.9640     8.0190     9.4270    24.9020   -39.9920 
   73.3750     2.2030    80.0410    10.6110     7.8460     9.7900    24.5960   -39.7030 
   73.5000     2.2040    78.3150    10.1600     7.5440    10.6110    24.3960   -39.4610 
   73.6250     2.2040    74.5670     9.7830     7.2250    11.2570    24.3620   -39.2940 
   73.7500     2.2070    71.9630     9.6180     7.0020    11.4270    24.3650   -39.2380 
   73.8750     2.2070    72.2080     9.6170     6.8910    11.4040    24.3570   -39.2490 
   74.0000     2.2050    74.3990     9.6940     6.8620    11.1620    24.3410   -39.3320 
   74.1250     2.2010    74.3270     9.7610     6.8620    10.8770    24.3230   -39.5080 
   74.2500     2.1940    69.8270     9.7740     6.8480    10.6470    24.3690   -39.7800 
   74.3750     2.1800    65.5480     9.7670     6.8220    10.5420    24.5320   -40.1090 
   74.5000     2.1530    64.9200     9.7710     6.8050    10.6210    24.9320   -40.4340 
   74.6250     2.1210    65.7400     9.7920     6.8060    10.8040    25.5270   -40.7290 
   74.7500     2.0990    64.2000     9.8110     6.8200    10.7490    25.9470   -40.9680 
   74.8750     2.0960    62.7790     9.8010     6.8230    10.6060    25.9640   -41.1280 
   75.0000     2.1090    62.6360     9.7460     6.7950    10.6120    25.6580   -41.1930 
   75.1250     2.1270    61.2770     9.6460     6.7270    10.7560    25.2470   -41.1930 
   75.2500     2.1380    60.6740     9.5220     6.6260    10.8040    24.9760   -41.1560 
   75.3750     2.1430    62.4460     9.4070     6.5150    10.8050    24.8060   -41.0860 
