~V
VERS. 2.00: Ver 2.00
~W
STRT.M 56.0000:
STOP.M 352.0000:
STEP.M 0.1250:
NULL. -999.2500:
UWI. F10109:
~C
DEPT.M :
DEN.GM/CC :
SP.MV :
GR.API :
RML.OHMM :
RI. :
RXO.OHMM :
CALI.CM :
~A
# ...
  224.7500     2.2570    -8.0590    64.8740    15.2740    13.7600    12.3460    23.3880 
  224.8750     2.2380    -8.0590    67.5920    17.2540    15.5290    13.7020    23.3810 
  225.0000     2.2170    -8.0250    68.0850    18.9540    17.1760    15.7420    23.4050 
  225.1250     2.2020    -7.9710    67.2240    19.7910    18.1780    18.8320    23.4760 
  225.2500     2.1970    -7.8880    66.9580    19.6020    18.2950    21.2030    23.6120 
  225.3750     2.2010    -7.7510    67.2490    18.4380    17.4960    19.8970    23.8890 
  225.5000     2.2100    -7.5920    67.7990    16.6310    16.0240    17.1030    24.2830 
  225.6250     2.2210    -7.4570    67.8490    14.6880    14.3040    14.7560    24.5500 
  225.7500     2.2300    -7.3130    66.7530    13.0540    12.7750    12.8930    24.6610 
  225.8750     2.2390    -7.1740    65.5440    11.9280    11.6430    11.5940    24.7050 
  226.0000     2.2460    -7.0760    66.1270    11.3780    11.0040    10.8370    24.7200 
  226.1250     2.2490    -7.0100    67.0850    11.6740    10.9950    10.5210    24.7310 
  226.2500     2.2470    -6.9760    67.6360    12.6640    11.5660    10.5630    24.7520 
  226.3750     2.2420    -6.9840    67.8420    14.4020    12.7450    11.3600    24.7650 
  226.5000     2.2360    -7.0100    67.5010    16.9520    14.4680    13.1470    24.7790 
  226.6250     2.2360    -7.0200    67.7870    19.1460    16.4390    15.1640    24.7960 
  226.7500     2.2460    -7.0420    68.0950    20.7120    17.9950    17.3660    24.7970 
  226.8750     2.2710    -7.0640    67.8800    20.9340    18.4840    19.7700    24.7820 
  227.0000     2.3090    -7.0500    66.1530    19.4160    17.4600    21.5610    24.7740 
  227.1250     2.3550    -7.0050    65.1780    16.3150    14.9400    21.4460    24.7500 
  227.2500     2.3960    -6.9450    68.7810    12.9260    12.0550    15.9600    24.7110 
  227.3750     2.4260    -6.8830    75.4590    10.1160     9.5790     9.9000    24.7230 
  227.5000     2.4410    -6.8390    80.8890     8.2690     7.8530     6.5700    24.7840 
  227.6250     2.4480    -6.8730    84.0920     7.4740     6.9850     5.7840    24.7420 
  227.7500     2.4560    -6.9620    85.1190     7.3250     6.6950     5.6390    24.7020 
  227.8750     2.4660    -7.1200    83.9700     7.5850     6.8240     5.6520    24.6670 
  228.0000     2.4750    -7.3800    81.4890     8.0460     7.2190     5.7810    24.6100 
  228.1250     2.4770    -7.7410    81.2040     8.5160     7.7240     6.2390    24.5290 
  228.2500     2.4710    -8.1840    82.0280     8.8530     8.1650     6.7100    24.4740 
  228.3750     2.4600    -8.6950    81.5190     8.9980     8.4470     6.9260    24.4160 
  228.5000     2.4490    -9.2420    79.8120     8.9580     8.5320     6.8770    24.3280 
  228.6250     2.4410    -9.7820    79.6660     8.7840     8.4230     6.7630    24.2300 
  228.7500     2.4370   -10.3240    83.1690     8.5900     8.2320     6.7150    24.0920 
  228.8750     2.4330   -10.8540    88.3560     8.4410     8.0320     6.6190    23.9230 
  229.0000     2.4290   -11.3590    90.7360     8.3500     7.8730     6.4390    23.8040 
  229.1250     2.4260   -11.8660    87.1290     8.2930     7.7740     6.3620    23.6860 
  229.2500     2.4230   -12.3470    84.1360     8.2080     7.7070     6.5170    23.5080 
  229.3750     2.4200   -12.7870    84.9500     8.0920     7.6590     6.8690    23.3380 
  229.5000     2.4150   -13.2430    84.4270     7.9930     7.6330     7.3920    23.2970 
  229.6250     2.4080   -13.7220    78.8950     8.2060     7.7030     8.0160    23.3680 
  229.7500     2.3970   -14.1640    74.7080     8.7750     7.9700     8.8250    23.4100 
  229.8750     2.3850   -14.5730    73.5750     9.9100     8.5600     9.7950    23.4510 
  230.0000     2.3740   -14.9570    71.5160    11.9330     9.5880    10.8770    23.5200 
  230.1250     2.3670   -15.2950    68.1390    14.0810    11.1850    12.5190    23.5870 
  230.2500     2.3650   -15.6160    68.5090    16.5050    13.1620    15.2330    23.6110 
  230.3750     2.3630   -15.9210    70.0520    18.7670    15.2470    18.6530    23.6140 
  230.5000     2.3580   -16.1630    67.8170    20.3870    17.0580    21.3430    23.5930 
  230.6250     2.3510   -16.3320    63.4070    20.9230    18.1200    21.5700    23.5710 
  230.7500     2.3440   -16.4860    63.0400    20.7310    18.5100    21.0910    23.5650 
  230.8750     2.3380   -16.6360    68.0770    20.3560    18.5730    20.2510    23.5760 
  231.0000     2.3310   -16.7740    75.0070    20.3480    18.7620    18.6130    23.6320 
  231.1250     2.3210   -16.9150    77.8650    21.0950    19.4680    17.7700    23.7890 
  231.2500     2.3090   -17.0430    75.6990    22.3800    20.6490    20.1410    24.0360 
  231.3750     2.3010   -17.1720    70.1810    23.9210    22.1510    23.8750    24.3360 
  231.5000     2.3000   -17.3450    64.5400    25.4130    23.7410    26.2650    24.5940 
  231.6250     2.3040   -17.5780    61.4490    26.5380    25.1130    25.9360    24.7010 
  231.7500     2.3080   -17.8540    60.9650    27.2370    26.1100    24.6280    24.7020 
  231.8750     2.3080   -18.1630    62.3660    27.5450    26.6950    23.9220    24.6780 
  232.0000     2.3050   -18.4990    64.0130    27.5710    26.9360    25.6620    24.6400 
  232.1250     2.3030   -18.8360    65.3700    27.4820    26.9580    26.3080    24.5740 
  232.2500     2.3040   -19.2190    65.8750    27.5300    26.9970    25.6240    24.4940 
  232.3750     2.3070   -19.6590    65.7460    27.9600    27.2720    24.4430    24.3610 
  232.5000     2.3130   -20.1130    65.7360    29.0480    28.0340    23.8260    24.1320 
  232.6250     2.3210   -20.5810    64.3130    31.2870    29.7490    23.9370    23.8580 
  232.7500     2.3270   -21.0510    62.3420    34.8250    32.6340    25.8020    23.6500 
  232.8750     2.3270   -21.5260    61.7030    39.8810    36.9810    28.2830    23.5340 
  233.0000     2.3180   -22.0240    63.5320    46.5940    43.0160    30.1500    23.5360 
  233.1250     2.2990   -22.5410    65.6410    55.9830    51.0820    33.7120    23.6730 
  233.2500     2.2760   -23.0400    63.7320    66.9470    60.5530    41.9240    23.8770 
  233.3750     2.2530   -23.4890    58.9340    78.9390    70.7270    51.7060    24.1600 
  233.5000     2.2360   -23.8950    54.7150    91.8690    80.6780    58.8240    24.5260 
  233.6250     2.2270   -24.2410    51.7930   100.5200    89.2430    62.4520    24.8380 
  233.7500     2.2210   -24.5460    48.7990   107.1530    96.0920    65.3830    25.0020 
  233.8750     2.2190   -24.8110    46.8120   111.8630   101.2710    68.4920    25.0620 
  234.0000     2.2170   -25.0210    46.5430   114.9150   105.0390    71.6820    25.0420 
  234.1250     2.2160   -25.1410    46.1970   116.0480   107.2300    74.5810    24.9620 
  234.2500     2.2180   -25.2090    45.5360   115.2000   107.7690    75.9590    24.8660 
  234.3750     2.2210   -25.2630    47.3180   112.0780   106.2960    75.8790    24.7760 
  234.5000     2.2250   -25.3030    51.7210   106.6200   102.5920    74.8660    24.6720 
  234.6250     2.2300   -25.2990    55.4440    98.7580    96.3370    71.9410    24.5740 
  234.7500     2.2380   -25.2640    56.8140    89.5250    88.2870    68.1940    24.4690 
  234.8750     2.2520   -25.2260    57.9570    79.6730    79.0820    63.5130    24.3300 
  235.0000     2.2730   -25.1680    61.2630    70.0680    69.5550    57.9340    24.1790 
  235.1250     2.2960   -25.1340    63.6850    61.7600    60.8520    53.9790    24.0540 
  235.2500     2.3150   -25.1080    63.2600    55.2820    53.7920    50.9340    23.9650 
  235.3750     2.3250   -25.0680    64.2520    50.6410    48.9870    45.9380    23.9040 
  235.5000     2.3250   -25.0430    68.1940    48.9380    46.8250    39.3640    23.8810 
  235.6250     2.3110   -25.0830    68.0640    50.9440    48.0400    35.7180    23.8790 
  235.7500     2.2900   -25.1730    62.7680    56.1620    52.2880    36.5190    23.8820 
  235.8750     2.2660   -25.2720    58.3480    64.3150    59.4730    41.7750    23.9220 
