~V
VERS. 2.00: Ver 2.00
~W
STRT.M 60.0000:
STOP.M 220.0000:
STEP.M 0.1250:
NULL. -999.2500:
UWI. F10154:
~C
DEPT.M :
GR.API :
RML.OHMM :
RI. :
RXO.OHMM :
CALI.CM :
DEN.GM/CC :
SP.MV :
~A
# ...
   82.5000    72.0320     9.5230     7.0390     7.9460    22.8550     2.2090   -26.8290 
   82.6250    71.3730     9.4800     7.0030     8.0200    23.2430     2.2110   -27.4330 
   82.7500    68.7250     9.4320     6.9580     8.0030    23.7570     2.2120   -27.8870 
   82.8750    68.7990     9.4190     6.9340     7.9380    24.1320     2.2120   -28.0280 
   83.0000    73.1390     9.4620     6.9500     7.9330    24.3150     2.2080   -27.8020 
   83.1250    75.8100     9.5510     7.0130     8.0990    24.3630     2.2010   -27.3060 
   83.2500    73.9940     9.6400     7.0910     8.2190    24.3500     2.1940   -26.6330 
   83.3750    72.0620     9.6970     7.1570     8.3470    24.2650     2.1910   -25.8380 
   83.5000    74.1360     9.7100     7.1930     8.4740    24.1620     2.1930   -24.9480 
   83.6250    75.6540     9.6920     7.1960     8.2790    24.0670     2.1970   -24.0000 
   83.7500    72.2720     9.6810     7.1970     7.8130    23.9370     2.2000   -23.1920 
   83.8750    68.3840     9.6960     7.2150     7.6310    23.7620     2.2010   -22.6580 
   84.0000    67.0310     9.7280     7.2490     7.6130    23.6030     2.2000   -22.3950 
   84.1250    66.3070     9.7210     7.2650     7.7030    23.6010     2.1950   -22.2330 
   84.2500    63.7780     9.6190     7.2190     7.9440    23.7380     2.1890   -22.0190 
   84.3750    62.4620     9.3950     7.0850     8.3290    23.9260     2.1820   -21.7370 
   84.5000    67.0010     9.0780     6.8710     8.2870    24.0340     2.1750   -21.4480 
   84.6250    75.5960     8.7580     6.6310     7.5750    23.9620     2.1710   -21.2100 
   84.7500    81.6540     8.5430     6.4450     6.8720    23.7910     2.1720   -21.0270 
   84.8750    82.5190     8.4950     6.3650     6.9160    23.4790     2.1790   -20.9710 
   85.0000    79.5440     8.6250     6.4140     7.5320    23.0140     2.1890   -21.0820 
   85.1250    75.0410     8.9040     6.6000     8.2320    22.8010     2.2000   -21.3890 
   85.2500    70.5200     9.2230     6.8510     8.6170    22.7830     2.2070   -21.8660 
   85.3750    66.4670     9.5000     7.1010     8.7920    22.8340     2.2080   -22.4700 
   85.5000    63.3180     9.6680     7.2920     8.9430    22.9420     2.2050   -23.1070 
   85.6250    61.8370     9.6690     7.3650     9.1450    23.2330     2.2010   -23.6960 
   85.7500    62.2360     9.5490     7.3380     9.3090    23.6340     2.2000   -24.1780 
   85.8750    64.0750     9.3670     7.2570     9.2330    23.8780     2.2030   -24.5030 
   86.0000    65.6570     9.2040     7.1910     8.7400    23.9330     2.2120   -24.6870 
   86.1250    65.0740     9.1510     7.2170     8.1670    23.8990     2.2220   -24.7300 
   86.2500    63.4590     9.2090     7.3420     7.9290    23.8360     2.2290   -24.6090 
   86.3750    63.4920     9.3210     7.5240     8.4890    23.7570     2.2270   -24.2530 
   86.5000    66.4930     9.3750     7.6740     9.6470    23.7430     2.2160   -23.6950 
   86.6250    70.1390     9.2080     7.6340    10.3370    23.7730     2.2030   -22.8990 
   86.7500    71.8170     8.8010     7.3610     8.9060    23.7010     2.2000   -21.8330 
   86.8750    70.8290     8.2090     6.8900     7.5250    23.5900     2.2100   -20.5080 
   87.0000    70.3510     7.5580     6.3250     6.6390    23.5520     2.2290   -18.9790 
   87.1250    76.2210     7.0100     5.8020     5.7940    23.6690     2.2480   -17.3320 
   87.2500    84.7820     6.6330     5.4030     5.0790    23.9110     2.2630   -15.7240 
   87.3750    90.0930     6.4130     5.1420     4.7030    24.1770     2.2750   -14.2430 
   87.5000    90.1030     6.2820     4.9820     4.6400    24.3700     2.2880   -12.9380 
   87.6250    88.1400     6.1790     4.8660     4.7210    24.3890     2.3010   -11.8750 
   87.7500    87.7970     6.1020     4.7750     4.8800    24.3840     2.3130   -11.0710 
   87.8750    89.4750     6.1150     4.7450     4.9090    24.3880     2.3210   -10.5600 
   88.0000    94.1930     6.2890     4.8270     4.6630    24.3310     2.3290   -10.3260 
   88.1250    97.9340     6.6930     5.0820     4.5520    24.0830     2.3360   -10.3960 
   88.2500    94.4070     7.2470     5.4750     5.4780    23.6410     2.3360   -10.6360 
   88.3750    86.5050     7.8490     5.9450     8.1790    23.0820     2.3210   -11.0280 
   88.5000    82.0720     8.3810     6.4010     9.2340    22.6540     2.2940   -11.5600 
   88.6250    83.8980     8.7360     6.7460     7.9010    22.5800     2.2620   -12.3230 
   88.7500    85.0170     8.9570     6.9850     8.0700    22.5920     2.2360   -13.2650 
   88.8750    82.6740     9.1220     7.1680     9.4640    22.5030     2.2180   -14.3000 
   89.0000    79.8140     9.3140     7.3580    10.9140    22.4180     2.2070   -15.3550 
   89.1250    79.0650     9.5790     7.6080    11.9480    22.4560     2.1990   -16.2970 
   89.2500    80.6290     9.8670     7.8820    12.1650    22.5380     2.1930   -17.1670 
   89.3750    82.7700    10.1190     8.1160    11.5060    22.5940     2.1920   -17.9930 
   89.5000    82.3000    10.3010     8.2680    10.4930    22.6290     2.1950   -18.7640 
   89.6250    78.1930    10.4000     8.3320     9.5800    22.6590     2.1990   -19.3660 
   89.7500    74.6900    10.4410     8.3390     8.6820    22.6920     2.2000   -19.8740 
   89.8750    73.0670    10.4280     8.3000     7.9460    22.7460     2.1960   -20.2990 
   90.0000    72.6260    10.3660     8.2230     7.4660    22.8150     2.1870   -20.6770 
   90.1250    73.1150    10.2380     8.0940     7.2530    22.9150     2.1780   -21.0460 
   90.2500    75.6070    10.0290     7.8990     7.1090    23.0290     2.1720   -21.3010 
   90.3750    78.6800     9.7210     7.6230     7.0760    23.1500     2.1740   -21.4040 
   90.5000    79.0180     9.3350     7.2820     6.8420    23.2470     2.1830   -21.3890 
   90.6250    76.7440     8.9700     6.9500     6.5680    23.3770     2.1960   -21.2860 
   90.7500    76.9390     8.7720     6.7270     6.3990    23.5740     2.2050   -21.1960 
   90.8750    82.0030     8.8580     6.6880     6.3580    23.7910     2.2090   -21.2340 
   91.0000    87.3060     9.2560     6.8720     6.5370    23.9000     2.2100   -21.3760 
   91.1250    85.1790     9.8830     7.2890     7.8150    23.8020     2.2120   -21.6000 
   91.2500    76.8230    10.4830     7.8040     8.7730    23.5870     2.2180   -21.9610 
   91.3750    69.7730    10.8800     8.2710     9.2120    23.3250     2.2270   -22.4680 
   91.5000    68.2160    11.0000     8.5580     9.1190    23.0960     2.2350   -23.0810 
   91.6250    69.3850    10.8760     8.5680     8.6630    22.9670     2.2370   -23.7790 
   91.7500    68.4460    10.6780     8.4080     8.2410    22.8940     2.2310   -24.4000 
   91.8750    66.9840    10.4930     8.1800     7.9360    22.8300     2.2180   -24.7560 
   92.0000    67.6390    10.3440     7.9660     7.7370    22.7460     2.2030   -24.8240 
   92.1250    70.1560    10.2290     7.8170     7.6390    22.6890     2.1890   -24.6480 
   92.2500    71.6990    10.1460     7.7230     7.5860    22.6630     2.1800   -24.3210 
   92.3750    72.0810    10.1080     7.6730     7.5170    22.6560     2.1760   -23.9120 
   92.5000    71.5730    10.1200     7.6500     7.4590    22.6730     2.1740   -23.4720 
   92.6250    71.6740    10.1600     7.6380     7.3760    22.7350     2.1720   -23.0300 
   92.7500    72.9970    10.1840     7.6200     7.3940    22.8090     2.1690   -22.5550 
   92.8750    73.8310    10.1580     7.5810     7.6550    22.8470     2.1670   -22.1630 
   93.0000    71.8790    10.0610     7.5130     7.9730    22.8630     2.1660   -21.8920 
   93.1250    67.4830     9.8860     7.4120     7.6710    22.9070     2.1640   -21.7420 
   93.2500    66.1510     9.6930     7.3050     7.3110    23.0040     2.1610   -21.6540 
   93.3750    70.5600     9.5610     7.2370     7.0340    23.1400     2.1570   -21.5850 
   93.5000    77.1390     9.5810     7.2660     7.0110    23.2470     2.1570   -21.4480 
   93.6250    79.5670     9.8440     7.4640     7.3890    23.3440     2.1680   -21.2080 
