~V
VERS. 2.00: Ver 2.00
~W
STRT.M 50.0000:
STOP.M 211.0000:
STEP.M 0.1250:
NULL. -999.2500:
UWI. F10140:
~C
DEPT.M :
DEN.GM/CC :
GR.API :
RML.OHMM :
RI. :
RXO.OHMM :
CALI.CM :
SP.MV :
~A
# ...
   72.5000     2.2150    92.6280     7.5840     6.1750     7.9180    26.2050   -21.1380 
   72.6250     2.2120    91.0510     8.5230     6.8130     8.0070    26.8350   -19.7880 
   72.7500     2.2280    90.1160     9.6090     7.7670    10.9930    27.3160   -18.2870 
   72.8750     2.2730    89.7970    10.4010     8.7640    17.2020    27.6390   -16.6740 
   73.0000     2.3420    88.9530    10.4380     9.3040    21.8400    27.8110   -15.0130 
   73.1250     2.4100    89.8920     9.3960     8.7810    16.6870    27.9070   -13.4110 
   73.2500     2.4490    94.8020     7.7910     7.5300    10.0240    28.0140   -11.9540 
   73.3750     2.4520   104.6370     6.1970     6.1190     5.8460    28.1240   -10.6960 
   73.5000     2.4310   116.5560     5.0820     5.0010     4.1590    28.1660    -9.7490 
   73.6250     2.4120   120.4270     4.7410     4.4360     3.9600    28.0820    -9.2620 
   73.7500     2.4110   114.3170     4.9760     4.3300     4.1370    27.9540    -9.2500 
   73.8750     2.4250   105.6040     5.5820     4.5970     5.1240    27.9050    -9.7200 
   74.0000     2.4400    99.2260     6.2910     5.0950     7.3610    28.0560   -10.5900 
   74.1250     2.4340    90.3100     6.7790     5.5960    10.0910    28.4040   -11.7830 
   74.2500     2.4010    81.3430     6.9470     5.9180     9.0610    28.7240   -13.1500 
   74.3750     2.3460    77.3130     6.8860     6.0520     7.9070    28.7700   -14.6400 
   74.5000     2.2820    75.7490     6.8030     6.1160     7.6410    28.4160   -16.1540 
   74.6250     2.2300    73.8830     6.9280     6.2740     8.0150    27.6350   -17.6390 
   74.7500     2.2010    74.8280     7.2650     6.5770     9.2330    26.6070   -19.0360 
   74.8750     2.1950    78.4800     7.6980     6.9700    12.0200    25.4660   -20.2680 
   75.0000     2.2040    79.7160     8.0660     7.3210    16.0290    24.3830   -21.3290 
   75.1250     2.2160    79.1830     8.2100     7.4680    12.9620    23.6560   -22.2330 
   75.2500     2.2220    80.2910     8.1660     7.4170     9.4900    23.3180   -23.0280 
   75.3750     2.2220    81.2110     8.0230     7.2450     8.2340    23.2090   -23.7100 
   75.5000     2.2180    80.8930     7.8900     7.0580     8.2910    23.2260   -24.2620 
   75.6250     2.2140    82.1660     7.8470     6.9470     8.6240    23.3910   -24.6190 
   75.7500     2.2070    84.7510     7.8640     6.9080     8.6340    23.6470   -24.8460 
   75.8750     2.1940    85.6970     7.8850     6.8950     8.3370    23.9070   -25.0430 
   76.0000     2.1730    83.7570     7.8570     6.8570     8.1430    24.0930   -25.2730 
   76.1250     2.1510    81.1920     7.7510     6.7550     8.0080    24.1860   -25.5670 
   76.2500     2.1380    78.0130     7.6060     6.6090     8.0700    24.2340   -25.9330 
   76.3750     2.1380    74.3920     7.4620     6.4460     7.9860    24.2830   -26.3650 
   76.5000     2.1500    73.4460     7.3570     6.2980     7.4510    24.2780   -26.8660 
   76.6250     2.1650    75.0200     7.3190     6.2010     7.7180    24.1500   -27.4150 
   76.7500     2.1740    73.6070     7.3410     6.1630     8.2840    23.9490   -27.9600 
   76.8750     2.1770    69.4170     7.4120     6.1840     9.0000    23.7290   -28.4640 
   77.0000     2.1760    67.6340     7.5090     6.2480     9.3970    23.5060   -28.8900 
   77.1250     2.1750    69.5230     7.6000     6.3300     9.4730    23.2500   -29.2130 
   77.2500     2.1760    70.3720     7.6590     6.4010     9.6140    22.9400   -29.4770 
   77.3750     2.1800    71.0970     7.6760     6.4450     9.7850    22.6750   -29.6960 
   77.5000     2.1890    74.3720     7.6520     6.4560     9.8550    22.6070   -29.8670 
   77.6250     2.2030    77.8650     7.5990     6.4370     9.6230    22.8140   -29.9780 
   77.7500     2.2170    78.3660     7.5480     6.3940     9.4710    23.1320   -30.0310 
   77.8750     2.2210    77.0740     7.5240     6.3340     9.1610    23.4470   -29.9970 
   78.0000     2.2100    75.7870     7.5430     6.2720     8.5630    23.6820   -29.8670 
   78.1250     2.1820    73.6350     7.6070     6.2300     8.0740    23.7480   -29.6500 
   78.2500     2.1490    72.1300     7.6870     6.2160     8.1040    23.6890   -29.3780 
   78.3750     2.1180    73.1470     7.7620     6.2300     8.4510    23.5550   -29.0960 
   78.5000     2.0940    75.6380     7.8270     6.2690     8.8750    23.3860   -28.8350 
   78.6250     2.0830    78.1740     7.8950     6.3370     8.7940    23.2110   -28.6500 
   78.7500     2.0870    79.5810     7.9830     6.4320     9.1960    23.0810   -28.5310 
   78.8750     2.1060    79.0610     8.0910     6.5560     9.8670    23.0340   -28.4620 
   79.0000     2.1390    77.1440     8.1950     6.6890    10.6520    23.0460   -28.4450 
   79.1250     2.1770    75.5050     8.2430     6.7860    11.3190    23.0620   -28.4380 
   79.2500     2.2080    74.8580     8.2090     6.8200    11.9600    23.0610   -28.3770 
   79.3750     2.2230    73.2230     8.0960     6.7800    11.5170    23.0610   -28.2330 
   79.5000     2.2220    70.6090     7.9490     6.6880    10.5780    23.0760   -27.9870 
   79.6250     2.2090    70.2420     7.8530     6.6030    10.0190    23.1280   -27.5990 
   79.7500     2.1950    73.3580     7.8620     6.5850     9.7150    23.2350   -27.0780 
   79.8750     2.1850    77.2300     7.9670     6.6590     9.5600    23.3520   -26.3880 
   80.0000     2.1830    79.2220     8.0910     6.7960     9.6470    23.4220   -25.4850 
   80.1250     2.1900    77.8250     8.0580     6.8770     9.9310    23.4590   -24.3040 
   80.2500     2.2020    75.6980     7.7570     6.7680    10.3870    23.6640   -22.8980 
   80.3750     2.2170    75.9260     7.1730     6.3920    10.4410    24.2290   -21.2200 
   80.5000     2.2320    81.7510     6.4020     5.7780     9.0150    25.1590   -19.2650 
   80.6250     2.2400    92.5660     5.6380     5.0670     6.5100    26.2800   -17.0770 
   80.7500     2.2430   100.7970     5.0530     4.4670     4.5910    27.2340   -14.8210 
   80.8750     2.2480   105.5920     4.7300     4.0970     4.0300    27.8400   -12.6220 
   81.0000     2.2600   109.4140     4.6760     3.9930     4.0910    28.1220   -10.6170 
   81.1250     2.2800   112.9830     4.8720     4.1350     4.5870    28.2280    -8.9900 
   81.2500     2.3010   112.7540     5.1930     4.3800     5.1680    28.2890    -7.7560 
   81.3750     2.3130   108.2840     5.5520     4.6440     5.3850    28.3010    -6.9120 
   81.5000     2.3110   103.5050     5.8790     4.8880     5.3200    28.2370    -6.4200 
   81.6250     2.2930   102.4290     6.1080     5.1050     5.1780    28.0560    -6.2460 
   81.7500     2.2680   102.2450     6.2140     5.2840     5.2390    27.8060    -6.2280 
   81.8750     2.2430    99.4840     6.1730     5.3760     5.5910    27.5740    -6.2830 
   82.0000     2.2260    94.7430     5.9910     5.3380     5.8940    27.5080    -6.3380 
   82.1250     2.2250    94.4660     5.7570     5.1790     6.0360    27.7370    -6.3330 
   82.2500     2.2390    99.8680     5.6490     5.0310     5.3730    28.0100    -6.2760 
   82.3750     2.2640   105.6030     5.8160     5.0220     4.9230    28.0940    -6.2970 
   82.5000     2.2980   107.6450     6.3360     5.2460     5.0740    27.9460    -6.4950 
   82.6250     2.3380   106.0900     7.1820     5.7700     6.7340    27.5720    -6.9290 
   82.7500     2.3790   103.3200     8.0660     6.4590    10.5340    27.0780    -7.5680 
   82.8750     2.4060    99.9600     8.7030     7.1040    14.2500    26.6160    -8.4330 
   83.0000     2.4060    97.9270     8.8920     7.4610    11.4810    26.3870    -9.4890 
   83.1250     2.3710    98.0220     8.5850     7.3560     9.3460    26.5400   -10.6790 
   83.2500     2.3190    97.3730     8.0840     6.9980     8.5010    26.8140   -11.9060 
   83.3750     2.2700    95.7230     7.6170     6.5950     8.2920    27.0530   -13.1020 
   83.5000     2.2380    94.1270     7.3220     6.2950     8.0020    27.1900   -14.2540 
   83.6250     2.2260    92.6680     7.2440     6.1680     7.7010    27.2050   -15.3700 
