~V
VERS. 2.00: Ver 2.00
~W
STRT.M 50.0000:
STOP.M 284.0000:
STEP.M 0.1250:
NULL. -999.2500:
UWI. F10107:
~C
DEPT.M :
DEN.GM/CC :
SP.MV :
GR.API :
RML.OHMM :
RI. :
RXO.OHMM :
CALI.CM :
~A
# ...
  230.0000     2.4020   -15.5430    56.6220    20.4730    18.4030    16.2790    22.5030 
  230.1250     2.4180   -15.5290    57.0240    22.5510    20.0820    16.7110    22.6620 
  230.2500     2.4180   -15.5070    56.8210    24.7230    21.9660    19.6880    22.8130 
  230.3750     2.3980   -15.4880    55.0560    26.5090    23.6580    24.3850    22.8820 
  230.5000     2.3630   -15.4730    51.9830    27.4660    24.7310    27.4510    22.8920 
  230.6250     2.3270   -15.4510    51.6800    27.1870    24.7260    26.7460    22.8900 
  230.7500     2.3020   -15.4150    55.4230    25.9750    23.8170    24.6930    22.8860 
  230.8750     2.2920   -15.3610    59.7650    24.1530    22.2640    23.0460    22.8660 
  231.0000     2.2950   -15.3050    62.2090    22.0450    20.3750    21.8730    22.8110 
  231.1250     2.3070   -15.2620    60.2410    19.8820    18.3880    21.0180    22.7400 
  231.2500     2.3190   -15.2390    56.7700    17.8250    16.4830    18.3070    22.6670 
  231.3750     2.3280   -15.2240    55.7280    16.0110    14.7920    15.4910    22.6000 
  231.5000     2.3300   -15.2000    58.2710    14.5740    13.4310    13.2450    22.5620 
  231.6250     2.3240   -15.1480    61.5940    13.6700    12.5420    11.5830    22.5510 
  231.7500     2.3150   -15.0770    62.3680    13.1960    12.0400    10.6290    22.5470 
  231.8750     2.3050   -15.0010    60.5180    13.0480    11.8470    10.3630    22.5320 
  232.0000     2.2980   -14.9380    57.3460    13.0880    11.8490    10.4500    22.4910 
  232.1250     2.2980   -14.9060    53.4290    13.1850    11.9280    10.7260    22.4450 
  232.2500     2.3050   -14.8920    50.7070    13.2460    11.9790    10.9460    22.3840 
  232.3750     2.3150   -14.8900    50.2520    13.2480    11.9660    10.7490    22.3140 
  232.5000     2.3260   -14.8890    52.2130    13.1290    11.8870    10.4660    22.2220 
  232.6250     2.3360   -14.8890    55.3020    12.9480    11.7550    10.1740    22.1160 
  232.7500     2.3420   -14.8890    57.3290    12.6990    11.6050     9.9230    22.0720 
  232.8750     2.3460   -14.8930    58.6250    12.3700    11.4590     9.7990    22.1140 
  233.0000     2.3450   -14.8940    59.2010    12.3030    11.3480     9.9840    22.2170 
  233.1250     2.3400   -14.8850    60.0900    12.4420    11.3370    10.2660    22.3200 
  233.2500     2.3310   -14.8680    60.5290    12.7740    11.4810    10.4000    22.3890 
  233.3750     2.3190   -14.8460    60.0060    13.3410    11.8240    10.5160    22.4460 
  233.5000     2.3060   -14.8330    58.3810    14.1150    12.3640    10.8100    22.4770 
  233.6250     2.2930   -14.8190    55.8450    14.9740    13.0280    11.4940    22.4850 
  233.7500     2.2840   -14.8030    52.9190    15.6930    13.6350    12.6360    22.5000 
  233.8750     2.2790   -14.7940    51.7970    16.0900    14.0290    14.0770    22.5410 
  234.0000     2.2780   -14.7930    52.4070    16.0700    14.0990    14.9580    22.5920 
  234.1250     2.2820   -14.8050    51.5050    15.6310    13.8010    14.6490    22.6120 
  234.2500     2.2890   -14.8040    50.4410    15.0180    13.3150    13.3190    22.5940 
  234.3750     2.2980   -14.7710    52.9690    14.4060    12.7790    12.5020    22.5240 
  234.5000     2.3070   -14.7100    59.5980    13.9000    12.2930    11.5870    22.4140 
  234.6250     2.3140   -14.6440    63.3360    13.5450    11.9150    10.8430    22.3630 
  234.7500     2.3150   -14.5930    61.9830    13.2780    11.6120    10.4680    22.3480 
  234.8750     2.3090   -14.5560    57.7710    13.0540    11.3560    10.3210    22.3480 
  235.0000     2.2970   -14.5350    53.1830    12.8530    11.1290    10.1250    22.3480 
  235.1250     2.2800   -14.5210    50.7820    12.6760    10.9300     9.8300    22.3480 
  235.2500     2.2640   -14.5160    50.9180    12.5240    10.7570     9.4090    22.3480 
  235.3750     2.2530   -14.5310    52.4220    12.4060    10.6180     9.0290    22.3480 
  235.5000     2.2490   -14.5630    52.6850    12.3290    10.5160     9.0220    22.3480 
  235.6250     2.2510   -14.6070    51.8820    12.2920    10.4520     9.1630    22.3480 
  235.7500     2.2560   -14.6550    52.0400    12.2820    10.4100     9.3140    22.3480 
  235.8750     2.2600   -14.7070    53.1090    12.2950    10.3880     9.4400    22.3480 
  236.0000     2.2650   -14.7520    54.2130    12.3310    10.3850     9.5350    22.3480 
  236.1250     2.2710   -14.7820    53.4050    12.4020    10.4130     9.5660    22.3480 
  236.2500     2.2770   -14.7980    51.9500    12.5200    10.4810     9.5730    22.3480 
  236.3750     2.2830   -14.7970    51.0500    12.7030    10.5990     9.6790    22.3480 
  236.5000     2.2860   -14.7910    51.4130    12.9650    10.7780     9.9060    22.3480 
  236.6250     2.2840   -14.7940    51.9580    13.2990    11.0160    10.0880    22.3480 
  236.7500     2.2790   -14.8090    51.5500    13.6290    11.2590    10.2500    22.3480 
  236.8750     2.2710   -14.8300    50.3660    13.8610    11.4410    10.4940    22.3480 
  237.0000     2.2630   -14.8520    47.3810    13.9050    11.4890    10.8840    22.3470 
  237.1250     2.2570   -14.8730    44.3000    13.6700    11.3260    11.1680    22.3460 
  237.2500     2.2520   -14.8910    42.9050    13.2330    10.9990    11.0490    22.3450 
  237.3750     2.2490   -14.9190    42.5170    12.6990    10.5770    10.2350    22.3460 
  237.5000     2.2470   -14.9630    42.8860    12.1970    10.1570     9.4330    22.3450 
  237.6250     2.2460   -15.0350    44.0610    11.8610     9.8450     9.0410    22.3410 
  237.7500     2.2450   -15.1040    46.3660    11.7140     9.6720     8.8100    22.3390 
  237.8750     2.2450   -15.1540    48.9690    11.7370     9.6360     8.7610    22.3380 
  238.0000     2.2450   -15.1820    50.6630    11.8780     9.7050     8.8400    22.3380 
  238.1250     2.2470   -15.2050    49.4580    12.0620     9.8280     8.9990    22.3380 
  238.2500     2.2470   -15.2490    47.0330    12.2070     9.9360     9.2420    22.3380 
  238.3750     2.2450   -15.3180    46.1330    12.2660     9.9850     9.6010    22.3380 
  238.5000     2.2410   -15.3850    46.5660    12.2210     9.9560     9.8620    22.3460 
  238.6250     2.2350   -15.4210    46.0930    12.0920     9.8540     9.8780    22.3810 
  238.7500     2.2320   -15.4400    45.1200    11.9580     9.7370     9.6720    22.4450 
  238.8750     2.2310   -15.4530    44.3000    11.8810     9.6500     9.4220    22.5060 
  239.0000     2.2340   -15.4660    43.2100    11.8890     9.6230     9.4020    22.5430 
  239.1250     2.2380   -15.4870    42.4150    11.9810     9.6640     9.6720    22.5570 
  239.2500     2.2430   -15.5170    42.6130    12.0980     9.7380     9.9920    22.5600 
  239.3750     2.2480   -15.5600    42.9010    12.1960     9.8140    10.2110    22.5610 
  239.5000     2.2520   -15.6250    43.2970    12.2540     9.8730    10.1050    22.5610 
  239.6250     2.2560   -15.7150    43.9600    12.2840     9.9130     9.6210    22.5680 
  239.7500     2.2620   -15.8100    45.1750    12.3220     9.9570     9.3660    22.5850 
  239.8750     2.2680   -15.9080    47.2300    12.3920    10.0200     9.4560    22.6020 
  240.0000     2.2770   -16.0170    49.6770    12.4940    10.1070     9.6770    22.6090 
  240.1250     2.2850   -16.1330    51.7750    12.6100    10.2100     9.8680    22.6090 
  240.2500     2.2910   -16.2520    53.3690    12.7090    10.3060    10.0100    22.6090 
  240.3750     2.2930   -16.3500    53.8880    12.7760    10.3820    10.1080    22.6090 
  240.5000     2.2900   -16.4140    51.1380    12.8070    10.4300    10.1610    22.6090 
  240.6250     2.2830   -16.4370    47.4150    12.8050    10.4440    10.1980    22.6090 
  240.7500     2.2770   -16.4550    48.3600    12.7810    10.4320    10.2840    22.6090 
  240.8750     2.2740   -16.4900    51.8260    12.7410    10.4010    10.4090    22.6090 
  241.0000     2.2720   -16.5400    52.2130    12.6910    10.3620    10.4620    22.6090 
  241.1250     2.2710   -16.6020    50.0340    12.6380    10.3280    10.3400    22.6090 
