~V
VERS. 2.00: Ver 2.00
~W
STRT.M 50.0000:
STOP.M 237.0000:
STEP.M 0.1250:
NULL. -999.2500:
UWI. F10163:
~C
DEPT.M :
DEN.GM/CC :
GR.API :
RML.OHMM :
RI. :
RXO.OHMM :
CALI.CM :
SP.MV :
~A
# ...
  106.2500     2.1590    64.7490     7.3820     6.8600     9.8830    22.8690   -22.9250 
  106.3750     2.1550    65.9690     7.3690     6.8670     9.8760    22.8720   -22.9290 
  106.5000     2.1570    66.8540     7.3470     6.8690     9.9030    22.8860   -22.9430 
  106.6250     2.1620    65.8350     7.3220     6.8660     9.8740    22.8830   -22.9780 
  106.7500     2.1690    64.9590     7.3060     6.8670     9.8650    22.8710   -22.9830 
  106.8750     2.1740    64.7500     7.3030     6.8810     9.9280    22.8690   -22.9420 
  107.0000     2.1760    64.0480     7.3180     6.9120    10.1210    22.8690   -22.8330 
  107.1250     2.1760    62.9040     7.3640     6.9690    10.3160    22.8720   -22.6200 
  107.2500     2.1740    63.5450     7.4460     7.0520    10.3280    22.8900   -22.3080 
  107.3750     2.1720    65.5430     7.5600     7.1630    10.1880    22.9010   -21.8870 
  107.5000     2.1690    67.1820     7.6840     7.2900    10.0400    22.9350   -21.3500 
  107.6250     2.1660    67.3240     7.7230     7.3660     9.8650    22.9730   -20.6560 
  107.7500     2.1680    65.3820     7.5690     7.2890     9.6930    23.0320   -19.8790 
  107.8750     2.1810    63.7390     7.1560     6.9780     9.6380    23.0530   -19.0200 
  108.0000     2.2080    67.1780     6.5240     6.4500     9.6430    23.1100   -18.1030 
  108.1250     2.2440    77.3620     5.8460     5.8350     9.1090    23.1180   -17.2320 
  108.2500     2.2720    89.6610     5.3510     5.3270     7.7410    23.1120   -16.5190 
  108.3750     2.2820    98.5130     5.1760     5.0480     6.3280    23.0600   -16.0310 
  108.5000     2.2740   100.0560     5.3780     5.0690     6.4710    22.9480   -15.7530 
  108.6250     2.2590    94.1530     5.9800     5.4650     7.7080    22.8300   -15.7140 
  108.7500     2.2540    85.9350     7.5010     6.1340     9.0140    22.6770   -15.8360 
  108.8750     2.2670    77.6160     9.1290     6.9550     9.7810    22.5550   -16.0860 
  109.0000     2.2920    70.0070     9.8850     7.7530    10.2230    22.5250   -16.3880 
  109.1250     2.3100    64.8820    10.1670     8.2820    10.5520    22.5540   -16.6000 
  109.2500     2.3060    62.7590     9.9970     8.4320    10.6470    22.6620   -16.5860 
  109.3750     2.2810    62.6050     9.4180     8.1660    10.3760    22.8370   -16.2610 
  109.5000     2.2460    65.0030     8.5370     7.5420    10.0800    23.1080   -15.6310 
  109.6250     2.2220    73.7440     7.5470     6.7160     9.2100    23.4770   -14.7290 
  109.7500     2.2140    84.2110     6.7020     5.9510     7.4920    23.8550   -13.7150 
  109.8750     2.2200    90.5280     6.1490     5.4000     5.6920    24.1030   -12.6910 
  110.0000     2.2290    92.8500     5.9300     5.1180     4.9720    24.0540   -11.7370 
  110.1250     2.2320    96.0300     6.0110     5.0990     5.4520    23.7660   -10.8740 
  110.2500     2.2340    99.5600     6.1870     5.2110     6.4580    23.4940   -10.0890 
  110.3750     2.2410    99.8050     6.2970     5.3530     6.8400    23.4850    -9.3920 
  110.5000     2.2570    99.0410     6.2380     5.4350     6.1180    23.6360    -8.8320 
  110.6250     2.2790   100.7630     6.0150     5.4070     5.2280    23.8220    -8.4350 
  110.7500     2.2940   101.6980     5.7640     5.3130     4.9540    23.8680    -8.0990 
  110.8750     2.2980    99.8030     5.5560     5.1910     5.0610    23.8010    -7.7500 
  111.0000     2.2960    97.8040     5.3990     5.0660     5.2700    23.7190    -7.3980 
  111.1250     2.2970   101.4760     5.2860     4.9570     5.1030    23.6600    -7.1430 
  111.2500     2.3090   107.5440     5.2300     4.8810     4.8320    23.6800    -7.0310 
  111.3750     2.3270   111.8810     5.2710     4.8560     4.6570    23.7060    -7.1080 
  111.5000     2.3430   112.0300     5.4450     4.9040     4.7340    23.7080    -7.3370 
  111.6250     2.3460   106.3340     5.7620     5.0440     5.1110    23.6880    -7.7070 
  111.7500     2.3340    99.0470     6.1400     5.2450     5.4610    23.7840    -8.1640 
  111.8750     2.3100    93.4990     6.5150     5.4780     5.6290    23.8840    -8.7200 
  112.0000     2.2800    91.7010     6.8400     5.7120     5.7570    23.9680    -9.3320 
  112.1250     2.2470    92.0690     7.0900     5.9090     6.1460    24.0800    -9.9580 
  112.2500     2.2130    92.0120     7.3360     6.0910     6.7340    24.1700   -10.5530 
  112.3750     2.1860    90.0820     7.7200     6.3340     7.5320    24.1950   -11.0610 
  112.5000     2.1800    85.3570     8.4570     6.7690     8.0300    24.0030   -11.4930 
  112.6250     2.2170    81.1170    10.0120     7.6960     8.0460    23.8000   -11.8410 
  112.7500     2.3000    78.6260    12.6070     9.3360     8.6100    23.7750   -12.2190 
  112.8750     2.4180    74.8470    16.3230    11.8970    11.8040    23.9830   -12.6440 
  113.0000     2.5370    68.1570    20.7220    15.2910    20.7490    24.2720   -13.1530 
  113.1250     2.6080    60.9760    24.0020    18.4550    36.1450    24.3150   -13.7560 
  113.2500     2.6070    57.0020    24.1700    19.5900    46.9520    24.2820   -14.4620 
  113.3750     2.5410    58.6270    20.9900    17.9950    41.6320    24.1850   -15.2740 
  113.5000     2.4340    65.1430    16.3690    14.7810    25.7330    23.8880   -16.1440 
  113.6250     2.3210    71.5430    12.6150    11.7140    14.5520    23.5440   -17.0260 
  113.7500     2.2260    73.2880    10.2420     9.5090    10.6540    22.9680   -17.8350 
  113.8750     2.1620    73.3560     8.9990     8.1380     9.5210    22.9290   -18.5330 
  114.0000     2.1310    74.3610     8.5220     7.4140     9.2470    23.0110   -19.1040 
  114.1250     2.1280    73.9990     8.5200     7.1900     9.2350    22.9800   -19.5570 
  114.2500     2.1400    73.8090     8.6560     7.1930     9.4250    22.7880   -19.9040 
  114.3750     2.1570    75.6490     8.7970     7.2850     9.5520    22.7510   -20.2000 
  114.5000     2.1740    78.6510     8.9000     7.3820     9.5700    22.8440   -20.4830 
  114.6250     2.1870    80.6310     8.9720     7.4470     9.5770    22.8650   -20.7780 
  114.7500     2.1960    80.6810     9.0200     7.4850     9.6260    22.8690   -21.0910 
  114.8750     2.2030    78.9360     9.0320     7.5000     9.7300    22.8690   -21.4220 
  115.0000     2.2050    76.1860     9.0040     7.4970     9.8710    22.8690   -21.7710 
  115.1250     2.2030    74.4370     8.9660     7.4730     9.8560    22.8700   -22.1210 
  115.2500     2.2010    71.8950     8.9710     7.4400     9.8810    22.8770   -22.4980 
  115.3750     2.1970    67.6640     9.0380     7.4090    10.0390    22.9200   -22.8700 
  115.5000     2.1920    64.5510     9.1430     7.3860    10.2890    22.9470   -23.2120 
  115.6250     2.1830    65.2240     9.2250     7.3720    10.5420    22.9820   -23.5050 
  115.7500     2.1720    68.6300     9.2340     7.3490    10.4960    23.0600   -23.7310 
  115.8750     2.1600    71.8520     9.1570     7.2940    10.2340    23.1090   -23.8880 
  116.0000     2.1490    74.2360     9.0150     7.1960    10.0430    23.1400   -23.9500 
  116.1250     2.1420    74.7900     8.8460     7.0630     9.8540    23.2540   -23.9180 
  116.2500     2.1360    74.3190     8.6780     6.9240     9.5260    23.4460   -23.8010 
  116.3750     2.1320    75.2320     8.5160     6.7980     9.2230    23.5150   -23.6330 
  116.5000     2.1300    77.1970     8.3760     6.7000     9.1540    23.3770   -23.4190 
  116.6250     2.1300    78.7430     8.2940     6.6540     9.3780    23.3120   -23.1540 
  116.7500     2.1300    79.3290     8.2780     6.6580     9.5230    23.2800   -22.8550 
  116.8750     2.1280    79.0100     8.3290     6.7120     9.5480    23.1810   -22.5240 
  117.0000     2.1210    77.6130     8.4310     6.8080     9.6910    22.9870   -22.1440 
  117.1250     2.1090    72.4450     8.5620     6.9360     9.9390    22.9540   -21.6450 
  117.2500     2.0960    66.9250     8.6880     7.0680    10.1440    22.9460   -21.0110 
  117.3750     2.0900    65.1370     8.7750     7.1800    10.0610    22.9510   -20.1810 
