~V
VERS. 2.00: Ver 2.00
~W
STRT.M 59.0000:
STOP.M 216.0000:
STEP.M 0.1250:
NULL. -999.2500:
UWI. F10129:
~C
DEPT.M :
GR.API :
RML.OHMM :
RI. :
RXO.OHMM :
CALI.CM :
DEN.GM/CC :
SP.MV :
~A
# ...
  171.5000   100.6750    11.3290     8.3020     9.2770    25.2210     2.3830   -16.5770 
  171.6250   101.5080    11.4740     8.3970     9.5250    25.2930     2.3900   -16.5070 
  171.7500   101.6170    11.6320     8.5310     9.4790    25.4340     2.3900   -16.4270 
  171.8750   102.6570    11.7720     8.6770     9.4270    25.5280     2.3810   -16.4000 
  172.0000   102.2220    11.8630     8.8060     9.8470    25.5580     2.3650   -16.4590 
  172.1250    97.0820    11.8970     8.9030    10.0510    25.4830     2.3510   -16.5750 
  172.2500    90.6530    11.9030     8.9890    10.3160    25.3920     2.3550   -16.7070 
  172.3750    87.6160    11.8870     9.0630     9.8820    25.3090     2.3810   -16.8250 
  172.5000    90.8010    11.8180     9.1000     9.1690    25.2400     2.4240   -16.8310 
  172.6250    98.6330    11.6050     9.0200     9.4700    25.1290     2.4620   -16.6910 
  172.7500   104.9250    11.2140     8.7880    11.1990    25.0800     2.4750   -16.3870 
  172.8750   105.4270    10.6670     8.4090    10.7020    25.1490     2.4580   -15.9170 
  173.0000    99.9060    10.0480     7.9530     9.0210    25.2670     2.4160   -15.2310 
  173.1250    93.9140     9.4910     7.5290     8.0540    25.4030     2.3590   -14.2310 
  173.2500    90.2490     9.0720     7.1990     7.6160    25.5260     2.3060   -13.0760 
  173.3750    87.5530     8.7910     6.9730     7.4760    25.5910     2.2650   -11.8440 
  173.5000    83.7420     8.5930     6.8230     7.3810    25.5660     2.2440   -10.6080 
  173.6250    78.0830     8.3830     6.6820     7.2500    25.3470     2.2480    -9.4030 
  173.7500    71.9580     8.1120     6.4990     6.8690    25.0710     2.2700    -8.2630 
  173.8750    65.9250     7.8030     6.2810     6.4770    24.7970     2.3020    -7.1770 
  174.0000    60.6050     7.5280     6.0750     6.2610    24.6360     2.3350    -6.2190 
  174.1250    57.7360     7.3890     5.9560     6.0340    24.6120     2.3560    -5.5090 
  174.2500    56.8980     7.4010     5.9480     5.8720    24.7220     2.3600    -4.9950 
  174.3750    57.2720     7.5310     6.0460     5.8940    24.8650     2.3460    -4.6570 
  174.5000    59.5090     7.7110     6.2080     6.0660    24.9350     2.3230    -4.4300 
  174.6250    63.6080     7.8500     6.3670     6.3630    24.9400     2.3050    -4.2730 
  174.7500    66.4660     7.9060     6.4690     6.4720    24.9900     2.3030    -4.0830 
  174.8750    67.3810     7.8870     6.5010     6.4410    25.1410     2.3190    -3.8500 
  175.0000    69.6850     7.8270     6.4890     6.2590    25.2500     2.3460    -3.6130 
  175.1250    75.4870     7.7690     6.4730     6.2170    25.1630     2.3760    -3.2830 
  175.2500    81.1310     7.7230     6.4710     6.4420    25.0260     2.3990    -2.8390 
  175.3750    84.8840     7.6660     6.4630     6.6970    24.9650     2.4150    -2.3220 
  175.5000    86.0310     7.5660     6.4150     6.8230    24.9550     2.4240    -1.8300 
  175.6250    81.9690     7.3970     6.2910     6.7040    24.9410     2.4290    -1.4430 
  175.7500    76.0950     7.1940     6.1150     6.4430    24.8780     2.4330    -1.2200 
  175.8750    70.8450     7.0040     5.9280     5.9980    24.7210     2.4360    -1.2120 
  176.0000    65.7750     6.8690     5.7720     5.6690    24.5900     2.4360    -1.3270 
  176.1250    59.6690     6.8160     5.6780     5.5870    24.4600     2.4280    -1.5630 
  176.2500    55.8370     6.8100     5.6290     5.6210    24.3160     2.4140    -1.9190 
  176.3750    56.6820     6.8060     5.5960     5.5890    24.2210     2.3990    -2.2890 
  176.5000    60.4900     6.7730     5.5520     5.5340    24.1820     2.3860    -2.5880 
  176.6250    65.0100     6.7090     5.4850     5.5600    24.1530     2.3810    -2.9080 
  176.7500    67.8450     6.6810     5.4340     5.6730    24.1520     2.3790    -3.2120 
  176.8750    69.6580     6.7900     5.4630     5.8410    24.1830     2.3780    -3.4860 
  177.0000    73.8000     7.1450     5.6570     6.0830    24.2360     2.3780    -3.8090 
  177.1250    80.4700     7.8940     6.1440     6.4890    24.2820     2.3820    -4.1850 
  177.2500    85.0220     8.9700     6.9200     7.3070    24.3480     2.3880    -4.6160 
  177.3750    84.8470    10.2380     7.9370     8.6520    24.4320     2.3930    -5.1150 
  177.5000    83.5840    11.4630     9.0510    10.6570    24.4650     2.3910    -5.6830 
  177.6250    87.0310    12.2960     9.9660    12.8940    24.4940     2.3770    -6.2480 
  177.7500    92.1620    12.6520    10.4860    13.6240    24.5420     2.3550    -6.7090 
  177.8750    93.4420    12.6410    10.6190    12.1040    24.5690     2.3320    -7.0220 
  178.0000    89.9750    12.5450    10.5790    11.3490    24.5920     2.3150    -7.1790 
  178.1250    86.1500    12.7500    10.7000    11.4380    24.6730     2.3110    -7.2100 
  178.2500    84.5800    13.3630    11.1550    11.7410    24.8400     2.3190    -7.1790 
  178.3750    85.0050    14.2580    11.9320    12.2480    24.9940     2.3360    -7.0700 
  178.5000    87.4510    15.1190    12.8300    13.8090    25.0200     2.3530    -6.8790 
  178.6250    88.1880    15.4710    13.4050    17.6340    24.9610     2.3620    -6.6290 
  178.7500    84.0360    15.2090    13.4160    17.9200    24.9300     2.3600    -6.4280 
  178.8750    76.9900    14.4880    12.9470    14.8400    24.9250     2.3500    -6.3010 
  179.0000    74.1280    13.6410    12.3000    11.3630    24.9280     2.3400    -6.1730 
  179.1250    79.7240    13.0390    11.8200    10.6960    24.9230     2.3410    -6.0720 
  179.2500    85.4390    12.7690    11.6140    10.9550    24.9250     2.3560    -5.9900 
  179.3750    85.8300    12.7510    11.6500    12.5210    24.9170     2.3780    -5.9190 
  179.5000    82.9820    12.8370    11.8200    14.9110    24.8840     2.3990    -5.8790 
  179.6250    82.2600    12.8950    11.9860    15.3330    24.8460     2.4060    -5.8480 
  179.7500    82.9370    12.9040    12.0920    12.6930    24.8620     2.3990    -5.7850 
  179.8750    82.1870    12.9120    12.1710    11.3110    24.8620     2.3850    -5.7260 
  180.0000    81.8890    12.9670    12.2700    12.5620    24.8710     2.3720    -5.6970 
  180.1250    83.3850    13.0910    12.4160    13.9540    24.8290     2.3630    -5.7110 
  180.2500    86.4620    13.2560    12.5880    13.1100    24.7340     2.3580    -5.7490 
  180.3750    88.0120    13.4550    12.7750    11.3000    24.6620     2.3510    -5.8010 
  180.5000    87.8120    13.6940    12.9620    11.2470    24.6410     2.3400    -5.8790 
  180.6250    88.3710    14.0010    13.1530    12.1770    24.6750     2.3270    -5.8790 
  180.7500    89.7550    14.3500    13.3640    13.8160    24.7740     2.3150    -5.8370 
  180.8750    89.3810    14.6840    13.5760    14.7780    24.8920     2.3080    -5.7460 
  181.0000    85.5690    14.9420    13.7250    14.6680    24.9840     2.3050    -5.5860 
  181.1250    81.5780    15.1440    13.8000    13.9140    24.9920     2.3110    -5.3310 
  181.2500    78.9590    15.4900    13.9640    15.0680    24.9860     2.3220    -4.9720 
  181.3750    78.0590    16.2860    14.4500    15.9030    24.9730     2.3360    -4.5190 
  181.5000    78.7440    17.9190    15.5560    15.7460    24.9710     2.3460    -4.0250 
  181.6250    77.7550    21.0610    17.9060    17.0530    24.9690     2.3460    -3.6750 
  181.7500    74.8590    25.7580    21.7610    24.8640    24.9930     2.3370    -3.5060 
  181.8750    70.3260    31.7460    27.2020    42.2030    25.0000     2.3210    -3.4190 
  182.0000    66.5060    38.0180    33.5860    61.6000    25.0480     2.3050    -3.3850 
  182.1250    64.6660    42.4700    38.8100    69.8420    25.1270     2.2910    -3.3750 
  182.2500    63.4520    43.9220    40.9480    73.8540    25.1720     2.2780    -3.3360 
  182.3750    61.6490    42.5340    39.7880    60.3010    25.2040     2.2640    -3.3900 
  182.5000    59.6070    39.6090    36.7360    38.6380    25.2150     2.2470    -3.5480 
  182.6250    61.3930    36.7570    33.5880    29.9600    25.2780     2.2340    -3.6720 
