~V
VERS. 2.00: Ver 2.00
~W
STRT.M 50.0000:
STOP.M 268.0000:
STEP.M 0.1250:
NULL. -999.2500:
UWI. F10199:
~C
DEPT.M :
GR.API :
RML.OHMM :
RI. :
RXO.OHMM :
CALI.CM :
DEN.GM/CC :
SP.MV :
~A
# ...
  117.5000    66.8530     7.5540     6.4220     8.1850    22.9910     2.2240   -12.1460 
  117.6250    68.6880     7.3660     6.3080     8.2040    23.0080     2.2460   -11.3920 
  117.7500    73.4470     7.0970     6.1200     7.9870    23.0090     2.2610   -10.5620 
  117.8750    76.8850     6.7950     5.8870     7.5640    23.0000     2.2670    -9.7180 
  118.0000    77.4760     6.5090     5.6480     7.1710    22.9730     2.2680    -8.9720 
  118.1250    77.0130     6.2820     5.4430     7.2090    22.9390     2.2690    -8.3540 
  118.2500    77.1220     6.1110     5.2840     7.2570    22.9190     2.2750    -7.7970 
  118.3750    78.6540     5.9940     5.1770     7.1590    22.9000     2.2860    -7.3460 
  118.5000    82.3420     5.9320     5.1230     6.9840    22.8800     2.2950    -6.9890 
  118.6250    88.2110     5.9340     5.1230     6.9090    22.8700     2.2990    -6.7320 
  118.7500    91.0980     5.9740     5.1530     6.9080    22.8600     2.2980    -6.6190 
  118.8750    88.8250     6.0200     5.1900     6.9730    22.8500     2.2960    -6.5430 
  119.0000    85.6900     6.0340     5.2060     7.0770    22.8480     2.2970    -6.4210 
  119.1250    86.4000     5.9810     5.1750     7.1630    22.8360     2.3050    -6.3090 
  119.2500    88.2370     5.8910     5.1100     7.0990    22.8060     2.3150    -6.2470 
  119.3750    86.9730     5.8220     5.0500     6.9380    22.7730     2.3210    -6.2940 
  119.5000    82.6420     5.8430     5.0460     6.7930    22.7260     2.3200    -6.4210 
  119.6250    82.5910     6.0170     5.1510     6.7110    22.6590     2.3090    -6.6680 
  119.7500    85.1690     6.2980     5.3460     6.6450    22.5940     2.2960    -6.9640 
  119.8750    83.0320     6.6130     5.5890     6.7000    22.5190     2.2850    -7.3150 
  120.0000    73.6080     6.8740     5.8170     6.8540    22.4360     2.2820    -7.7580 
  120.1250    66.6340     6.9930     5.9630     6.8540    22.3870     2.2860    -8.2210 
  120.2500    66.1700     7.0030     6.0320     6.7100    22.3650     2.2910    -8.6580 
  120.3750    68.9400     6.9790     6.0690     6.5720    22.3620     2.2940    -9.0350 
  120.5000    71.5290     7.0170     6.1350     6.6440    22.3840     2.2920    -9.3570 
  120.6250    70.6760     7.1950     6.2950     7.0280    22.4210     2.2840    -9.5180 
  120.7500    67.2420     7.4570     6.5220     7.5360    22.4580     2.2720    -9.5250 
  120.8750    64.4120     7.6970     6.7470     7.9950    22.5130     2.2580    -9.4250 
  121.0000    64.9030     7.7950     6.8760     8.3290    22.5840     2.2440    -9.1980 
  121.1250    65.6310     7.6380     6.8060     8.5620    22.6420     2.2390    -8.8590 
  121.2500    65.2490     7.2890     6.5630     8.5200    22.6790     2.2430    -8.5020 
  121.3750    65.3500     6.8440     6.2110     8.0210    22.7030     2.2570    -8.0950 
  121.5000    66.6670     6.4180     5.8380     7.6050    22.7160     2.2780    -7.5930 
  121.6250    70.3220     6.1060     5.5260     7.4310    22.7490     2.2980    -7.0450 
  121.7500    73.5670     5.8880     5.2800     7.3240    22.8000     2.3150    -6.5640 
  121.8750    73.0560     5.7110     5.0720     7.0570    22.8530     2.3240    -6.1660 
  122.0000    71.1810     5.5150     4.8620     6.7910    22.9120     2.3260    -5.8410 
  122.1250    73.6800     5.2680     4.6270     6.5630    22.9710     2.3200    -5.6150 
  122.2500    78.7400     5.0280     4.4010     6.2880    22.9990     2.3120    -5.4600 
  122.3750    82.3030     4.8980     4.2580     6.0230    23.0030     2.3060    -5.4370 
  122.5000    84.4650     4.9880     4.2800     5.9960    22.9950     2.3060    -5.6090 
  122.6250    82.8400     5.4040     4.5590     6.4090    22.9710     2.3120    -6.0090 
  122.7500    74.1640     6.0540     5.0440     7.1530    22.9500     2.3190    -6.5430 
  122.8750    65.1210     6.8020     5.6480     8.0590    22.9500     2.3220    -7.1690 
  123.0000    65.2390     7.4600     6.2380     8.7770    22.9590     2.3170    -7.9160 
  123.1250    71.1510     7.8000     6.6320     8.8130    22.9880     2.3040    -8.7590 
  123.2500    71.2120     7.8270     6.7880     8.3120    23.0510     2.2870    -9.6010 
  123.3750    68.0520     7.6580     6.7600     7.9420    23.1320     2.2700   -10.3790 
  123.5000    67.8660     7.4750     6.6740     7.8930    23.2250     2.2540   -11.0600 
  123.6250    68.5010     7.4460     6.6590     7.9860    23.3400     2.2420   -11.6000 
  123.7500    67.2750     7.5700     6.7470     8.0820    23.4500     2.2320   -12.0390 
  123.8750    65.6480     7.7820     6.9050     8.1810    23.5400     2.2260   -12.3820 
  124.0000    65.5050     8.0090     7.0860     8.2950    23.5920     2.2230   -12.6340 
  124.1250    64.8710     8.2090     7.2520     8.3590    23.5740     2.2230   -12.7810 
  124.2500    64.5170     8.3790     7.3980     8.3010    23.5260     2.2270   -12.8510 
  124.3750    64.4720     8.5120     7.5180     8.0690    23.4750     2.2350   -12.8660 
  124.5000    62.9580     8.5780     7.5920     7.7680    23.4210     2.2470   -12.8360 
  124.6250    60.7370     8.5240     7.5710     7.4920    23.3610     2.2600   -12.7650 
  124.7500    59.6490     8.3550     7.4480     7.2960    23.3260     2.2680   -12.6650 
  124.8750    60.0450     8.1030     7.2400     7.1280    23.3150     2.2680   -12.5780 
  125.0000    61.1490     7.8370     6.9970     7.0620    23.3100     2.2600   -12.4820 
  125.1250    63.1480     7.6500     6.8000     7.1380    23.3220     2.2490   -12.3990 
  125.2500    65.2490     7.5830     6.6990     7.2460    23.3440     2.2390   -12.3230 
  125.3750    66.3330     7.6450     6.7160     7.3680    23.3620     2.2320   -12.2330 
  125.5000    64.9390     7.8200     6.8450     7.4810    23.3780     2.2280   -12.1280 
  125.6250    60.3020     8.0830     7.0720     7.5870    23.3760     2.2300   -11.9610 
  125.7500    55.3840     8.3690     7.3410     7.7420    23.3730     2.2360   -11.7100 
  125.8750    54.4630     8.6200     7.5970     8.0510    23.3880     2.2460   -11.3750 
  126.0000    56.8410     8.7530     7.7710     8.3760    23.4090     2.2620   -10.9990 
  126.1250    58.5840     8.6430     7.7510     8.4060    23.4260     2.2830   -10.5320 
  126.2500    59.5190     8.2880     7.5180     8.1430    23.4540     2.3060    -9.9880 
  126.3750    60.1060     7.7430     7.1000     7.6390    23.4790     2.3280    -9.4270 
  126.5000    60.2450     7.1280     6.5850     7.0850    23.4880     2.3440    -8.8870 
  126.6250    62.1560     6.6160     6.1140     6.5470    23.4950     2.3470    -8.4960 
  126.7500    67.0670     6.3000     5.7840     6.1900    23.4870     2.3390    -8.2210 
  126.8750    70.0120     6.1990     5.6270     6.1580    23.4590     2.3230    -8.0340 
  127.0000    66.4200     6.2740     5.6280     6.3390    23.4350     2.3060    -7.8980 
  127.1250    61.3260     6.4530     5.7520     6.5350    23.4220     2.2930    -7.8770 
  127.2500    60.6950     6.6330     5.9110     6.6890    23.4160     2.2860    -7.9740 
  127.3750    64.2050     6.7520     6.0520     6.7970    23.4290     2.2830    -8.1310 
  127.5000    67.5740     6.7820     6.1400     6.8530    23.4550     2.2820    -8.2890 
  127.6250    68.3410     6.7230     6.1560     6.8870    23.4910     2.2810    -8.3740 
  127.7500    66.3420     6.6390     6.1330     6.9130    23.5560     2.2760    -8.4050 
  127.8750    62.1080     6.5980     6.1160     6.9370    23.6470     2.2690    -8.3480 
  128.0000    56.7980     6.6950     6.1780     6.9690    23.7480     2.2660    -8.2090 
  128.1250    53.4770     7.1140     6.4650     7.1380    23.8740     2.2760    -7.9130 
  128.2500    55.4540     7.9340     7.0610     7.6390    24.0170     2.3060    -7.5010 
  128.3750    60.5940     9.1660     8.0050     8.7650    24.1550     2.3560    -7.0020 
  128.5000    63.3180    10.6450     9.2110    10.7250    24.2890     2.4170    -6.4880 
  128.6250    59.7090    11.9100    10.3680    13.3720    24.3980     2.4740    -5.9840 
