~V
VERS. 2.00: Ver 2.00
~W
STRT.M 64.0000:
STOP.M 215.0000:
STEP.M 0.1250:
NULL. -999.2500:
UWI. F10146:
~C
DEPT.M :
DEN.GM/CC :
GR.API :
RML.OHMM :
RI. :
RXO.OHMM :
CALI.CM :
SP.MV :
~A
# ...
  120.2500     2.2690    84.5100     8.3600     6.3100     6.9280    24.8430   -11.8150 
  120.3750     2.2780    79.2250     8.7690     6.6400     7.2860    24.9780   -11.5630 
  120.5000     2.2880    74.7620     9.2020     6.9880     7.8330    25.0380   -11.4020 
  120.6250     2.2970    74.6460     9.6060     7.3350     8.3900    25.0490   -11.3200 
  120.7500     2.3040    76.3730     9.9460     7.6620     8.6700    25.0540   -11.2970 
  120.8750     2.3080    77.7910    10.1970     7.9500     8.9390    25.0750   -11.3140 
  121.0000     2.3100    77.9750    10.3420     8.1770     9.3250    25.1790   -11.3140 
  121.1250     2.3090    74.8840    10.3740     8.3100     9.4990    25.1960   -11.2930 
  121.2500     2.3090    70.6690    10.3610     8.3660     8.8960    25.1980   -11.2690 
  121.3750     2.3080    69.4520    10.3530     8.3720     8.0380    25.1990   -11.2050 
  121.5000     2.3070    72.2950    10.3860     8.3650     7.6100    25.2000   -11.1090 
  121.6250     2.3070    72.1900    10.4900     8.3930     7.9200    25.1950   -11.0120 
  121.7500     2.3080    68.9530    10.6550     8.4760     8.6330    25.1940   -10.8850 
  121.8750     2.3140    67.2180    10.8610     8.6080     9.7720    25.1820   -10.7670 
  122.0000     2.3280    68.2500    11.0890     8.7630    10.5820    25.1270   -10.6670 
  122.1250     2.3500    68.8810    11.3090     8.9180    10.9940    25.1110   -10.5270 
  122.2500     2.3750    70.3030    11.5170     9.0810    11.4750    25.0690   -10.3910 
  122.3750     2.3990    72.3150    11.7520     9.2850    11.5820    24.9720   -10.2770 
  122.5000     2.4190    72.6570    12.1100     9.5830    11.3150    24.8910   -10.1510 
  122.6250     2.4380    71.2350    12.8090    10.1070    10.7330    24.8470   -10.0730 
  122.7500     2.4590    68.8960    13.9380    10.9250    11.5800    24.8550   -10.0100 
  122.8750     2.4830    64.4110    15.4790    12.0780    12.9610    24.8800    -9.9510 
  123.0000     2.5080    59.3080    17.2090    13.4890    14.0450    24.8830    -9.9290 
  123.1250     2.5270    59.5240    18.5500    14.8130    15.5200    24.8700    -9.9510 
  123.2500     2.5370    61.9870    18.9680    15.5430    17.1140    24.8330   -10.0220 
  123.3750     2.5360    64.1560    18.2440    15.3590    17.7650    24.8120   -10.1520 
  123.5000     2.5250    66.5380    16.6210    14.3360    15.9150    24.8080   -10.2980 
  123.6250     2.5040    67.7510    14.6640    12.8690    12.4720    24.8050   -10.4410 
  123.7500     2.4780    65.8410    12.9460    11.4780    10.1550    24.7780   -10.6020 
  123.8750     2.4480    63.0080    11.6740    10.3750     9.3680    24.6740   -10.7260 
  124.0000     2.4170    64.2510    10.8830     9.6280     9.0000    24.5340   -10.7960 
  124.1250     2.3880    69.2190    10.6420     9.3150     8.5370    24.5790   -10.8710 
  124.2500     2.3670    70.9580    10.8840     9.3870     8.2100    24.7130   -10.8770 
  124.3750     2.3600    68.6860    11.6320     9.8590     7.9550    24.7930   -10.8270 
  124.5000     2.3690    67.3780    12.8770    10.7350     7.6090    24.8200   -10.7740 
  124.6250     2.3950    68.6780    14.5440    12.0240     8.0440    24.8460   -10.6910 
  124.7500     2.4280    65.9790    16.2340    13.4760    10.6780    24.9160   -10.6140 
  124.8750     2.4570    59.5580    17.4760    14.7320    14.2630    24.9550   -10.5560 
  125.0000     2.4760    55.3770    17.8170    15.3490    15.4350    24.9600   -10.5150 
  125.1250     2.4790    55.2560    16.9480    14.9100    16.0100    24.9460   -10.4530 
  125.2500     2.4720    55.2550    15.4100    13.7710    15.6000    24.8980   -10.3890 
  125.3750     2.4580    58.0620    13.7630    12.3890    12.2640    24.8100   -10.3420 
  125.5000     2.4420    64.2350    12.4950    11.1940     9.6140    24.7180   -10.3050 
  125.6250     2.4300    67.0430    11.9890    10.5260     8.7850    24.6650   -10.2220 
  125.7500     2.4230    66.4770    12.1800    10.3890     9.4980    24.6560   -10.1110 
  125.8750     2.4260    65.3190    13.0130    10.7800    11.1130    24.6550   -10.0050 
  126.0000     2.4400    63.5490    14.3710    11.6610    13.3310    24.6550    -9.8810 
  126.1250     2.4620    59.1850    16.0820    12.9650    14.0990    24.6660    -9.7920 
  126.2500     2.4860    55.4070    17.8090    14.4130    14.5350    24.7300    -9.7420 
  126.3750     2.5070    54.7510    19.3010    15.7700    15.4510    24.8880    -9.6970 
  126.5000     2.5260    55.4310    20.3590    16.8270    16.4890    24.9590    -9.6950 
  126.6250     2.5410    56.0720    20.7800    17.3750    16.7630    25.0140    -9.7490 
  126.7500     2.5530    55.8300    20.6870    17.4910    16.5160    25.1070    -9.8030 
  126.8750     2.5600    53.9960    20.1970    17.2630    16.3560    25.1700    -9.8890 
  127.0000     2.5600    51.7300    19.4650    16.8040    16.1040    25.1970   -10.0210 
  127.1250     2.5540    51.9220    18.7210    16.2550    14.8780    25.2420   -10.1370 
  127.2500     2.5460    54.3390    18.1990    15.7960    14.3520    25.2770   -10.2490 
  127.3750     2.5380    56.1130    18.0060    15.5380    14.7410    25.3320   -10.3290 
  127.5000     2.5320    55.9100    18.1350    15.5350    15.4310    25.3650   -10.3540 
  127.6250     2.5280    54.5000    18.5160    15.8140    15.6930    25.4320   -10.3720 
  127.7500     2.5260    52.0910    18.9650    16.2510    16.0540    25.4500   -10.3830 
  127.8750     2.5250    49.8690    19.3720    16.7350    16.6800    25.5060   -10.3720 
  128.0000     2.5240    49.2780    19.6680    17.1630    16.9660    25.5890   -10.3630 
  128.1250     2.5230    49.8390    19.7870    17.4290    16.5050    25.6850   -10.3080 
  128.2500     2.5220    49.0360    19.7200    17.5000    15.8810    25.7520   -10.2550 
  128.3750     2.5210    48.4900    19.4710    17.3740    15.9710    25.8070   -10.2210 
  128.5000     2.5190    49.1870    19.1120    17.1010    16.4270    25.8920   -10.1650 
  128.6250     2.5120    49.8750    18.8080    16.8080    16.1260    25.9430   -10.1320 
  128.7500     2.4990    50.6930    18.7480    16.6710    15.2350    26.0210   -10.1060 
  128.8750     2.4830    51.2590    19.0700    16.8310    14.9410    26.1150   -10.0430 
  129.0000     2.4680    50.2870    19.8040    17.3500    15.4840    26.1730    -9.9850 
  129.1250     2.4600    48.9010    20.8430    18.1900    16.8120    26.2950    -9.9630 
  129.2500     2.4600    48.0250    21.8270    19.0650    18.5250    26.3470    -9.9530 
  129.3750     2.4660    47.5100    22.4420    19.7000    20.8550    26.4060    -9.9980 
  129.5000     2.4750    46.7390    22.5100    19.8990    21.5250    26.5020   -10.0920 
  129.6250     2.4830    45.8940    22.0820    19.6470    19.0170    26.5470   -10.1630 
  129.7500     2.4880    44.6830    21.5740    19.2870    16.8080    26.5950   -10.2710 
  129.8750     2.4890    44.3640    21.2540    19.0680    16.6450    26.6520   -10.4200 
  130.0000     2.4870    44.6280    21.2170    19.1130    17.4130    26.6760   -10.5410 
  130.1250     2.4830    42.6780    21.3500    19.3780    17.8830    26.6800   -10.7040 
  130.2500     2.4770    39.8870    21.3150    19.5670    17.7080    26.6800   -10.8480 
  130.3750     2.4700    39.1940    20.8460    19.4080    17.8930    26.6810   -10.9550 
  130.5000     2.4600    39.8570    19.8400    18.7550    17.7840    26.6970   -11.0870 
  130.6250     2.4500    40.9860    18.3900    17.6470    16.2310    26.7930   -11.2160 
  130.7500     2.4410    45.2600    16.9020    16.4360    13.7940    26.9590   -11.3450 
  130.8750     2.4380    51.9660    15.6890    15.3820    12.4660    27.0820   -11.4970 
  131.0000     2.4400    57.7990    14.9510    14.6570    12.1220    27.2390   -11.6770 
  131.1250     2.4440    58.8860    14.7460    14.3490    12.0660    27.3910   -11.8470 
  131.2500     2.4490    55.9140    14.7630    14.2630    11.8770    27.4560   -11.9800 
  131.3750     2.4530    51.4870    14.7020    14.1840    11.7730    27.4670   -12.0770 
