~V
VERS. 2.00: Ver 2.00
~W
STRT.M 53.0000:
STOP.M 246.0000:
STEP.M 0.1250:
NULL. -999.2500:
UWI. F10192:
~C
DEPT.M :
DEN.GM/CC :
GR.API :
RML.OHMM :
RI. :
RXO.OHMM :
CALI.CM :
SP.MV :
~A
# ...
  154.2500     2.2650    71.9680    16.0250    13.7750    15.3570    24.5520   -12.9470 
  154.3750     2.2720    78.1840    15.2570    13.0870    13.9120    24.5400   -12.8940 
  154.5000     2.2770    83.4820    15.4210    12.9370    12.9430    24.4930   -12.8540 
  154.6250     2.2820    85.5220    16.8210    13.6110    12.8550    24.3930   -12.8230 
  154.7500     2.2830    83.3830    19.6150    15.4060    14.4910    24.2560   -12.7850 
  154.8750     2.2770    78.8930    22.9690    17.9450    19.0570    24.2430   -12.7440 
  155.0000     2.2660    72.9710    25.6080    20.4100    26.5080    24.3840   -12.6750 
  155.1250     2.2580    68.5890    25.9880    21.4730    31.9650    24.5870   -12.5670 
  155.2500     2.2640    69.7690    23.3440    20.0810    29.6790    24.6890   -12.4420 
  155.3750     2.2810    72.0150    19.8600    17.6520    22.4270    24.6320   -12.2950 
  155.5000     2.3000    73.3470    17.3560    15.5730    15.3050    24.5200   -12.1220 
  155.6250     2.3150    73.7730    16.7310    14.6230    11.5700    24.4790   -11.9260 
  155.7500     2.3180    74.3420    18.3380    15.2620    13.3930    24.5070   -11.7280 
  155.8750     2.3080    72.9480    21.2740    17.1430    18.8380    24.5370   -11.5260 
  156.0000     2.2870    68.5240    24.3960    19.6800    26.2440    24.5520   -11.3340 
  156.1250     2.2650    63.4620    25.9240    21.5230    29.7810    24.5750   -11.1820 
  156.2500     2.2610    60.8120    23.9110    20.6760    26.3330    24.5580   -11.0870 
  156.3750     2.2710    61.6110    19.8410    17.8630    20.6130    24.5140   -11.0230 
  156.5000     2.2840    64.8210    15.7990    14.7080    15.4190    24.4450   -10.9950 
  156.6250     2.2920    68.6380    13.0930    12.3320    10.6420    24.4230   -10.9990 
  156.7500     2.2920    73.2150    12.2440    11.2400     8.3780    24.5180   -11.0150 
  156.8750     2.2840    75.7980    12.6670    11.1480    10.3440    24.5860   -11.0440 
  157.0000     2.2710    75.9590    13.8820    11.8340    14.7340    24.6410   -11.0820 
  157.1250     2.2620    76.2460    15.3020    12.9590    17.2870    24.6750   -11.1140 
  157.2500     2.2600    78.1730    16.1810    13.9670    16.1190    24.6630   -11.1240 
  157.3750     2.2580    78.8850    16.2410    14.4130    14.7520    24.6050   -11.1480 
  157.5000     2.2550    76.9500    15.6710    14.2670    13.8760    24.5050   -11.1950 
  157.6250     2.2620    75.0820    14.9500    13.8330    13.0660    24.2710   -11.2550 
  157.7500     2.2780    76.3060    14.5430    13.5030    12.7450    23.8910   -11.3160 
  157.8750     2.2900    77.9540    14.4840    13.4170    13.7650    23.7100   -11.3800 
  158.0000     2.2930    78.5860    14.6570    13.5370    14.3070    23.8610   -11.4530 
  158.1250     2.2940    76.2640    14.9370    13.7830    13.6720    24.1810   -11.5230 
  158.2500     2.2980    74.0560    15.2160    14.0710    13.2950    24.3280   -11.6000 
  158.3750     2.3030    74.2990    15.4100    14.3110    13.6840    24.3240   -11.6640 
  158.5000     2.3100    76.2760    15.4760    14.4500    14.2910    24.2280   -11.6960 
  158.6250     2.3180    76.4520    15.4170    14.4750    14.9000    24.1420   -11.7070 
  158.7500     2.3250    73.9210    15.2510    14.3990    15.7770    24.2380   -11.7160 
  158.8750     2.3260    74.3530    15.0100    14.2540    15.7470    24.3820   -11.7250 
  159.0000     2.3250    78.6990    14.6520    14.0010    14.2690    24.4510   -11.7200 
  159.1250     2.3260    82.7920    14.0830    13.5570    13.6680    24.4550   -11.7190 
  159.2500     2.3340    82.9670    13.1870    12.8030    14.3340    24.3970   -11.7130 
  159.3750     2.3480    81.2800    12.3780    11.8360    14.3590    24.3030   -11.7280 
  159.5000     2.3690    78.9340    11.5320    10.8270    13.2330    24.2080   -11.7930 
  159.6250     2.3980    75.5030    10.6130     9.9830    10.5760    24.1120   -11.9080 
  159.7500     2.4250    74.1230    10.1810     9.5270     9.4330    24.0520   -12.0760 
  159.8750     2.4320    76.7950    10.1750     9.4560     9.4220    24.1530   -12.2860 
  160.0000     2.4230    80.5880    10.4830     9.7240     9.6500    24.3750   -12.5240 
  160.1250     2.4100    81.6730    10.9430    10.2200     9.8400    24.5130   -12.7870 
  160.2500     2.4070    81.7980    11.3780    10.7900    10.1610    24.5190   -13.0800 
  160.3750     2.4080    82.5360    11.7020    11.2820    10.2850    24.4610   -13.3880 
  160.5000     2.4100    81.1090    11.9150    11.6440    10.3050    24.3420   -13.6870 
  160.6250     2.4130    76.1230    12.0350    11.8640    10.6430    24.1410   -13.9650 
  160.7500     2.4170    72.8020    12.0480    11.9140    10.8810    23.8720   -14.2210 
  160.8750     2.4210    74.5760    11.9690    11.8250    11.0460    23.7770   -14.4680 
  161.0000     2.4230    78.5080    11.8190    11.6300    10.7430    23.7630   -14.7340 
  161.1250     2.4210    82.1230    11.6510    11.3860    10.1680    23.7940   -15.0270 
  161.2500     2.4100    82.5970    11.5730    11.1920     9.8930    23.7740   -15.3550 
  161.3750     2.3950    81.1950    11.6680    11.1390     9.9900    23.7660   -15.7230 
  161.5000     2.3820    80.7690    11.9780    11.2760    10.7060    23.8030   -16.1270 
  161.6250     2.3760    81.1360    12.5000    11.6170    11.6790    23.8080   -16.5950 
  161.7500     2.3730    82.9160    13.2800    12.1960    12.1790    23.7320   -17.1420 
  161.8750     2.3710    87.2030    14.3910    13.0310    13.5270    23.7000   -17.7580 
  162.0000     2.3690    91.9570    16.0870    14.2600    15.1160    23.8140   -18.4390 
  162.1250     2.3660    92.7040    18.7930    16.1480    16.2530    24.0690   -19.1710 
  162.2500     2.3540    86.6520    24.5200    19.4050    18.3830    24.2120   -19.9490 
  162.3750     2.3320    79.0460    34.3430    24.6000    24.5260    24.2700   -20.7180 
  162.5000     2.3040    71.6080    44.2420    32.4830    37.6590    24.3090   -21.4740 
  162.6250     2.2840    66.0740    57.4280    43.3680    58.4830    24.3620   -22.2170 
  162.7500     2.2790    65.1320    70.5570    55.8510    74.9360    24.4220   -22.9490 
  162.8750     2.2810    66.2920    78.8720    65.3460    80.6480    24.4710   -23.6820 
  163.0000     2.2860    66.8030    79.4560    68.2470    77.1870    24.5060   -24.4050 
  163.1250     2.2930    65.3990    73.9890    64.9440    67.8080    24.5330   -25.1160 
  163.2500     2.3040    66.0790    67.7120    59.4460    56.5830    24.5410   -25.8590 
  163.3750     2.3140    72.1020    64.7250    55.8470    46.9960    24.5400   -26.6690 
  163.5000     2.3170    79.6460    66.4890    55.7930    42.1870    24.5360   -27.5390 
  163.6250     2.3070    79.9510    73.6830    60.2760    44.3960    24.5350   -28.4480 
  163.7500     2.2840    71.0100    87.7760    71.1810    60.3300    24.5420   -29.3850 
  163.8750     2.2610    64.2090   107.7090    87.9290    89.0200    24.5490   -30.3100 
  164.0000     2.2440    63.4280   132.0130   109.2570   108.0340    24.5550   -31.2210 
  164.1250     2.2340    64.9510   157.1670   131.9430   110.5990    24.5590   -32.1040 
  164.2500     2.2280    63.8830   177.1510   150.7080   116.9080    24.5610   -32.9120 
  164.3750     2.2210    62.2590   190.0380   163.5060   125.1590    24.5510   -33.6210 
  164.5000     2.2110    62.1570   197.2150   171.0730   131.8210    24.5460   -34.2440 
  164.6250     2.2040    63.5390   201.1480   175.3120   135.7140    24.5450   -34.7780 
  164.7500     2.2050    65.1200   203.3200   177.5350   137.4330    24.5450   -35.2370 
  164.8750     2.2090    64.5130   205.0090   179.0210   133.1440    24.5440   -35.6600 
  165.0000     2.2130    62.2700   207.1250   180.6700   129.9690    24.5400   -36.0410 
  165.1250     2.2160    59.5260   210.4410   183.3120   134.4700    24.5340   -36.3770 
  165.2500     2.2170    57.7220   215.9520   187.9860   138.4940    24.5400   -36.6150 
  165.3750     2.2160    57.3790   224.0040   195.0790   140.6700    24.5440   -36.7890 
