~V
VERS. 2.00: Ver 2.00
~W
STRT.M 60.0000:
STOP.M 245.0000:
STEP.M 0.1250:
NULL. -999.2500:
UWI. F10162:
~C
DEPT.M :
SP.MV :
DEN.GM/CC :
GR.API :
RML.OHMM :
RI. :
RXO.OHMM :
CALI.CM :
~A
# ...
  138.7500    -6.6550     2.5030    71.0440    17.9590    15.0670    17.8200    26.1860 
  138.8750    -6.6900     2.5230    68.2390    17.8720    15.2390    17.8320    26.1960 
  139.0000    -6.7480     2.5400    63.3540    17.1430    14.8550    17.6600    26.1390 
  139.1250    -6.8760     2.5410    62.7470    15.6260    13.7050    16.9490    25.9740 
  139.2500    -6.9680     2.5240    66.8640    13.6280    12.0430    14.5550    25.9780 
  139.3750    -7.0140     2.4890    71.5160    11.4550    10.1580    11.3240    26.2590 
  139.5000    -7.0410     2.4450    73.6480     9.4210     8.3500     8.4880    26.5120 
  139.6250    -7.0720     2.4070    74.4170     7.8280     6.8830     6.5360    26.3760 
  139.7500    -7.0670     2.3860    77.5210     6.7020     5.7910     5.0700    26.0840 
  139.8750    -7.1170     2.3830    83.8400     6.0070     5.0590     4.5320    25.7760 
  140.0000    -7.2000     2.3910    91.8640     5.6560     4.6330     4.4610    25.5400 
  140.1250    -7.2300     2.3980    97.7480     5.5660     4.4730     4.5970    25.3950 
  140.2500    -7.2300     2.3970    98.0790     5.5920     4.4620     4.6490    25.2330 
  140.3750    -7.1900     2.3890    94.6210     5.6570     4.5290     4.6200    25.1160 
  140.5000    -7.1410     2.3790    92.9510     5.7120     4.6110     4.6360    24.9900 
  140.6250    -7.0910     2.3750    95.7600     5.7250     4.6590     4.6280    24.7120 
  140.7500    -7.0770     2.3770    98.1850     5.6960     4.6640     4.6580    24.2660 
  140.8750    -7.0340     2.3830    99.2460     5.6300     4.6330     4.8840    23.8700 
  141.0000    -6.9940     2.3900   100.3450     5.5350     4.5770     5.2460    23.6620 
  141.1250    -7.0760     2.3960   100.3820     5.4220     4.4990     5.3530    23.6000 
  141.2500    -7.1840     2.4010    98.7110     5.3210     4.4130     5.0970    23.5890 
  141.3750    -7.3120     2.4060    95.4870     5.2630     4.3420     4.8340    23.5590 
  141.5000    -7.4730     2.4140    91.1060     5.2730     4.3120     4.7590    23.4920 
  141.6250    -7.6380     2.4220    87.9740     5.3620     4.3510     4.8620    23.3500 
  141.7500    -7.8690     2.4260    87.9790     5.4850     4.4340     5.0220    23.2160 
  141.8750    -8.1550     2.4230    92.1950     5.5910     4.5260     5.3480    23.1360 
  142.0000    -8.3180     2.4150    98.7660     5.6300     4.5770     5.8280    23.0600 
  142.1250    -8.4360     2.4070   102.2410     5.5560     4.5360     5.6490    22.9670 
  142.2500    -8.6070     2.4050    99.9280     5.4010     4.4210     5.1570    23.0180 
  142.3750    -8.6840     2.4100    96.0650     5.2100     4.2660     4.7150    23.4250 
  142.5000    -8.7310     2.4180    95.6920     5.0380     4.1150     4.3880    24.0710 
  142.6250    -8.7550     2.4230    96.2900     4.9390     4.0160     4.3740    24.6560 
  142.7500    -8.7010     2.4210    93.1320     4.9090     3.9820     4.3820    24.8340 
  142.8750    -8.6910     2.4140    90.5910     4.9270     4.0090     4.3310    24.7520 
  143.0000    -8.8100     2.4070    94.2970     4.9590     4.0740     4.2820    24.4960 
  143.1250    -8.8220     2.4050   100.6060     4.9820     4.1490     4.4820    24.0340 
  143.2500    -8.7740     2.4090   101.4990     4.9910     4.2050     4.8360    23.6730 
  143.3750    -8.7650     2.4150    96.2190     4.9950     4.2340     4.9130    23.6460 
  143.5000    -8.6910     2.4200    90.6500     5.0010     4.2300     4.4950    23.9370 
  143.6250    -8.6160     2.4200    91.1810     5.0140     4.1990     4.2890    24.3720 
  143.7500    -8.5540     2.4170    94.8420     5.0330     4.1570     4.2650    24.7220 
  143.8750    -8.3830     2.4110    97.1090     5.0560     4.1140     4.2800    24.8560 
  144.0000    -8.1250     2.4020    98.1000     5.0720     4.0760     4.2830    24.8580 
  144.1250    -7.9340     2.3910   100.8820     5.0540     4.0310     4.3380    24.8480 
  144.2500    -7.7360     2.3830   104.5950     4.9910     3.9570     4.3990    24.8380 
  144.3750    -7.6180     2.3800   106.1640     4.9090     3.8480     4.4180    24.8060 
  144.5000    -7.6590     2.3840   105.6350     4.8930     3.7430     4.4150    24.7180 
  144.6250    -7.6530     2.3910   103.9730     5.1670     3.7720     4.4290    24.6380 
  144.7500    -7.6060     2.3940   100.2600     5.9290     4.0710     4.9230    24.6260 
  144.8750    -7.6540     2.3870    92.7960     7.4010     4.8010     7.1400    24.7180 
  145.0000    -7.7130     2.3680    83.4200     9.7490     6.1480    13.3800    24.7730 
  145.1250    -7.7010     2.3400    77.5970    13.0980     8.4240    21.9430    24.7700 
  145.2500    -7.7760     2.3110    74.4820    16.9420    11.4780    26.0900    24.7400 
  145.3750    -7.9010     2.2880    71.0000    20.6910    14.9360    27.8820    24.7190 
  145.5000    -8.0250     2.2720    66.0990    23.7500    18.1360    27.8470    24.7150 
  145.6250    -8.2450     2.2620    63.6690    25.6570    20.3670    25.6910    24.7220 
  145.7500    -8.4340     2.2520    65.6170    26.7620    21.7890    24.6170    24.7280 
  145.8750    -8.5390     2.2380    69.0580    27.4180    22.7220    25.6300    24.7420 
  146.0000    -8.6770     2.2220    69.2450    27.8920    23.3830    27.2270    24.7500 
  146.1250    -8.8550     2.2150    64.7440    28.3180    23.8420    27.6570    24.7690 
  146.2500    -9.0000     2.2240    61.3980    28.8010    24.2480    26.6740    24.7760 
  146.3750    -9.0700     2.2460    61.1930    29.4480    24.7500    25.6210    24.7790 
  146.5000    -9.0430     2.2710    62.0250    30.3010    25.4740    24.7530    24.7730 
  146.6250    -9.0000     2.2860    63.2750    31.0950    26.3900    26.8350    24.7550 
  146.7500    -8.9570     2.2880    65.5780    31.1800    26.9690    28.8600    24.7370 
  146.8750    -8.9280     2.2800    66.7350    29.8790    26.4140    29.7490    24.7370 
  147.0000    -8.8970     2.2700    66.6870    26.9080    24.1310    27.6550    24.7120 
  147.1250    -8.8250     2.2650    67.5490    22.6380    20.3050    23.2760    24.6850 
  147.2500    -8.6870     2.2670    69.8820    18.3900    16.3700    17.5290    24.6680 
  147.3750    -8.5540     2.2740    72.9440    15.0530    13.2130    11.8610    24.6640 
  147.5000    -8.4840     2.2850    75.8940    13.0820    11.1950     9.2960    24.6190 
  147.6250    -8.4940     2.2970    77.1090    12.7800    10.5010     9.0130    24.5260 
  147.7500    -8.6040     2.3040    75.9650    13.7760    10.8650    10.6740    24.4430 
  147.8750    -8.7490     2.3020    73.8320    15.8740    12.2620    13.3280    24.3560 
  148.0000    -8.9230     2.2930    72.2840    18.7320    14.6190    14.4620    24.2620 
  148.1250    -9.1700     2.2820    70.4830    21.6350    17.5910    16.7670    24.1860 
  148.2500    -9.4390     2.2730    68.0710    23.6150    20.1360    21.0420    24.1430 
  148.3750    -9.7530     2.2720    67.3480    24.0010    21.2490    25.6530    24.1230 
  148.5000   -10.0810     2.2770    68.5030    22.6850    20.4690    22.1040    24.1100 
  148.6250   -10.2210     2.2920    69.6320    20.1610    18.2140    15.4950    24.1250 
  148.7500   -10.2810     2.3120    71.7680    17.5790    15.7750    12.6710    24.1360 
  148.8750   -10.2910     2.3320    76.0470    15.5730    13.7690    11.9820    24.1570 
  149.0000   -10.1880     2.3420    79.7940    14.4100    12.4360    11.9280    24.1720 
  149.1250   -10.0330     2.3260    79.5860    14.2030    11.9100    12.5270    24.1720 
  149.2500    -9.8350     2.2860    77.5860    14.6610    12.0000    12.8030    24.2000 
  149.3750    -9.5770     2.2330    77.1120    15.6350    12.6120    12.4290    24.3090 
  149.5000    -9.2760     2.1820    79.2930    16.9890    13.6600    14.3700    24.5490 
  149.6250    -8.9830     2.1500    80.7730    18.5780    15.0910    16.4510    24.8230 
  149.7500    -8.7240     2.1380    77.3140    20.0950    16.6560    19.1610    24.9470 
  149.8750    -8.4790     2.1400    70.6410    21.2160    18.0610    19.3860    24.9940 
