~V
VERS. 2.00: Ver 2.00
~W
STRT.M 50.0000:
STOP.M 236.0000:
STEP.M 0.1250:
NULL. -999.2500:
UWI. F10180:
~C
DEPT.M :
SP.MV :
GR.API :
RML.OHMM :
RI. :
RXO.OHMM :
CALI.CM :
DEN.GM/CC :
~A
# ...
   95.0000   -13.4740    67.9330    10.5970     9.1880    10.1320    23.4650     2.1880 
   95.1250   -13.4350    71.1630    10.6540     9.2380    10.2150    23.4640     2.1860 
   95.2500   -13.4100    71.2720    10.6760     9.2860    10.4460    23.4860     2.1860 
   95.3750   -13.4380    67.1330    10.7260     9.2980    10.9290    23.4990     2.1840 
   95.5000   -13.4200    64.3470    10.7890     9.2590    11.1210    23.5030     2.1810 
   95.6250   -13.3660    66.6000    10.8240     9.1740    10.6940    23.5000     2.1790 
   95.7500   -13.3560    69.4120    10.8290     9.0650    10.2070    23.4880     2.1790 
   95.8750   -13.3260    66.4100    10.8000     8.9720    10.1340    23.4610     2.1810 
   96.0000   -13.3060    61.5730    10.7400     8.9140    10.2310    23.4390     2.1810 
   96.1250   -13.3410    61.6340    10.6660     8.8810    10.3370    23.4200     2.1780 
   96.2500   -13.3160    67.7190    10.5990     8.8340    10.3410    23.3880     2.1740 
   96.3750   -13.2280    72.7680    10.5350     8.7170    10.2620    23.3700     2.1740 
   96.5000   -13.1850    73.0040    10.4610     8.5290    10.1980    23.3760     2.1780 
   96.6250   -13.1810    70.7900    10.3880     8.3020    10.0130    23.4060     2.1830 
   96.7500   -13.1680    70.1810    10.3110     8.0870     9.5240    23.4240     2.1870 
   96.8750   -13.2200    70.7500    10.1710     7.9520     8.9050    23.4150     2.1850 
   97.0000   -13.2890    69.4510     9.9680     7.9160     9.2800    23.4000     2.1780 
   97.1250   -13.2870    66.8390     9.7660     7.9840    10.0300    23.4130     2.1670 
   97.2500   -13.2890    65.7140     9.6640     8.1380    10.5100    23.4360     2.1530 
   97.3750   -13.3330    67.6630     9.7170     8.3480    10.7000    23.4520     2.1390 
   97.5000   -13.3160    70.1480     9.8400     8.5580    10.9580    23.4420     2.1260 
   97.6250   -13.2440    71.6860     9.9660     8.7330    11.1220    23.4390     2.1170 
   97.7500   -13.2020    71.7420    10.0650     8.8480    11.1370    23.4760     2.1120 
   97.8750   -13.0860    69.9670    10.1390     8.8770    11.1650    23.5900     2.1170 
   98.0000   -12.9160    68.9640    10.2070     8.8220    11.0490    23.7370     2.1300 
   98.1250   -12.7520    70.2890    10.2730     8.6870    10.8400    23.8070     2.1480 
   98.2500   -12.5370    72.8400    10.3300     8.4930    10.1450    23.8220     2.1670 
   98.3750   -12.3300    75.6990    10.3170     8.2830     9.2130    23.7920     2.1800 
   98.5000   -12.1880    78.0630    10.1870     8.1190     8.7610    23.7270     2.1860 
   98.6250   -12.0600    78.4400     9.9880     8.0550     9.0540    23.6610     2.1850 
   98.7500   -11.9460    75.0630     9.8400     8.1270     9.5320    23.6310     2.1800 
   98.8750   -11.9080    70.0210     9.8530     8.3500     9.8000    23.6420     2.1740 
   99.0000   -11.8350    67.7270     9.9370     8.6430    10.2820    23.6810     2.1700 
   99.1250   -11.7830    68.8220    10.0120     8.9240    11.7300    23.7400     2.1690 
   99.2500   -11.8050    71.9640    10.0710     9.1120    14.6520    23.7770     2.1670 
   99.3750   -11.7850    73.4740    10.1620     9.1420    16.4660    23.7520     2.1620 
   99.5000   -11.7040    74.0140    10.3200     9.0700    13.5720    23.7010     2.1540 
   99.6250   -11.6140    76.0360    10.5020     8.9850    11.1940    23.6580     2.1520 
   99.7500   -11.5100    77.8670    10.6400     9.0080    10.4000    23.6370     2.1690 
   99.8750   -11.3020    75.2120    10.6540     9.2870    10.4940    23.6400     2.2210 
  100.0000   -11.0630    70.7280    10.8090     9.7840    10.7090    23.6590     2.2930 
  100.1250   -10.8000    69.6550    11.4680    10.3400    11.0010    23.6640     2.3590 
  100.2500   -10.4690    73.2530    12.4640    10.6760    11.6220    23.6480     2.3950 
  100.3750   -10.0560    79.0720    12.8220    10.4280    13.3080    23.7160     2.3850 
  100.5000    -9.6500    85.6090    12.0630     9.6480    12.6110    23.9700     2.3520 
  100.6250    -9.2290    91.5440    10.5520     8.5600     8.9280    24.3350     2.3130 
  100.7500    -8.7440    95.6230     8.9660     7.4680     6.5670    24.6120     2.2830 
  100.8750    -8.3760    99.3710     7.7370     6.6600     6.4010    24.5780     2.2650 
  101.0000    -8.0690   102.4750     6.9120     6.1750     6.8290    24.4070     2.2520 
  101.1250    -7.7470   102.7040     6.4600     5.9660     6.7700    24.4090     2.2470 
  101.2500    -7.5150    98.8320     6.3090     5.9340     6.4930    24.6450     2.2500 
  101.3750    -7.3540    94.1870     6.3540     5.9630     6.3450    24.9190     2.2620 
  101.5000    -7.2060    93.1140     6.4500     5.9630     6.3240    25.1060     2.2740 
  101.6250    -7.1340    95.7260     6.5350     5.9210     6.0820    25.1790     2.2800 
  101.7500    -7.1190   100.0360     6.5730     5.8610     5.7920    25.1880     2.2800 
  101.8750    -7.1640   103.2040     6.5530     5.8260     5.7830    25.1600     2.2780 
  102.0000    -7.3270   104.6320     6.5270     5.8330     6.0500    25.0960     2.2800 
  102.1250    -7.5400   105.0370     6.5140     5.8750     6.3700    24.9920     2.2860 
  102.2500    -7.7430   103.8710     6.4890     5.9250     6.6230    24.8770     2.2930 
  102.3750    -8.0500   100.5030     6.4490     5.9410     6.8910    24.7960     2.2980 
  102.5000    -8.4380    96.7870     6.4250     5.9160     6.9010    24.7560     2.2980 
  102.6250    -8.8010    94.8710     6.4260     5.8820     6.8030    24.7670     2.2970 
  102.7500    -9.2070    95.9070     6.4000     5.8990     6.5450    24.7930     2.2950 
  102.8750    -9.6300    97.3580     6.4210     6.0630     6.4450    24.7010     2.2920 
  103.0000    -9.9960    95.6880     6.8230     6.4000     6.8880    24.4670     2.2840 
  103.1250   -10.3970    90.6940     7.7200     6.9020     8.2530    24.1310     2.2700 
  103.2500   -10.8520    84.1470     8.8050     7.4960    10.3980    23.7410     2.2480 
  103.3750   -11.2750    76.9280     9.5070     7.9920     9.6200    23.4580     2.2230 
  103.5000   -11.5900    72.4130     9.6660     8.1830     8.9870    23.3360     2.2020 
  103.6250   -11.8860    73.4820     9.3220     7.9480     8.8150    23.3500     2.1930 
  103.7500   -12.1010    79.0770     8.5360     7.3270     8.7490    23.4330     2.2000 
  103.8750   -12.1390    86.4420     7.5560     6.5450     8.1000    23.6210     2.2250 
  104.0000   -12.1810    95.0230     6.7540     5.9440     7.1800    23.9380     2.2690 
  104.1250   -12.2180   101.8350     6.3340     5.7360     6.3240    24.3410     2.3300 
  104.2500   -12.1880   101.5280     6.3990     6.0370     6.4710    24.6410     2.3960 
  104.3750   -12.2420    91.3940     7.0950     6.9260     8.9820    24.6570     2.4390 
  104.5000   -12.4260    79.2130     8.2690     8.1170    14.0880    24.4390     2.4370 
  104.6250   -12.6410    72.7760     9.6020     9.2370    16.8690    24.0410     2.3870 
  104.7500   -12.9530    73.2660    10.5760     9.8970    13.5140    23.6360     2.3100 
  104.8750   -13.3710    76.6320    10.6890     9.8420    10.4570    23.4620     2.2400 
  105.0000   -13.7990    78.1580    10.2320     9.3950     9.6860    23.4290     2.1990 
  105.1250   -14.3080    79.6420     9.6380     8.8850     9.9660    23.4780     2.1860 
  105.2500   -14.8400    81.1340     9.2360     8.5400    10.2810    23.5360     2.1870 
  105.3750   -15.2280    78.6620     9.1460     8.4620    10.4520    23.5580     2.1890 
  105.5000   -15.5680    73.0690     9.1960     8.5400    10.4050    23.5740     2.1880 
  105.6250   -15.9290    67.6200     9.2850     8.6670    10.3800    23.6010     2.1850 
  105.7500   -16.2030    65.2710     9.3870     8.7430    10.6080    23.6230     2.1800 
  105.8750   -16.4140    67.3430     9.4960     8.6670    11.0130    23.6290     2.1700 
  106.0000   -16.5950    70.2760     9.5610     8.4360    11.0780    23.6280     2.1550 
  106.1250   -16.6610    70.7540     9.5530     8.0700    10.8800    23.6280     2.1380 
