~V
VERS. 2.00: Ver 2.00
~W
STRT.M 55.0000:
STOP.M 242.0000:
STEP.M 0.1250:
NULL. -999.2500:
UWI. F10187:
~C
DEPT.M :
GR.API :
RML.OHMM :
RI. :
RXO.OHMM :
CALI.CM :
DEN.GM/CC :
SP.MV :
~A
# ...
  133.7500    57.7700    22.9750    22.0530    19.2590    24.4110     2.5360    -0.9090 
  133.8750    58.0200    23.3120    22.2970    19.9450    24.2820     2.5280    -0.8890 
  134.0000    54.4900    24.1900    23.2760    21.9750    24.2040     2.5370    -0.8660 
  134.1250    51.2490    24.9350    24.6510    23.7450    24.2800     2.5580    -0.9680 
  134.2500    50.2760    24.6440    25.3110    25.0700    24.3050     2.5740    -1.1140 
  134.3750    50.4300    22.7700    24.1620    24.3640    24.1910     2.5740    -1.3160 
  134.5000    52.5650    19.4300    20.9670    24.0890    24.0220     2.5490    -1.6380 
  134.6250    60.9560    15.4480    16.7430    20.2830    23.8300     2.4950    -2.0090 
  134.7500    72.9390    11.9640    13.0170    13.3620    23.7230     2.4290    -2.4000 
  134.8750    82.2360     9.4890    10.3340     8.4710    23.7170     2.3650    -2.8110 
  135.0000    85.8900     8.0870     8.7100     7.0130    23.8640     2.3140    -3.1950 
  135.1250    87.7530     7.6700     8.0720     7.1650    24.2500     2.2860    -3.4740 
  135.2500    90.9330     7.7870     8.0520     7.4160    24.6410     2.2760    -3.6080 
  135.3750    91.8720     8.1710     8.4430     7.6380    24.8790     2.2820    -3.6170 
  135.5000    89.6120     8.5700     8.9930     8.1490    24.9430     2.3020    -3.5450 
  135.6250    88.8480     8.7300     9.3690     9.1340    24.8880     2.3310    -3.3430 
  135.7500    89.8820     8.5790     9.3790    10.7700    24.8010     2.3570    -3.0810 
  135.8750    88.7890     8.1420     8.9820    10.7860    24.7330     2.3700    -2.8600 
  136.0000    85.7310     7.5350     8.2740     8.2050    24.7030     2.3630    -2.6720 
  136.1250    85.6460     6.9770     7.4710     6.5520    24.6890     2.3360    -2.4920 
  136.2500    88.1510     6.7040     6.8510     5.9670    24.6630     2.3040    -2.4170 
  136.3750    90.1090     6.9240     6.6130     5.8620    24.6440     2.2840    -2.4170 
  136.5000    88.3070     7.8260     6.9210     6.0740    24.6350     2.2890    -2.3630 
  136.6250    80.9850     9.7010     8.0630     7.0360    24.5860     2.3330    -2.3280 
  136.7500    72.7630    12.4130    10.0790     9.9280    24.4090     2.4030    -2.2990 
  136.8750    66.1120    15.6960    12.9880    15.6420    24.0830     2.4800    -2.2100 
  137.0000    60.3670    19.0040    16.4850    20.8860    23.7730     2.5440    -2.1150 
  137.1250    54.8040    21.4470    19.6350    22.3080    23.7030     2.5770    -2.0410 
  137.2500    51.4210    22.7040    21.5820    22.6760    23.8800     2.5860    -1.8660 
  137.3750    50.8450    22.9380    22.2250    22.1480    24.1620     2.5810    -1.6560 
  137.5000    51.4110    22.6860    22.1050    21.1740    24.3680     2.5720    -1.5440 
  137.6250    51.9730    22.5960    21.9330    20.1660    24.4230     2.5690    -1.5040 
  137.7500    51.6490    22.9410    22.1000    21.0290    24.4190     2.5710    -1.4770 
  137.8750    50.5560    23.6720    22.6290    23.5270    24.3940     2.5770    -1.5000 
  138.0000    49.9980    24.5790    23.3850    24.2220    24.3870     2.5820    -1.5980 
  138.1250    50.0400    25.3430    24.1230    22.9450    24.3680     2.5820    -1.7520 
  138.2500    50.7490    25.7260    24.5920    22.2180    24.3490     2.5790    -1.9700 
  138.3750    52.0020    25.6040    24.6320    22.4150    24.3610     2.5750    -2.2240 
  138.5000    52.8270    24.9770    24.1850    20.6600    24.4310     2.5740    -2.4770 
  138.6250    53.8460    23.9370    23.2820    19.9260    24.4880     2.5730    -2.6700 
  138.7500    55.8440    22.7870    22.2080    19.6890    24.4780     2.5700    -2.8430 
  138.8750    57.6990    21.7490    21.1830    18.7400    24.4540     2.5650    -3.0460 
  139.0000    58.3570    20.9940    20.3950    16.3960    24.4360     2.5570    -3.1950 
  139.1250    59.7980    20.6650    20.0250    15.2190    24.3820     2.5500    -3.1900 
  139.2500    61.3680    20.6500    20.0090    15.9740    24.3530     2.5430    -3.1480 
  139.3750    61.1510    20.8010    20.2370    17.3140    24.3500     2.5350    -3.1320 
  139.5000    60.2940    20.9210    20.5240    17.6480    24.3560     2.5250    -3.0750 
  139.6250    61.9200    20.7700    20.5930    17.7270    24.3410     2.5140    -3.0480 
  139.7500    62.8020    20.3050    20.3060    17.6460    24.3140     2.5070    -3.0650 
  139.8750    61.8780    19.5880    19.6770    17.0550    24.2310     2.5060    -2.9810 
  140.0000    61.8860    18.7590    18.8540    15.1640    23.9740     2.5090    -2.8330 
  140.1250    62.9250    17.9900    18.0140    13.7850    23.5740     2.5140    -2.8040 
  140.2500    61.6500    17.3770    17.2720    13.8230    23.2030     2.5170    -2.8060 
  140.3750    58.1890    16.9670    16.6830    14.3460    22.9670     2.5190    -2.7520 
  140.5000    56.2480    16.7870    16.2930    14.4210    22.9410     2.5240    -2.6920 
  140.6250    56.7930    16.8850    16.1650    14.2420    23.1270     2.5320    -2.5810 
  140.7500    57.8540    17.1960    16.2560    13.7290    23.3780     2.5360    -2.4400 
  140.8750    59.8330    17.6570    16.5300    14.1690    23.6480     2.5290    -2.3550 
  141.0000    62.6000    18.1780    16.9130    15.6130    23.8980     2.5080    -2.3230 
  141.1250    65.0040    18.6390    17.2980    15.9650    24.0190     2.4820    -2.3160 
  141.2500    67.0760    18.9820    17.5930    15.5600    24.0050     2.4680    -2.3360 
  141.3750    68.1690    19.2210    17.7760    15.3490    23.8860     2.4720    -2.4220 
  141.5000    67.4930    19.4330    17.8890    15.5900    23.8400     2.4930    -2.5510 
  141.6250    64.2380    19.7590    18.0650    16.0420    23.8830     2.5180    -2.6780 
  141.7500    60.1790    20.2630    18.4060    16.3370    23.9490     2.5330    -2.7660 
  141.8750    57.7920    20.9190    18.9160    16.7810    23.9710     2.5360    -2.8430 
  142.0000    58.5240    21.6030    19.4950    17.3620    23.9330     2.5290    -2.9200 
  142.1250    61.9100    22.0700    19.9180    18.6500    23.9500     2.5190    -2.8870 
  142.2500    63.2620    22.1660    20.0100    19.4510    24.0030     2.5090    -2.8260 
  142.3750    62.0450    21.8510    19.7070    19.0380    24.0360     2.5020    -2.7760 
  142.5000    61.6710    21.2360    19.0990    17.8400    24.0220     2.5040    -2.6920 
  142.6250    62.4970    20.5580    18.3940    16.5720    23.9820     2.5170    -2.6160 
  142.7500    61.1960    20.0700    17.8250    15.3340    23.9520     2.5340    -2.6850 
  142.8750    58.1090    19.8890    17.5120    14.8700    23.9120     2.5440    -2.8140 
  143.0000    56.6290    20.0190    17.4780    14.4630    23.8120     2.5400    -2.9870 
  143.1250    59.1400    20.4040    17.6960    15.0900    23.7480     2.5260    -3.3920 
  143.2500    61.7430    20.8810    18.0390    15.7690    23.7760     2.5180    -3.9040 
  143.3750    63.3950    21.3370    18.4310    16.5840    23.8660     2.5290    -4.3900 
  143.5000    65.3350    21.6570    18.7680    16.8080    23.9200     2.5570    -4.9010 
  143.6250    69.3160    21.6590    18.8720    16.6570    23.9310     2.5920    -5.4950 
  143.7500    72.4580    21.2970    18.6540    18.0100    23.9580     2.6160    -6.0250 
  143.8750    72.0050    20.5860    18.0880    19.8270    24.0150     2.6230    -6.5360 
  144.0000    69.7170    19.6510    17.2630    18.7070    24.0720     2.6130    -7.0490 
  144.1250    69.4860    18.7280    16.4050    15.8220    24.0820     2.5930    -7.4320 
  144.2500    71.0030    18.0170    15.7300    14.8840    24.1510     2.5730    -7.6570 
  144.3750    71.5180    17.5770    15.3100    15.3990    24.2840     2.5550    -7.8060 
  144.5000    70.1570    17.3530    15.1210    16.2030    24.4110     2.5400    -7.9820 
  144.6250    68.7270    17.2240    15.0880    16.9930    24.4820     2.5350    -8.1500 
  144.7500    68.4560    17.0800    15.0710    17.6300    24.4880     2.5390    -8.2680 
  144.8750    68.1650    16.9320    15.0250    17.2910    24.5050     2.5530    -8.3300 
