~V
VERS. 2.00: Ver 2.00
~W
STRT.M 56.0000:
STOP.M 221.0000:
STEP.M 0.1250:
NULL. -999.2500:
UWI. F10169:
~C
DEPT.M :
GR.API :
RML.OHMM :
RI. :
RXO.OHMM :
CALI.CM :
SP.MV :
DEN.GM/CC :
~A
# ...
  146.0000    71.4330    18.6480    13.5960    16.7560    25.4470   -17.7110     2.2590 
  146.1250    67.4050    20.8190    15.6070    22.4400    25.4810   -17.8040     2.2510 
  146.2500    66.8210    20.1870    15.6480    22.9080    25.4920   -17.8280     2.2460 
  146.3750    68.5390    17.5390    14.0450    19.9510    25.4940   -17.8160     2.2510 
  146.5000    71.1690    14.6160    11.9890    13.8300    25.4930   -17.7630     2.2660 
  146.6250    74.5910    12.8830    10.5350     8.1740    25.4920   -17.6940     2.2840 
  146.7500    75.2100    13.3070    10.4060     7.2130    25.5030   -17.5670     2.2890 
  146.8750    73.5720    15.6820    11.6300    10.4590    25.5520   -17.4470     2.2750 
  147.0000    72.2860    19.8560    14.3100    20.5540    25.6510   -17.3260     2.2500 
  147.1250    71.1120    25.2300    18.2940    31.8940    25.7500   -17.2420     2.2250 
  147.2500    69.4600    30.0340    22.5900    32.5340    25.8030   -17.1770     2.2130 
  147.3750    69.1470    32.3490    25.4330    28.3780    25.8220   -17.1690     2.2140 
  147.5000    70.7810    31.8780    26.0860    24.3980    25.8050   -17.1940     2.2210 
  147.6250    70.8570    29.9300    25.1920    21.8360    25.7860   -17.2670     2.2310 
  147.7500    69.4830    28.0540    23.8840    20.4680    25.7800   -17.3810     2.2420 
  147.8750    69.7080    26.7200    22.7770    20.7810    25.7750   -17.5110     2.2490 
  148.0000    68.4510    25.7210    21.8400    20.3940    25.7590   -17.6590     2.2500 
  148.1250    64.1680    24.7750    20.9260    18.6940    25.7200   -17.8160     2.2470 
  148.2500    61.2340    23.7210    19.9550    17.0330    25.6830   -17.9870     2.2440 
  148.3750    62.3900    22.6810    19.0230    15.4630    25.6570   -18.1370     2.2490 
  148.5000    64.3580    21.9020    18.3100    14.8300    25.6610   -18.2720     2.2620 
  148.6250    64.0060    21.5970    17.9750    15.2550    25.6820   -18.3780     2.2810 
  148.7500    62.4300    21.8450    18.0970    15.6190    25.6970   -18.4430     2.2970 
  148.8750    62.3250    22.2740    18.4120    16.5040    25.7270   -18.4750     2.2980 
  149.0000    63.7930    22.4520    18.5920    17.3980    25.7530   -18.4520     2.2790 
  149.1250    64.6410    21.9840    18.3060    17.3410    25.7510   -18.3840     2.2490 
  149.2500    65.2300    20.6300    17.3190    15.3890    25.7050   -18.2460     2.2300 
  149.3750    67.3330    18.8380    15.9370    12.8300    25.6570   -18.0600     2.2270 
  149.5000    70.3020    17.0490    14.4960    11.3750    25.6370   -17.8330     2.2360 
  149.6250    72.3190    15.5890    13.2650    10.9940    25.6710   -17.5410     2.2490 
  149.7500    70.6360    14.6820    12.4480    10.4990    25.6970   -17.2030     2.2610 
  149.8750    66.2080    14.2490    12.0240    10.2260    25.7050   -16.8030     2.2700 
  150.0000    64.0110    14.2520    11.9810    10.2170    25.7020   -16.3890     2.2740 
  150.1250    67.0500    14.6500    12.2940    10.3010    25.6900   -15.9550     2.2680 
  150.2500    70.6570    15.4280    12.9620    10.5880    25.6870   -15.5240     2.2530 
  150.3750    69.4940    16.3650    13.8100    11.5750    25.7430   -15.0820     2.2380 
  150.5000    65.7990    17.1710    14.6080    13.1950    25.8410   -14.6620     2.2270 
  150.6250    63.4270    17.5030    15.0460    14.1270    25.8840   -14.2760     2.2190 
  150.7500    63.8800    17.0080    14.7700    13.9670    25.8430   -13.9600     2.2190 
  150.8750    65.9780    15.8790    13.8970    12.8060    25.7960   -13.7050     2.2290 
  151.0000    67.4160    14.4080    12.6510    11.0350    25.7770   -13.4870     2.2420 
  151.1250    66.9530    12.9450    11.3320     9.3610    25.7760   -13.3300     2.2530 
  151.2500    65.8950    11.8560    10.2580     8.3640    25.7780   -13.2200     2.2570 
  151.3750    66.1750    11.2090     9.5360     7.9110    25.7740   -13.1840     2.2570 
  151.5000    69.0920    10.9720     9.1710     7.6620    25.7570   -13.2110     2.2540 
  151.6250    71.9580    11.0460     9.1080     7.6550    25.7250   -13.3000     2.2510 
  151.7500    72.8360    11.3650     9.3090     9.0360    25.7100   -13.4090     2.2470 
  151.8750    73.2850    11.8700     9.7050    10.5380    25.7010   -13.5440     2.2420 
  152.0000    74.2530    12.6240    10.3250    10.0100    25.6860   -13.7010     2.2350 
  152.1250    75.5820    13.7220    11.2240     8.8230    25.6600   -13.8550     2.2320 
  152.2500    74.9230    15.2450    12.4780     9.4410    25.6630   -14.0140     2.2350 
  152.3750    72.2570    16.9260    13.9230    12.4270    25.6840   -14.1270     2.2510 
  152.5000    67.6970    18.2990    15.2340    16.3270    25.7010   -14.1980     2.2820 
  152.6250    61.7520    18.7370    15.8830    16.9490    25.7050   -14.2210     2.3140 
  152.7500    58.9900    17.6080    15.2260    14.0000    25.6870   -14.2040     2.3210 
  152.8750    61.3150    15.4890    13.6270    11.2630    25.6420   -14.1420     2.3150 
  153.0000    67.9610    13.1500    11.6980     9.3050    25.5900   -14.0330     2.3210 
  153.1250    75.0250    11.2510    10.0050     7.5280    25.5550   -13.9100     2.3470 
  153.2500    77.5510    10.2130     8.9290     5.8330    25.5220   -13.7510     2.3690 
  153.3750    77.5340     9.8710     8.4020     5.4880    25.4710   -13.5920     2.3610 
  153.5000    78.4630    10.0650     8.3340     5.9080    25.4170   -13.4020     2.3240 
  153.6250    79.9900    10.6060     8.6040     6.6720    25.3690   -13.2080     2.2780 
  153.7500    79.6220    11.2790     9.0710     7.2660    25.3590   -13.0100     2.2520 
  153.8750    78.6810    11.8600     9.5330     7.5180    25.3860   -12.8570     2.2430 
  154.0000    78.5840    12.2640     9.8920     8.2000    25.4500   -12.7320     2.2410 
  154.1250    77.7430    12.5290    10.1430     9.7720    25.5310   -12.6220     2.2380 
  154.2500    74.0060    12.7910    10.3680    12.3290    25.6040   -12.5440     2.2390 
  154.3750    69.5480    13.1830    10.6670    14.2030    25.6440   -12.5180     2.2490 
  154.5000    66.3840    13.7600    11.0870    13.6890    25.6730   -12.5660     2.2600 
  154.6250    65.4650    14.5410    11.6480    12.0540    25.6860   -12.6710     2.2640 
  154.7500    67.2160    15.5890    12.4030    12.1770    25.6930   -12.8250     2.2570 
  154.8750    67.9570    16.9170    13.3740    14.8930    25.7300   -12.9940     2.2470 
  155.0000    65.2090    18.5710    14.6100    15.9520    25.7620   -13.1960     2.2430 
  155.1250    61.9000    20.4830    16.1010    17.9770    25.7740   -13.4340     2.2430 
  155.2500    61.2010    22.2430    17.6110    22.3700    25.7630   -13.7020     2.2440 
  155.3750    61.1220    23.2110    18.6270    26.7610    25.7360   -13.9650     2.2460 
  155.5000    60.9220    22.8800    18.6870    26.9900    25.6850   -14.1950     2.2520 
  155.6250    62.6990    21.2020    17.6530    21.8330    25.5920   -14.3920     2.2600 
  155.7500    66.9220    18.6770    15.8130    15.4310    25.4320   -14.5490     2.2650 
  155.8750    70.5940    16.2530    13.9030    11.6130    25.3470   -14.6820     2.2670 
  156.0000    73.5000    14.3810    12.3010    10.7120    25.3650   -14.7920     2.2690 
  156.1250    75.8730    13.1980    11.1660     9.7260    25.4360   -14.8440     2.2670 
  156.2500    75.9330    12.7490    10.6010     8.6980    25.4520   -14.8510     2.2610 
  156.3750    74.3780    12.7430    10.4420     8.2080    25.4190   -14.8070     2.2570 
  156.5000    72.9540    12.9450    10.5270     7.9290    25.3770   -14.7350     2.2560 
  156.6250    72.9570    13.1180    10.6670     8.5710    25.3680   -14.6360     2.2580 
  156.7500    74.6610    13.0460    10.6620     9.3900    25.3940   -14.5640     2.2590 
  156.8750    75.8650    12.7240    10.4710     9.2560    25.4030   -14.4710     2.2600 
  157.0000    75.2850    12.2640    10.1560     8.0170    25.3850   -14.3780     2.2610 
  157.1250    75.1390    11.8690     9.8570     6.9640    25.3210   -14.2940     2.2640 
