~V
VERS. 2.00: Ver 2.00
~W
STRT.M 50.0000:
STOP.M 222.0000:
STEP.M 0.1250:
NULL. -999.2500:
UWI. F10145:
~C
DEPT.M :
DEN.GM/CC :
GR.API :
RML.OHMM :
RI. :
RXO.OHMM :
CALI.CM :
SP.MV :
~A
# ...
  185.0000     2.6650    62.0140   266.6880   226.1390   288.1160    24.3110   -11.4990 
  185.1250     2.7070    60.3840   326.1110   272.6320   362.0980    24.2380   -11.4140 
  185.2500     2.7320    62.0330   387.1050   320.7120   510.0270    24.1650   -11.3180 
  185.3750     2.7450    63.5190   437.6710   362.4900   675.1870    24.1340   -11.2420 
  185.5000     2.7540    61.7930   458.3430   385.0160   813.6000    24.1280   -11.1240 
  185.6250     2.7660    58.3830   423.2660   368.9730   839.7750    24.1400   -10.9640 
  185.7500     2.7850    57.1700   344.4680   317.6440   624.6370    24.1620   -10.8820 
  185.8750     2.8070    59.3070   246.0170   243.0860   402.7440    24.1730   -10.8910 
  186.0000     2.8220    63.5160   155.3840   164.3880   262.9470    24.1540   -10.9240 
  186.1250     2.8130    68.9400    93.2550   101.7400   158.2320    24.1390   -10.8620 
  186.2500     2.7750    75.5070    54.6550    59.3180    83.5700    24.1400   -10.7490 
  186.3750     2.7100    84.4880    32.0320    34.2200    39.5200    24.1580   -10.6650 
  186.5000     2.6350    93.0980    19.0900    20.8180    18.8490    24.1840   -10.6780 
  186.6250     2.5740    96.5520    12.9240    14.6750    12.7850    24.1960   -10.6830 
  186.7500     2.5390    98.5330    10.1530    11.4620    10.8100    24.1990   -10.5900 
  186.8750     2.5320   102.3420     9.0320     9.7890    10.4210    24.1990   -10.4840 
  187.0000     2.5390   108.5310     8.5470     8.9890    10.6940    24.1990   -10.4190 
  187.1250     2.5470   113.6110     8.5150     8.7790    10.5430    24.2140   -10.3770 
  187.2500     2.5470   113.8810     8.6800     8.8600    10.1500    24.2490   -10.3280 
  187.3750     2.5390   109.2830     8.9300     9.0950    10.0280    24.2990   -10.2990 
  187.5000     2.5290   103.7520     9.1770     9.3730    10.6200    24.3530   -10.2900 
  187.6250     2.5200   104.7940     9.3320     9.5820    11.1500    24.3920   -10.3040 
  187.7500     2.5110   107.3940     9.3760     9.6680    11.3880    24.3540   -10.2770 
  187.8750     2.4990   103.8930     9.3230     9.6230    11.0780    24.3080   -10.1520 
  188.0000     2.4850    93.5160     9.2170     9.4800    10.7760    24.2940    -9.9660 
  188.1250     2.4720    83.6050     9.1090     9.2900    10.7560    24.2890    -9.7360 
  188.2500     2.4630    78.1410     9.0210     9.1010    10.6230    24.2740    -9.4840 
  188.3750     2.4610    74.1780     8.9440     8.9210    10.3760    24.2380    -9.1830 
  188.5000     2.4640    69.7650     8.8620     8.7460    10.3140    24.2180    -8.8270 
  188.6250     2.4690    67.0080     8.7840     8.5790    10.1650    24.2320    -8.4730 
  188.7500     2.4740    65.3620     8.7610     8.4580     9.9810    24.2620    -8.1840 
  188.8750     2.4800    62.6900     8.8450     8.4370     9.9570    24.2750    -7.9330 
  189.0000     2.4850    59.9900     9.0580     8.5540     9.9440    24.2850    -7.6560 
  189.1250     2.4880    60.5950     9.3450     8.7910     9.7570    24.3210    -7.3820 
  189.2500     2.4840    63.1370     9.5520     9.0030     9.5720    24.2720    -7.1030 
  189.3750     2.4760    67.4240     9.5430     9.0440    10.4220    24.1800    -6.8010 
  189.5000     2.4680    74.2650     9.2520     8.8190    11.9050    24.1440    -6.3880 
  189.6250     2.4710    82.8620     8.7080     8.3130    10.5140    24.2200    -5.8290 
  189.7500     2.4890    90.2080     8.1150     7.7070     8.0740    24.2980    -5.2300 
  189.8750     2.5200    95.4520     7.6220     7.1440     7.2310    24.2230    -4.6850 
  190.0000     2.5520    96.7400     7.3100     6.7160     7.7380    24.1230    -4.2400 
  190.1250     2.5660    94.4240     7.2240     6.4860     8.3280    24.0950    -3.8050 
  190.2500     2.5600    96.5230     7.3100     6.4210     8.0120    24.1120    -3.4030 
  190.3750     2.5410   103.1780     7.5620     6.5210     7.6100    24.1080    -3.1160 
  190.5000     2.5260   106.2410     7.9800     6.7950     7.5430    24.0770    -3.0370 
  190.6250     2.5280   101.0990     8.5460     7.2540     7.8220    24.0350    -3.1290 
  190.7500     2.5410    96.8920     9.1150     7.7880     8.5710    23.9730    -3.2380 
  190.8750     2.5520    96.8730     9.5130     8.2480    10.7050    23.9250    -3.3560 
  191.0000     2.5430    96.2160     9.5810     8.4640    14.2000    23.9270    -3.4640 
  191.1250     2.5050    93.6470     9.2260     8.2860    12.9590    23.9700    -3.5600 
  191.2500     2.4510    93.1600     8.6560     7.8460     9.7010    23.9910    -3.6450 
  191.3750     2.3990    93.5600     8.0840     7.3150     7.9780    24.0270    -3.7260 
  191.5000     2.3670    92.3940     7.6860     6.8700     7.4810    24.0730    -3.7880 
  191.6250     2.3640    92.0510     7.5800     6.6600     8.2760    24.1050    -3.8040 
  191.7500     2.3800    93.4110     7.6870     6.6620     9.9040    24.1960    -3.8200 
  191.8750     2.4000    93.1700     7.9120     6.8170     9.6390    24.3100    -3.8170 
  192.0000     2.4150    91.0180     8.1550     7.0370     8.8750    24.2360    -3.8260 
  192.1250     2.4190    91.0620     8.3200     7.2220     8.4020    24.0560    -3.9170 
  192.2500     2.4150    91.8420     8.3800     7.3180     8.4110    23.8920    -3.9880 
  192.3750     2.4090    90.1630     8.3440     7.3150     8.2120    23.6590    -3.9670 
  192.5000     2.4050    87.5200     8.2380     7.2290     7.9840    23.3160    -3.8850 
  192.6250     2.4050    85.8180     8.1000     7.0840     7.6230    23.1340    -3.8510 
  192.7500     2.4060    85.7800     7.9660     6.9230     7.2870    23.1600    -3.8430 
  192.8750     2.4080    87.6740     7.8530     6.7660     6.9440    23.3460    -3.8200 
  193.0000     2.4120    91.5250     7.7700     6.6270     6.8220    23.6680    -3.7290 
  193.1250     2.4160    95.8270     7.7290     6.5210     6.8800    23.8770    -3.5920 
  193.2500     2.4210    97.8340     7.7290     6.4530     6.7970    24.0610    -3.5060 
  193.3750     2.4240    96.8650     7.7780     6.4310     6.8070    24.1870    -3.4450 
  193.5000     2.4290    95.1010     7.8820     6.4630     7.1290    24.2110    -3.3610 
  193.6250     2.4340    95.7430     8.0600     6.5670     7.5540    24.1190    -3.2700 
  193.7500     2.4380    98.3900     8.3020     6.7350     7.8100    24.0050    -3.2180 
  193.8750     2.4380    99.7670     8.6000     6.9630     7.9900    23.8710    -3.1960 
  194.0000     2.4310    97.5430     8.9370     7.2360     8.3750    23.7450    -3.2120 
  194.1250     2.4180    91.8030     9.2820     7.5300     8.7870    23.6930    -3.2980 
  194.2500     2.4050    85.5780     9.5980     7.8150     8.8540    23.7070    -3.3900 
  194.3750     2.3970    83.4440     9.8640     8.0690     8.9670    23.7440    -3.4530 
  194.5000     2.3970    85.8930    10.0680     8.2730     9.3560    23.8020    -3.5160 
  194.6250     2.4050    88.7150    10.1960     8.4110    10.0390    23.7920    -3.5710 
  194.7500     2.4150    90.9230    10.2550     8.4860    10.4070    23.7210    -3.6190 
  194.8750     2.4230    93.5330    10.2400     8.4980    10.4580    23.6440    -3.6630 
  195.0000     2.4280    95.0200    10.1470     8.4450    10.2700    23.6460    -3.6910 
  195.1250     2.4300    92.9330     9.9810     8.3260    10.1510    23.7500    -3.6950 
  195.2500     2.4300    90.5210     9.7820     8.1720     9.8450    23.8720    -3.6870 
  195.3750     2.4270    89.1960     9.5820     8.0120     9.0470    24.0220    -3.6700 
  195.5000     2.4210    85.7740     9.4020     7.8670     8.3880    24.2290    -3.6000 
  195.6250     2.4140    79.1920     9.2490     7.7510     8.0560    24.3610    -3.4660 
  195.7500     2.4080    76.7990     9.1060     7.6500     8.4770    24.4250    -3.3060 
  195.8750     2.4040    80.0440     8.9600     7.5480     8.9610    24.4540    -3.1410 
  196.0000     2.4040    85.0420     8.8140     7.4410     8.8450    24.4050    -2.9720 
  196.1250     2.4110    88.7100     8.6950     7.3440     8.1750    24.3130    -2.7510 
