~V
VERS. 2.00: Ver 2.00
~W
STRT.M 52.0000:
STOP.M 236.0000:
STEP.M 0.1250:
NULL. -999.2500:
UWI. F10181:
~C
DEPT.M :
GR.API :
RML.OHMM :
RI. :
RXO.OHMM :
CALI.CM :
DEN.GM/CC :
SP.MV :
~A
   52.0000    43.3460     2.5010     0.4380     5.9180    25.4180  -999.2500  -999.2500 
   52.1250    46.6190     2.5130     0.4340     4.6500    25.4120  -999.2500  -999.2500 
   52.2500    50.0180     2.5430     0.4300     4.5530    25.4030  -999.2500  -999.2500 
   52.3750    52.4920     2.5800     0.4250     4.9400    25.3910  -999.2500     0.0000 
   52.5000    54.8030     2.6190     0.4210     5.5430    25.3770     2.0990     0.0000 
   52.6250    57.5330     2.6580     0.4160     6.4540    25.3610     2.0990     0.0000 
   52.7500    57.7910     2.6940     0.4130     5.0910    25.3420     2.0970    58.2370 
   52.8750    55.4510     2.7170     0.4120     2.2350    25.3180     2.1040   116.0760 
   53.0000    53.6430     2.7070     0.4120     0.9010    25.3010     2.1150   115.4100 
   53.1250    54.6700     2.6500     0.4150     0.7830    25.3000     2.1230   114.7470 
   53.2500    56.3470     2.5670     0.4160     1.1680    25.3060     2.1270   114.0620 
   53.3750    56.5790     2.4870     0.4150     1.8890    25.3050     2.1240   113.4130 
   53.5000    55.1450     2.4350     0.4100     2.7370    25.2950     2.1140   112.8470 
   53.6250    52.6700     2.4160     0.4040     2.2330    25.2620     2.1000   112.3700 
   53.7500    50.3130     2.4010     0.4010     1.5190    25.2160     2.0860   111.9140 
   53.8750    49.2290     2.3700     0.4020     0.8020    25.1840     2.0750   111.4810 
   54.0000    49.3230     2.3170     0.4070     0.5790    25.1830     2.0700   111.0530 
   54.1250    49.8930     2.2590     0.4140     0.6470    25.2040     2.0700   110.6090 
   54.2500    50.2820     2.2200     0.4180     0.6500    25.2110     2.0720   110.2720 
   54.3750    50.7980     2.2130     0.4190     0.7570    25.1960     2.0740   110.0450 
   54.5000    51.8470     2.2390     0.4180     0.7150    25.1520     2.0750   109.8820 
   54.6250    53.5750     2.2900     0.4150     0.4470    25.1010     2.0750   109.8230 
   54.7500    54.9500     2.3410     0.4140     0.2850    25.0790     2.0750   109.8490 
   54.8750    55.0800     2.3720     0.4170     0.3310    25.0780     2.0760   109.9200 
   55.0000    53.1030     2.3690     0.4220     0.5090    25.0750     2.0800   110.1140 
   55.1250    51.3420     2.3340     0.4270     0.8650    25.0530     2.0890   110.4360 
   55.2500    52.6660     2.2860     0.4300     1.1930    25.0080     2.1030   110.7280 
   55.3750    55.3820     2.2360     0.4300     1.2720    24.9580     2.1250   111.0100 
   55.5000    57.7940     2.1810     0.4280     1.2520    24.9130     2.1550   111.2680 
   55.6250    60.2720     2.1070     0.4280     1.2520    24.8870     2.1960   111.4850 
   55.7500    61.7960     2.0190     0.4330     1.2670    24.8600     2.2440   111.7260 
   55.8750    61.7300     1.9340     0.4410     1.2690    24.8120     2.2910   111.9580 
   56.0000    60.4800     1.8700     0.4530     1.2440    24.7510     2.3350   112.1540 
   56.1250    59.4490     1.8350     0.4660     1.2310    24.6960     2.3700   112.2970 
   56.2500    57.4460     1.8170     0.4760     1.2340    24.6620     2.3970   112.4410 
   56.3750    54.9200     1.8050     0.4820     1.2440    24.6360     2.4140   112.5430 
   56.5000    52.5980     1.7970     0.4830     1.2520    24.6440     2.4100   112.6180 
   56.6250    49.2680     1.8020     0.4780     1.2500    24.7460     2.3720   112.6120 
   56.7500    45.0900     1.8270     0.4670     1.2420    24.9180     2.3060   112.4600 
   56.8750    42.4120     1.8730     0.4530     1.2340    25.0870     2.2280   112.1970 
   57.0000    42.4390     1.9320     0.4380     1.2430    25.1880     2.1570   111.7880 
   57.1250    45.3120     1.9880     0.4250     1.2750    25.2130     2.1090   111.1660 
   57.2500    49.2240     2.0360     0.4190     1.2850    25.2170     2.0840   110.3150 
   57.3750    51.5560     2.0760     0.4200     1.2630    25.2170     2.0760   109.1470 
   57.5000    50.9450     2.1000     0.4240     1.1990    25.2170     2.0770   107.5410 
   57.6250    48.2290     2.0540     0.4230     1.0780    25.2170     2.0890   105.2350 
   57.7500    45.8010     1.8820     0.4050     0.8650    25.2170     2.1140   102.1880 
   57.8750    44.5800     1.5300     0.3660     0.5510    25.2170     2.1620    98.1940 
   58.0000    44.5470     1.0180     0.3090     0.3270    25.2160     2.2410    93.1070 
   58.1250    44.7250     0.5340     0.2530     0.2680    25.2140     2.3540    86.6280 
   58.2500    44.0960     0.2380     0.2210     0.3010    25.2100     2.4750    78.8030 
   58.3750    43.2350     0.1410     0.2320     0.4170    25.1430     2.5670    69.5690 
   58.5000    44.4200     0.2280     0.3130     0.7040    24.8160     2.5920    59.0680 
   58.6250    49.7260     0.5530     0.5350     1.6690    24.0290     2.5270    47.8310 
   58.7500    56.3630     1.1320     0.9500     2.6700    23.2160     2.4230    36.6680 
   58.8750    61.2710     1.9640     1.6050     4.4870    22.7370     2.3160    26.0450 
   59.0000    64.4350     2.9630     2.4940     6.3820    22.4800     2.2310    16.2830 
   59.1250    66.7870     3.9060     3.5210     7.2000    22.3260     2.1850     7.8420 
   59.2500    68.1060     4.5360     4.4580     7.0240    22.2210     2.1680     0.8650 
   59.3750    68.7900     4.7750     5.1480     6.9080    22.1750     2.1700    -4.4720 
   59.5000    71.0740     4.7830     5.5650     7.1320    22.1630     2.1790    -8.1920 
   59.6250    73.8540     4.7400     5.7490     7.2700    22.1760     2.1900   -10.4990 
   59.7500    75.1890     4.6920     5.7960     7.2680    22.2440     2.2000   -12.0890 
   59.8750    77.2170     4.6210     5.7400     7.1240    22.4360     2.2090   -13.2440 
   60.0000    81.3970     4.5350     5.6340     6.8810    22.7980     2.2150   -14.1420 
   60.1250    83.6170     4.5090     5.5800     6.5180    23.1910     2.2210   -14.8050 
   60.2500    82.5820     4.6180     5.6680     6.2130    23.4300     2.2310   -15.3780 
   60.3750    81.3200     4.8940     5.9350     6.2890    23.5350     2.2490   -15.9010 
   60.5000    80.6340     5.3020     6.3420     6.8470    23.6680     2.2780   -16.4190 
   60.6250    77.1040     5.7190     6.7660     7.9450    23.7790     2.3080   -16.9940 
   60.7500    73.0270     5.9940     7.0470     9.4390    23.6330     2.3250   -17.6090 
   60.8750    70.9870     6.0320     7.0820    10.7910    23.2940     2.3190   -18.2140 
   61.0000    71.9900     5.8320     6.8640     9.1940    23.0670     2.2920   -18.7800 
   61.1250    74.8370     5.5080     6.4870     7.6670    23.0710     2.2580   -19.3220 
   61.2500    77.1150     5.2350     6.1330     6.8860    23.0930     2.2310   -19.8450 
   61.3750    77.2940     5.0870     5.8960     6.6940    23.0720     2.2150   -20.3180 
   61.5000    74.5360     5.0720     5.8010     6.5810    23.0080     2.2070   -20.7210 
   61.6250    71.5880     5.1550     5.8300     6.8990    22.9480     2.2040   -21.0560 
   61.7500    71.4400     5.2640     5.9040     7.0160    22.9450     2.2010   -21.3370 
   61.8750    73.3690     5.3670     5.9850     6.9130    22.9640     2.1980   -21.5760 
   62.0000    74.6950     5.4600     6.0610     6.9000    22.9750     2.1940   -21.8070 
   62.1250    74.1240     5.5420     6.1260     7.0260    22.9710     2.1900   -22.0160 
   62.2500    73.7180     5.6040     6.1690     7.0730    22.9480     2.1870   -22.1910 
   62.3750    73.7840     5.6210     6.1640     7.0340    22.9040     2.1860   -22.3430 
   62.5000    72.8640     5.5640     6.0840     7.0550    22.9280     2.1870   -22.4780 
   62.6250    71.8590     5.4080     5.9020     7.1630    23.1240     2.1930   -22.6040 
   62.7500    74.8220     5.2010     5.6620     6.9280    23.4090     2.2020   -22.7700 
   62.8750    80.5590     5.0080     5.4230     6.4310    23.6360     2.2140   -23.0240 
   63.0000    85.0950     4.9000     5.2520     5.9040    23.7620     2.2250   -23.3500 
   63.1250    83.6280     4.9480     5.2240     5.5540    23.6970     2.2270   -23.7420 
