~V
VERS. 2.00: Ver 2.00
~W
STRT.M 50.0000:
STOP.M 246.0000:
STEP.M 0.1250:
NULL. -999.2500:
UWI. F10164:
~C
DEPT.M :
GR.API :
RML.OHMM :
RI. :
RXO.OHMM :
CALI.CM :
SP.MV :
DEN.GM/CC :
~A
# ...
  106.2500    71.9220     7.5820     6.3810     8.8220    26.0150   -20.7210     2.1280 
  106.3750    73.2570     7.6040     6.3810     8.5230    26.1960   -20.3990     2.1390 
  106.5000    72.1290     7.6240     6.3880     8.3320    26.0820   -20.1170     2.1530 
  106.6250    70.5220     7.6220     6.3930     8.3850    25.5860   -19.8360     2.1660 
  106.7500    71.0050     7.5780     6.3760     8.6230    25.4660   -19.6040     2.1720 
  106.8750    74.3140     7.4730     6.3200     8.9280    25.3560   -19.5000     2.1720 
  107.0000    79.7710     7.3070     6.2170     9.0250    25.2070   -19.4520     2.1680 
  107.1250    84.3830     7.0940     6.0690     8.4420    25.0760   -19.4350     2.1670 
  107.2500    85.1710     6.8810     5.9080     7.5430    24.9690   -19.5520     2.1690 
  107.3750    84.0460     6.6950     5.7600     7.0110    24.7200   -19.7430     2.1680 
  107.5000    85.1530     6.5530     5.6450     7.0630    24.4130   -19.8540     2.1650 
  107.6250    87.3730     6.4600     5.5800     7.2660    24.4850   -19.9080     2.1600 
  107.7500    87.0440     6.4070     5.5600     7.1670    25.2100   -19.9280     2.1580 
  107.8750    85.5730     6.3980     5.5810     6.9500    25.1510   -19.8380     2.1610 
  108.0000    85.2390     6.4420     5.6450     6.8770    24.9680   -19.7020     2.1690 
  108.1250    84.1520     6.5470     5.7520     6.9750    24.6810   -19.5980     2.1730 
  108.2500    81.3280     6.6620     5.8730     7.1850    24.4840   -19.3880     2.1710 
  108.3750    80.5390     6.7160     5.9550     7.4390    24.4080   -19.0080     2.1670 
  108.5000    85.1800     6.6200     5.9280     7.6390    24.4060   -18.4930     2.1700 
  108.6250    92.4870     6.2690     5.6940     7.4940    24.4580   -17.7850     2.1890 
  108.7500    94.1440     5.7130     5.2740     6.7970    24.5220   -16.8880     2.2220 
  108.8750    97.2940     5.0490     4.7290     5.7340    24.5020   -15.9270     2.2590 
  109.0000   105.2280     4.4180     4.1650     4.7380    24.3580   -15.0020     2.2900 
  109.1250   113.1130     4.0030     3.7270     4.0970    24.2550   -14.1110     2.3060 
  109.2500   122.1290     3.8770     3.4920     3.7260    24.3160   -13.3180     2.3090 
  109.3750   128.3870     4.0840     3.5120     3.6890    24.4970   -12.7760     2.3030 
  109.5000   125.3470     4.6260     3.8130     4.1720    24.5660   -12.5490     2.2910 
  109.6250   113.9390     5.4640     4.4150     5.2220    24.5190   -12.6140     2.2800 
  109.7500   104.2950     6.3760     5.1780     6.3340    24.4480   -12.9180     2.2750 
  109.8750    98.9670     7.1540     5.9490     7.2820    24.4020   -13.3270     2.2760 
  110.0000    94.7440     7.6380     6.5660     8.4750    24.4530   -13.6350     2.2800 
  110.1250    92.6360     7.7250     6.8740     9.8020    24.6000   -13.8150     2.2880 
  110.2500    96.8570     7.5640     6.9230     9.4390    24.7910   -13.9520     2.3080 
  110.3750   104.4530     7.2690     6.7850     7.7550    24.8980   -13.9480     2.3410 
  110.5000   106.6370     6.9270     6.5380     6.7750    24.8720   -13.7880     2.3800 
  110.6250   102.1660     6.5930     6.2460     6.9690    24.7190   -13.5630     2.4030 
  110.7500   100.3710     6.3100     5.9720     6.7580    24.5260   -13.2810     2.3980 
  110.8750   102.0450     6.1250     5.7670     5.8500    24.5420   -13.0440     2.3650 
  111.0000   102.6190     6.0680     5.6690     5.3690    24.8210   -13.0370     2.3170 
  111.1250   100.5600     6.1390     5.7020     5.9710    25.0800   -13.2570     2.2750 
  111.2500    98.3410     6.2450     5.8020     7.0490    25.0110   -13.4950     2.2490 
  111.3750    95.3790     6.2960     5.8980     7.8720    24.7880   -13.7230     2.2430 
  111.5000    91.7860     6.2250     5.9160     7.8670    24.7110   -13.8970     2.2500 
  111.6250    98.5300     6.0140     5.8030     7.0330    24.8450   -13.8870     2.2630 
  111.7500   117.0780     5.7630     5.6120     6.1430    24.9600   -13.8000     2.2720 
  111.8750   132.1760     5.5570     5.4080     5.6180    24.9750   -13.6670     2.2760 
  112.0000   131.8950     5.4440     5.2460     5.4580    23.2640   -13.3660     2.2800 
  112.1250   119.7090     5.4270     5.1510     5.4690    24.0440   -12.8840     2.2930 
  112.2500   119.2670     5.4430     5.0900     5.4720    24.2680   -12.4230     2.3140 
  112.3750   133.3050     5.4460     5.0330     5.3900    24.4070   -12.0310     2.3350 
  112.5000   141.5300     5.4270     4.9640     5.2470    24.5120   -11.7000     2.3440 
  112.6250   128.4000     5.4450     4.9170     5.1730    24.5300   -11.5700     2.3260 
  112.7500   109.0650     5.6260     4.9680     5.2590    24.5510   -11.6300     2.2860 
  112.8750    97.9010     6.1390     5.2300     5.5490    24.6500   -11.7540     2.2410 
  113.0000    93.8060     7.1980     5.8510     6.3230    24.8210   -11.9440     2.2120 
  113.1250    91.2600     9.1960     7.1490     8.2810    25.2290   -12.2510     2.2270 
  113.2500    94.1060    12.1530     9.2580    11.7260    25.6670   -12.5640     2.2850 
  113.3750    98.9840    15.8810    12.2250    16.7210    25.5420   -12.9360     2.3770 
  113.5000    98.2430    19.6680    15.6670    22.3150    25.5010   -13.4820     2.4790 
  113.6250    89.7300    21.9440    18.3560    25.6420    25.3780   -14.1750     2.5500 
  113.7500    82.0010    21.8510    19.2060    25.3890    24.9690   -14.9290     2.5660 
  113.8750    77.9690    19.4740    17.9580    21.8100    24.3310   -15.8380     2.5180 
  114.0000    77.6480    15.8730    15.3020    16.0600    23.9350   -16.8820     2.4260 
  114.1250    80.7400    12.6750    12.4680    11.5130    23.8680   -17.9670     2.3240 
  114.2500    83.6210    10.5910    10.2500     9.3530    23.9680   -19.1430     2.2470 
  114.3750    83.5310     9.4170     8.7170     8.7630    24.3800   -20.3060     2.2040 
  114.5000    82.2970     8.7340     7.7230     8.8190    25.3900   -21.3070     2.1870 
  114.6250    85.3540     8.3900     7.2090     8.8740    26.3150   -22.1370     2.1800 
  114.7500    88.2620     8.3020     7.0030     8.8540    26.9410   -22.8270     2.1710 
  114.8750    87.5490     8.3270     6.9720     8.8220    27.3630   -23.2650     2.1630 
  115.0000    84.4340     8.3540     7.0030     8.8190    27.5630   -23.5230     2.1560 
  115.1250    82.3710     8.3430     7.0290     8.8450    27.4050   -23.7240     2.1520 
  115.2500    81.8540     8.3110     7.0310     8.8270    27.0220   -23.8430     2.1500 
  115.3750    82.6940     8.2840     7.0210     8.7280    26.7550   -23.9070     2.1490 
  115.5000    83.6800     8.2890     7.0170     8.6480    26.7040   -24.0290     2.1470 
  115.6250    82.6410     8.3490     7.0430     8.6980    26.6930   -24.1970     2.1420 
  115.7500    80.6520     8.4510     7.0990     8.8020    26.5890   -24.3370     2.1330 
  115.8750    79.5860     8.5760     7.1740     8.9040    26.4950   -24.5280     2.1260 
  116.0000    79.3520     8.6960     7.2510     9.0550    26.4940   -24.7560     2.1260 
  116.1250    78.2920     8.7820     7.3070     9.2820    26.5030   -24.8650     2.1370 
  116.2500    76.6260     8.8250     7.3320     9.4750    26.4020   -24.8960     2.1500 
  116.3750    75.2840     8.8250     7.3240     9.6450    26.2040   -24.9260     2.1530 
  116.5000    74.8330     8.7930     7.2900     9.8570    26.0610   -24.8720     2.1420 
  116.6250    76.0990     8.7410     7.2380    10.0090    26.1530   -24.7270     2.1210 
  116.7500    77.9110     8.6870     7.1820     9.9850    26.3300   -24.6210     2.1060 
  116.8750    80.0780     8.6430     7.1320     9.7910    26.3920   -24.4750     2.1050 
  117.0000    83.2280     8.6220     7.0980     9.5290    26.2960   -24.2180     2.1210 
  117.1250    85.1510     8.6320     7.0910     9.3090    26.1630   -23.9740     2.1480 
  117.2500    84.6010     8.6580     7.1050     9.2100    25.9960   -23.7300     2.1710 
  117.3750    82.6640     8.6690     7.1200     9.1380    25.6930   -23.3810     2.1830 
