~V
VERS. 2.00: Ver 2.00
~W
STRT.M 53.0000:
STOP.M 246.0000:
STEP.M 0.1250:
NULL. -999.2500:
UWI. F10192:
~C
DEPT.M :
DEN.GM/CC :
GR.API :
RML.OHMM :
RI. :
RXO.OHMM :
CALI.CM :
SP.MV :
~A
# ...
  199.2500     2.5210    66.2110    36.3460    34.0090    42.8750    24.3630   -28.4390 
  199.3750     2.4820    65.7310    29.8540    28.2210    35.9150    24.3290   -28.2380 
  199.5000     2.4350    67.8490    23.3590    22.3260    25.9750    24.2990   -28.0460 
  199.6250     2.4080    72.3510    18.2130    17.5820    18.0030    24.2610   -27.8010 
  199.7500     2.4170    77.8730    14.9610    14.4460    14.7630    24.2380   -27.4860 
  199.8750     2.4400    83.2050    13.1040    12.4810    13.6260    24.1890   -27.1300 
  200.0000     2.4590    86.2310    12.4390    11.5130    13.0240    24.0770   -26.6970 
  200.1250     2.4640    85.6340    12.7900    11.4050    12.6750    23.9520   -26.1960 
  200.2500     2.4630    81.4870    14.0150    12.0810    13.1540    24.0050   -25.6100 
  200.3750     2.4650    76.1150    15.5770    13.1290    15.1100    24.1850   -24.9720 
  200.5000     2.4690    73.0810    16.9620    14.1380    18.7460    24.3120   -24.2710 
  200.6250     2.4580    73.5930    17.5840    14.5960    20.4170    24.3310   -23.6080 
  200.7500     2.4240    73.2330    16.8490    13.9720    15.0940    24.3910   -22.9350 
  200.8750     2.3910    66.3560    15.1860    12.6180     9.7150    24.4410   -22.2810 
  201.0000     2.3800    56.2880    13.2430    11.0590     7.9450    24.4670   -21.6860 
  201.1250     2.3880    50.0140    10.0330     9.7420     7.7440    24.4830   -21.2040 
  201.2500     2.4050    52.7510     9.3370     8.9740     7.3700    24.5000   -20.8360 
  201.3750     2.4170    61.1750     9.2280     8.6840     7.0310    24.4950   -20.5440 
  201.5000     2.4210    69.3240     9.5530     8.7790     7.3710    24.5140   -20.3860 
  201.6250     2.4160    73.3890    10.1040     9.1190     8.3920    24.5440   -20.2450 
  201.7500     2.4040    76.5840    10.6400     9.5260     8.5930    24.5710   -20.1770 
  201.8750     2.3940    81.4340    10.9560     9.8010     8.4540    24.5750   -20.1690 
  202.0000     2.3960    84.6920    10.9580     9.8220     8.6180    24.5360   -20.1840 
  202.1250     2.4080    83.4930    10.7070     9.5980     9.0630    24.4850   -20.2150 
  202.2500     2.4250    82.7700    10.4680     9.3060     9.3240    24.4620   -20.2500 
  202.3750     2.4400    86.5400    10.5610     9.2000     9.3030    24.4470   -20.3000 
  202.5000     2.4570    91.2690    11.1930     9.4490     9.2650    24.4160   -20.3370 
  202.6250     2.4760    89.9900    12.4300    10.1400     9.8120    24.3740   -20.3730 
  202.7500     2.4930    81.3910    14.1440    11.2850    11.7750    24.3060   -20.4410 
  202.8750     2.5030    75.1260    15.7380    12.5090    14.5500    24.2460   -20.5200 
  203.0000     2.5030    74.9180    16.5490    13.2860    16.7440    24.2350   -20.6450 
  203.1250     2.4950    76.6510    16.1000    13.1290    16.3100    24.2840   -20.7460 
  203.2500     2.4810    77.1170    14.3980    11.9330    13.6790    24.3300   -20.8560 
  203.3750     2.4650    79.7290    12.4260    10.4380    10.9580    24.3190   -20.9660 
  203.5000     2.4500    84.3100    10.8710     9.1530     8.4940    24.3050   -21.0620 
  203.6250     2.4400    87.1750    10.0810     8.3390     7.3410    24.3520   -21.1730 
  203.7500     2.4350    87.1810    10.1580     8.1200     7.8780    24.4790   -21.2570 
  203.8750     2.4340    87.5270    10.6950     8.2930     9.0280    24.6080   -21.3230 
  204.0000     2.4380    87.8780    11.3540     8.6710     9.6190    24.6650   -21.3380 
  204.1250     2.4530    86.2990    11.8290     9.0410    10.0670    24.6580   -21.3500 
  204.2500     2.4750    83.3290    11.9030     9.2090    11.5950    24.6300   -21.2920 
  204.3750     2.4890    82.9520    11.7480     9.2060    12.8170    24.6340   -21.2010 
  204.5000     2.4990    83.1290    11.6390     9.1840    11.7720    24.6720   -21.0220 
  204.6250     2.5220    81.0830    11.8280     9.3180    10.2350    24.7120   -20.7760 
  204.7500     2.5640    78.5240    12.4650     9.7500    10.2890    24.7020   -20.4470 
  204.8750     2.6010    76.1670    13.3410    10.3980    11.2160    24.6800   -20.0040 
  205.0000     2.6170    72.5120    14.1510    11.0860    13.1240    24.6380   -19.4980 
  205.1250     2.6090    69.4990    14.4900    11.5160    15.7020    24.5730   -18.8660 
  205.2500     2.5860    72.4640    13.8910    11.2590    16.4060    24.5320   -18.1550 
  205.3750     2.5570    77.0840    12.5640    10.3890    14.6070    24.4550   -17.3520 
  205.5000     2.5240    76.4900    10.9180     9.1880    12.3920    24.3170   -16.5360 
  205.6250     2.4880    72.0260     9.3920     7.9910     9.9130    24.1570   -15.7160 
  205.7500     2.4580    69.0750     8.3410     7.0760     7.5870    23.9920   -14.8800 
  205.8750     2.4410    67.5410     7.7270     6.4680     6.2480    23.8690   -14.1360 
  206.0000     2.4330    66.6690     7.4100     6.1060     5.9940    23.8370   -13.4460 
  206.1250     2.4250    67.4350     7.2090     5.8760     5.9970    23.8790   -12.8780 
  206.2500     2.4160    70.4630     6.9690     5.6680     5.7290    23.9770   -12.4130 
  206.3750     2.4120    73.8110     6.6640     5.4310     5.2800    24.1110   -12.0610 
  206.5000     2.4130    76.8580     6.3560     5.1910     4.8570    24.2680   -11.8040 
  206.6250     2.4130    81.4080     6.1410     5.0070     4.5530    24.4080   -11.5780 
  206.7500     2.4050    85.7330     6.1400     4.9660     4.7640    24.4730   -11.4560 
  206.8750     2.3950    86.5410     6.3600     5.0800     5.4670    24.4960   -11.3430 
  207.0000     2.3880    84.1100     6.7830     5.3500     5.9600    24.5090   -11.2720 
  207.1250     2.3890    81.1750     7.3420     5.7370     6.1030    24.5410   -11.2000 
  207.2500     2.3970    80.5670     7.8780     6.1450     6.3800    24.5940   -11.1820 
  207.3750     2.4040    80.0890     8.1970     6.4200     6.8910    24.6370   -11.1600 
  207.5000     2.4070    79.1760     8.1880     6.4590     7.4180    24.6290   -11.1250 
  207.6250     2.4010    81.4130     7.8840     6.2620     7.3450    24.5890   -11.1140 
  207.7500     2.3880    86.4950     7.4930     5.9500     6.7030    24.5280   -11.0980 
  207.8750     2.3760    90.4940     7.3010     5.7270     5.9520    24.4840   -11.1360 
  208.0000     2.3670    93.0650     7.4650     5.7180     5.7480    24.4650   -11.1420 
  208.1250     2.3560    92.3220     8.0070     5.9760     6.2710    24.4690   -11.1630 
  208.2500     2.3410    84.8480     8.8290     6.4980     7.4040    24.4810   -11.1830 
  208.3750     2.3270    74.1890     9.6430     7.1120     8.5440    24.4710   -11.1570 
  208.5000     2.3180    68.2730    10.2400     7.6560     9.1150    24.4070   -11.1360 
  208.6250     2.3160    69.5170    10.5250     8.0100     8.9670    24.2890   -11.1390 
  208.7500     2.3200    73.0190    10.5590     8.1440     8.6170    24.1690   -11.1270 
  208.8750     2.3220    74.8120    10.5650     8.1930     8.5190    24.0920   -11.0960 
  209.0000     2.3150    76.4100    10.6480     8.2440     8.7010    24.0580   -11.0700 
  209.1250     2.3050    77.5920    10.8020     8.3250     9.1400    24.0790   -11.0410 
  209.2500     2.3020    77.0790    10.9240     8.3980     9.5860    24.1750   -10.9890 
  209.3750     2.3090    75.8800    10.9140     8.3990     9.6660    24.2590   -10.9950 
  209.5000     2.3200    76.5580    10.7500     8.2980     9.3990    24.3060   -11.0150 
  209.6250     2.3280    80.0350    10.4960     8.1180     8.9720    24.3240   -11.0530 
  209.7500     2.3300    82.1690    10.3060     7.9500     8.8620    24.3010   -11.1420 
  209.8750     2.3290    81.7580    10.3240     7.9040     8.9740    24.2290   -11.1910 
  210.0000     2.3240    79.4470    10.6570     8.0690     9.1010    24.1600   -11.2720 
  210.1250     2.3160    76.9030    11.3610     8.5030     9.4390    24.1660   -11.3460 
  210.2500     2.3090    77.7320    12.4720     9.2700    10.7690    24.2450   -11.4530 
  210.3750     2.3040    80.3840    13.8080    10.2690    12.6250    24.3610   -11.5420 
