~V
VERS. 2.00: Ver 2.00
~W
STRT.M 52.0000:
STOP.M 326.0000:
STEP.M 0.1250:
NULL. -999.2500:
UWI. F10108:
~C
DEPT.M :
DEN.GM/CC :
SP.MV :
GR.API :
RML.OHMM :
RI. :
RXO.OHMM :
CALI.CM :
~A
# ...
  209.5000     2.2350   -19.2630    56.1140   104.5940    99.6670    98.1020    24.9080 
  209.6250     2.2500   -19.2360    55.5310    98.5140    93.8990    80.0880    24.8230 
  209.7500     2.2630   -19.2220    57.4520    94.8630    90.4710    69.8730    24.7050 
  209.8750     2.2740   -19.1820    59.6700    93.7600    89.6710    69.9260    24.5700 
  210.0000     2.2800   -19.1610    58.4580    94.5970    91.0160    73.6230    24.4690 
  210.1250     2.2800   -19.1640    55.1240    96.2840    93.4970    70.9600    24.4690 
  210.2500     2.2770   -19.1690    53.1510    97.3700    95.5540    67.2930    24.5390 
  210.3750     2.2730   -19.1680    51.5570    96.9180    96.1130    70.7080    24.6270 
  210.5000     2.2720   -19.1630    52.3290    94.5100    94.5980    76.3960    24.7080 
  210.6250     2.2750   -19.1890    56.7800    90.2200    90.9260    77.3400    24.7930 
  210.7500     2.2800   -19.2130    59.8940    85.1020    86.1920    75.5680    24.8960 
  210.8750     2.2820   -19.2270    59.1570    79.7120    81.0240    73.0140    24.9900 
  211.0000     2.2760   -19.2000    55.7210    74.2530    75.7050    70.5350    25.0410 
  211.1250     2.2630   -19.1470    53.3420    68.6940    70.2590    70.1800    25.0300 
  211.2500     2.2500   -19.1090    52.1850    63.2280    64.8820    77.1750    25.0040 
  211.3750     2.2450   -19.1150    52.1450    58.4380    60.1060    88.7330    24.9770 
  211.5000     2.2510   -19.1760    53.6210    55.1870    56.7310    93.1920    24.9230 
  211.6250     2.2630   -19.2340    55.1270    54.7340    55.9500    85.1330    24.8090 
  211.7500     2.2750   -19.2990    55.0750    57.0360    57.8050    76.4850    24.6920 
  211.8750     2.2810   -19.3780    52.7400    61.8580    62.1970    74.2510    24.6410 
  212.0000     2.2830   -19.4870    50.3200    68.4930    68.5720    76.2670    24.6570 
  212.1250     2.2850   -19.6130    49.8470    75.7730    75.8800    78.2120    24.6860 
  212.2500     2.2860   -19.7340    50.7240    82.2160    82.5050    80.4480    24.6770 
  212.3750     2.2840   -19.8270    52.4800    86.8820    87.3190    86.0920    24.6430 
  212.5000     2.2790   -19.8830    55.4470    89.3870    89.7750    93.6390    24.6270 
  212.6250     2.2720   -19.9220    57.5820    89.7260    89.7520    97.3070    24.6620 
  212.7500     2.2710   -19.9610    58.1420    88.9510    88.3530    94.9400    24.7010 
  212.8750     2.2780   -20.0050    57.7230    87.8480    86.3760    90.7920    24.6980 
  213.0000     2.2890   -20.0290    56.7340    87.2970    84.6920    87.5090    24.6720 
  213.1250     2.2950   -20.0250    55.9620    88.6650    84.6050    84.6080    24.6810 
  213.2500     2.2910   -19.9940    56.3760    92.6720    86.8940    79.5590    24.7330 
  213.3750     2.2780   -19.9580    56.9950    99.8980    92.1900    75.0300    24.7770 
  213.5000     2.2600   -19.9050    56.4340   110.4850   100.7360    77.0180    24.7770 
  213.6250     2.2430   -19.8410    53.8230   124.2620   112.5290    87.1150    24.7350 
  213.7500     2.2310   -19.7590    50.5730   139.2010   125.7380   106.6060    24.7100 
  213.8750     2.2230   -19.6580    49.4380   153.2090   138.4870   124.3270    24.7190 
  214.0000     2.2180   -19.5620    50.7200   163.9430   148.6790   133.4130    24.7470 
  214.1250     2.2160   -19.4570    51.2620   168.2640   153.5770   134.4270    24.7410 
  214.2500     2.2160   -19.3440    49.4700   166.0210   152.9180   133.6620    24.7190 
  214.3750     2.2170   -19.2020    47.5070   157.4740   146.7400   132.6410    24.7180 
  214.5000     2.2190   -19.0560    47.9640   143.7730   135.7820   130.3790    24.7380 
  214.6250     2.2230   -18.9090    51.0800   126.7080   121.2270   122.3450    24.7270 
  214.7500     2.2290   -18.7690    55.4020   109.5730   105.9540   110.3510    24.6690 
  214.8750     2.2390   -18.6220    58.7670    94.5150    92.0130    96.4090    24.6050 
  215.0000     2.2510   -18.4650    59.3280    82.7400    80.7610    81.3580    24.5760 
  215.1250     2.2620   -18.3240    58.7730    74.8870    73.0450    68.4260    24.6110 
  215.2500     2.2700   -18.2070    58.3220    69.6130    67.7760    61.8340    24.6600 
  215.3750     2.2770   -18.1240    58.2280    65.9960    64.1130    60.1770    24.6960 
  215.5000     2.2830   -18.0660    59.1300    63.3200    61.3630    60.1390    24.7330 
  215.6250     2.2910   -18.0240    60.5520    61.5170    59.3810    59.3420    24.8330 
  215.7500     2.3000   -17.9860    59.1880    60.9590    58.4320    57.7440    24.9830 
  215.8750     2.3080   -17.9720    55.3790    62.4800    59.2350    55.9600    25.1290 
  216.0000     2.3140   -17.9840    52.9690    66.9650    62.6080    52.7640    25.2300 
  216.1250     2.3140   -18.0220    53.1090    75.5860    69.7650    54.8040    25.2700 
  216.2500     2.3090   -18.0780    51.5380    87.4380    80.1070    67.1490    25.3010 
  216.3750     2.3010   -18.1500    47.8380   101.2290    92.6250    87.1090    25.3520 
  216.5000     2.2940   -18.2030    45.2720   114.8490   105.4490   105.7540    25.4070 
  216.6250     2.2900   -18.2510    46.6840   124.9320   115.4760   120.8790    25.4080 
  216.7500     2.2870   -18.3070    49.2380   129.6510   120.8060   132.4550    25.3700 
  216.8750     2.2820   -18.3480    50.0290   128.2430   120.5940   130.8490    25.3520 
  217.0000     2.2750   -18.3840    48.7280   121.2360   115.1740   121.4820    25.3820 
  217.1250     2.2680   -18.4020    46.7030   109.5620   105.1910   113.3000    25.4290 
  217.2500     2.2610   -18.4110    45.1740    95.9290    93.0480   106.4290    25.4300 
  217.3750     2.2580   -18.4380    46.2690    82.3000    80.5640    99.7930    25.3810 
  217.5000     2.2580   -18.5120    50.5450    70.3960    69.4560    86.4600    25.3160 
  217.6250     2.2610   -18.6030    54.3610    61.8470    61.3920    64.6300    25.2760 
  217.7500     2.2650   -18.6920    55.8350    56.4170    56.2530    50.1800    25.2280 
  217.8750     2.2680   -18.7920    56.9320    53.7220    53.6980    45.2230    25.1370 
  218.0000     2.2670   -18.8850    59.1880    53.0500    53.0830    46.0790    25.0120 
  218.1250     2.2600   -18.9940    61.3990    53.5610    53.6660    48.8880    24.9090 
  218.2500     2.2530   -19.1130    62.0710    54.1340    54.3680    51.1370    24.8750 
  218.3750     2.2470   -19.2150    62.0920    54.2550    54.6170    52.1830    24.9030 
  218.5000     2.2430   -19.3070    62.3420    53.8800    54.2540    51.3570    24.9350 
  218.6250     2.2430   -19.4250    65.1320    53.5980    53.6870    48.0680    24.9460 
  218.7500     2.2410   -19.5660    67.5420    54.3650    53.8220    45.1570    24.9760 
  218.8750     2.2370   -19.7210    64.8080    57.0950    55.5410    43.6920    25.0580 
  219.0000     2.2300   -19.9030    57.5220    62.5580    59.6540    45.5280    25.1580 
  219.1250     2.2230   -20.0850    53.1390    71.8280    67.3590    52.3170    25.1740 
  219.2500     2.2180   -20.2640    52.6750    84.3410    78.3650    64.2640    25.1030 
  219.3750     2.2140   -20.4460    51.8480    99.3540    92.1770    77.4410    25.0090 
  219.5000     2.2130   -20.6200    48.1670   115.2950   107.4410    92.9280    24.9440 
  219.6250     2.2130   -20.7720    46.2680   129.1360   121.4010   112.2430    24.9090 
  219.7500     2.2150   -20.9120    49.5300   138.2760   131.3680   124.9030    24.8630 
  219.8750     2.2170   -21.0460    53.4510   141.0780   135.5880   132.1220    24.8100 
  220.0000     2.2220   -21.1750    52.7260   137.4820   133.7110   131.0150    24.7830 
  220.1250     2.2290   -21.3160    47.5410   128.5230   126.2770   119.9550    24.8450 
  220.2500     2.2360   -21.4510    45.8710   117.4810   116.2790   105.2280    24.9460 
  220.3750     2.2410   -21.5880    49.2720   106.1390   105.4890    91.5000    25.0360 
  220.5000     2.2400   -21.7290    52.9540    95.6210    95.1560    81.4620    25.0970 
  220.6250     2.2350   -21.8880    53.6230    86.8980    86.3820    64.6190    25.1680 
