~V
VERS. 2.00: Ver 2.00
~W
STRT.M 49.0000:
STOP.M 245.0000:
STEP.M 0.1250:
NULL. -999.2500:
UWI. F10179:
~C
DEPT.M :
DEN.GM/CC :
GR.API :
RML.OHMM :
RI. :
RXO.OHMM :
CALI.CM :
SP.MV :
~A
# ...
  161.5000     2.3380    77.8520    27.7450    27.8620    13.6220    23.4750   -24.1670 
  161.6250     2.3490    78.5050    29.0250    28.7160    14.3040    23.7710   -24.2750 
  161.7500     2.3450    76.5910    31.4030    30.3780    18.0900    23.8880   -24.4370 
  161.8750     2.3300    70.3690    34.5470    32.8520    24.9530    23.9490   -24.6220 
  162.0000     2.3180    66.9140    37.3630    35.2040    27.7300    23.9980   -24.7860 
  162.1250     2.3120    70.8080    39.2640    36.6900    30.4930    23.8760   -24.9270 
  162.2500     2.3120    77.7350    40.5270    37.2940    26.9110    23.4440   -25.0800 
  162.3750     2.3170    78.8930    42.7150    38.1330    20.6210    22.6400   -25.2550 
  162.5000     2.3180    75.3230    47.4170    40.6710    18.6890    22.0580   -25.4390 
  162.6250     2.3060    72.3600    55.4960    45.8880    23.3340    21.7550   -25.6090 
  162.7500     2.2830    71.4120    66.8010    54.1020    32.4370    21.7370   -25.7420 
  162.8750     2.2640    71.1460    79.8120    64.6590    40.2230    21.7870   -25.8880 
  163.0000     2.2600    70.7560    91.2070    74.6930    65.4590    21.9800   -26.0460 
  163.1250     2.2670    69.2130    98.6250    81.7110   133.2500    22.5140   -26.2080 
  163.2500     2.2740    66.4390   101.9020    84.9900   151.6240    23.2670   -26.3610 
  163.3750     2.2770    65.7510   102.9070    85.8330   112.3840    24.0030   -26.4820 
  163.5000     2.2780    67.9240   103.6770    86.2380   104.4590    24.2960   -26.5730 
  163.6250     2.2780    69.9130   104.1050    86.3820   106.2100    24.3640   -26.6540 
  163.7500     2.2770    69.9180   103.4420    85.8340   107.2850    24.3660   -26.7360 
  163.8750     2.2760    69.1060   100.5780    83.8580   104.4150    24.3590   -26.7850 
  164.0000     2.2770    69.1960    95.4080    80.2910    94.8960    24.3390   -26.7830 
  164.1250     2.2790    70.4960    88.3080    75.2890    75.3390    24.2900   -26.7350 
  164.2500     2.2830    72.7660    80.5080    69.6650    65.0880    24.2160   -26.6530 
  164.3750     2.2900    73.6650    74.0200    64.8620    64.8610    24.1720   -26.5790 
  164.5000     2.2960    72.0660    70.1020    61.8680    69.5970    24.2160   -26.5350 
  164.6250     2.2990    68.0130    69.3660    61.2530    58.6700    24.2820   -26.5240 
  164.7500     2.2980    65.2010    71.6990    63.1280    55.5610    24.3370   -26.5210 
  164.8750     2.2920    67.6200    76.2890    67.1520    73.8670    24.3630   -26.5080 
  165.0000     2.2860    71.8060    80.5190    71.2570    87.9000    24.3810   -26.4800 
  165.1250     2.2810    73.3560    81.4800    72.7880    91.7340    24.3930   -26.4560 
  165.2500     2.2820    71.9220    76.8790    69.3320    98.7090    24.3790   -26.4500 
  165.3750     2.2890    72.2200    66.8780    60.7670    97.8660    24.3650   -26.4480 
  165.5000     2.2970    74.2300    56.2640    51.5000    91.1570    24.3670   -26.4360 
  165.6250     2.3070    74.9690    48.2560    44.3300    72.5020    24.3750   -26.4070 
  165.7500     2.3230    74.8880    44.4680    40.4560    51.2080    24.3560   -26.3800 
  165.8750     2.3370    75.5220    46.2490    40.8500    56.1920    24.3350   -26.3450 
  166.0000     2.3360    75.3390    52.7300    45.1180    70.7690    24.3470   -26.3570 
  166.1250     2.3160    73.4330    63.3770    53.3510    78.7100    24.3310   -26.4140 
  166.2500     2.2880    70.9440    76.8820    65.0160    89.0880    24.2720   -26.5100 
  166.3750     2.2680    70.4320    90.1080    77.7890    98.6200    24.2250   -26.6610 
  166.5000     2.2570    69.9220    99.1440    87.5010   101.4440    24.2600   -26.8570 
  166.6250     2.2530    69.2310   102.0650    91.7440    98.1250    24.2770   -27.0710 
  166.7500     2.2530    68.5620    99.6840    90.8400    92.4820    24.1550   -27.2510 
  166.8750     2.2550    68.5690    94.1300    86.5070    86.0660    23.7600   -27.3850 
  167.0000     2.2580    67.9550    87.6280    80.9160    77.7080    23.3010   -27.4660 
  167.1250     2.2640    65.7850    80.6760    74.6340    70.7620    22.9660   -27.5070 
  167.2500     2.2690    63.2910    73.5310    67.9980    66.1650    22.7320   -27.4860 
  167.3750     2.2740    64.1030    66.8760    61.7220    61.4630    22.5530   -27.3830 
  167.5000     2.2770    66.2190    61.6470    56.6660    58.2600    22.4580   -27.1820 
  167.6250     2.2790    66.5090    58.8080    53.5950    57.4980    22.4350   -26.8990 
  167.7500     2.2820    66.0670    59.1460    53.1330    58.7530    22.4210   -26.5480 
  167.8750     2.2860    68.5420    63.5420    56.1830    61.6830    22.4770   -26.2120 
  168.0000     2.2850    70.1850    70.8490    62.0880    67.4410    22.7750   -25.9090 
  168.1250     2.2740    66.5990    79.6730    69.9530    74.6700    23.4560   -25.6060 
  168.2500     2.2590    58.9310    87.8520    78.0320    81.3860    24.3370   -25.3550 
  168.3750     2.2540    54.1170    92.3320    83.4270    86.0420    24.9440   -25.1660 
  168.5000     2.2630    54.1180    92.7950    85.1560    86.6190    25.0880   -24.9960 
  168.6250     2.2780    56.5180    90.4960    83.9370    84.1650    24.8970   -24.8480 
  168.7500     2.2920    58.4540    87.2360    81.3320    81.2500    24.5800   -24.7350 
  168.8750     2.2990    60.0950    84.2460    78.5790    79.0730    24.4310   -24.6150 
  169.0000     2.3030    62.5160    81.9180    76.2660    77.5440    24.3870   -24.4860 
  169.1250     2.3060    66.0480    80.5570    74.7560    76.6470    24.3760   -24.3980 
  169.2500     2.3090    68.0760    80.5710    74.4790    76.9030    24.3670   -24.3400 
  169.3750     2.3070    66.6510    82.6820    76.1960    78.2010    24.3700   -24.2940 
  169.5000     2.3000    64.3450    86.8100    79.9410    77.6160    24.3930   -24.2960 
  169.6250     2.2860    62.3830    92.8930    85.7710    84.0270    24.4130   -24.3210 
  169.7500     2.2690    60.5930   100.5580    93.4360    98.9430    24.4170   -24.3800 
  169.8750     2.2560    58.3940   109.1520   102.4080    99.5330    24.4220   -24.4920 
  170.0000     2.2460    56.1600   117.6010   111.5410    95.9250    24.4720   -24.6520 
  170.1250     2.2380    57.1240   124.9710   119.9080   102.1670    24.5370   -24.8360 
  170.2500     2.2300    62.3810   129.7930   126.1890   117.4880    24.5730   -25.0290 
  170.3750     2.2270    67.2590   127.9790   126.5860   123.5200    24.5550   -25.2310 
  170.5000     2.2290    68.6660   117.4840   118.5210   120.0170    24.5040   -25.4270 
  170.6250     2.2350    66.6800    99.3510   102.1290   109.1580    24.4510   -25.6180 
  170.7500     2.2460    63.9370    78.7500    82.1390    89.1750    24.4090   -25.8130 
  170.8750     2.2610    61.3120    62.5390    65.6340    55.1450    24.2760   -26.0300 
  171.0000     2.2810    59.3990    52.9700    55.2960    29.1890    23.9750   -26.2870 
  171.1250     2.3030    58.0980    50.3390    51.3950    18.4740    23.6060   -26.5940 
  171.2500     2.3180    56.4940    54.3740    53.7680    20.2270    23.5010   -26.9380 
  171.3750     2.3050    56.8190    65.5790    63.5500    47.6100    23.8790   -27.3330 
  171.5000     2.2750    57.2150    81.7960    79.3170    97.0390    24.2640   -27.7730 
  171.6250     2.2490    55.2730   100.5840    98.8340   123.1240    24.4110   -28.2680 
  171.7500     2.2410    54.4570   118.1050   117.6030   117.5440    24.4090   -28.8090 
  171.8750     2.2460    55.9830   130.5200   130.4630   111.7960    24.4010   -29.3800 
  172.0000     2.2500    56.5160   139.9560   139.0970   112.7020    24.4520   -29.9630 
  172.1250     2.2510    54.5300   150.2830   147.4860   114.3260    24.5330   -30.5610 
  172.2500     2.2510    54.1700   164.2750   158.6030   121.6960    24.5850   -31.1550 
  172.3750     2.2500    55.8210   182.7370   173.2720   155.3410    24.6000   -31.7370 
  172.5000     2.2440    55.3890   203.3550   189.4380   188.1420    24.6170   -32.3070 
  172.6250     2.2370    53.7680   224.2530   205.4560   199.7970    24.6490   -32.8850 
