~V
VERS. 2.00: Ver 2.00
~W
STRT.M 53.0000:
STOP.M 246.0000:
STEP.M 0.1250:
NULL. -999.2500:
UWI. F10192:
~C
DEPT.M :
DEN.GM/CC :
GR.API :
RML.OHMM :
RI. :
RXO.OHMM :
CALI.CM :
SP.MV :
~A
# ...
  109.2500     2.1800    74.1650     8.8720     6.8370     8.7620    24.1690   -26.5910 
  109.3750     2.1820    72.0890     8.9690     6.8440     8.9680    24.1760   -26.6570 
  109.5000     2.1770    68.4690     9.2040     6.9660     9.6940    24.1600   -26.7230 
  109.6250     2.1690    64.8440     9.4850     7.1560    10.0350    24.1370   -26.7580 
  109.7500     2.1650    62.5240     9.6990     7.3430    10.0380    24.1250   -26.7700 
  109.8750     2.1650    62.8090     9.7970     7.4720     9.8910    24.1230   -26.7700 
  110.0000     2.1690    66.0730     9.7910     7.5290     9.7470    24.1230   -26.7750 
  110.1250     2.1740    68.6830     9.7390     7.5380     9.7000    24.1230   -26.7460 
  110.2500     2.1790    69.0440     9.7180     7.5490     9.9510    24.1250   -26.6250 
  110.3750     2.1840    68.3750     9.7480     7.5920    10.1630    24.1330   -26.4680 
  110.5000     2.1870    68.6590     9.8010     7.6610    10.2730    24.1470   -26.2690 
  110.6250     2.1860    68.8410     9.8260     7.7260    10.3790    24.1460   -25.9950 
  110.7500     2.1780    65.3510     9.7650     7.7390    10.5780    24.1980   -25.5810 
  110.8750     2.1670    62.8830     9.6220     7.6850    10.8040    24.3250   -25.0700 
  111.0000     2.1640    64.5860     9.4220     7.5730    10.6400    24.4390   -24.4580 
  111.1250     2.1770    68.8820     9.2040     7.4260     9.9800    24.3270   -23.7430 
  111.2500     2.2020    72.5240     8.9860     7.2630     9.2600    24.1640   -22.8990 
  111.3750     2.2190    73.7220     8.7590     7.0890     8.9980    24.1550   -21.9630 
  111.5000     2.2280    73.2040     8.4970     6.8900     8.9220    24.3200   -21.0190 
  111.6250     2.2370    72.0710     8.1800     6.6540     8.5910    24.4570   -20.1170 
  111.7500     2.2550    76.8870     7.8000     6.3700     7.7880    24.4540   -19.3180 
  111.8750     2.2690    86.4400     7.3940     6.0640     7.0190    24.4250   -18.6160 
  112.0000     2.2760    95.1510     7.0050     5.7640     6.3450    24.3910   -17.9960 
  112.1250     2.2800   100.0430     6.6900     5.5080     6.0200    24.2700   -17.4620 
  112.2500     2.2850    99.4070     6.5660     5.3760     5.8810    24.2300   -17.1330 
  112.3750     2.2900    95.3800     6.6910     5.4180     5.8670    24.2710   -16.9950 
  112.5000     2.2880    90.5620     7.0830     5.6680     5.9980    24.3270   -16.9770 
  112.6250     2.2760    86.7350     7.6650     6.1040     6.2150    24.2840   -17.0230 
  112.7500     2.2510    82.0230     8.2240     6.6100     6.8510    24.1590   -17.0410 
  112.8750     2.2230    77.1580     8.5190     6.9760     7.9340    24.0880   -16.9800 
  113.0000     2.2130    75.9720     8.4630     7.0790     8.6540    24.2040   -16.8320 
  113.1250     2.2360    77.7420     8.1550     6.9360     8.2830    24.3600   -16.6020 
  113.2500     2.2910    79.0650     7.8310     6.6840     7.2490    24.3700   -16.3040 
  113.3750     2.3580    81.0280     7.6630     6.4770     6.9290    24.3330   -15.9610 
  113.5000     2.4170    85.4770     7.6530     6.3540     8.4280    24.3490   -15.5900 
  113.6250     2.4440    89.9650     7.6890     6.2720    11.0650    24.3590   -15.2530 
  113.7500     2.4120    91.6280     7.5660     6.1220    10.3130    24.2990   -15.0710 
  113.8750     2.3540    92.2180     7.2440     5.8610     7.5470    24.2480   -15.0880 
  114.0000     2.3090    93.3730     6.8690     5.5640     6.1460    24.2360   -15.3150 
  114.1250     2.2930    94.7390     6.7210     5.3980     5.9370    24.2530   -15.7350 
  114.2500     2.3100    93.8520     7.2120     5.6320     6.2930    24.2610   -16.2580 
  114.3750     2.3500    90.1890     8.4170     6.3660     7.1000    24.2500   -16.8730 
  114.5000     2.4030    85.0020    10.2610     7.6390     9.1410    24.2200   -17.5980 
  114.6250     2.4500    82.1660    12.4090     9.3250    13.2920    24.1720   -18.4330 
  114.7500     2.4570    81.9990    14.0970    10.9460    19.4520    24.0970   -19.4090 
  114.8750     2.4150    80.3780    14.6660    11.8250    21.3360    24.0070   -20.4530 
  115.0000     2.3390    77.3150    13.9550    11.6340    18.5980    23.9080   -21.4870 
  115.1250     2.2600    75.5300    12.4200    10.6070    13.3650    23.7420   -22.4790 
  115.2500     2.2060    74.1790    10.8650     9.3380    10.5470    23.6550   -23.4180 
  115.3750     2.1730    70.3920     9.7890     8.3020     9.7030    23.6980   -24.2490 
  115.5000     2.1540    68.3930     9.2410     7.6110     9.5320    23.7260   -24.9480 
  115.6250     2.1450    71.5550     9.0870     7.2270     9.1460    23.6240   -25.4820 
  115.7500     2.1490    75.8260     9.1430     7.0750     8.8030    23.4880   -25.7430 
  115.8750     2.1630    77.4470     9.1890     7.0000     8.8350    23.4760   -25.8120 
  116.0000     2.1780    78.0650     9.1190     6.9200     9.0210    23.6070   -25.7800 
  116.1250     2.1920    78.1000     8.9430     6.8080     9.0650    23.8090   -25.6770 
  116.2500     2.2080    77.2650     8.8670     6.7610     8.8070    24.0200   -25.5020 
  116.3750     2.2300    75.9650     9.1730     6.9350     8.6620    24.2570   -25.2840 
  116.5000     2.2580    76.2060    10.0770     7.4760     8.8200    24.4210   -25.0470 
  116.6250     2.2960    77.1880    11.6260     8.4750     9.4490    24.3820   -24.8230 
  116.7500     2.3510    77.2370    13.5880     9.9160    11.4490    24.0410   -24.6720 
  116.8750     2.4050    76.0620    15.2110    11.3310    15.7160    23.8240   -24.5760 
  117.0000     2.4150    74.5700    15.7370    12.1000    18.9090    23.8470   -24.5390 
  117.1250     2.3470    76.0090    14.8040    11.7750    16.0680    23.9490   -24.5790 
  117.2500     2.2410    80.3490    12.7740    10.4590    11.4720    23.9340   -24.7020 
  117.3750     2.1630    82.2390    10.7630     8.9720     9.7770    23.8790   -24.8750 
  117.5000     2.1260    78.7790     9.3170     7.7450     9.4920    23.7450   -25.0470 
  117.6250     2.1160    72.4560     8.5550     6.9350     9.4790    23.5760   -25.1710 
  117.7500     2.1140    72.5790     8.3930     6.5730     9.3190    23.4600   -25.2500 
  117.8750     2.1130    78.5790     8.4900     6.4820     9.1680    23.4390   -25.2960 
  118.0000     2.1150    84.0030     8.6520     6.5470     9.1960    23.4860   -25.2680 
  118.1250     2.1190    84.8930     8.7590     6.6680     9.3120    23.5650   -25.1340 
  118.2500     2.1260    82.8040     8.7740     6.7840     9.3720    23.6480   -24.8750 
  118.3750     2.1360    80.4140     8.7660     6.8960     9.4110    23.7020   -24.5360 
  118.5000     2.1470    77.5890     8.8000     7.0330     9.3180    23.7300   -24.1610 
  118.6250     2.1560    73.9620     8.9190     7.2240     9.2780    23.7200   -23.7730 
  118.7500     2.1630    70.0850     9.1060     7.4680     9.7440    23.6640   -23.3050 
  118.8750     2.1730    67.9270     9.2420     7.6810    10.2180    23.6060   -22.7080 
  119.0000     2.1910    69.9150     9.2030     7.7600    10.3110    23.5540   -21.9510 
  119.1250     2.2170    75.4580     8.9090     7.6210     9.9000    23.5090   -21.0690 
  119.2500     2.2460    82.5340     8.3390     7.2140     8.8160    23.4330   -20.1670 
  119.3750     2.2660    89.9220     7.6620     6.6690     7.5880    23.3380   -19.2960 
  119.5000     2.2720    96.3620     7.0360     6.1110     6.7320    23.2990   -18.4520 
  119.6250     2.2650    98.9810     6.5830     5.6550     6.1940    23.2940   -17.6640 
  119.7500     2.2540    97.2760     6.3810     5.3910     6.3430    23.2760   -16.9880 
  119.8750     2.2470    94.6510     6.3580     5.2950     6.6230    23.2520   -16.4340 
  120.0000     2.2480    91.5350     6.4520     5.3390     6.8440    23.2670   -16.0170 
  120.1250     2.2580    87.7060     6.6420     5.4990     7.2990    23.3450   -15.6980 
  120.2500     2.2820    83.6670     7.0090     5.8170     7.4740    23.4640   -15.4420 
  120.3750     2.3200    81.9890     7.6080     6.3160     7.3790    23.5580   -15.2010 
