~V
VERS. 2.00: Ver 2.00
~W
STRT.M 50.0000:
STOP.M 237.0000:
STEP.M 0.1250:
NULL. -999.2500:
UWI. F10163:
~C
DEPT.M :
DEN.GM/CC :
GR.API :
RML.OHMM :
RI. :
RXO.OHMM :
CALI.CM :
SP.MV :
~A
   50.0000  -999.2500  -999.2500  -999.2500  -999.2500  -999.2500  -999.2500   115.1670 
   50.1250  -999.2500  -999.2500  -999.2500  -999.2500  -999.2500  -999.2500   114.8230 
   50.2500  -999.2500  -999.2500  -999.2500  -999.2500  -999.2500  -999.2500   114.4800 
   50.3750  -999.2500  -999.2500  -999.2500  -999.2500  -999.2500  -999.2500   114.1370 
   50.5000  -999.2500  -999.2500  -999.2500  -999.2500  -999.2500  -999.2500   113.7940 
   50.6250  -999.2500  -999.2500  -999.2500  -999.2500  -999.2500  -999.2500   113.4590 
   50.7500  -999.2500  -999.2500  -999.2500  -999.2500  -999.2500  -999.2500   113.1310 
   50.8750  -999.2500  -999.2500  -999.2500  -999.2500  -999.2500  -999.2500   112.7890 
   51.0000  -999.2500  -999.2500  -999.2500  -999.2500  -999.2500  -999.2500   112.4390 
   51.1250  -999.2500  -999.2500  -999.2500  -999.2500  -999.2500  -999.2500   112.0920 
   51.2500  -999.2500  -999.2500  -999.2500  -999.2500  -999.2500  -999.2500   111.7400 
   51.3750  -999.2500  -999.2500  -999.2500  -999.2500  -999.2500  -999.2500   111.4060 
   51.5000     2.0720    48.1430     0.2380     0.1280     4.6370    25.3030   111.0710 
   51.6250     2.0720    48.1430     0.2380     0.1280     4.6370    25.3030   110.6490 
   51.7500     2.0690    46.4060     0.3060     0.1340     4.6750    25.3030   110.1160 
   51.8750     2.0640    45.6840     0.3480     0.1400     4.4990    25.3030   109.4740 
   52.0000     2.0570    45.3890     0.3300     0.1480     4.3140    25.3030   108.7280 
   52.1250     2.0490    44.6230     0.2410     0.1590     4.1480    25.3030   107.9160 
   52.2500     2.0430    44.3180     0.1350     0.1740     4.0940    25.3030   107.0400 
   52.3750     2.0400    44.2230     0.0530     0.1880     4.0320    25.3030   106.1140 
   52.5000     2.0430    42.8210     0.0140     0.1970     3.9760    25.3030   105.1630 
   52.6250     2.0510    39.8490     0.0250     0.1930     3.9070    25.3020   104.2800 
   52.7500     2.0590    39.0290     0.0800     0.1790     3.8370    25.2960   103.4940 
   52.8750     2.0630    40.1040     0.1690     0.1610     3.6710    25.2580   102.8410 
   53.0000     2.0620    39.7210     0.2580     0.1470     3.4050    25.2390   102.3560 
   53.1250     2.0610    37.9160     0.2930     0.1400     3.1020    25.2300   102.0430 
   53.2500     2.0640    38.7040     0.2630     0.1370     2.6810    25.2290   101.9190 
   53.3750     2.0730    43.9280     0.1980     0.1330     2.0250    25.1930   101.9650 
   53.5000     2.0860    48.5640     0.1400     0.1270     1.3320    25.1050   102.0630 
   53.6250     2.1030    47.2600     0.1200     0.1230     0.8600    24.9630   102.0980 
   53.7500     2.1180    44.8050     0.1220     0.1250     0.6130    24.7940   102.0230 
   53.8750     2.1240    43.1730     0.1270     0.1340     0.5180    24.6150   101.8110 
   54.0000     2.1170    41.6870     0.1260     0.1460     0.4920    24.5430   101.4520 
   54.1250     2.0970    39.3670     0.1180     0.1570     0.5160    24.5320   100.9090 
   54.2500     2.0740    37.1470     0.1050     0.1660     0.5660    24.5380   100.1830 
   54.3750     2.0540    34.8080     0.0900     0.1720     0.6570    24.5740    99.2820 
   54.5000     2.0400    32.4510     0.0810     0.1730     0.7370    24.6460    98.3090 
   54.6250     2.0370    33.5600     0.0820     0.1690     0.8010    24.7750    97.3950 
   54.7500     2.0430    36.0050     0.0850     0.1640     0.7390    24.8360    96.5850 
   54.8750     2.0550    37.6440     0.0790     0.1590     0.7080    24.8780    95.8890 
   55.0000     2.0690    38.9120     0.0580     0.1570     0.7580    24.9050    95.2880 
   55.1250     2.0740    40.5890     0.0290     0.1590     0.7120    24.8560    94.7640 
   55.2500     2.0650    42.2330     0.0140     0.1640     0.6400    24.7160    94.3290 
   55.3750     2.0470    44.3700     0.0250     0.1670     0.6930    24.4830    93.9720 
   55.5000     2.0240    46.9610     0.0590     0.1650     0.8800    24.2280    93.7310 
   55.6250     2.0060    47.3480     0.1050     0.1600     1.0560    23.9040    93.5850 
   55.7500     1.9980    45.9480     0.1440     0.1570     1.1760    23.6210    93.4750 
   55.8750     1.9980    44.6270     0.1620     0.1600     1.2630    23.4000    93.4380 
   56.0000     2.0010    43.8120     0.1520     0.1710     1.3430    23.3000    93.5300 
   56.1250     1.9980    42.8710     0.1180     0.1840     1.4110    23.2330    93.7540 
   56.2500     1.9900    42.9870     0.0830     0.1920     1.4490    23.2230    94.0400 
   56.3750     1.9780    44.1590     0.0550     0.1910     1.4230    23.2210    94.3520 
   56.5000     1.9690    44.3920     0.0360     0.1870     1.3840    23.2210    94.6220 
   56.6250     1.9660    44.4790     0.0250     0.1830     1.3700    23.2220    94.8300 
   56.7500     1.9700    45.8780     0.0200     0.1830     1.3570    23.2330    95.0530 
   56.8750     1.9770    47.4710     0.0230     0.1880     1.3330    23.2920    95.2530 
   57.0000     1.9860    48.6560     0.0340     0.1940     1.3160    23.3790    95.3670 
   57.1250     1.9970    49.6010     0.0450     0.1960     1.3230    23.3870    95.4100 
   57.2500     2.0110    50.2010     0.0470     0.1940     1.3700    23.3210    95.3950 
   57.3750     2.0260    49.2250     0.0410     0.1900     1.4020    22.9370    95.3430 
   57.5000     2.0410    47.9030     0.0390     0.1900     1.3390    22.4160    95.2390 
   57.6250     2.0510    47.3630     0.0580     0.1920     1.1490    22.7850    94.9470 
   57.7500     2.0560    45.6240     0.0890     0.1910     0.9670    23.5400    94.3360 
   57.8750     2.0620    43.3920     0.1200     0.1830     0.8480    24.1040    93.2710 
   58.0000     2.0830    42.1710     0.1350     0.1640     0.7850    24.2740    91.6070 
   58.1250     2.1420    43.0660     0.1190     0.1410     0.7370    24.3560    89.0330 
   58.2500     2.2460    44.5360     0.0800     0.1170     0.6770    24.4160    85.4150 
   58.3750     2.3820    44.8370     0.0440     0.0950     0.6100    24.5030    80.5110 
   58.5000     2.5100    43.2930     0.0250     0.0740     0.5840    24.5470    74.0480 
   58.6250     2.5460    41.4660     0.0230     0.0610     0.6120    24.6370    65.5150 
   58.7500     2.4620    42.9670     0.0360     0.0670     0.7580    24.6370    55.1820 
   58.8750     2.2860    47.2210     0.0770     0.1190     1.2370    24.3840    43.3880 
   59.0000     2.0790    50.4780     0.1760     0.2710     2.2520    24.4190    30.8650 
   59.1250     1.8930    52.0370     0.4400     0.6640     4.1910    26.8440    18.5120 
   59.2500     1.7570    52.9730     1.0100     1.4020     5.2460    30.0510     6.9580 
   59.3750     1.6910    54.7520     1.9910     2.5120     5.9980    30.0400    -3.3650 
   59.5000     1.7030    57.7490     3.0780     3.7430     7.1020    26.6220   -12.0550 
   59.6250     1.7940    59.9620     3.5990     4.6400     7.4790    24.9800   -18.5320 
   59.7500     1.9190    60.8450     3.7590     5.1830     7.7000    23.9700   -23.0010 
   59.8750     2.0390    61.1540     3.8970     5.5390     8.1200    23.6640   -25.6390 
   60.0000     2.1240    62.7660     4.1300     5.8380     8.4920    23.3990   -27.0200 
   60.1250     2.1630    66.4160     4.4460     6.1200     8.6670    23.0010   -27.6920 
   60.2500     2.1740    70.5680     4.7770     6.3870     9.0590    22.6980   -28.0980 
   60.3750     2.1730    73.0660     5.0750     6.6050     9.5690    22.7480   -28.3980 
   60.5000     2.1670    72.1090     5.3240     6.7160     9.9670    22.7450   -28.6800 
   60.6250     2.1610    73.0720     5.4790     6.6480     9.9330    22.7750   -28.8790 
   60.7500     2.1600    79.0900     5.4540     6.4380     9.4280    22.8380   -28.9670 
   60.8750     2.1640    85.5860     5.1830     6.1500     8.7370    22.8660   -29.0240 
   61.0000     2.1700    86.7540     4.8080     5.8780     8.3240    22.8690   -29.0770 
   61.1250     2.1750    82.6930     4.6930     5.7680     8.3610    22.8380   -29.1810 
