~V
VERS. 2.00: Ver 2.00
~W
STRT.M 59.0000:
STOP.M 216.0000:
STEP.M 0.1250:
NULL. -999.2500:
UWI. F10129:
~C
DEPT.M :
GR.API :
RML.OHMM :
RI. :
RXO.OHMM :
CALI.CM :
DEN.GM/CC :
SP.MV :
~A
# ...
   81.5000    86.5630     7.5670     5.7420     6.6640    24.6890     2.2560   -10.7580 
   81.6250    86.3340     7.5820     5.7860     6.4830    24.6460     2.2790   -12.5470 
   81.7500    82.1460     7.7280     5.8990     7.0320    24.6320     2.2900   -14.4900 
   81.8750    74.8460     8.0240     6.1110     7.7790    24.6150     2.2810   -16.4280 
   82.0000    69.5560     8.4070     6.3990     8.4230    24.6090     2.2530   -18.2810 
   82.1250    69.3730     8.7370     6.6770     9.0180    24.6750     2.2090   -20.0640 
   82.2500    68.5660     8.9040     6.8460     9.1720    24.8060     2.1610   -21.7980 
   82.3750    64.0950     8.8820     6.8670     8.8310    24.9210     2.1140   -23.3750 
   82.5000    59.9110     8.7240     6.7610     8.4210    24.9850     2.0720   -24.6360 
   82.6250    58.8540     8.5340     6.5940     8.1630    24.9920     2.0400   -25.4260 
   82.7500    58.1930     8.4100     6.4480     7.7550    24.8750     2.0220   -25.8280 
   82.8750    58.1360     8.3800     6.3570     7.2820    24.6680     2.0210   -25.8860 
   83.0000    61.2700     8.4290     6.3260     7.1550    24.4550     2.0400   -25.6870 
   83.1250    66.9320     8.5090     6.3420     7.5630    24.3740     2.0740   -25.3460 
   83.2500    69.7700     8.5530     6.3650     8.0080    24.3850     2.1100   -24.9920 
   83.3750    69.1390     8.5290     6.3700     8.3810    24.3960     2.1400   -24.6910 
   83.5000    67.7640     8.4460     6.3470     8.5740    24.3850     2.1620   -24.4590 
   83.6250    68.5300     8.4140     6.3380     8.6510    24.3650     2.1760   -24.2590 
   83.7500    71.1220     8.5870     6.4440     8.6400    24.3930     2.1890   -24.0120 
   83.8750    72.4370     9.0780     6.7660     8.6630    24.4770     2.2020   -23.6770 
   84.0000    70.5410     9.8710     7.3440     8.7160    24.5380     2.2210   -23.1860 
   84.1250    67.5160    10.7170     8.0900     9.5630    24.6130     2.2480   -22.3480 
   84.2500    67.3320    11.2030     8.6830    12.2400    24.7540     2.2790   -21.1520 
   84.3750    70.3890    11.0460     8.8160    15.0560    24.9360     2.3050   -19.6850 
   84.5000    74.8480    10.2240     8.3670    12.1120    25.0100     2.3160   -18.0720 
   84.6250    81.8190     8.9940     7.4970     7.5270    24.9520     2.3070   -16.4660 
   84.7500    90.1010     7.8570     6.6290     5.8820    24.9370     2.2870   -15.0520 
   84.8750    94.2430     7.0860     5.9790     5.8670    24.9440     2.2670   -13.9220 
   85.0000    90.5370     6.7740     5.6310     6.6120    24.9610     2.2540   -13.1220 
   85.1250    82.0510     6.9050     5.6080     6.5390    24.9710     2.2500   -12.7810 
   85.2500    76.1490     7.2370     5.7660     6.1530    25.0200     2.2470   -12.8640 
   85.3750    74.7340     7.5680     5.9720     6.3610    25.0790     2.2390   -13.1970 
   85.5000    75.2140     7.7110     6.0760     7.0310    25.1050     2.2280   -13.5330 
   85.6250    78.0560     7.5240     5.9390     7.4020    25.0610     2.2140   -13.6770 
   85.7500    83.5150     7.1630     5.6510     7.3150    24.9640     2.2040   -13.5500 
   85.8750    90.8050     6.8860     5.3920     6.8230    24.8670     2.2080   -13.1820 
   86.0000    95.4320     6.9900     5.3540     6.3100    24.8400     2.2390   -12.7170 
   86.1250    91.5910     7.8080     5.7580     6.7270    24.8740     2.3020   -12.3370 
   86.2500    82.8660     9.2000     6.5940     9.3120    24.9260     2.3700   -12.0900 
   86.3750    74.5920    10.8180     7.7380    15.8490    24.9240     2.4100   -12.0640 
   86.5000    70.8640    12.1200     8.8440    17.1430    24.8620     2.4000   -12.3510 
   86.6250    71.9290    12.4710     9.3290    12.0280    24.7870     2.3340   -13.0060 
   86.7500    72.3870    11.9900     9.1380     8.9700    24.7920     2.2550   -13.9680 
   86.8750    71.7890    11.0840     8.5650     8.1220    24.7990     2.1900   -15.1990 
   87.0000    72.7940    10.2560     8.0000     8.0090    24.7400     2.1530   -16.5510 
   87.1250    76.0690     9.8920     7.7330     8.3540    24.7010     2.1380   -17.7780 
   87.2500    78.8570     9.9110     7.7340     8.8650    24.8020     2.1300   -18.7710 
   87.3750    82.3780    10.1600     7.9030     8.7870    24.8760     2.1260   -19.5190 
   87.5000    86.6700    10.5070     8.1540     8.6420    24.7070     2.1260   -20.0510 
   87.6250    86.5840    10.9060     8.4500     8.6500    24.3860     2.1330   -20.4120 
   87.7500    83.3540    11.3350     8.7690     9.0340    24.2450     2.1470   -20.6780 
   87.8750    82.4810    11.7560     9.0870     9.5130    24.2460     2.1670   -20.8360 
   88.0000    83.5050    12.0850     9.3470     9.8440    24.2990     2.1900   -20.9130 
   88.1250    81.0860    12.1680     9.4350     9.8940    24.3810     2.2100   -20.9820 
   88.2500    76.6080    11.9770     9.3160     9.9410    24.5580     2.2230   -21.0600 
   88.3750    72.8470    11.5510     9.0100     9.6510    24.6850     2.2240   -21.1290 
   88.5000    69.4850    10.9970     8.5980     9.4200    24.6870     2.2190   -21.2140 
   88.6250    68.5830    10.4530     8.1820     9.2520    24.6580     2.2090   -21.3310 
   88.7500    71.7490    10.0110     7.8350     9.1140    24.6480     2.1960   -21.4680 
   88.8750    77.0890     9.6970     7.5850     9.1520    24.6620     2.1790   -21.6200 
   89.0000    79.9180     9.5060     7.4300     9.3030    24.6680     2.1590   -21.7820 
   89.1250    78.6760     9.4390     7.3720     9.0840    24.6530     2.1460   -21.9560 
   89.2500    77.4290     9.4630     7.3860     8.5820    24.5980     2.1450   -22.1540 
   89.3750    77.2590     9.5520     7.4620     8.5680    24.4980     2.1550   -22.3760 
   89.5000    77.2360     9.6630     7.5730     8.8120    24.4090     2.1670   -22.5850 
   89.6250    76.6550     9.7210     7.6680     9.0200    24.4150     2.1700   -22.7320 
   89.7500    75.4430     9.6760     7.7030     9.1260    24.4460     2.1610   -22.8400 
   89.8750    74.3770     9.5210     7.6570     9.2540    24.4390     2.1450   -22.9330 
   90.0000    73.9880     9.2990     7.5380     9.3110    24.3730     2.1270   -22.9970 
   90.1250    74.1160     9.1080     7.3980     8.9470    24.3290     2.1080   -22.9330 
   90.2500    74.1690     9.0180     7.3010     8.6050    24.3480     2.0900   -22.7420 
   90.3750    75.0490     9.0210     7.2540     8.3580    24.3930     2.0730   -22.4140 
   90.5000    76.8810     9.0300     7.2090     8.3800    24.3810     2.0620   -21.8670 
   90.6250    77.2660     8.8690     7.0470     8.8280    24.2570     2.0690   -20.9770 
   90.7500    78.6550     8.4600     6.7000     9.2020    24.0550     2.0950   -19.7440 
   90.8750    85.1570     7.8340     6.1820     8.4830    23.9400     2.1370   -18.2180 
   91.0000    94.4980     7.1360     5.6020     6.8980    24.1630     2.1880   -16.5510 
   91.1250   101.9910     6.6250     5.1480     5.4010    24.5920     2.2330   -15.0570 
   91.2500   105.4130     6.4640     4.9290     5.0620    24.8550     2.2620   -13.9320 
   91.3750   105.0030     6.7160     4.9990     5.2470    24.9150     2.2690   -13.2870 
   91.5000   101.6310     7.3350     5.3560     6.7430    24.8920     2.2550   -13.2530 
   91.6250    96.6840     8.1690     5.9570    10.0760    24.8620     2.2300   -13.9940 
   91.7500    91.8860     8.9380     6.6030    13.0030    24.9030     2.2080   -15.3160 
   91.8750    84.8190     9.4660     7.1280    11.5980    24.8710     2.1950   -17.0260 
   92.0000    75.2650     9.6910     7.4340     9.5690    24.7350     2.1860   -18.8950 
   92.1250    68.5190     9.6520     7.5050     8.8190    24.5940     2.1740   -20.6420 
   92.2500    67.7470     9.5220     7.4630     8.4930    24.5580     2.1530   -22.0530 
   92.3750    70.4570     9.3870     7.3820     8.4710    24.6340     2.1300   -22.9930 
   92.5000    73.3200     9.2800     7.2970     8.6680    24.7010     2.1130   -23.3820 
   92.6250    76.1720     9.2110     7.2240     8.6560    24.7500     2.1120   -23.1710 
