~V
VERS. 2.00: Ver 2.00
~W
STRT.M 50.0000:
STOP.M 207.0000:
STEP.M 0.1250:
NULL. -999.2500:
UWI. F10134:
~C
DEPT.M :
SP.MV :
DEN.GM/CC :
GR.API :
RML.OHMM :
RI. :
RXO.OHMM :
CALI.CM :
~A
# ...
  128.7500     6.1080     2.2200    65.8300    21.7530    15.8640    15.3250    27.0140 
  128.8750     6.2770     2.3250    62.2030    24.8100    17.7750    18.4460    26.9140 
  129.0000     6.4560     2.4450    59.6410    28.0400    19.9910    26.1060    26.8380 
  129.1250     6.6170     2.5240    59.3680    30.2280    21.7700    29.4310    26.8090 
  129.2500     6.7340     2.5450    58.9240    30.8200    22.5810    25.1280    26.7770 
  129.3750     6.8010     2.5270    57.3460    29.9600    22.3680    19.6310    26.7150 
  129.5000     6.8460     2.5000    56.2960    28.2910    21.4680    17.3950    26.6390 
  129.6250     6.9090     2.4830    57.6870    26.5770    20.3650    17.0930    26.5820 
  129.7500     7.0190     2.4790    58.5230    25.3120    19.4730    16.3770    26.5230 
  129.8750     7.1750     2.4890    57.5910    24.6500    18.9500    15.5790    26.4540 
  130.0000     7.3560     2.5120    55.7290    24.5640    18.8130    15.5700    26.3980 
  130.1250     7.5250     2.5450    54.1480    24.9710    19.0290    18.3590    26.3780 
  130.2500     7.6640     2.5770    53.9970    25.5620    19.4040    21.5430    26.3710 
  130.3750     7.7780     2.5960    54.5550    26.1160    19.8030    21.4570    26.3590 
  130.5000     7.8740     2.5990    55.4710    26.4940    20.1360    19.4850    26.3460 
  130.6250     7.9650     2.5860    56.3530    26.6430    20.3560    18.0280    26.3390 
  130.7500     8.0550     2.5660    56.4310    26.6250    20.4720    17.9490    26.3360 
  130.8750     8.1340     2.5480    56.6320    26.4300    20.4640    18.2800    26.3370 
  131.0000     8.1790     2.5330    58.2910    26.0090    20.2870    18.8780    26.3380 
  131.1250     8.1600     2.5240    60.2590    25.2980    19.8790    18.8580    26.3360 
  131.2500     8.0820     2.5180    58.9560    24.4490    19.3400    17.5630    26.3340 
  131.3750     7.9590     2.5130    56.5510    23.7120    18.8390    16.2250    26.3380 
  131.5000     7.8140     2.5120    58.3250    23.3370    18.5590    15.5540    26.3430 
  131.6250     7.6650     2.5130    62.6890    23.4510    18.6250    15.7250    26.3400 
  131.7500     7.5200     2.5130    62.8520    23.7480    18.8480    16.3430    26.3340 
  131.8750     7.3790     2.5100    59.3550    23.8850    18.9840    17.1690    26.3210 
  132.0000     7.2340     2.5010    54.9620    23.6190    18.8330    18.2280    26.2740 
  132.1250     7.0950     2.4900    51.5910    22.9500    18.3620    17.4640    26.1850 
  132.2500     6.9550     2.4810    49.9950    22.3100    17.8690    15.4290    26.1620 
  132.3750     6.8280     2.4760    50.1020    22.0730    17.6340    13.6850    26.2760 
  132.5000     6.7260     2.4800    50.2910    22.4340    17.8260    14.7770    26.4700 
  132.6250     6.6630     2.4910    49.3210    23.3100    18.4450    17.9190    26.5960 
  132.7500     6.6330     2.5020    49.8850    24.1500    19.1110    19.8450    26.6300 
  132.8750     6.6380     2.5070    52.4450    24.4830    19.4530    20.3070    26.6350 
  133.0000     6.6850     2.5060    54.6320    24.0610    19.2440    21.3560    26.6440 
  133.1250     6.7920     2.5050    53.9710    23.0210    18.5250    21.2480    26.5910 
  133.2500     6.9440     2.5090    52.0280    22.0030    17.7470    16.2540    26.4080 
  133.3750     7.1290     2.5160    50.6240    21.4300    17.2200    12.2360    26.4600 
  133.5000     7.3180     2.5180    50.1020    21.4670    17.0900    12.2260    26.5930 
  133.6250     7.4860     2.5090    49.3300    22.0860    17.3780    13.6540    26.6660 
  133.7500     7.6160     2.4930    49.2880    22.9440    17.8850    15.3490    26.6980 
  133.8750     7.6990     2.4810    52.4570    23.8210    18.4710    16.3700    26.7440 
  134.0000     7.7430     2.4780    57.2880    24.5650    19.0220    15.7370    26.7890 
  134.1250     7.7810     2.4860    57.2080    25.1100    19.4680    14.5750    26.8030 
  134.2500     7.8360     2.5000    52.6920    25.5300    19.8330    14.5100    26.8000 
  134.3750     7.8930     2.5150    48.3300    25.8380    20.1250    14.8640    26.7960 
  134.5000     7.9230     2.5270    47.5710    26.0010    20.3150    15.2120    26.8080 
  134.6250     7.9030     2.5320    50.3000    25.9880    20.3540    14.6110    26.8750 
  134.7500     7.8410     2.5340    53.0830    25.8800    20.2910    14.2090    26.9720 
  134.8750     7.7450     2.5350    53.4890    25.7410    20.1740    14.6670    27.0460 
  135.0000     7.6200     2.5360    52.5110    25.6000    20.0400    16.9460    27.0770 
  135.1250     7.4820     2.5380    53.1400    25.4420    19.9020    19.8870    27.0660 
  135.2500     7.3430     2.5390    53.2360    25.2650    19.7670    18.1200    26.9870 
  135.3750     7.2330     2.5370    49.4730    25.0830    19.6380    16.3050    26.8210 
  135.5000     7.1690     2.5350    44.3550    24.9220    19.5200    14.7450    26.6170 
  135.6250     7.1420     2.5370    44.2520    24.7850    19.4110    14.0490    26.4260 
  135.7500     7.1350     2.5470    46.9940    24.6330    19.2940    15.1650    26.2450 
  135.8750     7.1460     2.5630    48.2710    24.4290    19.1480    16.8700    26.0910 
  136.0000     7.1780     2.5780    47.7990    24.1800    18.9880    16.8040    26.0050 
  136.1250     7.2190     2.5900    47.6520    24.0050    18.8900    15.9060    25.9960 
  136.2500     7.2580     2.5960    47.0470    24.0670    18.9390    15.4060    26.0260 
  136.3750     7.3050     2.5990    45.4650    24.4860    19.2000    16.0870    26.0840 
  136.5000     7.3710     2.6000    43.9710    25.2560    19.6860    18.2380    26.1630 
  136.6250     7.4450     2.5980    44.2210    26.1750    20.2960    20.2520    26.2530 
  136.7500     7.5150     2.5920    45.1670    26.8250    20.7750    20.4360    26.3590 
  136.8750     7.5710     2.5850    45.5890    26.9100    20.9160    19.2120    26.4560 
  137.0000     7.6050     2.5760    46.5670    26.3610    20.6370    17.9000    26.4910 
  137.1250     7.6030     2.5700    48.7500    25.3670    20.0130    16.8890    26.3850 
  137.2500     7.5850     2.5680    50.1250    24.4090    19.3500    15.8170    26.1430 
  137.3750     7.5540     2.5670    48.5660    23.8000    18.8680    15.2850    25.8210 
  137.5000     7.5220     2.5680    45.9850    23.6990    18.6970    15.5810    25.5250 
  137.6250     7.5200     2.5670    45.9220    24.1560    18.9190    16.3640    25.3770 
  137.7500     7.5340     2.5620    47.1980    24.9050    19.3940    17.3270    25.3270 
  137.8750     7.5370     2.5550    47.9530    25.6840    19.9680    18.0780    25.3130 
  138.0000     7.5010     2.5480    47.5770    26.2060    20.4370    18.1010    25.4110 
  138.1250     7.4100     2.5430    47.9200    26.1690    20.5540    17.4330    25.7780 
  138.2500     7.2820     2.5400    49.1330    25.6370    20.2980    17.2100    26.3450 
  138.3750     7.1400     2.5380    50.7120    24.7720    19.7360    17.4440    26.9560 
  138.5000     6.9940     2.5370    51.9670    23.8140    19.0280    17.3390    27.4660 
  138.6250     6.8510     2.5340    53.9490    23.0350    18.3910    16.3630    27.7370 
  138.7500     6.7170     2.5310    56.6500    22.5330    17.9450    15.8220    27.7400 
  138.8750     6.5930     2.5300    58.2470    22.3160    17.7120    15.3960    27.5610 
  139.0000     6.4860     2.5320    57.2600    22.3370    17.6580    15.7860    27.3410 
  139.1250     6.4070     2.5330    54.7300    22.4840    17.7100    21.9040    27.1830 
  139.2500     6.3550     2.5240    53.7680    22.5710    17.7320    31.8530    27.0700 
  139.3750     6.3350     2.4990    54.8310    22.4810    17.6430    39.1620    26.9300 
  139.5000     6.3480     2.4650    56.1930    22.1780    17.4150    41.5070    26.7230 
  139.6250     6.3900     2.4370    56.3650    21.6970    17.0620    33.4150    26.4950 
  139.7500     6.4420     2.4290    55.7120    21.1810    16.6770    23.1890    26.3430 
  139.8750     6.5120     2.4470    54.7020    20.7120    16.3200    17.9360    26.2800 
