~V
VERS. 2.00: Ver 2.00
~W
STRT.M 62.0000:
STOP.M 235.0000:
STEP.M 0.1250:
NULL. -999.2500:
UWI. F10157:
~C
DEPT.M :
SP.MV :
DEN.GM/CC :
GR.API :
RML.OHMM :
RI. :
RXO.OHMM :
CALI.CM :
~A
# ...
  174.5000    -2.1690     2.1580    60.0040   537.0570   517.1340   217.0080    25.0130 
  174.6250    -1.9810     2.1540    61.0960   520.5980   499.6770   321.9260    25.0350 
  174.7500    -1.7650     2.1470    63.7200   504.5550   483.2660   377.6700    25.0470 
  174.8750    -1.5120     2.1400    65.5660   492.9300   470.3350   370.1900    25.0480 
  175.0000    -1.2480     2.1370    63.7160   487.9300   461.2730   368.7910    25.0440 
  175.1250    -0.9700     2.1370    61.1060   484.3500   448.1470   409.2830    25.0350 
  175.2500    -0.7220     2.1400    60.7040   466.5260   416.3890   443.4840    25.0250 
  175.3750    -0.4770     2.1500    59.3030   422.1590   360.0490   448.2990    25.0060 
  175.5000    -0.2340     2.1750    55.0140   353.8490   290.0710   431.6560    24.9780 
  175.6250     0.0520     2.2210    51.8050   280.7400   227.9060   355.7950    24.9400 
  175.7500     0.3290     2.2740    52.5380   221.9610   183.4140   223.2500    24.8950 
  175.8750     0.6180     2.3170    54.0850   183.6570   157.2290   120.0910    24.8470 
  176.0000     0.9110     2.3340    53.0720   164.8110   146.6080    79.6440    24.7970 
  176.1250     1.2260     2.3060    49.5490   162.7530   149.2370    91.9470    24.7740 
  176.2500     1.5300     2.2300    47.4500   169.1990   158.7050   119.0390    24.7920 
  176.3750     1.8270     2.1100    48.4170   178.8450   170.2190   198.0070    24.8500 
  176.5000     2.1060     1.9640    50.5370   186.8870   178.8330   226.9370    24.9350 
  176.6250     2.3810     1.8300    49.4080   191.0650   182.5080   119.5710    25.0320 
  176.7500     2.6530     1.7450    45.7090   196.5960   187.2580    48.5750    25.1190 
  176.8750     2.9330     1.7470    42.9120   211.7920   200.3140    26.0090    25.1850 
  177.0000     3.2220     1.8590    42.9860   244.8150   227.3450    18.9570    25.2210 
  177.1250     3.5300     2.0750    44.2670   299.4900   269.6290    28.5760    25.2150 
  177.2500     3.8370     2.3090    44.8870   347.6510   301.2240    79.7670    25.1660 
  177.3750     4.1510     2.4930    44.2210   336.3300   276.3490   230.2190    25.0840 
  177.5000     4.4830     2.5860    43.3310   242.9970   189.1280   448.4930    24.9790 
  177.6250     4.8260     2.5600    43.8040   135.2060   105.0290   263.5150    24.9000 
  177.7500     5.1650     2.4640    45.0200    66.7250    54.0710   104.1390    24.8660 
  177.8750     5.4720     2.3560    46.7690    32.0390    27.5430    35.6490    24.8490 
  178.0000     5.7310     2.2770    50.4520    16.4980    14.7240    13.4240    24.8350 
  178.1250     5.9590     2.2350    56.2650    10.5720     9.4470     7.4020    24.8640 
  178.2500     6.1600     2.1970    59.3810     7.7850     7.0020     5.6510    24.9280 
  178.3750     6.3190     2.1400    58.1070     6.4800     5.9590     5.1660    25.0160 
  178.5000     6.4220     2.0690    55.3760     5.9910     5.6330     4.8210    25.1090 
  178.6250     6.4890     2.0210    52.9370     6.0170     5.7020     4.5430    25.1740 
  178.7500     6.5240     2.0220    50.4990     6.2420     5.9100     4.6100    25.2210 
  178.8750     6.5310     2.0710    49.1160     6.5360     6.1630     4.8940    25.2790 
  179.0000     6.5070     2.1470    49.1570     6.8280     6.4070     5.1860    25.3430 
  179.1250     6.4500     2.2040    49.5000     7.0420     6.5540     5.4540    25.3660 
  179.2500     6.3620     2.2070    49.8460     7.1270     6.5590     5.4410    25.3660 
  179.3750     6.2580     2.1590    53.0300     7.0630     6.4320     5.5070    25.3660 
  179.5000     6.1270     2.0860    57.0040     6.8790     6.2360     5.8380    25.3660 
  179.6250     5.9550     2.0250    54.5960     6.6470     6.0750     5.4360    25.3660 
  179.7500     5.7380     1.9950    48.9700     6.4630     6.0170     5.0350    25.3650 
  179.8750     5.5010     2.0080    48.8680     6.3760     6.0830     4.8770    25.3630 
  180.0000     5.2560     2.0590    57.4430     6.3990     6.2650     4.8550    25.3620 
  180.1250     5.0290     2.1250    67.9430     6.5240     6.4920     4.9010    25.3610 
  180.2500     4.8310     2.1790    72.5480     6.7200     6.6070     5.0670    25.3600 
  180.3750     4.6510     2.2010    70.4230     6.8180     6.6290     5.1950    25.3610 
  180.5000     4.4610     2.1810    62.7010     6.7690     6.5370     5.0990    25.3610 
  180.6250     4.2490     2.1250    53.1720     6.5980     6.3360     4.9990    25.3620 
  180.7500     3.9790     2.0640    47.4980     6.4070     6.1050     4.9580    25.3630 
  180.8750     3.6400     2.0200    47.9990     6.2570     5.9020     4.9490    25.3640 
  181.0000     3.2410     1.9990    52.3150     6.1910     5.7670     4.9630    25.3630 
  181.1250     2.7910     1.9880    55.3480     6.2460     5.7440     5.0810    25.3580 
  181.2500     2.3510     1.9680    56.1100     6.4140     5.8260     5.0780    25.3490 
  181.3750     1.9610     1.9430    55.9890     6.6850     6.0080     5.1850    25.3250 
  181.5000     1.6460     1.9380    55.1680     7.0270     6.2680     5.4570    25.2610 
  181.6250     1.4310     1.9800    54.1690     7.3610     6.5470     5.9210    25.1640 
  181.7500     1.2880     2.0430    54.1100     7.6040     6.7660     6.3110    25.0840 
  181.8750     1.1850     2.0880    54.6960     7.7100     6.8800     6.2290    25.0300 
  182.0000     1.0990     2.0950    55.8990     7.6850     6.8830     5.7420    25.0060 
  182.1250     0.9920     2.0790    58.0640     7.5780     6.8090     5.5690    25.0220 
  182.2500     0.8370     2.0710    61.3310     7.4820     6.7270     5.7530    25.0660 
  182.3750     0.6010     2.0730    65.3590     7.4420     6.6670     5.7940    25.1340 
  182.5000     0.2580     2.0670    70.0330     7.4590     6.6340     5.6520    25.2190 
  182.6250    -0.2470     2.0380    73.7720     7.5060     6.6160     5.5810    25.2860 
  182.7500    -0.9180     2.0020    74.5810     7.5430     6.6000     5.5310    25.3070 
  182.8750    -1.7620     1.9730    72.4490     7.5700     6.5930     5.2810    25.3080 
  183.0000    -2.7760     1.9600    68.7200     7.6260     6.6230     5.2010    25.3080 
  183.1250    -3.9690     1.9690    68.4130     7.7860     6.7430     5.4620    25.3080 
  183.2500    -5.2290     2.0010    73.4410     8.0770     6.9640     5.9800    25.3070 
  183.3750    -6.4660     2.0560    80.7570     8.4940     7.2850     6.3940    25.3070 
  183.5000    -7.5950     2.1310    85.9060     8.9940     7.6740     6.8390    25.3060 
  183.6250    -8.4800     2.2190    85.3080     9.4790     8.0610     7.4770    25.3050 
  183.7500    -9.1430     2.3000    80.7960     9.8120     8.3440     7.9280    25.3050 
  183.8750    -9.6040     2.3480    77.0640     9.8840     8.4320     8.0020    25.3040 
  184.0000    -9.9120     2.3510    76.2480     9.6640     8.2840     7.8000    25.3040 
  184.1250   -10.1890     2.3200    77.9090     9.2090     7.9260     7.5820    25.3040 
  184.2500   -10.5210     2.2850    80.9840     8.7220     7.5130     7.5620    25.3040 
  184.3750   -10.9820     2.2680    85.1280     8.3410     7.1600     6.7320    25.3030 
  184.5000   -11.5690     2.2780    88.3620     8.1580     6.9480     6.2560    25.3030 
  184.6250   -12.2190     2.3100    89.6310     8.2160     6.9310     6.8060    25.3030 
  184.7500   -12.8310     2.3360    91.4780     8.4090     7.0440     7.6720    25.3040 
  184.8750   -13.3120     2.3460    92.8360     8.6480     7.2250     7.8720    25.3050 
  185.0000   -13.5760     2.3440    92.5980     8.8570     7.4110     7.7360    25.3050 
  185.1250   -13.5380     2.3380    93.8460     8.9890     7.5500     7.8930    25.3060 
  185.2500   -13.2150     2.3310    95.9230     9.0710     7.6420     8.0490    25.3030 
  185.3750   -12.6360     2.3200    95.1130     9.1300     7.6990     8.1600    25.2980 
  185.5000   -11.8580     2.3090    91.6260     9.1640     7.7260     8.3250    25.2850 
  185.6250   -10.9010     2.3020    91.9820     9.1160     7.6850     8.2100    25.2350 
