~V
VERS. 2.00: Ver 2.00
~W
STRT.M 50.0000:
STOP.M 232.0000:
STEP.M 0.1250:
NULL. -999.2500:
UWI. F10160:
~C
DEPT.M :
SP.MV :
DEN.GM/CC :
GR.API :
RML.OHMM :
RI. :
RXO.OHMM :
CALI.CM :
~A
# ...
  173.7500   -20.2120     2.3380    65.9620    66.3830    57.5500    54.2640    24.2560 
  173.8750   -20.1670     2.3480    64.2340    68.7970    59.6490    56.1870    24.6190 
  174.0000   -20.1130     2.3310    61.6690    70.9870    61.5540    58.4260    25.0840 
  174.1250   -20.0810     2.2800    59.5270    72.8430    63.1680    60.5610    25.6170 
  174.2500   -20.0700     2.2180    60.4860    74.3230    64.4550    62.3430    26.0940 
  174.3750   -20.0630     2.1640    62.9750    75.4430    65.4290    63.7330    26.4310 
  174.5000   -20.0520     2.1350    63.6610    76.2790    66.1560    64.8310    26.5770 
  174.6250   -20.0430     2.1440    63.0680    76.8450    66.6470    65.7420    26.4030 
  174.7500   -20.0460     2.1770    62.6630    77.2730    67.0200    66.5310    25.9980 
  174.8750   -20.0620     2.2170    62.8020    77.7390    67.4250    67.1550    25.5410 
  175.0000   -20.0650     2.2480    63.4750    78.4390    68.0340    67.5260    25.2150 
  175.1250   -20.0440     2.2660    63.6570    79.4550    68.9170    67.4360    25.0650 
  175.2500   -20.0150     2.2800    62.7540    80.2590    69.6160    66.8630    24.9740 
  175.3750   -19.9760     2.3000    61.4930    79.8130    69.2290    65.8170    24.9220 
  175.5000   -19.9090     2.3260    59.7220    77.0480    66.8240    64.3420    24.9060 
  175.6250   -19.7830     2.3530    59.1820    71.5340    62.0300    62.4360    24.9290 
  175.7500   -19.6070     2.3660    61.4030    65.0690    56.4080    60.2290    24.9780 
  175.8750   -19.3990     2.3560    65.0970    59.3170    51.4060    57.8250    25.0350 
  176.0000   -19.1970     2.3190    66.0640    55.6400    48.2090    55.4120    25.1380 
  176.1250   -19.0470     2.2590    62.0200    55.3780    47.9800    53.4340    25.3880 
  176.2500   -18.9730     2.2010    59.7660    58.2260    50.4580    52.2700    25.6990 
  176.3750   -18.9660     2.1610    61.3920    63.9130    55.4020    52.2060    25.8670 
  176.5000   -19.0000     2.1480    63.5200    71.8300    62.2870    53.4850    25.7980 
  176.6250   -19.0370     2.1650    63.2320    80.9410    70.2100    56.8100    25.6810 
  176.7500   -19.0410     2.1920    61.4090    89.5460    77.6920    62.0220    25.7350 
  176.8750   -18.9810     2.2120    59.9190    96.4380    83.6850    68.5550    25.9150 
  177.0000   -18.8620     2.2200    58.8200   100.6610    87.3580    75.2070    26.0610 
  177.1250   -18.6920     2.2230    57.3210   100.8070    87.4850    80.1120    26.0660 
  177.2500   -18.4900     2.2250    56.9620    97.4290    84.5470    82.4770    25.9860 
  177.3750   -18.2930     2.2180    57.2000    91.6180    79.4940    82.3530    25.8080 
  177.5000   -18.1050     2.1910    58.1610    85.1050    73.8300    80.5010    25.5030 
  177.6250   -17.9270     2.1510    60.2500    80.2400    69.6000    78.0310    25.1710 
  177.7500   -17.7540     2.1330    61.3560    78.6330    68.2030    76.1860    24.9120 
  177.8750   -17.5880     2.1760    59.8100    81.5960    70.7790    75.6960    24.6700 
  178.0000   -17.4110     2.3090    56.3610    90.1480    78.2150    76.7080    24.4500 
  178.1250   -17.2340     2.5240    54.7930   103.7140    90.0120    77.9120    24.4650 
  178.2500   -17.0860     2.7220    53.4310   113.2580    98.3120    76.3400    24.7160 
  178.3750   -16.9690     2.7990    50.9490   106.3080    92.2680    69.8220    24.9910 
  178.5000   -16.8650     2.7140    50.4020    80.5390    69.8600    58.2600    25.1290 
  178.6250   -16.7550     2.5270    52.8510    52.6610    44.6940    44.1570    25.1630 
  178.7500   -16.6170     2.3400    54.7940    27.9560    27.4340    31.8230    25.2680 
  178.8750   -16.4560     2.2070    56.3900    17.2480    18.1560    23.3760    25.4580 
  179.0000   -16.2910     2.1700    58.3590    14.0200    14.5050    18.9700    25.5130 
  179.1250   -16.1490     2.2780    58.0930    15.9250    15.0490    17.8840    25.2180 
  179.2500   -16.0290     2.4660    56.8250    21.7640    18.6510    18.8160    24.8680 
  179.3750   -15.9520     2.6260    58.6700    32.3980    25.8870    37.0530    24.7330 
  179.5000   -15.9240     2.6960    61.2550    49.0510    37.4320    45.2440    24.7850 
  179.6250   -15.9450     2.7210    57.4990    72.6250    52.9310    49.8620    24.8220 
  179.7500   -15.9720     2.7610    49.3020    96.7560    67.4540    54.1750    24.8220 
  179.8750   -15.9750     2.8150    43.4890   109.7060    74.8460    55.4860    24.8190 
  180.0000   -15.9200     2.8520    44.3080   100.1060    70.2950    52.8020    24.8170 
  180.1250   -15.7690     2.8290    47.2720    71.0360    54.0650    46.4070    24.8150 
  180.2500   -15.5460     2.7520    48.2970    43.4040    36.3250    38.7660    24.8160 
  180.3750   -15.2790     2.6460    49.3420    24.7240    22.6560    30.5760    24.8190 
  180.5000   -14.9980     2.5410    53.5760    14.2260    14.0770    22.5930    24.8200 
  180.6250   -14.7530     2.4620    57.7940     9.4080     9.6870    15.9850    24.8300 
  180.7500   -14.5790     2.4180    58.1400     7.0060     7.2760     8.6500    24.8630 
  180.8750   -14.5020     2.4070    56.9520     5.8910     6.0020     4.6690    24.9130 
  181.0000   -14.5340     2.4200    57.4170     5.4600     5.4020     4.3650    24.9510 
  181.1250   -14.6830     2.4380    58.0440     5.3810     5.2170     4.1440    24.9770 
  181.2500   -14.8940     2.4460    55.7790     5.3880     5.1770     4.0730    25.0580 
  181.3750   -15.1360     2.4440    50.2820     5.4000     5.1820     4.1270    25.2800 
  181.5000   -15.3750     2.4300    44.0020     5.3970     5.1910     4.2620    25.6390 
  181.6250   -15.5810     2.3960    41.0370     5.3680     5.1860     4.3840    25.9640 
  181.7500   -15.7410     2.3490    41.2370     5.3030     5.1560     4.5330    26.1480 
  181.8750   -15.8490     2.2990    43.4010     5.2030     5.0920     4.6350    26.2420 
  182.0000   -15.9070     2.2610    45.8350     5.0820     4.9920     4.6490    26.1650 
  182.1250   -15.9210     2.2460    46.2390     4.9790     4.8660     4.6820    25.8820 
  182.2500   -15.9190     2.2430    44.6810     4.9200     4.7490     4.5050    25.9170 
  182.3750   -15.9140     2.2260    43.0930     4.9150     4.6630     4.2360    26.5610 
  182.5000   -15.9230     2.1740    43.3690     4.9560     4.6190     4.1430    27.3900 
  182.6250   -15.9420     2.0950    45.4140     5.0290     4.6130     4.3080    27.6280 
  182.7500   -15.9540     2.0240    48.1080     5.1030     4.6190     4.6310    27.3580 
  182.8750   -15.9610     1.9790    49.8760     5.1580     4.6190     5.1360    26.9550 
  183.0000   -15.9830     1.9630    48.6040     5.1800     4.6010     5.3440    26.6020 
  183.1250   -16.0340     1.9630    46.7250     5.1610     4.5590     5.1760    26.3870 
  183.2500   -16.1020     1.9550    48.7050     5.1270     4.5080     5.1210    26.3990 
  183.3750   -16.1780     1.9380    52.8860     5.1040     4.4630     5.2840    26.7390 
  183.5000   -16.2660     1.9290    55.3570     5.1170     4.4410     5.2300    27.5200 
  183.6250   -16.3780     1.9330    54.7760     5.1790     4.4530     4.6060    28.5530 
  183.7500   -16.5040     1.9240    53.3730     5.2680     4.4830     4.3010    29.2640 
  183.8750   -16.6290     1.8870    50.3570     5.3600     4.5130     4.5740    29.6050 
  184.0000   -16.7380     1.8360    45.2580     5.4250     4.5220     5.0420    29.9300 
  184.1250   -16.8320     1.8140    41.5160     5.4470     4.4990     4.8160    30.1060 
  184.2500   -16.9390     1.8500    40.6260     5.4470     4.4640     4.3760    29.4420 
  184.3750   -17.0650     1.9480    41.8020     5.4490     4.4390     3.9870    27.9360 
  184.5000   -17.2110     2.0660    42.7680     5.4740     4.4390     3.8440    26.3820 
  184.6250   -17.3830     2.1410    42.9460     5.5380     4.4800     4.0220    25.7400 
  184.7500   -17.5890     2.1680    45.0800     5.6410     4.5540     4.2810    25.8500 
  184.8750   -17.8430     2.1800    50.4820     5.7770     4.6520     4.4600    26.0510 
