~V
VERS. 2.00: Ver 2.00
~W
STRT.M 57.0000:
STOP.M 214.0000:
STEP.M 0.1250:
NULL. -999.2500:
UWI. F10147:
~C
DEPT.M :
SP.MV :
GR.API :
RML.OHMM :
RI. :
RXO.OHMM :
CALI.CM :
DEN.GM/CC :
~A
# ...
  203.2500    -6.5540    63.3980     9.6270     9.3200     9.4510    24.8280     2.4100 
  203.3750    -6.5400    62.3210     9.5440     9.2780     8.6860    24.8360     2.4090 
  203.5000    -6.5220    62.7870     9.2620     9.0810     7.8570    24.8410     2.4000 
  203.6250    -6.5040    64.6990     8.8740     8.7500     7.4020    24.8310     2.3880 
  203.7500    -6.4890    65.8520     8.4760     8.3510     7.3460    24.8140     2.3780 
  203.8750    -6.4690    66.0180     8.1630     7.9850     7.2830    24.8160     2.3770 
  204.0000    -6.4420    66.0180     8.0020     7.7490     7.0680    24.8340     2.3840 
  204.1250    -6.4200    66.0180     8.0530     7.7210     7.0440    24.8440     2.3970 
  204.2500    -6.4040    66.0180     8.3660     7.9520     7.5510    24.8440     2.4110 
  204.3750    -6.3930    66.0180     8.9370     8.4380     8.4790    24.8330     2.4230 
  204.5000    -6.3740    66.0180     9.5900     9.0210     9.3200    24.8250     2.4320 
  204.6250    -6.3380    66.0180    10.0400     9.4540     9.6650    24.8160     2.4390 
  204.7500    -6.2860    66.0180    10.0480     9.5240     9.3430    24.8110     2.4420 
  204.8750    -6.2030    66.0180     9.5240     9.1090     8.3530    24.8240     2.4350 
  205.0000    -6.1010    66.0180     8.6910     8.3530     7.1190    24.8570     2.4150 
  205.1250    -5.9970    66.0180     7.8610     7.5150     6.1980    24.8630     2.3840 
  205.2500    -5.8940    66.0180     7.2260     6.7910     5.7990    24.8180     2.3500 
  205.3750    -5.7960    66.0180     6.8610     6.3040     5.7180    24.7740     2.3260 
  205.5000    -5.7150    66.0180     6.7050     6.0460     5.6950    24.7530     2.3180 
  205.6250    -5.6630    66.0180     6.6620     5.9510     5.7010    24.7450     2.3210 
  205.7500    -5.6330    66.0180     6.6780     5.9660     5.7740    24.7380     2.3300 
  205.8750    -5.6210    66.0180     6.7500     6.0710     5.8690    24.7430     2.3390 
  206.0000    -5.6290    66.0180     6.8960     6.2600     6.0330    24.7510     2.3500 
  206.1250    -5.6440    66.0180     7.1190     6.5200     6.4720    24.7460     2.3650 
  206.2500    -5.6590    66.0180     7.3760     6.8030     7.1330    24.7240     2.3830 
  206.3750    -5.6750    66.0180     7.5590     6.9980     7.3290    24.7050     2.3960 
  206.5000    -5.6680    66.0180     7.5720     7.0070     6.6280    24.7080     2.3980 
  206.6250    -5.6290    66.0180     7.4010     6.8130     5.4750    24.7300     2.3840 
  206.7500    -5.5810    66.0180     7.1110     6.4680     4.6770    24.7550     2.3590 
  206.8750    -5.5420    66.0180     6.8180     6.0860     4.7420    24.7460     2.3310 
  207.0000    -5.5040    66.0180     6.6140     5.7760     5.4700    24.7050     2.3130 
  207.1250    -5.4550    66.0180     6.5220     5.5870     6.3360    24.6600     2.3080 
  207.2500    -5.3890    66.0180     6.5140     5.5170     6.8930    24.6300     2.3150 
  207.3750    -5.3160    66.0180     6.5440     5.5350     7.0100    24.6250     2.3270 
  207.5000    -5.2580    66.0180     6.5680     5.5900     6.9760    24.6510     2.3380 
  207.6250    -5.2200    66.0180     6.5690     5.6440     6.9880    24.6910     2.3460 
  207.7500    -5.1820    66.0180     6.5560     5.6760     6.8890    24.7310     2.3510 
  207.8750    -5.1430    66.0180     6.5530     5.6790     6.4800    24.7650     2.3570 
  208.0000    -5.1080    66.0180     6.5840     5.6560     5.8960    24.7820     2.3630 
  208.1250    -5.0800    66.0180     6.6460     5.6160     5.4280    24.7750     2.3690 
  208.2500    -5.0680    66.0180     6.7140     5.5650     5.2270    24.7340     2.3700 
  208.3750    -5.0650    66.0180     6.7470     5.5240     5.2950    24.6860     2.3660 
  208.5000    -5.0670    66.0180     6.7260     5.5100     5.4860    24.6530     2.3580 
  208.6250    -5.0750    66.0180     6.6690     5.5260     5.6240    24.6260     2.3520 
  208.7500    -5.0900    66.0180     6.6050     5.5640     5.6270    24.6030     2.3510 
  208.8750    -5.1000    66.0180     6.5730     5.6010     5.5340    24.5930     2.3560 
  209.0000    -5.1010    66.0180     6.5870     5.6160     5.4210    24.5880     2.3620 
  209.1250    -5.1050    66.0180     6.6440     5.5990     5.3280    24.5640     2.3650 
  209.2500    -5.1130    66.0180     6.7210     5.5520     5.2930    24.5020     2.3670 
  209.3750    -5.1240    66.0180     6.7850     5.4830     5.3640    24.4720     2.3720 
  209.5000    -5.1340    66.0180     6.8100     5.4090     5.5400    24.5390     2.3790 
  209.6250    -5.1450    66.0180     6.8000     5.3500     5.8130    24.6590     2.3860 
  209.7500    -5.1590    66.0180     6.7780     5.3170     6.1870    24.7380     2.3870 
  209.8750    -5.1790    66.0180     6.7670     5.3070     6.6120    24.7460     2.3820 
  210.0000    -5.2000    66.0180     6.7660     5.3070     6.9780    24.7120     2.3720 
  210.1250    -5.2170    66.0180     6.7670     5.3070     7.2330    24.6500     2.3660 
  210.2500    -5.2280    66.0180     6.7670     5.3070     7.4240    24.5980     2.3660 
  210.3750    -5.2370    66.0180     6.7670     5.3070     7.6650    24.5910     2.3750 
  210.5000    -5.2520    66.0180     6.7670     5.3070     7.9920    24.6180     2.3880 
  210.6250    -5.2730    66.0180     6.7670     5.3070     8.2840    24.6380     2.4000 
  210.7500    -5.2920    66.0180     6.7670     5.3070     8.3540    24.6350     2.4090 
  210.8750    -5.3090    66.0180     6.7670     5.3070     8.1560    24.6160     2.4160 
  211.0000    -5.3300    66.0180     6.7670     5.3070     7.8960    24.6040     2.4240 
  211.1250    -5.3470    66.0180     6.7670     5.3070     7.7620    24.6430     2.4350 
  211.2500    -5.3570    66.0180     6.7670     5.3070     7.7280    24.7340     2.4490 
  211.3750    -5.3640    66.0180     6.7670     5.3070     7.6710    24.8280     2.4640 
  211.5000    -5.3660    66.0180     6.7670     5.3070     7.6110    24.9100     2.4760 
  211.6250    -5.3660    66.0180     6.7670     5.3070     7.7540    24.9820     2.4800 
  211.7500    -5.3670    66.0180     6.7670     5.3070     8.1840    24.9080     2.4720 
  211.8750    -5.3700    66.0180     6.7670     5.3070     8.3480    24.0530     2.4440 
  212.0000    -5.3720    66.0180     6.7670     5.3070     7.6100    22.0760     2.3900 
  212.1250    -5.3870    66.0180     6.7670     5.3070     6.1440    19.9640     2.3130 
  212.2500    -5.4180    66.0180     6.7670     5.3070     4.7760    18.7790     2.2230 
  212.3750    -5.4480    66.0180     6.7670     5.3070     4.1360    18.4940     2.1350 
  212.5000    -5.4650    66.0180     6.7670     5.3070     4.0150    18.4910     2.0680 
  212.6250    -5.5160    66.0180     6.7670     5.3070     4.0120    18.4920     2.0280 
  212.7500  -999.2500    66.0180     6.7670     5.3070     4.0080    18.4940     2.0110 
  212.8750  -999.2500    66.0180     6.7670     5.3070     4.0030    18.4930     2.0080 
  213.0000  -999.2500    66.0180     6.7670     5.3070     4.0060    18.4920     2.0110 
  213.1250  -999.2500    66.0180     6.7670     5.3070     4.0110    18.4890     2.0130 
  213.2500  -999.2500    66.0180     6.7670     5.3070     4.0120    18.4860     2.0150 
  213.3750  -999.2500    66.0180     6.7670     5.3070     4.0090    18.4840     2.0160 
  213.5000  -999.2500    66.0180     6.7670     5.3070     4.0090    18.4830     2.0190 
  213.6250  -999.2500    66.0180     6.7670     5.3070     4.0100    18.4850     2.0280 
  213.7500  -999.2500    66.0180     6.7670     5.3070     4.0080    18.4900     1.9920 
  213.8750  -999.2500    66.0180     6.7670     5.3070     4.0020    18.4890  -999.2500 
  214.0000  -999.2500    66.0180     6.7670     5.3070     3.9980    18.4830  -999.2500 
