~V
VERS. 2.00: Ver 2.00
~W
STRT.M 52.0000:
STOP.M 233.0000:
STEP.M 0.1250:
NULL. -999.2500:
UWI. F10175:
~C
DEPT.M :
GR.API :
RML.OHMM :
RI. :
RXO.OHMM :
CALI.CM :
DEN.GM/CC :
SP.MV :
~A
# ...
  209.5000    80.1300    29.4720    26.8850    29.6300    24.4460     2.4070   -10.7620 
  209.6250    77.6600    27.8660    25.2460    28.2490    24.4390     2.4050   -10.6330 
  209.7500    74.3310    26.6480    24.0410    27.3330    24.4290     2.3910   -10.4970 
  209.8750    69.8260    25.7730    23.2610    25.1700    24.4380     2.3590   -10.3270 
  210.0000    65.2080    25.0400    22.7130    23.5220    24.4680     2.3100   -10.1410 
  210.1250    64.4650    24.1730    22.0410    25.4920    24.5220     2.2620    -9.9370 
  210.2500    65.8500    23.1070    21.0670    27.4500    24.5600     2.2300    -9.6750 
  210.3750    65.9430    22.0060    19.9330    25.4320    24.5540     2.2220    -9.3260 
  210.5000    66.2480    21.1730    18.9960    21.4270    24.5020     2.2330    -8.8670 
  210.6250    68.8310    20.9510    18.7070    18.8180    24.4520     2.2520    -8.2360 
  210.7500    69.7690    21.1550    18.9920    19.2230    24.4310     2.2710    -7.5530 
  210.8750    67.6130    21.3420    19.4280    22.4350    24.4550     2.2890    -6.9580 
  211.0000    66.0110    20.9500    19.2790    26.3300    24.4960     2.3100    -6.4920 
  211.1250    69.4270    19.4580    17.7500    30.0100    24.4230     2.3320    -6.1990 
  211.2500    73.0680    17.1830    15.3330    24.1640    24.2520     2.3490    -6.0850 
  211.3750    73.8040    14.6250    12.8100    14.0550    24.1370     2.3580    -6.1010 
  211.5000    73.9920    12.3270    10.7860     9.1070    24.1060     2.3570    -6.2010 
  211.6250    77.4240    10.7940     9.5830     8.0400    24.1070     2.3520    -6.4020 
  211.7500    81.2610     9.9830     8.9860     7.5680    24.1210     2.3500    -6.6280 
  211.8750    82.7810     9.7240     8.8290     7.3320    24.1430     2.3540    -6.8200 
  212.0000    81.3820     9.7720     8.9280     7.4300    24.1580     2.3640    -6.9450 
  212.1250    80.0610     9.9080     9.1120     7.5060    24.1560     2.3770    -6.9940 
  212.2500    80.7590    10.0030     9.2490     7.2430    24.1330     2.3950    -6.9480 
  212.3750    81.2310    10.0280     9.3050     7.1680    24.2030     2.4180    -6.8450 
  212.5000    77.4980     9.9780     9.2750     7.1250    24.3170     2.4420    -6.7250 
  212.6250    70.4830     9.8490     9.1500     7.0590    24.3960     2.4540    -6.6440 
  212.7500    67.3970     9.6650     8.9520     7.1660    24.3900     2.4500    -6.5440 
  212.8750    69.2290     9.4520     8.7070     7.6530    24.4010     2.4310    -6.4190 
  213.0000    72.4810     9.2400     8.4480     8.5210    24.4410     2.4060    -6.2920 
  213.1250    74.2110     9.0640     8.2120     9.3660    24.5210     2.3850    -6.1980 
  213.2500    75.0790     8.9340     8.0190     9.7240    24.5500     2.3740    -6.1650 
  213.3750    75.8200     8.8470     7.8760     9.3020    24.3590     2.3730    -6.1910 
  213.5000    76.0150     8.7970     7.7820     8.6840    23.9660     2.3780    -6.2460 
  213.6250    74.3540     8.7890     7.7360     8.0360    23.7080     2.3850    -6.2750 
  213.7500    70.8510     8.8270     7.7340     7.0660    23.9000     2.3900    -6.2690 
  213.8750    67.1100     8.9270     7.7880     6.3450    24.2360     2.3910    -6.2090 
  214.0000    66.3310     9.0970     7.9090     6.2280    24.4530     2.3920    -6.1560 
  214.1250    68.6270     9.3340     8.1040     6.5750    24.4770     2.3990    -6.0890 
  214.2500    70.5430     9.5810     8.3300     7.0410    24.3570     2.4130    -5.9550 
  214.3750    71.5610     9.7720     8.5250     7.3970    24.0810     2.4290    -5.7630 
  214.5000    71.3350     9.8390     8.6080     7.3500    23.7980     2.4370    -5.5930 
  214.6250    69.2450     9.7130     8.4840     7.4060    23.7430     2.4250    -5.4260 
  214.7500    68.2030     9.4440     8.1940     7.5340    23.7770     2.3990    -5.3630 
  214.8750    70.5440     9.1130     7.8220     7.4180    23.8210     2.3660    -5.4260 
  215.0000    74.3610     8.8240     7.4780     6.7940    23.8220     2.3380    -5.5280 
  215.1250    74.1800     8.7090     7.2930     6.5350    23.7810     2.3240    -5.6830 
  215.2500    72.2520     8.7970     7.2990     6.6850    23.7350     2.3250    -5.9420 
  215.3750    71.4350     9.0720     7.4920     6.8630    23.6720     2.3380    -6.2250 
  215.5000    72.0080     9.4820     7.8280     7.2350    23.5460     2.3600    -6.4470 
  215.6250    72.2110     9.9630     8.2410     8.4280    23.3700     2.3890    -6.6680 
  215.7500    70.3180    10.4420     8.6570     9.9370    23.4020     2.4180    -6.8290 
  215.8750    68.0280    10.8860     9.0500    10.2400    23.6060     2.4430    -6.8770 
  216.0000    68.1280    11.2720     9.4070    11.2990    23.9230     2.4610    -6.8670 
  216.1250    71.1340    11.5520     9.6860    14.2420    24.1700     2.4690    -6.8350 
  216.2500    72.2680    11.7140     9.8580    21.8100    24.3590     2.4670    -6.8030 
  216.3750    70.5880    11.7500     9.9000    25.0970    24.4600     2.4570    -6.7650 
  216.5000    69.4120    11.6900     9.8240    18.6280    24.5270     2.4450    -6.6860 
  216.6250    68.8770    11.6080     9.6930    10.0040    24.5690     2.4400    -6.5500 
  216.7500    68.0440    11.5980     9.6090     7.7960    24.6150     2.4420    -6.4370 
  216.8750    68.1850    11.7130     9.6390     7.6780    24.6440     2.4470    -6.3680 
  217.0000    69.3740    11.9510     9.8000     7.9390    24.7170     2.4460    -6.3300 
  217.1250    69.4450    12.2550    10.0660     8.0820    24.8810     2.4390    -6.2620 
  217.2500    67.4900    12.5180    10.3360     8.4200    24.9660     2.4330    -6.1460 
  217.3750    66.1290    12.6740    10.5340     8.7380    24.9510     2.4360    -6.0640 
  217.5000    67.2430    12.7080    10.6250     9.2090    24.7160     2.4490    -6.0780 
  217.6250    71.0810    12.6540    10.6260     9.0040    24.5910     2.4690    -6.1410 
  217.7500    73.7850    12.6090    10.6230     8.4750    24.5160     2.4860    -6.2010 
  217.8750    72.7360    12.6430    10.6780     9.0330    24.4860     2.4940    -6.2800 
  218.0000    68.8610    12.7950    10.8340    11.3880    24.4600     2.4960    -6.3820 
  218.1250    67.0520    13.0610    11.1100    14.1930    24.3850     2.4950    -6.5440 
  218.2500    68.2300    13.3410    11.4260    18.7680    24.2860     2.4970    -6.7320 
  218.3750    70.3460    13.5250    11.6760    24.5290    24.2260     2.5030    -6.8800 
  218.5000    71.8920    13.5180    11.7390    27.1570    24.2790     2.5070    -6.9770 
  218.6250    73.3980    13.2420    11.5080    15.4290    24.4320     2.5020    -7.0420 
  218.7500    73.6450    12.8050    11.0840    12.2640    24.5510     2.4920    -7.1130 
  218.8750    71.2000    12.3400    10.6080    11.5330    24.5830     2.4830    -7.2090 
  219.0000    68.5740    11.9970    10.2350    11.7830    24.5240     2.4810    -7.3330 
  219.1250    69.6310    11.9530    10.1370    12.9380    24.4650     2.4860    -7.4110 
  219.2500    72.6400    12.2160    10.3280    13.7880    24.4580     2.4900    -7.4370 
  219.3750    73.3440    12.7590    10.7900    14.7790    24.5190     2.4860    -7.4580 
  219.5000    70.1990    13.5120    11.4620    15.8100    24.5620     2.4750    -7.4820 
  219.6250    66.6670    14.3870    12.2700    17.3990    24.5990     2.4680    -7.5190 
  219.7500    65.1590    15.2680    13.0990    19.8980    24.5870     2.4750    -7.5730 
  219.8750    63.7260    16.0850    13.8800    22.4480    24.5960     2.4950    -7.5820 
  220.0000    61.0670    16.7770    14.5640    19.5120    24.6250     2.5210    -7.5080 
  220.1250    59.6860    17.2550    15.0780    18.0620    24.7130     2.5400    -7.3850 
  220.2500    62.1880    17.5100    15.4000    21.9270    24.7660     2.5460    -7.2720 
  220.3750    66.9290    17.5480    15.5140    28.7910    24.7320     2.5430    -7.2020 
  220.5000    70.0740    17.4280    15.4520    29.3000    24.6400     2.5340    -7.1260 
  220.6250    70.4160    17.2640    15.3110    18.7570    24.5820     2.5240    -7.0490 
