~V
VERS. 2.00: Ver 2.00
~W
STRT.M 50.0000:
STOP.M 211.0000:
STEP.M 0.1250:
NULL. -999.2500:
UWI. F10140:
~C
DEPT.M :
DEN.GM/CC :
GR.API :
RML.OHMM :
RI. :
RXO.OHMM :
CALI.CM :
SP.MV :
~A
# ...
  140.0000     2.2300    74.1180    16.5970    15.8520    17.2500    33.6310   -11.1020 
  140.1250     2.2420    75.5280    14.9060    14.3140    14.0170    33.5520   -10.9260 
  140.2500     2.2500    77.6240    13.4870    12.9830    11.2090    33.4760   -10.7200 
  140.3750     2.2510    79.9320    12.4300    11.9430     9.8940    33.4000   -10.4820 
  140.5000     2.2500    82.7390    11.7560    11.2240     9.3670    33.3520   -10.2140 
  140.6250     2.2510    82.3430    11.4880    10.8760     9.7400    33.3400    -9.9320 
  140.7500     2.2550    78.4670    11.5070    10.8170    10.0250    33.3270    -9.6530 
  140.8750     2.2620    76.6200    11.7390    11.0000    10.1840    33.2970    -9.3900 
  141.0000     2.2690    78.6420    12.0730    11.3460    10.2570    33.2550    -9.1540 
  141.1250     2.2710    80.5690    12.3200    11.6860    10.8710    33.2130    -8.9590 
  141.2500     2.2680    80.8470    12.3200    11.7790    11.3800    33.1550    -8.7780 
  141.3750     2.2620    81.1290    12.0320    11.4830    11.7270    33.0630    -8.6180 
  141.5000     2.2560    81.0240    11.5890    10.8660    11.7760    32.9300    -8.4640 
  141.6250     2.2590    80.7990    11.4050    10.2510    11.4390    32.7790    -8.3000 
  141.7500     2.2710    82.1170    11.9600    10.0450     9.7510    32.6550    -8.1360 
  141.8750     2.2860    84.9800    13.7390    10.6160     8.9110    32.6060    -8.0180 
  142.0000     2.2910    86.0190    17.1930    12.3720    12.2620    32.6360    -7.9850 
  142.1250     2.2770    80.6100    22.9840    16.1350    24.3710    32.6560    -8.0450 
  142.2500     2.2470    73.8630    30.6290    22.0470    44.7460    32.6210    -8.1460 
  142.3750     2.2120    71.2440    39.2810    29.8750    58.8820    32.5560    -8.2620 
  142.5000     2.1820    72.6200    47.4590    38.2490    61.9980    32.4970    -8.3950 
  142.6250     2.1670    71.6190    53.1580    44.4670    61.0960    32.4480    -8.5370 
  142.7500     2.1630    68.8780    56.1810    47.7270    60.6490    32.3990    -8.6590 
  142.8750     2.1640    69.1190    57.2070    48.8170    59.8030    32.3410    -8.7390 
  143.0000     2.1650    71.5200    57.3320    48.9260    60.5890    32.2680    -8.7440 
  143.1250     2.1640    72.7890    57.4100    48.9010    61.0120    32.1710    -8.6430 
  143.2500     2.1620    71.9380    57.5520    49.1000    62.7560    32.0620    -8.4600 
  143.3750     2.1630    69.1910    57.1810    49.3170    65.7520    31.9470    -8.2420 
  143.5000     2.1670    65.7370    55.3080    48.7500    68.2700    31.8340    -8.0400 
  143.6250     2.1750    65.2800    50.6120    45.7410    69.3780    31.6980    -7.8710 
  143.7500     2.1840    68.6090    43.6800    40.2250    66.7790    31.5480    -7.7530 
  143.8750     2.1930    70.4070    35.7770    33.3110    59.3760    31.3870    -7.6450 
  144.0000     2.2050    68.5760    28.4700    26.6730    39.3080    31.2250    -7.5480 
  144.1250     2.2190    68.4470    23.1540    21.7760    23.0480    31.0640    -7.5200 
  144.2500     2.2320    72.5150    19.6370    18.5390    16.6310    30.8850    -7.5720 
  144.3750     2.2420    75.7470    17.4070    16.5220    17.1090    30.6680    -7.6380 
  144.5000     2.2530    74.8440    15.8120    15.1210    17.6660    30.4240    -7.6570 
  144.6250     2.2780    75.0080    14.2680    13.7460    16.1660    30.1620    -7.6230 
  144.7500     2.3190    78.1970    12.4990    12.0820    14.3730    29.9220    -7.5340 
  144.8750     2.3690    80.4900    10.5780    10.1910    12.1260    29.7470    -7.3940 
  145.0000     2.4100    80.8290     8.7490     8.3410     8.0070    29.6730    -7.2130 
  145.1250     2.4240    82.9210     7.3630     6.8880     6.0110    29.6500    -6.9800 
  145.2500     2.4170    87.3810     6.5020     5.9050     5.0910    29.6060    -6.7550 
  145.3750     2.4000    90.5450     6.1610     5.3840     4.9250    29.5440    -6.6060 
  145.5000     2.3860    90.1310     6.2610     5.2800     5.5580    29.4650    -6.5980 
  145.6250     2.3800    86.3750     6.7160     5.5640     7.5910    29.3660    -6.7210 
  145.7500     2.3770    82.3560     7.3000     6.0440     8.3830    29.2650    -6.9120 
  145.8750     2.3720    82.2420     7.8550     6.5700     8.3640    29.1680    -7.1800 
  146.0000     2.3640    85.8120     8.2720     7.0090     8.1420    29.0640    -7.5340 
  146.1250     2.3570    88.5130     8.5010     7.2740     7.8290    28.9470    -7.9410 
  146.2500     2.3570    88.5590     8.6310     7.4270     7.5780    28.8320    -8.3100 
  146.3750     2.3630    88.0770     8.7310     7.5360     7.6020    28.7300    -8.5820 
  146.5000     2.3740    87.0990     8.8310     7.6410     8.6270    28.6500    -8.7100 
  146.6250     2.3850    84.8090     8.9160     7.7160    10.1220    28.6020    -8.7100 
  146.7500     2.3900    83.5950     8.9640     7.7330     9.8560    28.5780    -8.6690 
  146.8750     2.3890    85.4370     8.9690     7.6940     8.7990    28.5540    -8.5920 
  147.0000     2.3850    89.1960     8.9350     7.6120     8.0390    28.5190    -8.4430 
  147.1250     2.3800    90.9350     8.8380     7.4720     7.6160    28.4590    -8.2190 
  147.2500     2.3750    90.0240     8.6460     7.2530     7.4570    28.4010    -7.9960 
  147.3750     2.3710    86.9740     8.3200     6.9190     7.1640    28.3560    -7.7970 
  147.5000     2.3680    84.4330     7.8580     6.4630     6.3090    28.3070    -7.6230 
  147.6250     2.3710    84.7470     7.3190     5.9330     5.1250    28.2200    -7.4710 
  147.7500     2.3790    86.8510     6.8480     5.4460     5.1840    28.1250    -7.3320 
  147.8750     2.3920    90.2130     6.5730     5.1010     5.3680    28.0530    -7.2350 
  148.0000     2.4060    94.5860     6.5980     4.9840     5.7400    28.0150    -7.2270 
  148.1250     2.4150    96.7710     7.0350     5.2030     5.9340    28.0170    -7.3410 
  148.2500     2.4170    93.8450     7.8000     5.7270     6.6880    28.0420    -7.5240 
  148.3750     2.4100    86.7530     8.7890     6.5130     8.6660    28.0710    -7.7680 
  148.5000     2.3960    79.9200     9.8410     7.4620    11.6560    28.0840    -8.0740 
  148.6250     2.3810    77.8440    10.7150     8.3910    12.8120    28.0650    -8.3920 
  148.7500     2.3710    78.2730    11.2530     9.0900    11.7830    28.0230    -8.6620 
  148.8750     2.3660    78.8770    11.3670     9.4150    10.3410    27.9640    -8.8550 
  149.0000     2.3670    80.3930    11.0440     9.3030     9.9370    27.9460    -8.9350 
  149.1250     2.3700    83.3410    10.2930     8.7260    11.1590    27.9880    -8.8640 
  149.2500     2.3730    84.7330     9.3170     7.8690    11.6080    28.0400    -8.6690 
  149.3750     2.3780    84.7560     8.3020     6.8960     9.0990    28.0650    -8.3660 
  149.5000     2.3850    86.5620     7.4720     6.0060     6.3830    28.0910    -8.0130 
  149.6250     2.3910    92.3610     7.1350     5.4550     5.3680    28.1500    -7.7050 
  149.7500     2.3960    98.2580     7.3820     5.3390     5.0460    28.2080    -7.5140 
  149.8750     2.4000   100.0720     8.2480     5.7250     6.0360    28.2460    -7.4760 
  150.0000     2.4010    96.6410     9.6530     6.6280     9.8170    28.2720    -7.5890 
  150.1250     2.3970    88.3000    11.3840     8.0310    17.2870    28.2970    -7.8400 
  150.2500     2.3880    79.6420    13.0250     9.6060    20.0180    28.3310    -8.2070 
  150.3750     2.3780    75.5120    14.2780    11.0300    16.4210    28.3810    -8.6360 
  150.5000     2.3670    78.0040    14.9760    12.0350    11.6260    28.4470    -9.0520 
  150.6250     2.3540    84.2020    14.9890    12.4190    12.1260    28.5120    -9.3970 
  150.7500     2.3380    86.2310    14.4470    12.2540    14.4330    28.5560    -9.6530 
  150.8750     2.3190    82.8410    13.4100    11.5460    15.9650    28.5620    -9.8020 
  151.0000     2.3040    80.1730    12.0200    10.3820    15.5270    28.5420    -9.8720 
  151.1250     2.3030    83.1220    10.5970     9.0360    13.4600    28.5220    -9.8890 
