~V
VERS. 2.00: Ver 2.00
~W
STRT.M 44.0000:
STOP.M 255.0000:
STEP.M 0.1250:
NULL. -999.2500:
UWI. F10191:
~C
DEPT.M :
DEN.GM/CC :
SP.MV :
GR.API :
RML.OHMM :
RI. :
RXO.OHMM :
CALI.CM :
~A
# ...
  212.7500     2.2900   -29.7120    67.1440    23.6000    22.5440    24.1140    24.8730 
  212.8750     2.3000   -29.7060    68.8690    23.0600    22.1180    21.3010    24.8950 
  213.0000     2.3040   -29.6870    70.4220    22.2180    21.3110    17.6510    24.8880 
  213.1250     2.3060   -29.5990    69.3350    20.9220    19.9900    19.0860    24.8530 
  213.2500     2.3120   -29.5500    67.3480    19.2730    18.3080    21.9870    24.7850 
  213.3750     2.3190   -29.5290    69.0880    17.6550    16.6330    20.6620    24.7240 
  213.5000     2.3180   -29.4490    74.1660    16.7500    15.5160    15.1930    24.6990 
  213.6250     2.3080   -29.4260    76.0480    17.7700    15.8650    12.5430    24.6890 
  213.7500     2.2980   -29.4550    73.8980    21.4600    18.4330    15.8360    24.6980 
  213.8750     2.2870   -29.4570    69.8770    28.8880    24.5360    31.3490    24.7260 
  214.0000     2.2680   -29.4860    64.2110    41.3500    35.8010    72.3910    24.7430 
  214.1250     2.2400   -29.6050    58.5680    60.2370    53.9090   131.5860    24.7400 
  214.2500     2.2120   -29.7240    56.0570    79.9940    73.7650   139.8750    24.7380 
  214.3750     2.1940   -29.8110    56.4050    90.7100    86.7500   121.1240    24.7450 
  214.5000     2.1920   -29.9380    57.2350    86.9780    87.1560    98.6930    24.7420 
  214.6250     2.2050   -30.0260    58.6970    73.9470    76.9860    84.3700    24.7280 
  214.7500     2.2240   -30.0350    61.6140    60.0760    63.9660    81.8560    24.7420 
  214.8750     2.2470   -30.0580    64.3660    48.8430    51.0060    78.7690    24.7840 
  215.0000     2.2770   -30.0900    66.4790    38.0680    39.5160    62.9960    24.8250 
  215.1250     2.3170   -30.0050    70.4230    29.5370    30.7970    43.4910    24.8540 
  215.2500     2.3590   -29.8610    73.5290    23.4640    24.5770    29.0400    24.8720 
  215.3750     2.3920   -29.7230    73.7490    19.4680    20.4460    19.2760    24.8730 
  215.5000     2.4110   -29.4860    72.6610    17.0140    17.8610    15.4250    24.8470 
  215.6250     2.4140   -29.1960    73.1410    15.6570    16.4070    15.1320    24.7960 
  215.7500     2.4100   -28.9430    72.9890    14.7580    15.4740    13.1370    24.7050 
  215.8750     2.4060   -28.6760    72.1970    14.0470    14.7890    11.2350    24.6750 
  216.0000     2.4020   -28.3450    72.6560    13.4050    14.2010    10.7060    24.7490 
  216.1250     2.3990   -28.0390    74.7750    12.8620    13.6860    10.7900    24.8220 
  216.2500     2.3930   -27.7980    75.7920    12.4630    13.2610    10.5680    24.8650 
  216.3750     2.3840   -27.5620    74.9770    12.2150    12.9380    10.2740    24.8710 
  216.5000     2.3730   -27.3740    73.4250    12.0760    12.6960    10.4180    24.8380 
  216.6250     2.3570   -27.2260    73.8870    11.9990    12.5120    10.5140    24.7790 
  216.7500     2.3450   -27.0690    75.6580    11.9920    12.3920    10.5150    24.6830 
  216.8750     2.3470   -26.9620    76.1120    12.2260    12.4540    10.7710    24.5280 
  217.0000     2.3630   -26.9590    74.8430    13.0270    12.9350    12.1800    24.4180 
  217.1250     2.3730   -26.9850    74.8760    15.1060    14.3670    13.8310    24.3870 
  217.2500     2.3690   -26.9930    75.2640    18.9360    17.1760    16.2840    24.4570 
  217.3750     2.3540   -27.0230    72.7630    25.1290    22.0470    21.9520    24.6300 
  217.5000     2.3280   -27.1240    67.5250    34.0810    29.6280    35.1570    24.7740 
  217.6250     2.2880   -27.2990    63.9400    45.3760    39.9820    74.1380    24.8400 
  217.7500     2.2520   -27.4630    63.0150    55.5410    50.0050   101.1360    24.8800 
  217.8750     2.2390   -27.5940    63.1920    60.4880    55.8510    93.3390    24.9100 
  218.0000     2.2500   -27.7040    62.4530    58.5240    55.5170    69.6000    24.9440 
  218.1250     2.2790   -27.7950    60.7400    52.1710    50.5120    55.2800    24.9530 
  218.2500     2.3170   -27.8380    60.4630    46.1560    45.1030    46.6230    24.9130 
  218.3750     2.3600   -27.8530    60.8730    41.9930    40.9960    41.5560    24.7880 
  218.5000     2.3840   -27.8690    60.3250    39.6910    38.5150    37.8970    24.5750 
  218.6250     2.3490   -27.8200    57.3120    38.8010    37.4680    36.8450    24.4150 
  218.7500     2.2800   -27.7770    55.9840    38.3430    37.0390    38.9170    24.4150 
  218.8750     2.2160   -27.7570    58.0500    37.6890    36.6390    39.2980    24.6680 
  219.0000     2.1830   -27.7100    60.3560    36.4510    35.8150    36.5230    25.0070 
  219.1250     2.1800   -27.6430    59.2110    34.5340    34.3350    33.3880    25.1520 
  219.2500     2.1880   -27.6030    57.3820    32.3720    32.5020    29.9060    25.1950 
  219.3750     2.1960   -27.6090    57.0840    30.3440    30.6380    26.1920    25.2170 
  219.5000     2.2010   -27.5760    57.5760    28.7330    29.0200    23.6730    25.2440 
  219.6250     2.2100   -27.5330    58.3620    27.6920    27.8290    22.7030    25.2550 
  219.7500     2.2230   -27.5420    59.6540    27.0160    26.9480    22.6010    25.2580 
  219.8750     2.2350   -27.5920    60.5570    26.5440    26.2620    22.7280    25.2580 
  220.0000     2.2380   -27.7220    60.1150    26.1510    25.6680    22.4960    25.2500 
  220.1250     2.2320   -27.9390    60.0990    25.8310    25.1600    22.3530    25.2030 
  220.2500     2.2280   -28.2230    61.3780    25.7150    24.8270    22.1830    25.1090 
  220.3750     2.2220   -28.5890    62.4930    26.0310    24.8420    22.5530    25.0100 
  220.5000     2.2120   -29.0770    62.7290    27.0860    25.4380    23.4010    24.9090 
  220.6250     2.2110   -29.7000    61.5290    29.4870    27.1070    25.4120    24.6640 
  220.7500     2.2290   -30.3860    59.0250    33.4440    30.0710    28.8950    24.3320 
  220.8750     2.2490   -31.1100    55.3240    39.1940    34.6160    32.6990    24.2260 
  221.0000     2.2450   -31.8790    52.1570    46.7200    40.8540    37.6370    24.4720 
  221.1250     2.2210   -32.7030    53.0610    55.4640    48.5000    48.6940    24.8060 
  221.2500     2.2020   -33.5050    55.8180    63.5160    55.9340    67.2100    24.9390 
  221.3750     2.1970   -34.2350    56.8220    68.9060    61.4370    76.9430    24.9650 
  221.5000     2.2010   -34.9000    55.3870    70.4490    63.8080    74.1770    24.9740 
  221.6250     2.2100   -35.4890    54.6430    68.2750    62.7420    67.6270    24.9960 
  221.7500     2.2180   -35.9470    55.8390    64.8820    60.1580    60.2920    25.0210 
  221.8750     2.2250   -36.2940    57.9960    61.8180    57.4510    55.0400    25.0320 
  222.0000     2.2320   -36.5230    60.0190    59.8320    55.4800    54.1370    25.0330 
  222.1250     2.2390   -36.5660    61.5580    59.1360    54.6290    55.6020    25.0330 
  222.2500     2.2460   -36.5080    63.0020    59.2510    54.5690    56.6450    25.0330 
  222.3750     2.2560   -36.3680    64.2320    59.8810    55.0600    56.3150    25.0330 
  222.5000     2.2650   -36.1330    63.7760    60.7760    55.8640    54.5270    25.0330 
  222.6250     2.2710   -35.7510    61.7460    61.7850    56.8150    55.1550    25.0290 
  222.7500     2.2760   -35.2930    60.5850    62.8220    57.7980    57.8990    25.0050 
  222.8750     2.2880   -34.7720    59.6830    63.8640    58.7850    57.7330    24.9540 
  223.0000     2.3070   -34.1860    58.8540    64.9330    59.8050    56.7680    24.8910 
  223.1250     2.3210   -33.6240    60.0490    66.1240    60.9970    57.9630    24.8860 
  223.2500     2.3200   -33.0500    62.5700    67.4490    62.4390    61.3210    24.8990 
  223.3750     2.3110   -32.3900    62.2670    68.8600    64.1550    65.7210    24.9320 
  223.5000     2.3190   -31.6950    58.5890    70.3630    66.1760    69.1980    24.9860 
  223.6250     2.3630   -31.0970    56.2370    72.2880    68.8020    75.4910    24.9970 
  223.7500     2.4110   -30.5510    57.0570    75.1790    72.4380    77.7470    25.0040 
  223.8750     2.4340   -30.0050    60.3640    79.6270    77.6870    75.5850    25.0480 
