~V
VERS. 2.00: Ver 2.00
~W
STRT.M 47.0000:
STOP.M 242.0000:
STEP.M 0.1250:
NULL. -999.2500:
UWI. F10188:
~C
DEPT.M :
SP.MV :
DEN.GM/CC :
GR.API :
RML.OHMM :
RI. :
RXO.OHMM :
CALI.CM :
~A
# ...
   58.2500    53.6370     2.2770    46.6000     0.0000     0.2060    -2.6570    23.7150 
   58.3750    53.5480     2.3030    47.5270     0.0000     0.2220    -2.3990    23.6610 
   58.5000    52.4390     2.3180    46.3700     0.0000     0.2250    -2.2220    23.7000 
   58.6250    50.3200     2.3200    46.6170     0.0000     0.2080    -2.1800    23.9120 
   58.7500    47.1340     2.3110    47.3460     0.0000     0.1720    -2.1200    24.4660 
   58.8750    42.8370     2.3070    44.4570     0.0000     0.1280    -1.8920    25.3550 
   59.0000    37.1210     2.3410    39.1530     0.0000     0.0950    -1.5880    26.0840 
   59.1250    30.2610     2.4240    38.1880     0.0000     0.0840    -0.8940    26.6090 
   59.2500    22.5080     2.5390    43.2580     0.0030     0.1060     0.1230    26.8980 
   59.3750    14.2970     2.6090    50.2800     0.0180     0.1860     1.2110    27.1040 
   59.5000     6.2710     2.5270    54.6930     0.0980     0.4080     2.3810    27.3230 
   59.6250    -1.1970     2.3690    59.5270     0.3610     0.8570     3.4830    27.5150 
   59.7500    -7.9370     2.2280    66.9000     1.0130     1.6300     4.2180    27.5880 
   59.8750   -13.7370     2.1450    75.5750     2.0800     2.6780     4.2950    27.6150 
   60.0000   -18.0640     2.1190    82.3580     2.9020     3.6130     3.9490    27.4830 
   60.1250   -20.9970     2.1170    88.7380     3.1470     4.1400     3.6660    27.0330 
   60.2500   -22.6750     2.1410    95.8690     3.0900     4.3270     3.4020    26.3440 
   60.3750   -23.4530     2.1860   101.7290     2.9680     4.3580     3.2640    25.8310 
   60.5000   -23.7720     2.2320   104.7570     2.8790     4.3660     3.4570    25.6370 
   60.6250   -24.0180     2.2570   104.8140     2.8670     4.4330     3.8940    25.5520 
   60.7500   -24.2680     2.2680   103.1720     2.9630     4.6050     4.4450    25.4890 
   60.8750   -24.5760     2.2760   100.9010     3.1720     4.8930     5.0490    25.3610 
   61.0000   -24.9990     2.2800    95.6380     3.4530     5.2400     5.1250    25.0050 
   61.1250   -25.5130     2.2870    90.8710     3.6850     5.5270     4.7740    24.4690 
   61.2500   -26.0410     2.3040    91.0890     3.7840     5.6550     4.1610    24.0330 
   61.3750   -26.4990     2.3290    97.1050     3.7460     5.5860     3.6370    23.8550 
   61.5000   -26.8670     2.3420   103.4390     3.6360     5.3610     3.1040    23.9870 
   61.6250   -27.2130     2.3380   106.7520     3.5540     5.1250     2.9690    24.3800 
   61.7500   -27.5780     2.3240   109.1310     3.5660     4.9910     3.3560    24.8780 
   61.8750   -27.9390     2.3040   110.4610     3.7080     5.0480     4.2360    25.2060 
   62.0000   -28.2870     2.2880   107.9850     4.0170     5.3860     5.8090    25.2120 
   62.1250   -28.6750     2.2790   102.9690     4.4620     5.9540     7.6160    25.1630 
   62.2500   -29.1260     2.2800    97.6880     5.0140     6.6850     9.4740    25.0960 
   62.3750   -29.6240     2.2880    94.1700     5.5880     7.4280    10.9820    24.9260 
   62.5000   -30.1050     2.2900    92.4220     5.9580     7.8830    10.9250    24.5740 
   62.6250   -30.4750     2.2780    92.2830     5.9820     7.8910     9.4700    24.2920 
   62.7500   -30.6770     2.2570    94.8770     5.6950     7.4760     7.6790    24.1660 
   62.8750   -30.7350     2.2470    98.5560     5.2740     6.8380     6.1720    24.1640 
   63.0000   -30.7590     2.2570   100.3820     4.9210     6.2470     5.2700    24.2750 
   63.1250   -30.8080     2.2720   100.5470     4.7130     5.8610     4.8340    24.4440 
   63.2500   -30.9120     2.2780    99.4210     4.6600     5.7080     4.9090    24.6570 
   63.3750   -31.0890     2.2670    97.6600     4.7470     5.7460     5.4340    24.9410 
   63.5000   -31.4280     2.2440    94.8790     4.9450     5.9090     6.1720    25.2080 
   63.6250   -31.9890     2.2200    93.4910     5.1840     6.0960     7.0810    25.3480 
   63.7500   -32.8250     2.2030    92.5150     5.4250     6.2770     7.8190    25.3540 
   63.8750   -33.8840     2.1960    92.7450     5.6470     6.4570     8.1800    25.2870 
   64.0000   -34.9630     2.1930    93.6430     5.8090     6.6250     8.2610    25.1860 
   64.1250   -35.8920     2.1870    90.6510     5.8550     6.7070     8.2250    24.9940 
   64.2500   -36.6150     2.1820    83.0800     5.7490     6.6170     8.3910    24.6700 
   64.3750   -37.1560     2.1860    76.7450     5.5630     6.3720     8.6890    24.3360 
   64.5000   -37.5040     2.2100    80.5360     5.6010     6.2040     9.0880    24.0400 
   64.6250   -37.7690     2.2520    88.6060     6.1290     6.4090    10.0040    23.8690 
   64.7500   -38.0530     2.3040    93.9760     7.2990     7.2140    11.6430    23.8440 
   64.8750   -38.4430     2.3600    91.2220     9.1360     8.7620    14.0830    23.9430 
   65.0000   -39.0160     2.4130    80.3060    11.3630    11.0360    17.2080    24.0780 
   65.1250   -39.7890     2.4480    68.9170    12.9180    13.1300    19.7410    24.1850 
   65.2500   -40.7870     2.4420    63.0650    12.7770    13.8590    20.1580    24.3720 
   65.3750   -41.9220     2.3740    63.7010    11.0760    12.7940    17.5400    24.7220 
   65.5000   -43.1190     2.2690    65.8560     9.1240    10.8090    13.4550    25.2090 
   65.6250   -44.2660     2.1900    68.4650     7.7780     9.0970    11.7630    25.5890 
   65.7500   -45.2440     2.1550    72.1600     7.0720     7.9650    11.0120    25.7850 
   65.8750   -46.0060     2.1510    73.9270     6.8040     7.3630    10.6650    25.7960 
   66.0000   -46.6280     2.1550    72.0590     6.7740     7.1580    10.5330    25.7010 
   66.1250   -47.2200     2.1560    69.4120     6.8760     7.1630    10.7600    25.6470 
   66.2500   -47.7440     2.1590    69.2980     7.2210     7.4040    11.3540    25.6650 
   66.3750   -48.2460     2.1700    70.6500     7.9710     7.9940    12.5060    25.7360 
   66.5000   -48.8040     2.1930    70.0480     9.3030     9.1130    14.3120    25.6900 
   66.6250   -49.4180     2.2280    69.4810    11.0030    10.6460    16.7990    25.4320 
   66.7500   -50.0810     2.2770    70.2840    12.6220    12.2780    19.7860    25.0920 
   66.8750   -50.7850     2.3430    71.2270    13.4180    13.3690    22.4670    24.8840 
   67.0000   -51.4230     2.3830    68.9650    12.6480    13.0800    22.9520    25.0030 
   67.1250   -51.9140     2.3430    65.3130    11.0400    11.8110    19.4510    25.5650 
   67.2500   -52.3000     2.2390    62.9610     9.4320    10.2580    14.6470    26.3720 
   67.3750   -52.5790     2.1380    62.0340     8.3070     8.9470    12.5750    26.9590 
   67.5000   -52.6740     2.0840    60.9860     7.8180     8.1570    11.6210    26.9660 
   67.6250   -52.5670     2.0650    60.0720     7.7000     7.7670    10.8670    26.7360 
   67.7500   -52.3090     2.0700    59.7950     7.7560     7.6370    10.1140    26.4420 
   67.8750   -51.9510     2.0880    61.6040     7.8330     7.6180     9.2470    26.1170 
   68.0000   -51.4930     2.1080    64.5350     7.8570     7.6070     8.3220    25.8450 
   68.1250   -50.9530     2.1240    65.9490     7.8490     7.5780     7.5760    25.6790 
   68.2500   -50.3620     2.1350    64.6020     7.8420     7.5450     7.3270    25.6870 
   68.3750   -49.7780     2.1380    62.5610     7.8690     7.5260     7.4820    25.7370 
   68.5000   -49.2090     2.1350    60.8560     7.9350     7.5240     7.8640    25.7950 
   68.6250   -48.6060     2.1300    58.6550     7.9820     7.5030     8.3120    25.9260 
   68.7500   -47.9570     2.1260    58.4030     7.9430     7.4150     8.6830    26.1160 
   68.8750   -47.2630     2.1220    61.7270     7.7800     7.2290     8.9330    26.1550 
   69.0000   -46.5700     2.1210    67.6310     7.5270     6.9590     8.8530    25.6820 
   69.1250   -46.0090     2.1330    74.1480     7.3170     6.7020     8.8950    24.8810 
   69.2500   -45.6670     2.1650    80.5850     7.2550     6.5370     8.9590    24.1760 
   69.3750   -45.5540     2.2100    84.5590     7.3940     6.5170     9.1420    23.8350 
