~V
VERS. 2.00: Ver 2.00
~W
STRT.M 30.0000:
STOP.M 209.0000:
STEP.M 0.1250:
NULL. -999.2500:
UWI. F10150:
~C
DEPT.M :
SP.MV :
DEN.GM/CC :
GR.API :
RML.OHMM :
RI. :
RXO.OHMM :
CALI.CM :
~A
# ...
   75.0000   -35.0680     2.1020    64.8060     8.0020     5.6170     8.3830    25.8240 
   75.1250   -34.9980     2.0860    62.7220     7.9870     5.6260     7.9400    25.7960 
   75.2500   -34.8130     2.0710    64.2550     7.9450     5.6000     7.8890    25.6760 
   75.3750   -34.6050     2.0630    66.7420     7.9010     5.5470     7.9430    25.4920 
   75.5000   -34.3580     2.0660    67.8580     7.8870     5.4880     7.9420    25.2980 
   75.6250   -34.0610     2.0800    68.4140     7.9260     5.4500     8.2910    25.1430 
   75.7500   -33.8380     2.0970    69.2280     7.9920     5.4380     8.6850    25.0320 
   75.8750   -33.7250     2.1110    68.1130     8.0580     5.4430     8.9560    24.9450 
   76.0000   -33.6300     2.1190    63.6610     8.0960     5.4520     9.0530    24.8680 
   76.1250   -33.5480     2.1210    59.1010     8.0700     5.4460     9.1140    24.7940 
   76.2500   -33.5190     2.1190    58.0340     7.9840     5.4200     9.0650    24.7570 
   76.3750   -33.5310     2.1140    59.7760     7.8600     5.3700     8.8940    24.7430 
   76.5000   -33.5730     2.1090    62.0220     7.7350     5.2960     8.5310    24.7340 
   76.6250   -33.6560     2.1030    65.0860     7.6620     5.2150     8.1930    24.7200 
   76.7500   -33.7670     2.0980    68.3960     7.6550     5.1590     8.2600    24.7210 
   76.8750   -33.8880     2.0940    69.5250     7.7040     5.1510     8.5490    24.7330 
   77.0000   -34.0290     2.0930    68.4680     7.7860     5.1960     8.7470    24.7420 
   77.1250   -34.2070     2.0950    67.0000     7.8790     5.2850     8.8680    24.7450 
   77.2500   -34.3610     2.0980    65.9040     7.9750     5.3880     8.9410    24.7450 
   77.3750   -34.4180     2.1000    63.9020     8.0780     5.4850     8.9940    24.7450 
   77.5000   -34.4300     2.1020    61.8120     8.1860     5.5720     9.0170    24.7420 
   77.6250   -34.3700     2.1060    61.1090     8.2800     5.6470     9.0320    24.7330 
   77.7500   -34.1970     2.1120    61.4990     8.3430     5.7110     9.1610    24.7230 
   77.8750   -34.0110     2.1200    64.2700     8.3630     5.7560     9.3710    24.7280 
   78.0000   -33.8360     2.1270    69.2290     8.3420     5.7720     9.3800    24.7520 
   78.1250   -33.5980     2.1300    72.9020     8.2890     5.7470     9.1910    24.7720 
   78.2500   -33.3650     2.1300    73.0800     8.2210     5.6910     9.0190    24.7900 
   78.3750   -33.1600     2.1280    70.7940     8.1510     5.6200     8.9450    24.8230 
   78.5000   -32.8820     2.1270    68.1980     8.0980     5.5590     8.8170    24.8460 
   78.6250   -32.5080     2.1280    66.3960     8.0970     5.5460     8.6950    24.8440 
   78.7500   -32.0910     2.1310    65.0990     8.1840     5.6010     8.5740    24.8310 
   78.8750   -31.5000     2.1360    63.9530     8.4030     5.7530     8.5600    24.8250 
   79.0000   -30.6770     2.1400    62.8330     8.7590     6.0170     8.7120    24.8240 
   79.1250   -29.6270     2.1410    63.3300     9.1680     6.3620     9.0190    24.8270 
   79.2500   -28.3360     2.1400    64.5110     9.4370     6.6570     9.2110    24.8350 
   79.3750   -26.8060     2.1420    64.7530     9.3920     6.7650     9.1650    24.8640 
   79.5000   -25.1880     2.1560    65.4860     8.9440     6.5970     8.8660    24.9390 
   79.6250   -23.5800     2.1890    72.0730     8.1450     6.1320     7.6860    25.0770 
   79.7500   -22.0590     2.2320    83.3430     7.2910     5.5550     6.3400    25.2180 
   79.8750   -20.7590     2.2740    93.3840     6.5760     5.0180     5.5650    25.3120 
   80.0000   -19.7790     2.3070    95.9800     6.0950     4.6230     5.4040    25.3780 
   80.1250   -19.2990     2.3250    92.2140     5.9000     4.4320     5.0790    25.4450 
   80.2500   -19.2740     2.3340    90.6360     5.9260     4.4060     5.0350    25.4730 
   80.3750   -19.6890     2.3370    92.3470     6.1690     4.5400     5.3440    25.4790 
   80.5000   -20.5340     2.3330    91.3550     6.6510     4.8400     5.7310    25.4720 
   80.6250   -21.8180     2.3290    84.8310     7.4460     5.3510     5.6860    25.4510 
   80.7500   -23.3560     2.3330    76.9710     8.4730     6.0330     6.3880    25.4060 
   80.8750   -25.0720     2.3500    70.3690     9.5710     6.8080     8.6530    25.3400 
   81.0000   -26.9160     2.3740    65.8170    10.4670     7.5120    13.3220    25.2260 
   81.1250   -28.7330     2.3820    66.6890    10.7860     7.8730    13.8390    25.0360 
   81.2500   -30.4740     2.3620    69.5940    10.5670     7.8470    11.5290    24.8520 
   81.3750   -32.1460     2.3150    68.9020    10.0330     7.5340     9.8060    24.7660 
   81.5000   -33.6470     2.2550    63.3990     9.4810     7.1190     9.2240    24.7510 
   81.6250   -34.8820     2.2040    57.5640     9.1500     6.7830     9.1400    24.7710 
   81.7500   -35.9350     2.1700    56.2730     9.0190     6.5700     9.1480    24.8150 
   81.8750   -36.7950     2.1520    59.0150     8.9780     6.4450     9.3410    24.8730 
   82.0000   -37.4350     2.1430    62.2380     8.9180     6.3440     9.5660    24.9340 
   82.1250   -37.9370     2.1370    61.4200     8.7870     6.2240     9.6020    24.9910 
   82.2500   -38.3530     2.1300    58.6030     8.6570     6.1040     9.5140    25.0290 
   82.3750   -38.6550     2.1230    56.9850     8.6200     6.0390     9.4190    25.0270 
   82.5000   -38.9230     2.1230    57.9850     8.7370     6.0750     9.5330    24.9810 
   82.6250   -39.1510     2.1390    61.9500     9.0120     6.2330     9.6110    24.9090 
   82.7500   -39.2910     2.1640    64.4330     9.3170     6.4400     9.8110    24.8890 
   82.8750   -39.4040     2.1870    61.8430     9.5250     6.6140    10.1550    24.9770 
   83.0000   -39.4760     2.1920    56.8990     9.5410     6.6760    10.2680    25.1410 
   83.1250   -39.4350     2.1680    55.4280     9.3410     6.5740     9.6030    25.2320 
   83.2500   -39.3200     2.1300    57.1560     9.0580     6.3790     9.3570    25.1620 
   83.3750   -39.1320     2.0930    58.0570     8.7850     6.1590     9.4540    25.0730 
   83.5000   -38.8520     2.0700    56.8360     8.5740     5.9700     9.7110    25.0370 
   83.6250   -38.4780     2.0660    55.5420     8.4410     5.8470     9.8390    25.0380 
   83.7500   -38.0450     2.0750    55.0240     8.3470     5.7700    10.0310    25.0380 
   83.8750   -37.5770     2.0910    56.6030     8.2720     5.7130     9.8970    25.0370 
   84.0000   -37.1410     2.1100    60.0190     8.2220     5.6630     9.4980    25.0380 
   84.1250   -36.7320     2.1290    62.7950     8.2290     5.6420     9.2170    25.0490 
   84.2500   -36.3590     2.1470    63.7900     8.2870     5.6660     9.3830    25.0750 
   84.3750   -36.0460     2.1620    62.7600     8.3730     5.7350     9.7230    25.1020 
   84.5000   -35.7110     2.1720    59.5030     8.4500     5.8310    10.0880    25.1100 
   84.6250   -35.3610     2.1750    54.6660     8.4810     5.9330     9.8660    25.0950 
   84.7500   -34.9900     2.1740    51.2990     8.4770     6.0240     9.5970    25.0620 
   84.8750   -34.5000     2.1730    53.1010     8.4790     6.1080     9.3050    25.0080 
   85.0000   -33.8110     2.1730    60.4850     8.5300     6.1950     9.1280    24.9390 
   85.1250   -32.9170     2.1730    68.2930     8.6350     6.2830     9.1410    24.8730 
   85.2500   -31.7870     2.1700    69.5830     8.7110     6.3350     9.2570    24.8500 
   85.3750   -30.3780     2.1640    65.1600     8.6490     6.2920     9.3870    24.8690 
   85.5000   -28.7990     2.1560    61.7640     8.3690     6.0960     9.2940    24.9260 
   85.6250   -27.1430     2.1550    64.9160     7.8290     5.7130     8.7560    25.0710 
   85.7500   -25.5200     2.1690    72.0430     7.1640     5.2270     7.5360    25.2580 
   85.8750   -24.0810     2.1960    80.0820     6.5020     4.7250     5.9990    25.4250 
   86.0000   -22.9010     2.2310    85.6200     5.9630     4.2900     5.0490    25.4970 
   86.1250   -22.0570     2.2620    85.6900     5.6780     4.0120     4.8750    25.4820 
