~V
VERS. 2.00: Ver 2.00
~W
STRT.M 63.0000:
STOP.M 207.0000:
STEP.M 0.1250:
NULL. -999.2500:
UWI. F10132:
~C
DEPT.M :
SP.MV :
DEN.GM/CC :
GR.API :
RML.OHMM :
RI. :
RXO.OHMM :
CALI.CM :
~A
# ...
  186.7500   -28.3100     2.4040    85.8340     7.4700     7.0080     7.3110    24.3320 
  186.8750   -28.2500     2.4090    89.3840     7.1140     6.7780     7.1570    24.3330 
  187.0000   -28.1640     2.4110    88.4150     6.8960     6.6120     6.9050    24.3320 
  187.1250   -28.0540     2.4160    85.6170     6.9160     6.5930     6.8090    24.3290 
  187.2500   -27.9460     2.4230    86.6130     7.1340     6.7110     6.9190    24.3270 
  187.3750   -27.8620     2.4300    90.4920     7.5070     6.9420     7.2790    24.3270 
  187.5000   -27.8110     2.4360    93.5680     7.9770     7.2450     7.7260    24.3280 
  187.6250   -27.7880     2.4400    92.2600     8.4710     7.5620     8.1150    24.3250 
  187.7500   -27.7730     2.4420    88.0460     8.8860     7.8200     8.3960    24.3200 
  187.8750   -27.7420     2.4400    83.1110     9.1140     7.9420     8.6060    24.3180 
  188.0000   -27.6820     2.4360    81.3990     9.0590     7.8640     8.7700    24.3180 
  188.1250   -27.5980     2.4310    84.3580     8.7360     7.5830     8.9600    24.3190 
  188.2500   -27.5000     2.4280    86.1770     8.4700     7.3030     9.3760    24.3180 
  188.3750   -27.3850     2.4330    84.5860     8.6520     7.2680    10.3600    24.3160 
  188.5000   -27.2700     2.4500    81.7620     9.7020     7.7360    12.2620    24.3230 
  188.6250   -27.1920     2.4790    81.1240    12.2780     9.1360    15.6340    24.3410 
  188.7500   -27.1680     2.5110    83.0690    16.4330    11.5900    20.3620    24.3470 
  188.8750   -27.2050     2.5350    84.5740    22.0510    15.1710    26.1240    24.3250 
  189.0000   -27.2810     2.5410    82.9030    28.4170    19.5920    32.2470    24.2910 
  189.1250   -27.3890     2.5270    79.7510    33.8630    23.8850    36.9350    24.2730 
  189.2500   -27.4980     2.5150    79.1860    37.1770    26.9760    38.0350    24.2700 
  189.3750   -27.5800     2.5180    80.7850    38.1270    28.4260    35.9990    24.2700 
  189.5000   -27.6300     2.5310    80.6770    37.0130    28.2510    33.5720    24.2680 
  189.6250   -27.6230     2.5280    78.2360    33.7230    26.2770    32.4260    24.2660 
  189.7500   -27.5630     2.4930    77.8890    28.8200    22.9640    31.0550    24.2630 
  189.8750   -27.4830     2.4340    80.7690    23.1380    18.9430    27.8660    24.2650 
  190.0000   -27.4020     2.3720    84.7530    17.8420    15.0690    22.2650    24.3010 
  190.1250   -27.3030     2.3350    85.9200    14.0050    12.1320    15.4920    24.3890 
  190.2500   -27.1940     2.3220    83.5690    11.5810    10.1600    10.5990    24.4860 
  190.3750   -27.0850     2.3150    79.9680    10.3350     9.0380     8.1910    24.5320 
  190.5000   -26.9640     2.2990    77.0270     9.9270     8.5750     7.4810    24.4980 
  190.6250   -26.8240     2.2710    77.8710    10.0190     8.5800     7.4670    24.4270 
  190.7500   -26.6910     2.2510    81.2560    10.1580     8.7140     7.5900    24.3750 
  190.8750   -26.5760     2.2560    84.4830    10.1150     8.7830     7.7130    24.3400 
  191.0000   -26.4810     2.2890    86.0250     9.8200     8.6850     7.7870    24.3040 
  191.1250   -26.4150     2.3370    86.2880     9.3760     8.4380     7.7420    24.2830 
  191.2500   -26.3680     2.3750    85.5210     9.0100     8.1900     7.6330    24.2920 
  191.3750   -26.3110     2.3970    83.4340     8.8320     8.0320     7.4850    24.3180 
  191.5000   -26.2370     2.4060    81.9630     8.8170     7.9690     7.3660    24.3530 
  191.6250   -26.1150     2.4050    82.2920     8.7980     7.9050     7.3390    24.3930 
  191.7500   -25.9560     2.4010    82.2430     8.5850     7.7090     7.4160    24.4180 
  191.8750   -25.7470     2.3940    81.5350     8.1180     7.3360     7.3790    24.4240 
  192.0000   -25.5230     2.3870    81.3700     7.4960     6.8410     7.1940    24.4230 
  192.1250   -25.3100     2.3830    81.3700     6.9610     6.3790     6.9310    24.4270 
  192.2500   -25.1420     2.3820    81.3700     6.7000     6.0880     6.7420    24.4290 
  192.3750   -25.0490     2.3820    81.3700     6.7750     6.0250     6.7230    24.4260 
  192.5000   -25.0280     2.3790    81.3700     7.1380     6.1790     6.9580    24.4200 
  192.6250   -25.0780     2.3760    81.3700     7.6660     6.4980     7.4930    24.4140 
  192.7500   -25.1770     2.3720    81.3700     8.1600     6.8490     7.9760    24.4120 
  192.8750   -25.3050     2.3670    81.3700     8.5200     7.1490     8.2470    24.4140 
  193.0000   -25.4090     2.3600    81.3700     8.7400     7.3630     8.3050    24.4150 
  193.1250   -25.4610     2.3550    81.3700     8.8890     7.5060     8.2360    24.4150 
  193.2500   -25.4490     2.3570    81.3700     9.0460     7.6260     8.1640    24.4130 
  193.3750   -25.3720     2.3700    81.3700     9.1920     7.7250     8.2220    24.4120 
  193.5000   -25.2480     2.3890    81.3700     9.2450     7.7580     8.4510    24.4110 
  193.6250   -25.0630     2.4070    81.3700     9.0710     7.6430     8.5900    24.4090 
  193.7500   -24.8210     2.4130    81.3700     8.6810     7.3790     8.5830    24.3970 
  193.8750   -24.5490     2.4090    81.3700     8.1570     7.0090     8.4530    24.3760 
  194.0000   -24.2630     2.4030    81.3700     7.6490     6.6270     8.1860    24.3580 
  194.1250   -23.9600     2.4040    81.3700     7.3370     6.3600     7.8190    24.3510 
  194.2500   -23.6670     2.4060    81.3700     7.2460     6.2420     7.4820    24.3490 
  194.3750   -23.4030     2.4000    81.3700     7.3290     6.2560     7.3310    24.3480 
  194.5000   -23.1670     2.3850    81.3700     7.4960     6.3440     7.4570    24.3470 
  194.6250   -23.0070     2.3690    81.3700     7.6470     6.4370     7.6690    24.3500 
  194.7500   -22.9200     2.3630    81.3700     7.7330     6.4960     7.7090    24.3450 
  194.8750   -22.8810     2.3710    81.3700     7.7600     6.5190     7.4550    24.3100 
  195.0000   -22.8820     2.3900    81.3700     7.7550     6.5230     7.0020    24.2500 
  195.1250   -22.9010     2.4020    81.3700     7.7400     6.5230     6.6680    24.2050 
  195.2500   -22.9220     2.4010    81.3700     7.7270     6.5230     6.5480    24.1930 
  195.3750   -22.9320     2.3930    81.3700     7.7180     6.5220     6.4970    24.1940 
  195.5000   -22.9600     2.3800    81.3700     7.7140     6.5220     6.4890    24.1940 
  195.6250   -23.0010     2.3700    81.3700     7.7140     6.5220     6.5760    24.2030 
  195.7500   -23.0420     2.3700    81.3700     7.7150     6.5210     6.7400    24.2220 
  195.8750   -23.1070     2.3830    81.3700     7.7160     6.5210     6.8950    24.2400 
  196.0000   -23.1860     2.4030    81.3700     7.7150     6.5210     6.8500    24.2490 
  196.1250   -23.2670     2.4200    81.3700     7.7130     6.5210     6.3890    24.2500 
  196.2500   -23.3320     2.4270    81.3700     7.7120     6.5210     5.9620    24.2490 
  196.3750   -23.3690     2.4240    81.3700     7.7130     6.5200     5.8260    24.2470 
  196.5000   -23.4050     2.4190    81.3700     7.7130     6.5200     5.9760    24.2470 
  196.6250   -23.4420     2.4190    81.3700     7.7130     6.5200     6.2720    24.2500 
  196.7500   -23.5250     2.4230    81.3700     7.7110     6.5190     6.4510    24.2480 
  196.8750   -23.6820     2.4260    81.3700     7.7100     6.5200     6.4550    24.2320 
  197.0000   -23.8980     2.4250    81.3700     7.7080     6.5200     6.4200    24.2080 
  197.1250   -24.1460     2.4220    81.3700     7.7070     6.5210     6.3760    24.1970 
  197.2500   -24.4100     2.4180    81.3700     7.7060     6.5220     6.3140    24.1960 
  197.3750   -24.6540     2.4170    81.3700     7.7060     6.5240     6.2250    24.1950 
  197.5000   -24.8560     2.4190    81.3700     7.7090     6.5250     6.1110    24.1910 
  197.6250   -24.9620     2.4260    81.3700     7.7170     6.5270     6.0730    24.1800 
  197.7500   -25.0090     2.4360    81.3700     7.7270     6.5300     6.0990    24.1600 
  197.8750   -25.0200     2.4450    81.3700     7.7310     6.5310     6.1530    24.1450 
