~V
VERS. 2.00: Ver 2.00
~W
STRT.M 55.0000:
STOP.M 247.0000:
STEP.M 0.1250:
NULL. -999.2500:
UWI. F10183:
~C
DEPT.M :
SP.MV :
GR.API :
RML.OHMM :
RI. :
RXO.OHMM :
CALI.CM :
DEN.GM/CC :
~A
# ...
  122.5000    -9.3690    57.7530     9.4320     7.9680     9.3780    23.5460     2.2170 
  122.6250    -9.4860    59.3960     9.5200     8.0340     9.6860    23.5670     2.2150 
  122.7500    -9.6070    56.6850     9.5940     8.1010     9.9410    23.5840     2.2170 
  122.8750    -9.6910    54.4250     9.6330     8.1560    10.1060    23.5940     2.2220 
  123.0000    -9.7410    54.0910     9.6260     8.1870    10.3430    23.5720     2.2280 
  123.1250    -9.7170    53.3330     9.5710     8.1890    10.2770    23.5480     2.2310 
  123.2500    -9.6040    53.9280     9.4960     8.1770     9.8100    23.5290     2.2300 
  123.3750    -9.4270    55.4410     9.4270     8.1670     9.2090    23.4830     2.2250 
  123.5000    -9.1860    55.0260     9.3870     8.1710     8.9470    23.4290     2.2180 
  123.6250    -8.8900    52.8210     9.3950     8.2020     9.0120    23.4090     2.2120 
  123.7500    -8.5110    51.8760     9.4370     8.2530     9.0790    23.3910     2.2100 
  123.8750    -8.0640    52.6870     9.4890     8.3090     9.0690    23.3690     2.2120 
  124.0000    -7.5680    54.8140     9.5160     8.3500     8.9730    23.3820     2.2160 
  124.1250    -7.0590    57.2600     9.4650     8.3390     8.8330    23.4270     2.2190 
  124.2500    -6.5520    58.3630     9.3160     8.2620     8.6590    23.4820     2.2210 
  124.3750    -6.0550    57.7950     9.0720     8.1180     8.4810    23.5750     2.2230 
  124.5000    -5.5660    57.7100     8.7740     7.9290     8.2190    23.6880     2.2290 
  124.6250    -5.0750    59.1820     8.6080     7.7570     7.8740    23.7540     2.2380 
  124.7500    -4.6360    60.2850     8.6490     7.6940     7.6210    23.7960     2.2460 
  124.8750    -4.1960    60.9670     9.0260     7.8240     7.6360    23.8450     2.2510 
  125.0000    -3.7720    62.5170     9.8770     8.2010     7.9450    23.8930     2.2550 
  125.1250    -3.3050    63.4360    10.6810     8.8130     8.5830    23.9630     2.2680 
  125.2500    -2.7950    61.8670    11.4450     9.4460     9.4750    24.0620     2.2950 
  125.3750    -2.2770    59.1810    11.8510     9.8580    10.4030    24.1430     2.3310 
  125.5000    -1.7940    58.6430    11.6470     9.8180    10.9190    24.1830     2.3660 
  125.6250    -1.3990    60.1120    10.7150     9.1610    10.2460    24.2080     2.3800 
  125.7500    -1.0410    62.2930     9.4860     8.1830     8.5350    24.2130     2.3690 
  125.8750    -0.7870    65.6660     8.4270     7.2400     6.9250    24.1940     2.3400 
  126.0000    -0.6040    68.8900     7.9710     6.6700     6.1130    24.1800     2.3110 
  126.1250    -0.5220    67.7990     8.5400     6.8180     6.4530    24.1550     2.3050 
  126.2500    -0.5190    64.4510    10.0000     7.6740     7.9170    24.0970     2.3300 
  126.3750    -0.5340    62.6640    12.1120     9.1770    10.6680    24.0460     2.3800 
  126.5000    -0.5920    62.1270    14.4410    11.1170    14.4810    24.0090     2.4380 
  126.6250    -0.6740    58.4820    16.3400    13.1030    18.5030    23.9400     2.4740 
  126.7500    -0.7480    54.1730    17.5000    14.7200    20.5330    23.8710     2.4780 
  126.8750    -0.7890    53.3450    18.0120    15.8220    19.5750    23.8310     2.4600 
  127.0000    -0.8060    56.2530    18.2920    16.5600    18.0220    23.7880     2.4460 
  127.1250    -0.8180    57.2090    18.7220    17.1770    18.9800    23.7410     2.4580 
  127.2500    -0.8360    53.9780    19.1130    17.6360    21.9000    23.7170     2.4870 
  127.3750    -0.9190    49.8160    18.9600    17.5910    25.1400    23.6730     2.5140 
  127.5000    -1.0130    48.1240    17.8270    16.6750    25.7960    23.5830     2.5150 
  127.6250    -1.1220    50.2680    15.5830    14.7080    20.6560    23.4870     2.4710 
  127.7500    -1.2660    55.0770    13.0020    12.3560    13.6490    23.4160     2.4040 
  127.8750    -1.4070    60.1010    10.7380    10.2110     8.8660    23.3580     2.3340 
  128.0000    -1.5260    63.4040     9.1420     8.6020     7.3210    23.3400     2.2800 
  128.1250    -1.6110    64.1420     8.3080     7.6410     7.2960    23.3820     2.2540 
  128.2500    -1.6480    64.3390     7.9810     7.1430     7.2950    23.4480     2.2510 
  128.3750    -1.5930    66.5570     8.1400     7.0770     6.8970    23.5580     2.2640 
  128.5000    -1.4470    70.7260     8.8970     7.5000     6.4290    23.7250     2.2820 
  128.6250    -1.2360    72.7870    10.5690     8.6530     7.3340    23.8930     2.2960 
  128.7500    -1.0010    69.1350    13.0980    10.5500    10.2600    24.0490     2.3020 
  128.8750    -0.7430    61.4590    16.2670    13.1330    15.0580    24.2050     2.3050 
  129.0000    -0.5000    55.6930    19.5400    16.0780    20.7760    24.3230     2.3130 
  129.1250    -0.2930    54.7990    21.9110    18.6210    24.7000    24.3550     2.3340 
  129.2500    -0.1250    54.2530    22.7500    20.0220    24.6860    24.3430     2.3660 
  129.3750    -0.0170    51.8050    21.9150    19.9150    22.1360    24.3140     2.4020 
  129.5000     0.0180    49.4910    19.9220    18.5870    20.3660    24.2730     2.4320 
  129.6250     0.0000    49.9650    17.8060    16.8840    19.8500    24.2670     2.4480 
  129.7500    -0.0270    51.6750    16.4310    15.6480    19.5900    24.2870     2.4540 
  129.8750    -0.0690    52.4480    16.0990    15.1950    19.0270    24.2880     2.4610 
  130.0000    -0.1280    50.8370    16.7760    15.5710    18.6170    24.3070     2.4780 
  130.1250    -0.2150    48.0040    18.1220    16.6150    19.8660    24.4020     2.5130 
  130.2500    -0.3110    47.6040    19.2510    17.6450    22.7660    24.5140     2.5560 
  130.3750    -0.4210    48.7270    19.3990    17.9940    24.5060    24.6070     2.5890 
  130.5000    -0.5550    48.8580    18.0900    17.1220    24.0630    24.6860     2.5880 
  130.6250    -0.7100    50.5750    15.3410    14.8420    19.9770    24.7060     2.5290 
  130.7500    -0.8730    55.9740    12.2750    12.1170    14.8290    24.6740     2.4340 
  130.8750    -1.0540    61.4730     9.7200     9.7200     9.9320    24.6210     2.3300 
  131.0000    -1.2510    65.2680     8.0340     8.0070     7.1470    24.5190     2.2450 
  131.1250    -1.4080    70.9080     7.1980     7.0210     6.5170    24.3180     2.2020 
  131.2500    -1.5500    76.2150     6.7670     6.4410     6.5010    24.1240     2.1990 
  131.3750    -1.6650    77.6260     6.5260     6.1050     6.4640    24.0060     2.2290 
  131.5000    -1.7760    77.5680     6.3940     5.9280     6.0360    23.9460     2.2760 
  131.6250    -1.8520    82.0710     6.4790     5.9610     5.8760    23.9240     2.3240 
  131.7500    -1.9070    87.5250     6.9210     6.2860     6.3980    23.9260     2.3660 
  131.8750    -1.9850    86.1750     7.8410     7.0050     8.1250    23.9050     2.3990 
  132.0000    -2.0810    76.6300     9.2470     8.1640    10.9410    23.8580     2.4210 
  132.1250    -2.2140    67.0550    10.9900     9.7190    14.3770    23.8250     2.4160 
  132.2500    -2.3710    64.7280    12.6530    11.3450    16.9030    23.7730     2.3850 
  132.3750    -2.5790    67.7720    13.8920    12.7120    16.4270    23.6870     2.3330 
  132.5000    -2.7890    70.7980    14.4990    13.5360    14.6960    23.6260     2.2750 
  132.6250    -2.9940    70.4210    14.4350    13.6460    14.4100    23.6070     2.2300 
  132.7500    -3.2070    67.7500    14.0630    13.3440    14.3660    23.5840     2.2040 
  132.8750    -3.3660    65.5870    13.6190    12.8730    14.2990    23.5890     2.1970 
  133.0000    -3.4790    66.9270    13.2500    12.4060    14.0890    23.6440     2.2030 
  133.1250    -3.5450    69.9140    13.1190    12.0990    13.4260    23.7150     2.2140 
  133.2500    -3.6040    68.5140    13.3770    12.0890    12.5970    23.8090     2.2240 
  133.3750    -3.6590    63.9550    14.2140    12.5430    12.8910    23.9520     2.2270 
  133.5000    -3.6930    61.5560    15.7300    13.5850    14.9830    24.1110     2.2210 
  133.6250    -3.7020    62.1210    17.8730    15.2810    19.0430    24.2560     2.2050 
