~V
VERS. 2.00: Ver 2.00
~W
STRT.M 52.0000:
STOP.M 233.0000:
STEP.M 0.1250:
NULL. -999.2500:
UWI. F10175:
~C
DEPT.M :
GR.API :
RML.OHMM :
RI. :
RXO.OHMM :
CALI.CM :
DEN.GM/CC :
SP.MV :
~A
# ...
  198.2500    65.9520    53.8390    51.0320    40.0550    25.2970     2.2180   -19.4280 
  198.3750    67.4010    51.3540    48.3170    37.3960    25.3380     2.2150   -19.6370 
  198.5000    69.0170    49.1040    45.9730    39.6020    25.3050     2.2120   -19.9490 
  198.6250    69.3930    47.5280    44.4560    40.8740    25.2590     2.2090   -20.2990 
  198.7500    69.4950    46.6020    43.6560    40.5180    25.2110     2.2030   -20.6410 
  198.8750    69.4660    46.2210    43.4270    40.1560    25.1810     2.1960   -20.9260 
  199.0000    68.3580    46.1950    43.5730    41.6760    25.1770     2.1900   -21.1330 
  199.1250    66.2200    46.2800    43.8310    44.0890    25.1950     2.1940   -21.2620 
  199.2500    64.3240    46.2110    43.8950    45.9870    25.2170     2.2100   -21.3170 
  199.3750    63.6530    45.8260    43.5640    50.2620    25.2200     2.2320   -21.2710 
  199.5000    63.7200    45.0670    42.7310    56.2120    25.2390     2.2500   -21.1200 
  199.6250    63.2670    43.9890    41.4030    51.5280    25.3790     2.2430   -20.8760 
  199.7500    62.8830    42.8890    39.9460    43.8400    25.7780     2.2130   -20.7060 
  199.8750    61.8050    42.0520    38.7090    36.9370    26.3190     2.1720   -20.7110 
  200.0000    61.0430    41.7370    37.9910    32.1440    26.7280     2.1380   -20.8680 
  200.1250    61.4140    42.2380    38.1210    34.8240    26.5440     2.1310   -21.0880 
  200.2500    62.5030    43.4870    39.0200    38.3480    26.0510     2.1410   -21.1780 
  200.3750    64.8480    45.4590    40.6220    44.2060    25.6040     2.1590   -21.0510 
  200.5000    68.0730    48.1560    42.8600    50.0680    25.4280     2.1750   -20.7900 
  200.6250    70.6850    51.8360    45.9160    54.4750    25.4360     2.1900   -20.5350 
  200.7500    70.4480    56.5720    49.8980    56.0590    25.4170     2.2050   -20.1210 
  200.8750    68.7390    62.4660    55.0320    57.1590    25.3510     2.2200   -19.4450 
  201.0000    67.9820    69.2760    61.3260    70.4170    25.2130     2.2290   -18.5320 
  201.1250    65.6240    75.9690    68.0910    90.0430    25.0680     2.2290   -17.5150 
  201.2500    60.5450    80.9070    73.5420   106.1820    24.9220     2.2270   -16.6270 
  201.3750    55.8360    82.6640    75.8660   110.5790    24.8190     2.2290   -16.0300 
  201.5000    56.6370    80.5890    74.0230   104.2760    24.8050     2.2330   -15.6140 
  201.6250    62.9310    74.9300    68.2040    90.2310    24.8520     2.2340   -15.2100 
  201.7500    67.5830    68.1300    61.2520    72.8650    24.8820     2.2240   -14.8640 
  201.8750    68.7820    62.0950    55.2680    60.3680    24.9360     2.2070   -14.6200 
  202.0000    67.4760    58.2640    51.6420    53.9000    25.0260     2.1980   -14.4180 
  202.1250    65.2860    57.8220    51.4830    52.2620    25.1030     2.2260   -14.1780 
  202.2500    63.6210    60.0530    54.1810    51.5150    25.0410     2.2950   -13.8390 
  202.3750    62.4220    63.9430    59.0760    57.3880    24.7070     2.3940   -13.3530 
  202.5000    60.9160    67.7320    64.8540    80.7380    24.3240     2.5020   -12.8000 
  202.6250    58.6960    68.4190    68.3740   141.9850    24.1220     2.5940   -12.3600 
  202.7500    58.3250    64.4540    66.3050   144.3840    23.9720     2.6580   -11.9850 
  202.8750    60.2750    55.7450    57.1830   103.7740    23.8520     2.6880   -11.6340 
  203.0000    62.3310    43.9490    43.3840    66.6330    23.8110     2.6810   -11.3380 
  203.1250    62.9820    31.9980    30.1060    46.9820    23.9510     2.6290   -11.1180 
  203.2500    62.2890    22.2350    20.2960    25.0240    24.0770     2.5540   -10.9430 
  203.3750    61.8030    15.3560    14.0150    11.8460    24.1080     2.4780   -10.7980 
  203.5000    63.2430    11.0730    10.3280     7.1220    24.0150     2.4220   -10.6910 
  203.6250    64.3280     8.8870     8.4420     6.1460    23.8790     2.3990   -10.6260 
  203.7500    61.9810     7.7850     7.4620     5.9790    23.7400     2.3920   -10.6780 
  203.8750    57.4080     7.3570     7.0980     6.4740    23.7670     2.3900   -10.8710 
  204.0000    55.8580     7.3530     7.1630     8.2640    24.0570     2.3850   -11.1700 
  204.1250    60.8120     7.6380     7.5450    10.3210    24.3570     2.3810   -11.5560 
  204.2500    68.6190     8.0420     8.0780    10.7070    24.5230     2.3800   -12.0210 
  204.3750    75.0390     8.4740     8.6570     9.5190    24.5830     2.3830   -12.5280 
  204.5000    81.0060     8.8510     9.1630     9.3540    24.6760     2.3890   -12.9940 
  204.6250    88.6190     9.0920     9.4590     9.6240    24.7140     2.3950   -13.3570 
  204.7500    94.6040     9.1980     9.5360     9.4910    24.8260     2.3980   -13.5510 
  204.8750    96.4530     9.1940     9.4220     9.3920    25.0280     2.3980   -13.5600 
  205.0000    95.9650     9.1290     9.1800     9.0660    25.2290     2.3970   -13.4470 
  205.1250    99.2460     9.0790     8.8990     8.5290    24.9360     2.3960   -13.2560 
  205.2500   103.9120     9.1320     8.6880     8.7010    24.7510     2.3990   -13.0170 
  205.3750   105.9650     9.3860     8.6390     8.9910    24.6730     2.4050   -12.8020 
  205.5000   105.7360     9.9330     8.8460     9.5030    24.6660     2.4110   -12.6840 
  205.6250   105.6260    10.8450     9.4740    10.3300    24.6650     2.4110   -12.7050 
  205.7500   106.2110    12.0130    10.5460    12.0270    24.6610     2.4030   -12.8550 
  205.8750   104.9250    13.4060    12.0750    14.4740    24.6600     2.3920   -13.1510 
  206.0000   101.4520    15.0030    13.9610    18.6150    24.6680     2.3800   -13.5570 
  206.1250    97.9380    16.6700    15.8960    21.8860    24.6850     2.3720   -14.0500 
  206.2500    94.3880    18.1210    17.4620    23.5910    24.7090     2.3670   -14.6080 
  206.3750    90.4530    19.1860    18.4570    23.7690    24.7180     2.3630   -15.1520 
  206.5000    87.4670    19.9060    18.9650    23.4080    24.7230     2.3610   -15.5950 
  206.6250    83.8620    20.4920    19.2740    22.4310    24.7160     2.3630   -15.8380 
  206.7500    78.7490    21.1790    19.7020    22.3090    24.6960     2.3680   -15.8830 
  206.8750    75.4540    22.0290    20.3490    24.5930    24.6660     2.3730   -15.7440 
  207.0000    76.5310    22.9900    21.1700    29.5240    24.6530     2.3730   -15.4980 
  207.1250    80.2530    23.9250    22.0110    30.0000    24.6290     2.3650   -15.2280 
  207.2500    82.0500    24.7280    22.7200    28.5940    24.6510     2.3540   -14.9350 
  207.3750    82.1870    25.3850    23.2480    26.9750    24.6840     2.3430   -14.6080 
  207.5000    82.5900    25.9560    23.6500    26.8270    24.7120     2.3330   -14.2820 
  207.6250    80.9720    26.5560    24.0730    27.6970    24.7300     2.3250   -14.0710 
  207.7500    79.1010    27.2560    24.6350    28.5980    24.7330     2.3160   -13.9740 
  207.8750    80.1830    28.0560    25.3470    29.6540    24.6960     2.3080   -13.8770 
  208.0000    83.5370    28.8980    26.1370    30.9790    24.6620     2.3010   -13.7250 
  208.1250    83.6970    29.6970    26.8890    32.3670    24.6500     2.2970   -13.4230 
  208.2500    80.0870    30.4260    27.5290    33.6990    24.6500     2.2960   -13.0270 
  208.3750    77.5360    31.1230    28.0800    34.2580    24.6490     2.2970   -12.6400 
  208.5000    78.0300    31.8640    28.6430    33.9570    24.6470     2.3040   -12.3280 
  208.6250    78.2800    32.7200    29.3670    34.0550    24.6340     2.3210   -12.0040 
  208.7500    77.5520    33.6050    30.2330    35.1990    24.5900     2.3490   -11.7100 
  208.8750    76.8500    34.3230    31.0680    37.2980    24.5250     2.3810   -11.5130 
  209.0000    75.2940    34.6140    31.5740    41.1030    24.4690     2.4080   -11.3570 
  209.1250    73.2600    34.1340    31.3280    42.6930    24.4500     2.4190   -11.2280 
  209.2500    74.8600    32.9670    30.3280    39.7050    24.4460     2.4160   -11.0920 
  209.3750    78.8720    31.3050    28.7320    34.5910    24.4460     2.4100   -10.9370 
