~V
VERS. 2.00: Ver 2.00
~W
STRT.M 49.0000:
STOP.M 245.0000:
STEP.M 0.1250:
NULL. -999.2500:
UWI. F10179:
~C
DEPT.M :
DEN.GM/CC :
GR.API :
RML.OHMM :
RI. :
RXO.OHMM :
CALI.CM :
SP.MV :
~A
# ...
  206.5000     2.1610    52.6360   135.0900   119.3480   115.1610    25.5140   -40.3290 
  206.6250     2.1360    51.4920   143.0030   125.2240   118.2450    25.6800   -40.3310 
  206.7500     2.1240    52.1900   147.0900   129.3290   122.1730    25.2670   -40.3360 
  206.8750     2.1820    53.2740   127.5010   114.6530   124.8350    24.4050   -40.3480 
  207.0000     2.3010    53.5990    89.5770    82.6830   117.9820    23.8390   -40.3530 
  207.1250     2.4400    52.8480    53.1090    49.8310    99.0130    23.5780   -40.3670 
  207.2500     2.5400    52.0220    28.8470    27.2750    40.7050    23.4440   -40.4120 
  207.3750     2.5540    52.5790    16.8200    16.0930    13.6180    23.3710   -40.5180 
  207.5000     2.5160    55.7940    10.7850    10.4970     6.8800    23.4940   -40.6760 
  207.6250     2.4610    60.8410     8.0290     7.8290     5.4810    23.6690   -40.8750 
  207.7500     2.4180    63.4980     7.0170     6.6720     5.5980    23.8250   -41.0860 
  207.8750     2.4020    59.8550     7.0310     6.4960     5.7350    23.8660   -41.2700 
  208.0000     2.3950    53.4800     7.4320     6.7910     5.7190    23.8440   -41.4320 
  208.1250     2.3860    49.7850     7.9110     7.2830     5.7290    23.7900   -41.5990 
  208.2500     2.3730    51.5010     8.2140     7.7050     6.1440    23.7730   -41.7840 
  208.3750     2.3610    56.8030     8.1070     7.7760     6.2240    23.8260   -41.9940 
  208.5000     2.3500    60.8870     7.6370     7.4740     5.8590    23.8050   -42.2400 
  208.6250     2.3430    63.3210     6.9340     6.8900     5.3100    23.7010   -42.5320 
  208.7500     2.3390    66.7780     6.2040     6.2000     4.7630    23.5550   -42.9100 
  208.8750     2.3410    72.6470     5.6900     5.6190     4.3310    23.4490   -43.4020 
  209.0000     2.3440    77.6130     5.4770     5.2600     4.1440    23.3930   -43.9730 
  209.1250     2.3470    77.8100     5.5780     5.1600     4.2420    23.4410   -44.6090 
  209.2500     2.3500    73.6420     5.9440     5.2980     4.6260    23.5220   -45.2750 
  209.3750     2.3510    68.1500     6.4960     5.6310     5.7490    23.5080   -45.9530 
  209.5000     2.3490    67.6740     7.0690     6.0330     6.8450    23.5350   -46.6340 
  209.6250     2.3430    73.2420     7.5510     6.4120     6.7990    23.6500   -47.2740 
  209.7500     2.3420    81.9430     7.8850     6.7040     6.6610    23.7760   -47.8040 
  209.8750     2.3530    89.6890     8.0750     6.8790     6.3840    23.7660   -48.2000 
  210.0000     2.3650    94.2010     8.2180     6.9970     6.2940    23.6970   -48.4610 
  210.1250     2.3710    96.3410     8.3810     7.1120     6.4860    23.6800   -48.5860 
  210.2500     2.3740   100.6850     8.5920     7.2590     6.9980    23.7420   -48.5880 
  210.3750     2.3790   107.1960     8.8340     7.4330     7.6490    23.8460   -48.4650 
  210.5000     2.3840   109.1520     9.0490     7.5870     8.0780    23.9500   -48.2140 
  210.6250     2.3850   105.3190     9.1950     7.6790     8.2870    23.9970   -47.8570 
  210.7500     2.3810   102.7810     9.2550     7.6940     8.4830    23.9850   -47.4240 
  210.8750     2.3780   104.9580     9.2350     7.6430     8.3830    24.0290   -46.9170 
  211.0000     2.3790   107.0500     9.1870     7.5700     8.0000    24.0540   -46.4030 
  211.1250     2.3840   107.0070     9.1500     7.5000     7.6570    24.0790   -45.8760 
  211.2500     2.3870   105.4070     9.1550     7.4480     7.5090    24.0740   -45.3330 
  211.3750     2.3880   106.0820     9.2270     7.4320     7.5220    24.0700   -44.7660 
  211.5000     2.3900   113.0040     9.3380     7.4380     7.4830    24.0670   -44.2060 
  211.6250     2.3900   123.2310     9.4380     7.4360     7.4970    24.0920   -43.6630 
  211.7500     2.3870   129.6570     9.4580     7.3810     7.6940    24.0640   -43.1390 
  211.8750     2.3840   128.9150     9.3620     7.2450     7.8990    24.0300   -42.6330 
  212.0000     2.3840   125.6260     9.2850     7.1160     7.9310    23.9770   -42.1240 
  212.1250     2.3860   118.5810     9.4670     7.1450     7.8440    23.9960   -41.6240 
  212.2500     2.3850   108.2710    10.2170     7.5180     7.8370    24.0110   -41.1510 
  212.3750     2.3780   100.0400    12.0290     8.5540     8.6810    23.9660   -40.7170 
  212.5000     2.3670    96.7760    14.9920    10.3850    11.2210    23.8430   -40.3470 
  212.6250     2.3510    93.8860    19.1190    13.1790    16.1980    23.7040   -40.0320 
  212.7500     2.3310    88.4390    24.1370    16.9590    19.9120    23.4500   -39.7620 
  212.8750     2.3130    81.9520    29.3040    21.4020    21.5030    23.2830   -39.5160 
  213.0000     2.3030    77.7120    33.5570    25.5020    23.8340    23.2810   -39.2660 
  213.1250     2.3040    76.5780    36.2190    28.4510    29.5190    23.4430   -38.9980 
  213.2500     2.3130    76.5950    37.1860    29.9450    37.7730    23.7750   -38.6970 
  213.3750     2.3300    78.6870    36.6670    30.0350    40.8920    23.9260   -38.3460 
  213.5000     2.3530    80.6120    35.3220    29.2930    38.3060    23.9180   -37.9140 
  213.6250     2.3850    79.4920    33.3680    27.9320    33.6940    23.8530   -37.3850 
  213.7500     2.4270    76.0560    30.9510    26.1170    30.5720    23.7990   -36.7890 
  213.8750     2.4670    73.8210    28.1780    23.9670    28.0010    23.7050   -36.1560 
  214.0000     2.4900    72.2560    25.3110    21.7110    24.8790    23.6650   -35.5020 
  214.1250     2.4910    66.9560    22.6140    19.5490    21.4450    23.6710   -34.8440 
  214.2500     2.4730    61.6220    20.3420    17.6800    18.4930    23.7070   -34.2100 
  214.3750     2.4430    63.9080    18.7340    16.3010    15.9320    23.7330   -33.6230 
  214.5000     2.4140    68.0360    17.6360    15.3300    14.2230    23.7570   -33.0630 
  214.6250     2.3950    66.7020    16.8560    14.6420    13.9610    23.7640   -32.5540 
  214.7500     2.3910    61.4840    16.1680    14.0620    14.7270    23.7300   -32.1000 
  214.8750     2.3940    60.1120    15.4250    13.4570    14.9130    23.6850   -31.6900 
  215.0000     2.3900    64.8060    14.6930    12.8470    13.6450    23.6720   -31.3140 
  215.1250     2.3720    70.5430    14.1280    12.3430    11.6060    23.6870   -30.9840 
  215.2500     2.3420    72.4590    13.8730    12.0590    10.4150    23.6790   -30.6870 
  215.3750     2.3140    69.5970    14.0420    12.1090    10.5560    23.6450   -30.4200 
  215.5000     2.2960    66.1640    14.4740    12.4120    11.2540    23.6530   -30.1630 
  215.6250     2.2860    66.0220    14.9640    12.8250    12.3500    23.7860   -29.9100 
  215.7500     2.2790    68.0410    15.2930    13.1540    13.2160    23.9610   -29.6580 
  215.8750     2.2740    67.8440    15.3050    13.2180    14.5650    23.9250   -29.3820 
  216.0000     2.2710    66.2280    15.1210    13.0750    15.1800    23.7200   -29.1190 
  216.1250     2.2690    68.3220    14.9040    12.8530    14.8860    23.7310   -28.8600 
  216.2500     2.2670    75.5340    14.8060    12.6840    13.6700    23.9450   -28.5860 
  216.3750     2.2660    77.0700    14.9030    12.6470    12.9460    24.0790   -28.3070 
  216.5000     2.2660    71.1320    15.1000    12.6920    13.2140    24.1140   -28.0620 
  216.6250     2.2690    65.5600    15.3210    12.7810    13.8050    24.1310   -27.8310 
  216.7500     2.2750    65.5130    15.5190    12.8920    13.9670    24.1620   -27.6240 
  216.8750     2.2830    71.0380    15.6890    13.0250    13.9450    24.2000   -27.4570 
  217.0000     2.2940    77.0040    15.8850    13.1900    14.0970    24.1710   -27.3080 
  217.1250     2.3080    78.7430    16.1360    13.3980    15.2210    24.0880   -27.1770 
  217.2500     2.3210    75.7430    16.3860    13.6140    17.3960    23.9930   -27.0470 
  217.3750     2.3350    75.1560    16.4710    13.7210    17.8520    23.8510   -26.8670 
  217.5000     2.3510    80.6980    16.2810    13.6290    16.1110    23.7460   -26.6480 
  217.6250     2.3690    88.3260    15.7240    13.2450    14.6170    23.6510   -26.4060 
