~V
VERS. 2.00: Ver 2.00
~W
STRT.M 40.0000:
STOP.M 206.0000:
STEP.M 0.1250:
NULL. -999.2500:
UWI. F10149:
~C
DEPT.M :
SP.MV :
DEN.GM/CC :
GR.API :
RML.OHMM :
RI. :
RXO.OHMM :
CALI.CM :
~A
# ...
   85.0000   -36.8900     2.2180    64.3970     7.9850     5.8610    11.2290    24.2490 
   85.1250   -35.2110     2.2490    66.5760     7.6700     5.5900     9.3110    24.4160 
   85.2500   -33.6360     2.2460    70.4470     7.5150     5.4170     7.8130    24.4570 
   85.3750   -32.1120     2.2140    75.5140     7.5030     5.3230     7.9480    24.3710 
   85.5000   -30.7310     2.1750    78.5580     7.5260     5.2620     8.9300    24.2820 
   85.6250   -29.6280     2.1570    76.3990     7.4750     5.2080     8.0960    24.3110 
   85.7500   -28.8790     2.1680    74.3570     7.4010     5.1850     6.7280    24.3960 
   85.8750   -28.4910     2.2020    75.7150     7.4560     5.2530     6.4700    24.4440 
   86.0000   -28.3750     2.2400    78.2050     7.7850     5.4760     7.8850    24.3960 
   86.1250   -28.4150     2.2610    76.5660     8.4410     5.9260    11.0770    24.3340 
   86.2500   -28.5800     2.2600    71.8510     9.1870     6.5370    13.7790    24.2470 
   86.3750   -28.8950     2.2460    69.3950     9.8240     7.2120    13.7560    24.1060 
   86.5000   -29.2600     2.2270    70.2640    10.2720     7.8230    12.9320    23.9400 
   86.6250   -29.5590     2.2100    71.6390    10.5650     8.2320    13.0760    23.8790 
   86.7500   -29.6020     2.1960    70.1560    10.7430     8.4100    13.3820    23.9250 
   86.8750   -29.3010     2.1870    67.7840    10.6950     8.3390    13.6640    24.0580 
   87.0000   -28.6440     2.1860    68.3620    10.3040     8.0130    13.6340    24.2180 
   87.1250   -27.6470     2.1960    74.3510     9.5570     7.4180    12.1360    24.3860 
   87.2500   -26.4680     2.2130    81.4940     8.7530     6.6900     8.9740    24.5350 
   87.3750   -25.2150     2.2290    85.8240     8.1060     5.9610     6.5910    24.6230 
   87.5000   -24.0230     2.2430    87.7440     7.6510     5.3330     5.7240    24.6610 
   87.6250   -23.0150     2.2550    90.4110     7.2670     4.8760     5.5750    24.6610 
   87.7500   -22.2440     2.2700    92.7420     6.8780     4.5650     5.5040    24.6500 
   87.8750   -21.8080     2.2860    92.5550     6.5760     4.4100     5.4540    24.6380 
   88.0000   -21.7830     2.2980    91.4100     6.5660     4.4690     5.5340    24.6210 
   88.1250   -22.1800     2.2980    91.1940     7.2260     4.9160     5.8650    24.6180 
   88.2500   -22.8700     2.2940    87.3060     8.6870     5.8250     6.7170    24.6280 
   88.3750   -23.7750     2.2980    79.4520    10.9590     7.2610     9.3810    24.6400 
   88.5000   -24.8780     2.3200    73.8130    13.7180     9.1430    15.8970    24.6240 
   88.6250   -26.1660     2.3560    76.5570    15.8390    10.9300    28.1920    24.5380 
   88.7500   -27.5730     2.3820    82.2530    16.1300    11.7540    29.7030    24.3790 
   88.8750   -29.0210     2.3770    84.0000    14.4780    11.2600    20.1610    24.2200 
   89.0000   -30.3890     2.3360    79.0540    12.0090     9.9080    14.0470    24.1270 
   89.1250   -31.5750     2.2700    70.0810    10.1210     8.5120    11.9410    24.1130 
   89.2500   -32.4830     2.2050    63.1870     9.0840     7.5140    11.2060    24.1450 
   89.3750   -33.0430     2.1530    60.4150     8.6170     6.9570    10.9890    24.1940 
   89.5000   -33.1910     2.1200    62.1440     8.3680     6.7230    11.0860    24.2350 
   89.6250   -32.8480     2.1070    67.1370     8.0880     6.6440    11.3250    24.2620 
   89.7500   -32.1010     2.1080    71.6730     7.7820     6.5430    11.6970    24.2880 
   89.8750   -31.0300     2.1200    74.8340     7.5520     6.3670    11.0450    24.3060 
   90.0000   -29.7850     2.1370    77.7260     7.4480     6.1410     9.1860    24.3020 
   90.1250   -28.4510     2.1560    79.2090     7.4010     5.9500     7.4770    24.2750 
   90.2500   -27.1420     2.1750    77.0080     7.3310     5.8480     7.5740    24.2520 
   90.3750   -25.8970     2.1940    73.5740     7.2520     5.8400     7.9930    24.2440 
   90.5000   -24.7370     2.2110    73.8770     7.2000     5.8930     8.2850    24.2430 
   90.6250   -23.7780     2.2240    78.3210     7.1920     5.9380     8.4150    24.2690 
   90.7500   -23.0440     2.2310    83.8210     7.1900     5.9160     7.5120    24.3250 
   90.8750   -22.4980     2.2320    87.5700     7.1530     5.8250     6.6870    24.3680 
   91.0000   -22.0820     2.2280    89.1520     7.0660     5.7070     6.4610    24.3600 
   91.1250   -21.8030     2.2240    88.7720     6.9720     5.6150     6.5930    24.3050 
   91.2500   -21.6860     2.2220    88.0260     6.9430     5.5700     6.7340    24.2620 
   91.3750   -21.7420     2.2230    89.3430     6.9980     5.5640     6.7760    24.2420 
   91.5000   -21.9600     2.2260    90.2030     7.1200     5.5730     6.7720    24.2260 
   91.6250   -22.3590     2.2340    88.6390     7.2820     5.5800     6.7170    24.1830 
   91.7500   -22.9030     2.2430    85.9780     7.4630     5.6010     6.7350    24.1450 
   91.8750   -23.5950     2.2520    84.4660     7.6760     5.6650     6.8600    24.1540 
   92.0000   -24.4450     2.2570    85.0980     7.9440     5.7920     7.2640    24.2440 
   92.1250   -25.3980     2.2540    86.2590     8.2620     5.9820     8.1300    24.2590 
   92.2500   -26.3580     2.2420    85.9600     8.5220     6.1840     8.9510    24.3120 
   92.3750   -27.3270     2.2250    82.5230     8.6340     6.3510     9.5640    24.4510 
   92.5000   -28.2650     2.2030    77.8500     8.5960     6.4500     9.9140    24.6300 
   92.6250   -29.0560     2.1840    75.3060     8.4900     6.4660    10.0190    24.7770 
   92.7500   -29.7000     2.1690    73.6820     8.3980     6.4370    10.0160    24.8560 
   92.8750   -30.1790     2.1610    72.1000     8.3260     6.3870    10.0100    24.9060 
   93.0000   -30.4560     2.1600    69.9580     8.2530     6.3270     9.9680    24.9540 
   93.1250   -30.6150     2.1620    69.2560     8.1750     6.2600     9.8750    25.0050 
   93.2500   -30.6730     2.1630    71.2040     8.1220     6.1950     9.7390    25.0310 
   93.3750   -30.6760     2.1610    73.6530     8.1020     6.1420     9.6430    25.0380 
   93.5000   -30.7010     2.1550    74.2050     8.0660     6.1130     9.5740    25.0390 
   93.6250   -30.8010     2.1450    71.8370     7.9510     6.1190     9.3720    25.0390 
   93.7500   -30.9660     2.1340    69.2310     7.8070     6.1530     9.2360    25.0390 
   93.8750   -31.2220     2.1230    68.0690     7.7110     6.2120     9.2880    25.0340 
   94.0000   -31.5310     2.1150    67.9160     7.7330     6.2980     9.5520    25.0010 
   94.1250   -31.8600     2.1160    68.8040     7.9240     6.4290     9.9860    24.8580 
   94.2500   -32.2880     2.1230    68.9850     8.2690     6.6140    10.4820    24.6020 
   94.3750   -32.7790     2.1370    67.8580     8.7670     6.8670    10.8760    24.3240 
   94.5000   -33.3010     2.1520    64.6310     9.3800     7.1920    11.1890    24.1140 
   94.6250   -33.8470     2.1640    60.3330     9.9730     7.5690    11.4300    23.9710 
   94.7500   -34.4450     2.1720    58.2410    10.3530     7.9290    12.1120    23.8640 
   94.8750   -35.0430     2.1750    58.6760    10.4390     8.1980    13.1080    23.7860 
   95.0000   -35.6630     2.1730    57.7720    10.2830     8.3180    13.9350    23.7530 
   95.1250   -36.2940     2.1630    55.3480    10.0270     8.2530    13.7220    23.7690 
   95.2500   -36.9020     2.1470    54.5490     9.7910     8.0740    13.1620    23.8140 
   95.3750   -37.4400     2.1300    55.8260     9.5700     7.8400    12.8180    23.8950 
   95.5000   -37.9270     2.1160    56.4290     9.3280     7.5960    12.7960    23.9990 
   95.6250   -38.3530     2.1140    53.6480     9.0570     7.3630    13.0800    24.1190 
   95.7500   -38.6410     2.1240    51.2610     8.7780     7.1340    13.5020    24.2150 
   95.8750   -38.8340     2.1390    52.3240     8.4870     6.8930    13.7840    24.2920 
   96.0000   -38.9220     2.1500    55.7200     8.1830     6.6430    13.6330    24.3590 
   96.1250   -38.8400     2.1420    58.0530     7.9970     6.4680    13.4390    24.4020 
