~V
VERS. 2.00: Ver 2.00
~W
STRT.M 55.0000:
STOP.M 251.0000:
STEP.M 0.1250:
NULL. -999.2500:
UWI. F10189:
~C
DEPT.M :
DEN.GM/CC :
SP.MV :
GR.API :
RML.OHMM :
RI. :
RXO.OHMM :
CALI.CM :
~A
# ...
  190.0000     2.2720   -24.3900    76.7750    25.2390    21.8460    41.8470    24.6800 
  190.1250     2.2590   -24.8890    73.4670    32.0650    29.9160    49.9900    24.9510 
  190.2500     2.2560   -25.3140    72.9640    40.4460    38.3520    56.7270    25.2880 
  190.3750     2.2570   -25.6530    72.6830    47.4630    45.4380    62.6580    25.5210 
  190.5000     2.2600   -25.9090    69.8440    52.3600    50.2160    68.4560    25.5510 
  190.6250     2.2570   -26.0860    65.5030    55.5300    52.8810    71.8320    25.3590 
  190.7500     2.2460   -26.1870    62.6190    58.4280    54.8700    73.3260    25.2220 
  190.8750     2.2310   -26.2150    62.5790    61.6000    56.7880    75.1670    25.2470 
  191.0000     2.2210   -26.1530    64.6230    65.0180    58.7510    77.3920    25.3130 
  191.1250     2.2190   -26.0310    66.0670    68.3970    60.6860    79.8240    25.3050 
  191.2500     2.2180   -25.8670    64.8890    71.4590    62.5300    82.5780    25.2720 
  191.3750     2.2140   -25.6840    62.1830    73.8890    64.1560    82.8040    25.1970 
  191.5000     2.2100   -25.4940    61.5600    75.2190    65.2620    80.0960    25.0040 
  191.6250     2.2140   -25.2840    63.0280    74.5280    65.1590    76.7760    24.7780 
  191.7500     2.2240   -25.0430    64.9420    71.6650    63.5050    72.8130    24.6460 
  191.8750     2.2330   -24.7700    68.4620    66.7800    60.1180    68.0640    24.6060 
  192.0000     2.2380   -24.4990    72.9130    60.6980    55.3540    63.6270    24.6150 
  192.1250     2.2440   -24.2600    73.1370    54.8540    50.2320    57.9820    24.6190 
  192.2500     2.2560   -24.0420    69.4160    50.4220    46.0170    50.9070    24.6200 
  192.3750     2.2710   -23.8050    66.6360    47.9900    43.4660    45.1160    24.6190 
  192.5000     2.2850   -23.5530    68.1400    47.7390    42.9410    42.6810    24.6190 
  192.6250     2.2880   -23.3260    70.2600    49.7570    44.7680    46.6380    24.6190 
  192.7500     2.2830   -23.1140    67.5020    52.9740    48.0980    52.8640    24.6190 
  192.8750     2.2770   -22.9380    60.1140    56.1470    51.8890    59.1270    24.6190 
  193.0000     2.2770   -22.7970    54.8230    57.6250    54.6060    63.6320    24.6120 
  193.1250     2.2840   -22.6390    57.3730    55.8230    54.3910    61.1400    24.5910 
  193.2500     2.2980   -22.4700    63.0470    52.0370    51.7720    53.7300    24.5610 
  193.3750     2.3220   -22.3240    67.6040    47.7680    48.0040    47.6700    24.5360 
  193.5000     2.3610   -22.1680    68.1320    43.7960    44.1390    45.2470    24.5010 
  193.6250     2.4220   -21.9990    64.0100    39.8910    40.3380    43.8400    24.4390 
  193.7500     2.4940   -21.8080    60.7500    35.4160    36.0630    42.0080    24.3300 
  193.8750     2.5470   -21.5760    61.6840    30.2230    31.0240    41.2550    24.2290 
  194.0000     2.5480   -21.3200    66.1380    24.8110    25.5830    39.1090    24.1830 
  194.1250     2.5050   -21.0560    73.4400    20.2500    20.7850    33.3020    24.2070 
  194.2500     2.4700   -20.7550    81.9810    17.0590    17.2380    26.4330    24.2360 
  194.3750     2.4620   -20.4090    86.1880    15.3720    15.0770    23.5620    24.2700 
  194.5000     2.4750   -20.0380    82.5260    15.1180    14.2390    24.6890    24.3230 
  194.6250     2.5030   -19.6410    73.1520    16.2790    14.8060    26.8020    24.3440 
  194.7500     2.5310   -19.2600    65.1560    18.2930    16.3830    28.8670    24.3580 
  194.8750     2.5520   -18.9330    60.5580    20.7060    18.6450    30.3500    24.3840 
  195.0000     2.5730   -18.6710    58.9090    23.0220    21.1200    30.1630    24.3780 
  195.1250     2.6040   -18.4860    58.4320    24.8650    23.2910    28.6750    24.2990 
  195.2500     2.6360   -18.3900    57.4290    26.3690    25.0580    29.2690    24.2650 
  195.3750     2.6550   -18.4040    56.2110    27.6010    26.4660    31.9110    24.2500 
  195.5000     2.6580   -18.5120    55.7990    28.1890    27.2850    34.4450    24.2440 
  195.6250     2.6490   -18.6770    54.7520    26.7470    26.3170    34.5380    24.2450 
  195.7500     2.6370   -18.8600    52.9520    22.8740    23.0150    31.6240    24.2470 
  195.8750     2.6240   -19.0200    54.1460    17.4960    18.0310    26.0910    24.2400 
  196.0000     2.6060   -19.0920    58.6100    12.3260    12.9390    19.8560    24.2100 
  196.1250     2.5580   -19.0670    61.5530     8.7390     9.1560    13.6570    24.1310 
  196.2500     2.4850   -18.9880    59.8620     6.5490     6.6750     8.1130    24.0590 
  196.3750     2.4140   -18.8580    55.8460     5.3850     5.2150     5.2400    24.0340 
  196.5000     2.3700   -18.6890    53.8560     4.8950     4.4710     4.4520    23.9880 
  196.6250     2.3570   -18.4950    53.3390     4.8560     4.2650     4.6130    23.8270 
  196.7500     2.3560   -18.2860    54.5890     5.0050     4.3280     4.9180    23.6380 
  196.8750     2.3580   -18.0860    56.3220     5.2190     4.5180     5.2780    23.6240 
  197.0000     2.3600   -17.9560    56.2560     5.4240     4.7290     5.5700    23.7510 
  197.1250     2.3650   -17.9400    53.9510     5.5930     4.9020     5.5500    23.7860 
  197.2500     2.3760   -18.0020    50.6070     5.7570     5.0450     5.5410    23.7470 
  197.3750     2.3890   -18.1380    47.9360     5.9430     5.1830     5.5030    23.6910 
  197.5000     2.3970   -18.3720    48.1520     6.1710     5.3460     5.5310    23.7180 
  197.6250     2.4000   -18.7320    55.6280     6.4550     5.5640     5.9300    23.7380 
  197.7500     2.4000   -19.1800    68.7100     6.7750     5.8200     6.5650    23.7460 
  197.8750     2.4010   -19.6750    79.0330     7.1030     6.0820     7.1260    23.7380 
  198.0000     2.4030   -20.1840    83.3080     7.4000     6.3100     7.7080    23.8130 
  198.1250     2.4060   -20.6950    83.8530     7.6160     6.4580     8.2560    23.7910 
  198.2500     2.4090   -21.2000    82.6410     7.7420     6.5280     8.9010    23.7240 
  198.3750     2.4040   -21.6830    76.8640     7.7960     6.5330     9.3950    23.6100 
  198.5000     2.3880   -22.1190    67.7470     7.8240     6.4940     9.2640    23.5820 
  198.6250     2.3660   -22.4900    61.6320     7.8750     6.4370     8.5970    23.7710 
  198.7500     2.3520   -22.8030    57.5840     7.9440     6.3880     7.9680    24.0620 
  198.8750     2.3540   -23.0790    53.1680     8.0110     6.3620     7.7540    24.2830 
  199.0000     2.3690   -23.3210    48.2800     8.0620     6.3650     7.7930    24.3190 
  199.1250     2.3840   -23.5080    46.8740     8.0860     6.3890     7.9740    24.3020 
  199.2500     2.3930   -23.6210    50.5310     8.0690     6.4080     7.9870    24.3060 
  199.3750     2.3980   -23.6600    56.1970     7.9820     6.3880     7.5390    24.3130 
  199.5000     2.3980   -23.6390    60.2400     7.7820     6.2930     6.9900    24.2560 
  199.6250     2.3930   -23.5670    61.2030     7.4270     6.0860     6.6320    24.2340 
  199.7500     2.3920   -23.4860    60.1860     6.9890     5.8070     6.4100    24.2230 
  199.8750     2.3960   -23.4190    57.4560     6.5680     5.5060     6.1950    24.1680 
  200.0000     2.3950   -23.3890    53.8290     6.2640     5.2400     5.9960    24.1340 
  200.1250     2.3740   -23.4370    52.0800     6.1720     5.0640     5.7250    24.1760 
  200.2500     2.3500   -23.6080    51.3420     6.2540     4.9870     5.5060    24.2630 
  200.3750     2.3420   -23.9300    50.3740     6.4630     5.0110     5.5620    24.2400 
  200.5000     2.3540   -24.4080    52.4430     6.7390     5.1270     5.9180    23.9840 
  200.6250     2.3720   -25.0700    59.8980     7.0240     5.3110     6.4880    23.7370 
  200.7500     2.3780   -25.8940    67.8310     7.2700     5.5050     7.0040    23.7680 
  200.8750     2.3660   -26.8280    74.3540     7.4460     5.6690     7.2960    24.1040 
  201.0000     2.3400   -27.8320    80.4350     7.5400     5.7780     7.5880    24.7070 
  201.1250     2.3130   -28.8790    86.6400     7.5680     5.8270     7.9240    25.1600 
