~V
VERS. 2.00: Ver 2.00
~W
STRT.M 62.0000:
STOP.M 235.0000:
STEP.M 0.1250:
NULL. -999.2500:
UWI. F10157:
~C
DEPT.M :
SP.MV :
DEN.GM/CC :
GR.API :
RML.OHMM :
RI. :
RXO.OHMM :
CALI.CM :
~A
# ...
   95.7500   -11.9730     2.1770    59.6220    10.3540     8.7300     9.4760    25.3780 
   95.8750   -12.0200     2.1920    58.1370    10.5910     8.9280     9.9140    25.3580 
   96.0000   -12.0560     2.2070    58.9700    10.8220     9.1360    10.6470    25.3360 
   96.1250   -12.0630     2.2120    59.5970    10.9400     9.2790    11.2440    25.3190 
   96.2500   -12.0240     2.2020    59.3820    10.9030     9.3120    11.1980    25.3030 
   96.3750   -11.9270     2.1820    59.4990    10.7110     9.2190    10.7060    25.2890 
   96.5000   -11.7850     2.1590    60.4480    10.4070     9.0160     9.9700    25.2850 
   96.6250   -11.5880     2.1450    61.1890    10.0560     8.7380     9.3210    25.2770 
   96.7500   -11.3810     2.1400    62.0040     9.7180     8.4440     8.8880    25.2630 
   96.8750   -11.1740     2.1400    63.3060     9.4210     8.1650     8.5000    25.2470 
   97.0000   -10.9680     2.1390    66.5140     9.1780     7.9230     8.3200    25.2270 
   97.1250   -10.7920     2.1390    71.2840     9.0140     7.7460     8.1490    25.1880 
   97.2500   -10.6360     2.1440    74.1410     8.9180     7.6320     8.0350    25.1290 
   97.3750   -10.5150     2.1560    72.9880     8.8790     7.5770     8.0540    25.0740 
   97.5000   -10.4230     2.1710    69.2270     8.8800     7.5700     8.1840    25.0280 
   97.6250   -10.3740     2.1820    67.5170     8.9140     7.6040     8.4860    24.9910 
   97.7500   -10.3620     2.1840    67.6630     8.9850     7.6700     8.8330    24.9510 
   97.8750   -10.3660     2.1800    66.9830     9.1130     7.7770     8.8780    24.9020 
   98.0000   -10.3660     2.1730    64.6520     9.3090     7.9310     8.6440    24.8590 
   98.1250   -10.3040     2.1700    64.5170     9.5540     8.1190     8.4980    24.8470 
   98.2500   -10.1520     2.1720    65.2320     9.7540     8.2780     8.8000    24.8610 
   98.3750    -9.8760     2.1770    66.8020     9.8030     8.3310     9.4600    24.8830 
   98.5000    -9.4760     2.1840    69.6310     9.6220     8.2170     9.6910    24.9130 
   98.6250    -8.9520     2.1920    72.8640     9.1990     7.9210     9.7710    24.9680 
   98.7500    -8.3510     2.2020    74.2350     8.7190     7.5690     9.1580    25.0240 
   98.8750    -7.7170     2.2180    73.7720     8.3770     7.2920     8.3310    25.0640 
   99.0000    -7.0860     2.2390    74.6700     8.3680     7.2300     7.8500    25.0750 
   99.1250    -6.4990     2.2620    76.2370     8.9270     7.5630     8.7330    25.0590 
   99.2500    -5.9660     2.2830    74.8660    10.0150     8.3050    10.0420    25.0370 
   99.3750    -5.4760     2.3020    69.3210    11.5010     9.4110    11.2020    25.0300 
   99.5000    -5.0240     2.3240    62.0770    13.0150    10.6630    12.1690    25.0450 
   99.6250    -4.5580     2.3500    60.4030    13.7900    11.4980    13.5580    25.0940 
   99.7500    -4.0860     2.3660    65.3030    13.4080    11.4770    15.6080    25.1660 
   99.8750    -3.6010     2.3630    73.0350    11.9410    10.5500    15.0490    25.2450 
  100.0000    -3.1340     2.3360    80.2740     9.9550     9.0860    10.3000    25.3210 
  100.1250    -2.7690     2.2950    86.7250     8.2220     7.6460     7.2270    25.3880 
  100.2500    -2.5370     2.2550    90.5890     7.1000     6.5830     5.6040    25.4420 
  100.3750    -2.4810     2.2280    89.7640     6.6200     5.9910     5.5060    25.4770 
  100.5000    -2.6140     2.2120    86.7060     6.6620     5.8470     5.7410    25.4970 
  100.6250    -2.9560     2.2010    85.6730     7.0970     6.1110     5.8040    25.5020 
  100.7500    -3.4300     2.1900    86.5020     7.6620     6.5820     6.2860    25.4910 
  100.8750    -3.9860     2.1790    86.6520     8.1930     7.1150     7.0210    25.4780 
  101.0000    -4.5700     2.1710    85.4890     8.5830     7.5870     7.2950    25.4690 
  101.1250    -5.1240     2.1710    84.0020     8.7750     7.9020     7.9950    25.4640 
  101.2500    -5.6180     2.1770    83.6280     8.8240     8.0720     9.0240    25.4640 
  101.3750    -6.0470     2.1860    84.6740     8.7870     8.1300     9.1830    25.4670 
  101.5000    -6.4070     2.1920    84.3450     8.7380     8.1370     8.7270    25.4700 
  101.6250    -6.7050     2.1880    82.8170     8.7450     8.1510     8.7950    25.4630 
  101.7500    -6.9470     2.1790    82.7160     8.8040     8.1730     8.7250    25.4490 
  101.8750    -7.1350     2.1680    84.4180     8.8700     8.1620     8.3440    25.4270 
  102.0000    -7.2510     2.1630    85.8480     8.8600     8.0630     8.2190    25.3990 
  102.1250    -7.3070     2.1670    86.0560     8.6160     7.7750     8.2410    25.3790 
  102.2500    -7.3290     2.1750    87.2270     8.1110     7.2970     7.8700    25.3690 
  102.3750    -7.3430     2.1840    89.1140     7.4550     6.7120     7.0360    25.3700 
  102.5000    -7.3750     2.1930    90.3690     6.8960     6.1900     6.4250    25.3830 
  102.6250    -7.4850     2.2070    91.5670     6.8210     5.9980     6.3960    25.3990 
  102.7500    -7.7120     2.2350    91.1480     7.3980     6.2630     6.1100    25.3980 
  102.8750    -8.0700     2.2790    87.9500     8.7180     7.0810     7.0320    25.3550 
  103.0000    -8.5410     2.3330    81.7360    10.6770     8.4430    10.8100    25.2680 
  103.1250    -9.1130     2.3820    76.1130    12.7480    10.1080    15.4670    25.1520 
  103.2500    -9.7070     2.4060    73.8400    14.0360    11.4070    15.2430    25.0270 
  103.3750   -10.2790     2.4000    75.0450    14.0060    11.8110    12.3780    24.9080 
  103.5000   -10.7940     2.3660    76.4450    12.8450    11.2810    10.3990    24.8100 
  103.6250   -11.2080     2.3170    73.1450    11.3490    10.2810    10.1490    24.7500 
  103.7500   -11.5400     2.2680    68.0290    10.2450     9.4120    10.1640    24.7290 
  103.8750   -11.8030     2.2260    66.4670     9.6810     8.8590    10.0710    24.7410 
  104.0000   -11.9960     2.1940    68.7800     9.5350     8.6060    10.1090    24.7700 
  104.1250   -12.1350     2.1760    69.6470     9.6280     8.5730    10.2610    24.7910 
  104.2500   -12.2110     2.1690    67.3740     9.7780     8.6290    10.1580    24.8040 
  104.3750   -12.2400     2.1680    65.3640     9.9390     8.7270     9.9210    24.8080 
  104.5000   -12.2390     2.1680    65.9010    10.1010     8.8500     9.7100    24.8060 
  104.6250   -12.1890     2.1650    67.9510    10.2680     8.9910     9.7380    24.8080 
  104.7500   -12.1260     2.1650    69.1250    10.4270     9.1320     9.8350    24.8190 
  104.8750   -12.0650     2.1750    68.9300    10.5550     9.2570     9.7200    24.8390 
  105.0000   -12.0170     2.1980    68.0320    10.6220     9.3330     9.5530    24.8680 
  105.1250   -11.9960     2.2260    67.2260    10.5810     9.3180     9.3870    24.9020 
  105.2500   -11.9630     2.2440    66.9960    10.4530     9.2230     9.3710    24.9320 
  105.3750   -11.9130     2.2460    67.2480    10.2880     9.0820     9.4900    24.9540 
  105.5000   -11.8560     2.2350    67.3410    10.1560     8.9510     9.5330    24.9620 
  105.6250   -11.7890     2.2170    67.3990    10.1260     8.8840     9.2990    24.9510 
  105.7500   -11.7480     2.2010    67.8510    10.1880     8.8870     9.0930    24.9290 
  105.8750   -11.7440     2.1900    68.1860    10.2970     8.9370     9.2300    24.9030 
  106.0000   -11.7890     2.1830    68.5950    10.3830     8.9940     9.4770    24.8760 
  106.1250   -11.9170     2.1820    70.6260    10.3740     9.0080     9.5840    24.8510 
  106.2500   -12.0870     2.1820    73.2920    10.2750     8.9660     9.4800    24.8300 
  106.3750   -12.2790     2.1820    72.7740    10.1190     8.8800     9.3320    24.8130 
  106.5000   -12.4770     2.1800    67.6540     9.9640     8.7840     9.1140    24.7960 
  106.6250   -12.6540     2.1770    61.4180     9.8840     8.7310     8.9090    24.7840 
  106.7500   -12.8300     2.1760    57.2620     9.8990     8.7500     9.0570    24.7800 
  106.8750   -12.9980     2.1800    55.6950     9.9930     8.8370     9.4050    24.8030 
