~V
VERS. 2.00: Ver 2.00
~W
STRT.M 50.0000:
STOP.M 200.0000:
STEP.M 0.1250:
NULL. -999.2500:
UWI. F10131:
~C
DEPT.M :
GR.API :
RML.OHMM :
RI. :
RXO.OHMM :
CALI.CM :
SP.MV :
DEN.GM/CC :
~A
# ...
   83.7500    73.6090     8.4140     7.1370     9.8510    24.7390   -13.0470     2.2180 
   83.8750    73.5040     8.2820     6.9480     9.6600    24.7730   -13.5780     2.1970 
   84.0000    78.3980     8.3160     6.8780     9.6910    24.7610   -13.9470     2.1910 
   84.1250    83.1660     8.4720     6.9250     9.8070    24.7490   -14.1750     2.1960 
   84.2500    82.7960     8.6620     7.0300     9.9310    24.7980   -14.3110     2.2080 
   84.3750    81.1040     8.8410     7.1580    10.0590    24.8600   -14.4010     2.2240 
   84.5000    81.4670     8.9720     7.2750    10.0530    24.9150   -14.5210     2.2380 
   84.6250    81.8280     9.0170     7.3490    10.1970    24.9770   -14.7000     2.2450 
   84.7500    76.8140     8.9740     7.3670    10.3610    25.0150   -14.8900     2.2440 
   84.8750    70.6810     8.8340     7.3230    10.4100    25.0500   -15.0580     2.2380 
   85.0000    69.7750     8.6050     7.2130    10.2170    25.0720   -15.1320     2.2290 
   85.1250    73.2250     8.3310     7.0430    10.1480    25.0960   -15.0250     2.2160 
   85.2500    74.2370     8.1290     6.8770    10.3610    25.1470   -14.7960     2.1970 
   85.3750    71.7440     8.1160     6.7980    10.3060    25.2490   -14.4530     2.1760 
   85.5000    71.1630     8.3560     6.8840     9.7040    25.4180   -13.8930     2.1700 
   85.6250    74.1640     8.7980     7.1690     8.9310    25.5970   -13.0330     2.2050 
   85.7500    75.7560     9.1860     7.5170     9.4510    25.5880   -11.9730     2.2750 
   85.8750    75.1770     9.2790     7.7570    12.5950    25.3010   -10.7750     2.3560 
   86.0000    77.1110     8.9310     7.7330    17.8430    24.9380    -9.5590     2.4140 
   86.1250    85.5500     8.1610     7.3540    14.9070    24.7130    -8.4340     2.4200 
   86.2500    93.3430     7.2940     6.7980     8.5560    24.6450    -7.4230     2.3870 
   86.3750    94.8390     6.5700     6.2410     6.4320    24.6480    -6.5210     2.3370 
   86.5000    91.4670     6.1140     5.8180     6.1580    24.6600    -5.7930     2.2920 
   86.6250    88.8300     5.9430     5.6070     6.1830    24.6610    -5.3020     2.2640 
   86.7500    87.4090     5.8940     5.5300     6.2300    24.6840    -4.9690     2.2520 
   86.8750    85.1030     5.8530     5.4980     6.2770    24.7680    -4.7600     2.2530 
   87.0000    84.4070     5.7470     5.4320     6.0080    24.8270    -4.6340     2.2630 
   87.1250    88.5640     5.5510     5.2810     5.5610    24.8410    -4.5660     2.2780 
   87.2500    94.2170     5.3250     5.0790     5.2400    24.8940    -4.5080     2.2920 
   87.3750    96.5610     5.1430     4.8820     4.7400    25.0000    -4.4690     2.3020 
   87.5000    96.2550     5.0890     4.7590     4.6050    25.0850    -4.4870     2.3100 
   87.6250    96.6300     5.2650     4.7940     4.9080    25.0640    -4.6700     2.3180 
   87.7500    95.3530     5.6600     4.9930     5.4650    25.0030    -5.1000     2.3230 
   87.8750    88.9900     6.2500     5.3520     6.4800    24.9550    -5.8370     2.3180 
   88.0000    80.5730     6.9840     5.8430     8.9140    24.9000    -6.8860     2.2990 
   88.1250    77.0490     7.8150     6.4440     9.4730    24.8830    -8.1740     2.2720 
   88.2500    76.8420     8.6750     7.1030     9.4710    24.8960    -9.5680     2.2560 
   88.3750    76.2210     9.5130     7.7800     9.7880    24.9440   -11.0090     2.2650 
   88.5000    74.9720    10.2430     8.4110    10.6990    24.9440   -12.4460     2.2970 
   88.6250    72.5260    10.6910     8.8650    13.9030    24.8690   -13.8160     2.3250 
   88.7500    67.1630    10.7860     9.0670    18.7950    24.7760   -15.0550     2.3260 
   88.8750    61.5780    10.5200     8.9790    17.9650    24.6980   -16.0700     2.2930 
   89.0000    60.1770     9.9970     8.6440    12.9640    24.6710   -16.7670     2.2410 
   89.1250    61.0780     9.4150     8.1780    10.6680    24.6860   -17.1260     2.1950 
   89.2500    61.0970     8.9620     7.7500    10.3390    24.7240   -17.2830     2.1690 
   89.3750    62.6230     8.7010     7.4400    10.3840    24.7200   -17.3300     2.1620 
   89.5000    66.4880     8.6090     7.2660    10.2340    24.7150   -17.3290     2.1660 
   89.6250    68.2150     8.6220     7.2100    10.0980    24.7150   -17.2880     2.1740 
   89.7500    66.7960     8.6580     7.2060    10.2320    24.7320   -17.1820     2.1810 
   89.8750    64.5670     8.6960     7.2240    10.3660    24.7600   -17.0450     2.1870 
   90.0000    61.8110     8.7340     7.2550    10.4310    24.8120   -16.9380     2.1900 
   90.1250    60.3690     8.7700     7.2940    10.4320    24.8510   -16.9060     2.1940 
   90.2500    61.1200     8.7780     7.3170    10.5800    24.8660   -16.9500     2.1960 
   90.3750    62.7130     8.7180     7.2910    10.9540    24.8690   -17.0450     2.1970 
   90.5000    65.2320     8.5590     7.1840    11.3760    24.8790   -17.1400     2.1910 
   90.6250    68.1470     8.2940     6.9830    10.9880    24.9260   -17.1670     2.1810 
   90.7500    71.2890     8.0000     6.7390    10.3330    24.9950   -17.1400     2.1720 
   90.8750    72.3410     7.7580     6.5130     9.5040    25.0260   -17.0890     2.1690 
   91.0000    72.0980     7.6350     6.3580     8.9560    24.9870   -17.0420     2.1730 
   91.1250    71.1380     7.6780     6.3300     9.5810    24.9920   -17.0130     2.1790 
   91.2500    69.2600     7.8330     6.4070    10.3130    25.0120   -16.9870     2.1820 
   91.3750    67.5280     8.0460     6.5620    10.5900    25.1250   -16.9240     2.1820 
   91.5000    66.6790     8.2740     6.7580    10.6570    25.2550   -16.8040     2.1810 
   91.6250    67.6410     8.5050     6.9710    10.6470    25.2740   -16.6270     2.1820 
   91.7500    70.3680     8.7530     7.1950    10.8330    25.2550   -16.3980     2.1860 
   91.8750    72.0130     9.0180     7.4310    11.2410    25.2680   -16.1100     2.1940 
   92.0000    70.5060     9.2530     7.6610    11.4940    25.3340   -15.7240     2.2070 
   92.1250    66.4680     9.3090     7.7910    11.2360    25.3680   -15.1830     2.2210 
   92.2500    64.7380     9.0740     7.7170    11.0790    25.3580   -14.5090     2.2320 
   92.3750    68.3080     8.5010     7.3690    11.0890    25.3380   -13.6790     2.2390 
   92.5000    75.8170     7.6690     6.7660    10.5950    25.3970   -12.6780     2.2430 
   92.6250    83.2360     6.7990     6.0440     8.4420    25.4460   -11.5260     2.2500 
   92.7500    88.5360     6.1570     5.4220     6.2240    25.4150   -10.3530     2.2600 
   92.8750    90.5710     5.8950     5.0430     4.9630    25.3550    -9.2340     2.2670 
   93.0000    90.9450     6.0520     4.9790     4.9620    25.2570    -8.2350     2.2630 
   93.1250    91.7610     6.5760     5.2600     5.9810    25.1460    -7.4240     2.2480 
   93.2500    92.0610     7.1940     5.7190     7.5430    25.1050    -6.7360     2.2320 
   93.3750    88.6420     7.6660     6.1810     8.9140    25.1070    -6.1620     2.2200 
   93.5000    83.3370     7.8080     6.4690     9.2350    25.1260    -5.7140     2.2150 
   93.6250    83.1130     7.5310     6.4330     8.4190    25.1140    -5.4040     2.2140 
   93.7500    85.1750     7.0590     6.1740     7.3880    25.0770    -5.1920     2.2150 
   93.8750    86.7690     6.5950     5.8320     6.5600    25.0260    -5.0390     2.2180 
   94.0000    87.9950     6.2890     5.5420     5.9410    24.9400    -4.9510     2.2260 
   94.1250    89.2960     6.2210     5.4050     6.0270    24.9040    -4.9450     2.2360 
   94.2500    89.2190     6.3100     5.3980     6.7670    24.8840    -4.9970     2.2450 
   94.3750    87.2320     6.4900     5.4870     8.0900    24.9030    -5.1310     2.2530 
   94.5000    86.7380     6.7100     5.6290     8.1560    24.9500    -5.4030     2.2600 
   94.6250    87.4730     6.9500     5.8020     7.1760    24.9710    -5.8800     2.2610 
   94.7500    86.6930     7.2140     5.9950     6.4670    24.9080    -6.5200     2.2530 
   94.8750    85.2350     7.4980     6.2070     7.4750    24.7600    -7.2870     2.2340 
