~V
VERS. 2.00: Ver 2.00
~W
STRT.M 55.0000:
STOP.M 242.0000:
STEP.M 0.1250:
NULL. -999.2500:
UWI. F10187:
~C
DEPT.M :
GR.API :
RML.OHMM :
RI. :
RXO.OHMM :
CALI.CM :
DEN.GM/CC :
SP.MV :
~A
# ...
  122.5000    75.3300     9.5570     7.2030     8.4040    23.5280     2.3360    -6.0090 
  122.6250    67.0850    11.0780     8.4650    10.6670    23.5670     2.3800    -5.0900 
  122.7500    60.2400    12.7080    10.0650    13.6240    23.7720     2.4180    -4.1820 
  122.8750    56.7390    14.0850    11.7150    17.0280    24.1320     2.4440    -3.3000 
  123.0000    56.3510    14.8660    12.9750    18.4630    24.4860     2.4540    -2.3830 
  123.1250    59.4430    14.7980    13.3630    15.2830    24.5830     2.4490    -1.6550 
  123.2500    60.7180    14.2030    13.0930    12.3480    24.5250     2.4370    -1.2010 
  123.3750    57.7460    13.3860    12.4930    11.1520    24.4220     2.4250    -0.8690 
  123.5000    54.2840    12.5720    11.8180    10.8460    24.3850     2.4210    -0.6370 
  123.6250    56.0680    11.8150    11.1410    10.7830    24.4140     2.4240    -0.6120 
  123.7500    60.2220    11.0360    10.4110     9.8810    24.4570     2.4240    -0.6910 
  123.8750    62.6820    10.1910     9.5910     9.1310    24.3850     2.4090    -0.9310 
  124.0000    66.5440     9.2990     8.7120     7.8740    24.2490     2.3870    -1.3490 
  124.1250    73.5220     8.4590     7.8680     7.1370    24.1570     2.3650    -1.7200 
  124.2500    77.6110     7.7750     7.1380     7.1210    24.1610     2.3530    -1.9270 
  124.3750    78.1900     7.3550     6.5940     7.2290    24.2650     2.3520    -2.0930 
  124.5000    80.2200     7.3320     6.3280     7.2400    24.4420     2.3610    -2.2420 
  124.6250    83.5110     7.9950     6.5440     6.9740    24.6020     2.3830    -2.2890 
  124.7500    81.1360     9.4580     7.3620     6.9810    24.6840     2.4180    -2.2620 
  124.8750    73.6550    11.8290     8.9950     9.2070    24.6920     2.4700    -2.1600 
  125.0000    66.0700    14.9650    11.6110    16.2530    24.6530     2.5350    -2.0140 
  125.1250    61.2490    18.1240    15.0740    24.6410    24.5780     2.5970    -1.8610 
  125.2500    58.1150    20.1140    18.0820    28.7930    24.5220     2.6360    -1.7750 
  125.3750    56.3000    20.1700    19.1790    25.7630    24.4990     2.6420    -1.7650 
  125.5000    55.9520    18.4020    17.9650    19.1770    24.4820     2.6160    -1.7450 
  125.6250    57.8850    15.7990    15.5040    13.6330    24.4310     2.5690    -1.8340 
  125.7500    60.7800    13.6700    13.3200    11.0830    24.3600     2.5190    -2.0070 
  125.8750    61.9650    12.5450    11.9060    11.0780    24.3180     2.4760    -2.1200 
  126.0000    60.1750    12.5240    11.3650    13.2500    24.3220     2.4430    -2.1210 
  126.1250    59.1760    13.6760    11.8460    12.9680    24.3890     2.4250    -2.1450 
  126.2500    60.1920    15.6680    13.2090    13.0010    24.4190     2.4220    -2.1950 
  126.3750    60.4020    18.2780    15.3940    16.6780    24.3920     2.4320    -2.1550 
  126.5000    57.6620    21.1690    18.1690    21.1260    24.3960     2.4510    -2.1210 
  126.6250    54.4080    23.8540    21.0840    23.6170    24.5140     2.4710    -2.0070 
  126.7500    53.0030    25.9860    23.6090    23.7040    24.6050     2.4930    -1.7990 
  126.8750    51.6070    27.4310    25.4560    22.9750    24.4940     2.5200    -1.6260 
  127.0000    50.3060    28.2410    26.5730    23.4540    24.1150     2.5540    -1.5300 
  127.1250    50.4400    28.5060    27.0200    26.7060    23.6230     2.5870    -1.3990 
  127.2500    50.2640    28.4530    27.0560    28.7140    23.2480     2.6100    -1.2750 
  127.3750    48.1730    28.1750    26.7730    24.4390    23.1080     2.6200    -1.1710 
  127.5000    47.3940    27.7690    26.2930    19.7290    23.2960     2.6170    -0.9730 
  127.6250    50.5610    27.3530    25.7790    19.2750    23.4890     2.5940    -0.7680 
  127.7500    52.9960    27.0120    25.3550    20.8580    23.7120     2.5460    -0.6510 
  127.8750    51.3440    26.7470    25.0600    22.7810    23.9640     2.4750    -0.5840 
  128.0000    48.7090    26.5150    24.8590    23.4640    24.2120     2.3950    -0.4960 
  128.1250    49.9050    26.2660    24.6920    22.4720    24.3230     2.3400    -0.4410 
  128.2500    53.1830    26.0050    24.5380    21.5960    24.3030     2.3280    -0.3960 
  128.3750    57.1900    25.7710    24.4260    20.8440    24.2460     2.3590    -0.3550 
  128.5000    59.6950    25.6160    24.3850    20.7540    24.1450     2.4130    -0.3080 
  128.6250    57.4620    25.5960    24.4680    21.4750    24.1240     2.4640    -0.2450 
  128.7500    54.4700    25.6860    24.6600    22.2420    24.2070     2.5020    -0.1670 
  128.8750    53.8100    25.8420    24.9030    21.0830    24.3130     2.5310     0.0000 
  129.0000    55.2060    26.0080    25.1290    21.3970    24.2880     2.5540     0.1950 
  129.1250    55.2130    26.1100    25.2690    23.5100    24.1630     2.5740     0.3750 
  129.2500    54.7500    26.1090    25.2820    25.6000    24.0620     2.5870     0.6310 
  129.3750    55.7140    25.9850    25.1500    24.4810    24.0350     2.5880     0.9030 
  129.5000    57.7850    25.7400    24.8910    22.8430    24.1130     2.5800     1.0540 
  129.6250    58.3160    25.3680    24.5060    23.6410    24.2730     2.5680     1.1790 
  129.7500    56.0830    24.9080    24.0250    23.5980    24.3460     2.5550     1.3500 
  129.8750    53.8550    24.3950    23.4860    22.8380    24.3610     2.5420     1.4300 
  130.0000    55.1780    23.8730    22.9470    21.9640    24.4160     2.5300     1.4300 
  130.1250    56.1150    23.4240    22.4770    20.8490    24.5750     2.5220     1.3830 
  130.2500    52.9750    23.1200    22.1380    19.2140    24.6390     2.5230     1.1990 
  130.3750    50.8370    23.0240    21.9940    19.2710    24.5630     2.5310     0.9490 
  130.5000    53.8500    23.1590    22.0640    20.1940    24.3680     2.5400     0.7460 
  130.6250    57.6290    23.5150    22.3250    20.8630    24.3310     2.5420     0.4370 
  130.7500    56.9760    23.9700    22.6760    21.4370    24.3500     2.5400     0.0470 
  130.8750    54.1260    24.4190    23.0430    23.6950    24.4320     2.5410    -0.2610 
  131.0000    51.7390    24.7590    23.3400    26.1710    24.4640     2.5540    -0.5100 
  131.1250    51.2910    24.8680    23.4570    23.9710    24.3710     2.5800    -0.7330 
  131.2500    52.2010    24.7550    23.3770    23.1070    24.2500     2.6070    -0.8690 
  131.3750    54.3100    24.4650    23.1100    23.7640    24.1610     2.6220    -0.9140 
  131.5000    55.8380    24.0940    22.7240    22.2490    24.1620     2.6210    -0.9600 
  131.6250    54.3850    23.7760    22.3540    19.6720    24.2250     2.6040    -0.9900 
  131.7500    52.8670    23.5820    22.1010    17.5700    24.3250     2.5810    -0.9560 
  131.8750    53.6820    23.5120    21.9840    18.2960    24.3900     2.5610    -0.8830 
  132.0000    55.6240    23.5230    21.9690    20.0680    24.3680     2.5490    -0.8120 
  132.1250    55.6900    23.5870    22.0170    21.9920    24.3130     2.5440    -0.8140 
  132.2500    55.0140    23.7080    22.1180    20.9050    24.2790     2.5380    -0.8120 
  132.3750    56.4260    23.9420    22.3220    19.6700    24.2740     2.5310    -0.8200 
  132.5000    59.2490    24.3330    22.6790    19.4680    24.3030     2.5310    -0.8660 
  132.6250    60.6040    24.9070    23.2060    20.6350    24.3660     2.5470    -0.8460 
  132.7500    60.0930    25.5700    23.8250    22.6530    24.3870     2.5730    -0.7950 
  132.8750    58.0300    26.2090    24.4710    24.8080    24.3440     2.5980    -0.8360 
  133.0000    55.7430    26.6700    25.0340    26.7970    24.2930     2.6110    -0.9060 
  133.1250    56.0460    26.7040    25.2750    26.5170    24.3240     2.6100    -0.8390 
  133.2500    57.3800    26.2540    25.0700    27.3280    24.3270     2.6020    -0.8120 
  133.3750    56.7460    25.3650    24.3930    28.7630    24.2770     2.5910    -0.8360 
  133.5000    54.3680    24.2510    23.4040    27.4780    24.2530     2.5770    -0.8050 
  133.6250    54.9030    23.3370    22.4970    21.4640    24.3500     2.5550    -0.8440 
