~V
VERS. 2.00: Ver 2.00
~W
STRT.M 52.0000:
STOP.M 236.0000:
STEP.M 0.1250:
NULL. -999.2500:
UWI. F10181:
~C
DEPT.M :
GR.API :
RML.OHMM :
RI. :
RXO.OHMM :
CALI.CM :
DEN.GM/CC :
SP.MV :
~A
# ...
  198.2500    57.5030    92.9340    88.6360    92.8620    24.0520     2.2330   -12.9960 
  198.3750    57.7540    89.1500    85.4570    90.4300    24.0460     2.2370   -13.1010 
  198.5000    59.7310    86.6010    83.4260    87.2470    24.0330     2.2350   -13.2270 
  198.6250    59.5070    85.0520    82.2730    84.7130    24.0060     2.2280   -13.3580 
  198.7500    57.0010    84.1430    81.6310    84.5510    23.9840     2.2180   -13.4990 
  198.8750    54.5420    83.8450    81.4500    84.5910    23.9640     2.2080   -13.6570 
  199.0000    55.1700    84.3050    81.8500    83.9330    23.9310     2.2010   -13.8190 
  199.1250    59.4290    86.0720    83.3290    81.3530    23.8810     2.1990   -13.9760 
  199.2500    62.8670    89.3730    86.1610    79.7920    23.8210     2.1990   -14.1510 
  199.3750    62.7560    94.3590    90.5560    79.8770    23.7810     2.2000   -14.3220 
  199.5000    59.6040   100.7060    96.2960    82.0020    23.7510     2.2010   -14.4590 
  199.6250    58.3960   107.3070   102.4650    90.4720    23.7070     2.1980   -14.5840 
  199.7500    60.1700   112.4960   107.5160   103.8920    23.6660     2.1950   -14.7030 
  199.8750    61.9960   115.0670   110.2980   119.3550    23.6020     2.1910   -14.7810 
  200.0000    61.4970   114.7000   110.4140   127.3810    23.5040     2.1900   -14.8490 
  200.1250    60.5200   112.2170   108.4360   131.0650    23.5040     2.1920   -14.9380 
  200.2500    60.7430   109.8790   106.3740   119.2090    23.6280     2.1970   -15.0480 
  200.3750    60.6490   109.0630   105.5760   109.0840    23.8310     2.2010   -15.1890 
  200.5000    59.7080   110.2100   106.6300   106.5590    23.9860     2.2030   -15.3560 
  200.6250    61.8890   112.8940   109.3490   113.4500    24.0380     2.2010   -15.5280 
  200.7500    64.9750   115.6220   112.3580   119.6600    24.0470     2.1950   -15.7120 
  200.8750    63.4610   117.3120   114.5720   121.5940    24.0470     2.1890   -15.8970 
  201.0000    57.8240   117.3550   115.2820   119.0460    24.0440     2.1860   -16.0810 
  201.1250    56.9280   115.6220   114.1790   115.6120    24.0310     2.1860   -16.2640 
  201.2500    60.7690   113.1170   112.1230   109.0460    24.0070     2.1900   -16.4200 
  201.3750    62.7100   110.6740   109.8860   101.1070    23.9780     2.1950   -16.5300 
  201.5000    61.9580   109.0090   108.1850    97.6540    23.9540     2.1990   -16.6300 
  201.6250    63.8850   108.9110   107.8070    95.5440    23.9260     2.2010   -16.7260 
  201.7500    66.7710   110.5090   108.9520    96.6360    23.9150     2.2040   -16.8130 
  201.8750    67.0240   113.9720   111.8290   102.2970    23.9140     2.2080   -16.9370 
  202.0000    66.3450   119.3660   116.5380   109.4510    23.9160     2.2160   -17.0820 
  202.1250    66.4350   126.9340   123.3580   112.0520    23.9130     2.2310   -17.2250 
  202.2500    63.9360   136.0800   131.7700   112.9860    23.9030     2.2490   -17.3620 
  202.3750    59.3640   146.1870   141.2610   118.7810    23.8650     2.2670   -17.5080 
  202.5000    56.3770   156.1320   150.8520   126.1540    23.7980     2.2740   -17.6430 
  202.6250    56.1130   163.7460   158.5980   135.4650    23.7840     2.2650   -17.7660 
  202.7500    56.6120   167.5470   163.0080   152.6450    23.8130     2.2440   -17.8770 
  202.8750    58.2250   166.7130   163.1570   177.2010    23.8280     2.2210   -17.9470 
  203.0000    59.4530   161.6600   159.1930   187.3390    23.8110     2.2030   -17.9720 
  203.1250    57.0750   154.0090   152.3080   172.3900    23.7640     2.1970   -17.9590 
  203.2500    54.8850   146.6060   145.2000   153.6370    23.7190     2.1960   -17.9200 
  203.3750    56.1560   140.9870   139.4950   136.5590    23.7020     2.1980   -17.8940 
  203.5000    60.1980   137.7170   135.9700   126.7000    23.7160     2.1990   -17.8860 
  203.6250    61.5490   136.7330   134.7850   125.0010    23.7610     2.1990   -17.8890 
  203.7500    59.4130   136.7590   134.7580   123.3100    23.8130     2.1990   -17.9040 
  203.8750    56.3370   136.9230   135.0050   126.6930    23.8240     2.1980   -17.9280 
  204.0000    55.1350   136.6190   134.8540   136.2740    23.7970     2.1960   -17.9530 
  204.1250    55.4880   135.5180   133.8900   139.6800    23.7810     2.1910   -17.9910 
  204.2500    55.7420   133.9380   132.3740   139.7630    23.7660     2.1850   -18.0530 
  204.3750    56.5110   132.2890   130.7120   140.3820    23.7430     2.1790   -18.0970 
  204.5000    58.0990   131.0600   129.4220   136.8280    23.7200     2.1780   -18.1290 
  204.6250    58.5370   130.9890   129.2910   129.3800    23.7050     2.1850   -18.1430 
  204.7500    56.9840   132.3990   130.6730   121.4770    23.6760     2.1970   -18.1410 
  204.8750    54.8190   135.4290   133.7250   118.7690    23.6230     2.2060   -18.1300 
  205.0000    54.1340   139.6900   138.0940   118.1490    23.5850     2.2070   -18.1040 
  205.1250    54.1550   143.8430   142.5160   117.1420    23.5720     2.1990   -18.0660 
  205.2500    53.9620   145.9770   145.0680   118.1130    23.5530     2.1870   -18.0160 
  205.3750    54.4910   144.6020   144.2150   124.2070    23.4990     2.1800   -17.9420 
  205.5000    56.7680   139.1940   139.3170   129.1820    23.4240     2.1790   -17.8350 
  205.6250    58.6660   130.2770   130.6840   121.1200    23.3710     2.1840   -17.7040 
  205.7500    58.6690   120.2420   120.6420    98.7550    23.3810     2.1900   -17.5510 
  205.8750    58.0280   110.4880   110.6360    77.1380    23.4120     2.1920   -17.3800 
  206.0000    57.0220   101.8420   101.5960    67.2780    23.4350     2.1900   -17.2250 
  206.1250    54.3650    94.9370    94.2340    68.0850    23.4560     2.1940   -17.0520 
  206.2500    53.4140    89.5370    88.3590    68.6220    23.4830     2.2140   -16.8520 
  206.3750    55.7950    85.5180    83.8400    64.5440    23.4950     2.2570   -16.6380 
  206.5000    58.4150    82.8790    80.6480    60.0290    23.4960     2.3170   -16.4000 
  206.6250    58.5690    82.2070    79.3420    65.4840    23.4960     2.3720   -16.1270 
  206.7500    59.3190    83.7220    80.1510    80.7950    23.4950     2.3950   -15.8080 
  206.8750    60.3340    87.8320    83.4740    79.4690    23.4920     2.3750   -15.4380 
  207.0000    59.2620    94.6170    89.3960    65.9450    23.4700     2.3270   -14.9840 
  207.1250    56.4520   103.4900    97.3810    65.4520    23.4200     2.2760   -14.4570 
  207.2500    55.5420   112.0740   105.1690    68.6240    23.3480     2.2380   -13.9180 
  207.3750    54.9030   118.0090   110.5090    70.4710    23.3050     2.2150   -13.3610 
  207.5000    53.1670   119.4240   111.6040    76.4640    23.2930     2.2040   -12.7860 
  207.6250    52.6260   115.6480   107.6870    72.4420    23.2930     2.2040   -12.2180 
  207.7500    54.5980   110.3330   101.9550    64.4400    23.2960     2.2090   -11.7240 
  207.8750    58.9550   106.9320    97.5200    57.9860    23.3120     2.2170   -11.3160 
  208.0000    62.9760   107.5140    96.4480    59.3780    23.3690     2.2220   -10.9730 
  208.1250    62.9770   112.2670    99.2620    72.4750    23.4970     2.2230   -10.6580 
  208.2500    60.7940   117.9150   103.2970    96.1630    23.6940     2.2230   -10.3290 
  208.3750    58.5930   121.1380   105.7580   126.5860    23.8590     2.2280   -10.0220 
  208.5000    57.2810   119.0380   104.1250   134.3940    23.8180     2.2380    -9.7820 
  208.6250    55.0970   109.7860    96.6410   111.0440    23.6110     2.2470    -9.5870 
  208.7500    54.5700    97.0700    85.9950    86.5670    23.5270     2.2490    -9.3490 
  208.8750    58.3610    84.7350    75.2470    70.3350    23.5810     2.2420    -9.0880 
  209.0000    64.1360    75.5090    66.8620    60.1050    23.5820     2.2330    -8.8850 
  209.1250    66.4670    70.7570    62.3430    54.3200    23.5560     2.2290    -8.7520 
  209.2500    65.3520    69.1270    60.7640    54.9980    23.6270     2.2320    -8.6340 
  209.3750    63.3740    69.5920    61.3570    59.2300    23.7220     2.2370    -8.5120 
