~V
VERS. 2.00: Ver 2.00
~W
STRT.M 50.0000:
STOP.M 294.0000:
STEP.M 0.1250:
NULL. -999.2500:
UWI. F10104:
~C
DEPT.M :
GR.API :
RML.OHMM :
RI. :
RXO.OHMM :
CALI.CM :
DEN.GM/CC :
SP.MV :
~A
# ...
  117.5000    78.6450     8.4210     7.4630     8.1680    25.1310     2.1640   -20.9770 
  117.6250    77.5490     8.5720     7.4920     8.2110    25.0500     2.1630   -20.7120 
  117.7500    79.2450     8.8090     7.6120     8.6880    24.9970     2.1610   -20.4410 
  117.8750    82.2370     9.0440     7.7780     9.1550    25.0100     2.1620   -20.1880 
  118.0000    85.2700     9.1880     7.9200     9.3570    25.0730     2.1690   -19.9780 
  118.1250    86.8590     9.1600     7.9560     9.2730    25.1280     2.1770   -19.8460 
  118.2500    87.5030     9.0360     7.8790     9.1050    25.0900     2.1830   -19.8080 
  118.3750    86.0900     8.9300     7.7230     8.9240    25.0390     2.1880   -19.8760 
  118.5000    81.5720     8.9130     7.5490     8.8570    25.0280     2.1920   -20.0540 
  118.6250    79.4720     8.9290     7.4240     9.1430    25.2170     2.1950   -20.3030 
  118.7500    80.8640     8.8470     7.3470     9.2470    25.3890     2.1940   -20.5830 
  118.8750    83.3680     8.6200     7.2950     8.8760    25.3150     2.1930   -20.8670 
  119.0000    84.9630     8.3270     7.2490     8.2270    24.9380     2.1970   -21.1480 
  119.1250    84.7980     8.1670     7.2170     7.9680    24.6570     2.2020   -21.4030 
  119.2500    83.4660     8.2460     7.2320     8.3020    24.5560     2.2020   -21.6310 
  119.3750    80.1920     8.5140     7.3160     8.8170    24.5490     2.1920   -21.7860 
  119.5000    77.0890     8.8340     7.4580     9.2970    24.5570     2.1770   -21.8580 
  119.6250    76.6280     9.0420     7.5990     9.5830    24.5630     2.1680   -21.8540 
  119.7500    77.1810     9.1000     7.6770     9.5870    24.5690     2.1680   -21.8040 
  119.8750    76.9020     9.0480     7.6700     9.3720    24.5940     2.1760   -21.7360 
  120.0000    76.8900     8.9540     7.5940     8.9480    24.6600     2.1910   -21.6710 
  120.1250    79.5720     8.9010     7.5030     8.3410    24.7510     2.2130   -21.6360 
  120.2500    82.4000     8.9530     7.4800     8.2960    24.7470     2.2310   -21.6480 
  120.3750    81.1260     9.1330     7.5750     9.2860    24.6680     2.2330   -21.7090 
  120.5000    77.0630     9.4210     7.7950    10.0820    24.6680     2.2120   -21.8190 
  120.6250    74.4500     9.7560     8.0990    10.2660    24.8480     2.1850   -21.9590 
  120.7500    74.1180    10.0860     8.4220    10.3060    25.2450     2.1740   -22.1260 
  120.8750    75.1760    10.4920     8.8110    10.4940    25.7500     2.1870   -22.2920 
  121.0000    75.5130    11.2790     9.4860    11.0810    25.9000     2.2230   -22.4200 
  121.1250    74.0820    13.2050    11.1310    13.4630    25.5140     2.2820   -22.4950 
  121.2500    70.2460    16.7590    14.3400    20.5360    25.0450     2.3590   -22.5300 
  121.3750    64.6200    22.2190    19.4970    40.5060    24.9160     2.4480   -22.5610 
  121.5000    58.8600    28.6470    25.8460    67.8090    24.9720     2.5280   -22.6410 
  121.6250    56.5180    31.2860    29.3180    78.2960    25.2430     2.5600   -22.8170 
  121.7500    58.5550    27.3470    26.9050    60.3590    25.5800     2.5390   -23.0510 
  121.8750    63.4570    20.0720    20.6580    32.5470    25.5060     2.4710   -23.3450 
  122.0000    69.4790    13.7890    14.5070    15.0390    25.2460     2.3690   -23.6750 
  122.1250    73.6180    10.1860    10.5850    11.3590    25.1720     2.2620   -24.0080 
  122.2500    74.4100     8.3720     8.3760    10.4990    25.2530     2.1880   -24.3010 
  122.3750    72.6530     7.7850     7.3380    10.5670    25.2720     2.1550   -24.5490 
  122.5000    70.8020     7.9820     7.0500    10.5800    25.2820     2.1490   -24.7210 
  122.6250    70.5850     8.5060     7.1980    10.4860    25.3300     2.1550   -24.8060 
  122.7500    71.0330     8.8600     7.4080    10.1960    25.3170     2.1640   -24.8410 
  122.8750    72.7740     8.8970     7.5430     9.8400    25.2190     2.1720   -24.8240 
  123.0000    75.8050     8.7010     7.5980     9.4810    25.0130     2.1710   -24.7650 
  123.1250    77.3890     8.4480     7.6160     9.1630    24.8300     2.1580   -24.6410 
  123.2500    76.7570     8.2700     7.6330     9.1700    24.5460     2.1390   -24.4730 
  123.3750    76.1770     8.2120     7.6520     9.6110    24.0970     2.1240   -24.2650 
  123.5000    77.3960     8.2720     7.6690    10.2490    23.6880     2.1160   -24.0350 
  123.6250    78.5900     8.3970     7.6630    10.1510    23.4770     2.1130   -23.7710 
  123.7500    79.1730     8.4810     7.6170     9.5910    23.4120     2.1100   -23.4990 
  123.8750    81.5010     8.4550     7.5240     8.9940    23.4020     2.1080   -23.2400 
  124.0000    84.6790     8.3140     7.3960     8.6270    23.5010     2.1130   -23.0180 
  124.1250    82.8380     8.1420     7.2630     8.3770    23.6980     2.1240   -22.8760 
  124.2500    78.8150     8.0620     7.1630     8.1230    23.7650     2.1310   -22.8110 
  124.3750    78.3910     8.1370     7.1250     7.8670    23.5360     2.1340   -22.8190 
  124.5000    82.6700     8.3540     7.1600     7.8880    23.3350     2.1350   -22.8850 
  124.6250    84.7950     8.6270     7.2630     8.0020    23.3420     2.1320   -23.0280 
  124.7500    83.5290     8.8560     7.3870     8.3490    23.6130     2.1260   -23.2160 
  124.8750    82.3710     8.9860     7.4900     8.8350    24.1310     2.1190   -23.4320 
  125.0000    82.5800     8.9950     7.5340     9.3070    24.5250     2.1150   -23.6560 
  125.1250    84.6670     8.8960     7.4940     9.4240    24.4240     2.1140   -23.9070 
  125.2500    85.3030     8.7650     7.4050     9.2210    24.7080     2.1100   -24.1210 
  125.3750    80.6710     8.6410     7.3060     8.9700    25.0970     2.1030   -24.2800 
  125.5000    73.5550     8.5250     7.2390     8.9590    25.3170     2.0930   -24.3480 
  125.6250    71.3510     8.4070     7.2300     9.2240    25.3370     2.0920   -24.2890 
  125.7500    73.3390     8.2700     7.2530     9.4770    25.4330     2.1070   -24.1230 
  125.8750    75.3830     8.0840     7.2660     9.4550    25.4650     2.1350   -23.8610 
  126.0000    77.9360     7.8300     7.2260     9.3080    25.6510     2.1650   -23.5200 
  126.1250    80.8730     7.5180     7.0760     9.2460    25.4850     2.1770   -23.0750 
  126.2500    81.0400     7.1870     6.8110     9.0990    25.0300     2.1690   -22.5930 
  126.3750    80.7800     6.8590     6.4530     8.4680    24.7250     2.1480   -22.1210 
  126.5000    82.0430     6.5880     6.0790     7.5260    24.6240     2.1310   -21.7210 
  126.6250    82.9770     6.5240     5.8580     6.9800    25.2290     2.1320   -21.4350 
  126.7500    83.9910     6.7220     5.8840     7.4280    25.3270     2.1360   -21.2130 
  126.8750    86.2090     7.1670     6.1570     7.9310    24.9860     2.1270   -21.0130 
  127.0000    88.0770     7.7300     6.5720     8.0670    24.4010     2.1090   -20.8080 
  127.1250    84.4270     8.1450     6.9130     7.9420    24.2820     2.0980   -20.5890 
  127.2500    78.6380     8.2660     7.0360     7.8860    24.6580     2.0980   -20.3510 
  127.3750    75.9740     8.1420     6.9460     7.8270    25.2300     2.1040   -20.0910 
  127.5000    79.6830     7.9380     6.7440     7.6760    25.4840     2.1120   -19.7850 
  127.6250    87.4000     7.7710     6.5330     7.4380    25.4290     2.1220   -19.4220 
  127.7500    91.6180     7.6030     6.3560     7.4800    25.5100     2.1300   -19.0680 
  127.8750    91.7520     7.3940     6.2180     7.6710    25.6860     2.1320   -18.7650 
  128.0000    91.3480     7.1640     6.1130     7.7640    25.9120     2.1300   -18.5410 
  128.1250    91.8830     7.0060     6.0360     7.5990    26.1520     2.1300   -18.4000 
  128.2500    92.4220     6.9900     5.9760     7.7400    26.4170     2.1320   -18.3380 
  128.3750    94.3720     7.1260     5.9440     7.9130    26.4870     2.1340   -18.3350 
  128.5000    98.1730     7.3670     5.9550     8.0230    26.4400     2.1380   -18.3850 
  128.6250    99.3690     7.6690     6.0530     8.0960    26.3780     2.1500   -18.5000 
