~V
VERS. 2.00: Ver 2.00
~W
STRT.M 50.0000:
STOP.M 236.0000:
STEP.M 0.1250:
NULL. -999.2500:
UWI. F10144:
~C
DEPT.M :
DEN.GM/CC :
GR.API :
RML.OHMM :
RI. :
RXO.OHMM :
CALI.CM :
SP.MV :
~A
# ...
   83.7500     2.1380    94.1770     7.2820     5.2270     8.5120    25.3370   -16.6190 
   83.8750     2.0810    99.2500     6.4190     4.6840     5.0270    25.8470   -15.7730 
   84.0000     2.0400    99.3840     5.9840     4.3270     4.1910    25.7410   -15.1230 
   84.1250     2.0390    96.6080     5.9820     4.2140     4.4420    25.2220   -14.7420 
   84.2500     2.0920    95.8540     6.2260     4.2790     4.6800    24.9170   -14.5900 
   84.3750     2.1630    95.7480     6.6180     4.4810     4.8570    24.8830   -14.6290 
   84.5000     2.2180    94.0120     7.0980     4.7860     5.4790    24.8980   -14.8110 
   84.6250     2.2450    92.8940     7.6400     5.1640     6.6060    24.8880   -15.0900 
   84.7500     2.2600    94.3650     8.1780     5.5540     7.6810    24.8830   -15.4150 
   84.8750     2.2710    94.9790     8.6000     5.8870     8.5500    24.8940   -15.7670 
   85.0000     2.2740    91.9270     8.7720     6.0830     9.2210    24.9340   -16.1270 
   85.1250     2.2590    87.4260     8.6050     6.0760     8.3590    25.0090   -16.4650 
   85.2500     2.2280    86.3480     8.2680     5.9390     7.3600    25.1140   -16.7690 
   85.3750     2.1990    88.1980     7.9320     5.7570     6.7780    25.2310   -17.0130 
   85.5000     2.1830    91.6660     7.7250     5.6110     6.6870    25.3300   -17.1910 
   85.6250     2.1830    92.7370     7.7240     5.5580     6.9160    25.3850   -17.2920 
   85.7500     2.1820    89.6310     7.8510     5.5740     7.2000    25.4020   -17.3440 
   85.8750     2.1720    84.7340     8.0230     5.6210     7.2620    25.3550   -17.3780 
   86.0000     2.1550    80.9900     8.1760     5.6670     7.1360    25.2060   -17.4330 
   86.1250     2.1380    81.1890     8.2650     5.6970     7.0040    24.9520   -17.5350 
   86.2500     2.1310    82.6530     8.2920     5.7090     6.9450    24.6960   -17.6860 
   86.3750     2.1320    83.9590     8.2660     5.7050     7.0090    24.5220   -17.8830 
   86.5000     2.1400    84.5230     8.2000     5.6850     7.1970    24.4520   -18.1230 
   86.6250     2.1500    85.2130     8.1150     5.6510     7.1410    24.4500   -18.3790 
   86.7500     2.1580    88.0350     8.0530     5.6240     6.8730    24.4380   -18.6510 
   86.8750     2.1600    90.0850     8.0640     5.6330     6.6820    24.3730   -18.9470 
   87.0000     2.1560    88.5550     8.1920     5.7040     6.8780    24.2520   -19.2680 
   87.1250     2.1480    85.1870     8.4620     5.8630     7.2720    24.1350   -19.6250 
   87.2500     2.1390    82.5650     8.8050     6.0790     7.5880    24.0790   -20.0060 
   87.3750     2.1270    80.5650     9.1400     6.3130     7.7870    24.0720   -20.4010 
   87.5000     2.1100    77.6670     9.3730     6.5110     7.8550    24.0740   -20.7910 
   87.6250     2.0890    74.4880     9.3930     6.6020     7.7710    24.0730   -21.1250 
   87.7500     2.0700    74.8490     9.2120     6.5730     7.7750    24.0890   -21.3610 
   87.8750     2.0620    78.8630     8.8790     6.4380     7.9270    24.1260   -21.4700 
   88.0000     2.0700    81.1640     8.4820     6.2370     8.0800    24.1770   -21.4500 
   88.1250     2.0910    77.8010     8.1400     6.0290     7.9070    24.2130   -21.3250 
   88.2500     2.1120    76.0670     7.9290     5.8750     7.4860    24.2260   -21.1780 
   88.3750     2.1200    80.4040     7.8710     5.8110     7.3910    24.2290   -21.0550 
   88.5000     2.1320    84.4280     7.9600     5.8420     7.6430    24.2200   -20.9910 
   88.6250     2.1310    80.4010     8.1620     5.9400     7.9820    24.1470   -21.0020 
   88.7500     2.1200    76.2690     8.3550     6.0180     8.1290    24.0100   -21.0720 
   88.8750     2.1090    78.4920     8.4120     6.0060     8.4700    23.8630   -21.1710 
   89.0000     2.1020    84.5870     8.2340     5.8620     8.3350    23.7680   -21.2710 
   89.1250     2.0980    84.8410     7.8140     5.6060     7.6020    23.7510   -21.3590 
   89.2500     2.0850    79.8700     7.4110     5.3760     6.8960    23.7630   -21.4450 
   89.3750     2.0570    74.7100     7.3600     5.3350     6.7360    23.7740   -21.5780 
   89.5000     2.0200    72.2250     8.0480     5.6710     7.2110    23.7740   -21.8030 
   89.6250     1.9820    72.8680    10.1430     6.7360     8.7180    23.7860   -22.1480 
   89.7500     1.9710    75.4210    13.8860     8.7010    11.8810    23.8180   -22.5860 
   89.8750     2.0070    76.1150    19.4130    11.7270    18.9910    23.8490   -23.1100 
   90.0000     2.1060    72.3610    26.0820    15.6180    33.1600    23.8600   -23.7100 
   90.1250     2.2660    67.3100    31.0070    19.0420    46.7600    23.8470   -24.3610 
   90.2500     2.4430    65.6740    31.1020    20.1400    50.1620    23.7990   -25.0250 
   90.3750     2.5670    66.3150    26.4290    18.4380    41.8500    23.6730   -25.6880 
   90.5000     2.5960    66.5910    20.0530    15.1830    26.7390    23.4630   -26.3520 
   90.6250     2.5360    66.1210    14.9860    12.0490    14.8990    23.2670   -27.0010 
   90.7500     2.4230    66.0590    11.6770     9.7290    10.1450    23.1770   -27.5960 
   90.8750     2.3070    65.8400     9.7970     8.2300     9.0100    23.1820   -28.0960 
   91.0000     2.2110    64.7370     8.9350     7.3850     9.0330    23.2160   -28.4820 
   91.1250     2.1440    64.8630     8.8240     7.0460     9.1060    23.2370   -28.7430 
   91.2500     2.1110    67.0500     9.0400     6.9480     8.9850    23.2470   -28.9050 
   91.3750     2.0930    68.4620     9.3450     6.9660     8.8080    23.2470   -28.9800 
   91.5000     2.0790    68.2920     9.5650     7.0220     8.7690    23.2450   -28.9800 
   91.6250     2.0640    68.4460     9.6340     7.0840     8.6870    23.2470   -28.9240 
   91.7500     2.0500    69.6980     9.6470     7.1480     8.6030    23.2470   -28.8360 
   91.8750     2.0380    69.8060     9.6590     7.2130     8.5360    23.2520   -28.7060 
   92.0000     2.0270    69.3670     9.6710     7.2710     8.4420    23.2620   -28.5230 
   92.1250     2.0190    70.4230     9.6600     7.3060     8.5140    23.2090   -28.2950 
   92.2500     2.0150    70.1030     9.6150     7.3100     8.5970    23.0790   -28.0590 
   92.3750     2.0150    68.3090     9.5330     7.2780     8.6260    22.9430   -27.8370 
   92.5000     2.0190    66.9370     9.4270     7.2180     8.7350    22.8770   -27.6540 
   92.6250     2.0240    67.4950     9.3210     7.1430     8.7790    22.8830   -27.5280 
   92.7500     2.0270    69.3260     9.2390     7.0750     8.7030    22.8870   -27.4700 
   92.8750     2.0290    71.2650     9.1940     7.0260     8.5680    22.8840   -27.4920 
   93.0000     2.0300    72.5030     9.1880     7.0000     8.3290    22.8810   -27.5820 
   93.1250     2.0310    72.1670     9.2160     6.9980     8.0300    22.8810   -27.7140 
   93.2500     2.0330    71.5620     9.2540     7.0070     7.8260    22.8810   -27.8350 
   93.3750     2.0330    70.5500     9.2880     7.0180     7.8140    22.8800   -27.9400 
   93.5000     2.0330    68.5650     9.3090     7.0280     7.9340    22.8770   -28.0390 
   93.6250     2.0320    67.3740     9.3100     7.0310     8.2390    22.8760   -28.1650 
   93.7500     2.0300    66.9540     9.2990     7.0300     8.7400    22.8770   -28.3240 
   93.8750     2.0270    66.2210     9.2860     7.0280     9.2660    22.8810   -28.5200 
   94.0000     2.0270    64.7440     9.2810     7.0300     9.7920    22.8870   -28.7580 
   94.1250     2.0320    65.0430     9.2940     7.0430    10.2450    22.8900   -29.0400 
   94.2500     2.0450    65.3820     9.3240     7.0680    10.4750    22.8900   -29.3390 
   94.3750     2.0600    64.6330     9.3690     7.1020    10.2600    22.8940   -29.6120 
   94.5000     2.0720    64.0960     9.4160     7.1410     9.9260    22.8990   -29.8170 
   94.6250     2.0800    64.4860     9.4450     7.1710     9.5470    22.9000   -29.9220 
   94.7500     2.0900    65.0870     9.4350     7.1830     9.2900    22.8990   -29.9500 
   94.8750     2.1040    64.2570     9.3700     7.1660     9.2500    22.9000   -29.9100 
