~V
VERS. 2.00: Ver 2.00
~W
STRT.M 56.0000:
STOP.M 221.0000:
STEP.M 0.1250:
NULL. -999.2500:
UWI. F10169:
~C
DEPT.M :
GR.API :
RML.OHMM :
RI. :
RXO.OHMM :
CALI.CM :
SP.MV :
DEN.GM/CC :
~A
# ...
  213.5000    62.2560     8.1070     7.2480     7.3190    24.8050   -13.7800     2.3520 
  213.6250    62.2560     8.0770     7.2170     7.8020    24.7810   -13.8730     2.3680 
  213.7500    62.2560     8.0830     7.2200     8.9090    24.7510   -13.9560     2.3860 
  213.8750    62.2560     8.0980     7.2290    10.6370    24.7370   -13.9950     2.4050 
  214.0000    62.2560     8.1080     7.2340    13.1620    24.7400   -14.0210     2.4220 
  214.1250    62.2560     8.1090     7.2340    15.9300    24.7540   -14.0560     2.4320 
  214.2500    62.2560     8.1040     7.2370    16.7130    24.7710   -14.0820     2.4250 
  214.3750    62.2560     8.1000     7.2420    14.2510    24.7580   -14.0780     2.4120 
  214.5000    62.2560     8.0990     7.2480    11.5310    24.7400   -14.0500     2.4060 
  214.6250    62.2560     8.1020     7.2510    10.3340    24.7320   -14.0260     2.4140 
  214.7500    62.2560     8.1090     7.2490     8.9310    24.7320   -14.0790     2.4250 
  214.8750    62.2560     8.1160     7.2460     7.7760    24.7320   -14.2000     2.4280 
  215.0000    62.2560     8.1200     7.2420     6.9110    24.7320   -14.3200     2.4240 
  215.1250    62.2560     8.1190     7.2380     6.5180    24.7320   -14.4230     2.4180 
  215.2500    62.2560     8.1120     7.2340     6.6210    24.7320   -14.5740     2.4120 
  215.3750    62.2560     8.1050     7.2300     7.0050    24.7320   -14.7700     2.4070 
  215.5000    62.2560     8.1010     7.2250     7.4430    24.7320   -14.9440     2.4020 
  215.6250    62.2560     8.1010     7.2200     7.7350    24.7320   -15.1310     2.3950 
  215.7500    62.2560     8.1030     7.2160     8.0420    24.7200   -15.2680     2.3880 
  215.8750    62.2560     8.1060     7.2140     8.7830    24.6890   -15.3560     2.3880 
  216.0000    62.2560     8.1090     7.2140     9.2740    24.6460   -15.4080     2.3970 
  216.1250    62.2560     8.1100     7.2170     8.6710    24.6020   -15.4600     2.4040 
  216.2500    62.2560     8.1100     7.2210     7.4290    24.5870   -15.4420     2.3960 
  216.3750    62.2560     8.1080     7.2250     6.8820    24.5820   -15.3810     2.3800 
  216.5000    62.2560     8.1050     7.2250     6.5200    24.5820   -15.2830     2.3610 
  216.6250    62.2560     8.1010     7.2240     6.1890    24.5810   -15.1060     2.3430 
  216.7500    62.2560     8.1000     7.2230     5.8380    24.5680   -14.8970     2.3330 
  216.8750    62.2560     8.1010     7.2230     5.4360    24.5420   -14.7310     2.3330 
  217.0000    62.2560     8.1010     7.2230     5.1090    24.5180   -14.6010     2.3330 
  217.1250    62.2560     8.1010     7.2230     4.9760    24.5000   -14.4650     2.3260 
  217.2500    62.2560     8.1010     7.2230     4.9400    24.4640   -14.3420     2.3100 
  217.3750    62.2560     8.1010     7.2230     4.8850    24.3950   -14.2270     2.2960 
  217.5000    62.2560     8.1010     7.2230     4.7680    24.3240   -14.1590     2.2900 
  217.6250    62.2560     8.1010     7.2230     4.6600    24.2740   -14.1360     2.2950 
  217.7500    62.2560     8.1010     7.2230     4.5950    24.2300   -14.1520     2.3030 
  217.8750    62.2560     8.1010     7.2230     4.5260    24.1910   -14.1810     2.3030 
  218.0000    62.2560     8.1010     7.2230     4.4760    24.1150   -14.2150     2.2850 
  218.1250    62.2560     8.1010     7.2230     4.4870    23.9900   -14.2700     2.2470 
  218.2500    62.2560     8.1010     7.2230     4.5070    23.7390   -14.3860     2.1640 
  218.3750    62.2560     8.1010     7.2230     4.4130    23.0400   -14.4990     2.0150 
  218.5000    62.2560     8.1010     7.2230     4.1630    21.6470   -14.6300     1.8150 
  218.6250    62.2560     8.1010     7.2230     3.9550    20.1150   -14.7890     1.6290 
  218.7500    62.2560     8.1010     7.2230     3.8870    19.5320   -14.9220     1.5220 
  218.8750    62.2560     8.1010     7.2230     3.8780    19.3470   -15.0570     1.4760 
  219.0000    62.2560     8.1010     7.2230     3.8780    19.3470   -15.1750     1.4630 
  219.1250    62.2560     8.1010     7.2230     3.8780    19.3470   -15.2890     1.4610 
  219.2500    62.2560     8.1010     7.2230     3.8780    19.3470   -15.3500     1.4580 
  219.3750    62.2560     8.1010     7.2230     3.8780    19.3470   -15.3500     1.4530 
  219.5000    62.2560     8.1010     7.2230     3.8780    19.3470   -15.3500     1.4490 
  219.6250    62.2560     8.1010     7.2230     3.8780    19.3470  -999.2500     1.4490 
  219.7500    62.2560     8.1010     7.2230     3.8780    19.3470  -999.2500     1.4540 
  219.8750    62.2560     8.1010     7.2230     3.8780    19.3470  -999.2500     1.4570 
  220.0000    62.2560     8.1010     7.2230     3.8770    19.3470  -999.2500     1.4590 
  220.1250    62.2560     8.1010     7.2230     3.8770    19.3470  -999.2500     1.4590 
  220.2500    62.2560     8.1010     7.2230     3.8770    19.3470  -999.2500     1.4590 
  220.3750    62.2560     8.1010     7.2230     3.8770    19.3470  -999.2500     1.4610 
  220.5000    62.2560     8.1010     7.2230     3.8780    19.3470  -999.2500     1.4620 
  220.6250    62.2560     8.1010     7.2230     3.8780    19.3470  -999.2500     1.4680 
  220.7500    62.2560     8.1010     7.2230     3.8780    19.3470  -999.2500     1.4710 
  220.8750    62.2560     8.1010     7.2230     3.8780    19.3450  -999.2500     1.4730 
  221.0000    62.2560     8.1010     7.2230     3.8780    19.3430  -999.2500     1.4720 
