~V
VERS. 2.00: Ver 2.00
~W
STRT.M 60.0000:
STOP.M 241.0000:
STEP.M 0.1250:
NULL. -999.2500:
UWI. F10158:
~C
DEPT.M :
SP.MV :
DEN.GM/CC :
GR.API :
RML.OHMM :
RI. :
RXO.OHMM :
CALI.CM :
~A
# ...
   82.5000    66.1290     2.2220    71.3810     8.3580     6.8340     8.7250    25.7740 
   82.6250    66.6800     2.2320    73.5620     7.9760     6.5560     7.8210    25.8320 
   82.7500    67.2440     2.2350    74.1150     7.6840     6.3510     7.6330    25.8760 
   82.8750    67.8110     2.2380    74.1100     7.4440     6.1850     7.8210    25.8840 
   83.0000    68.3490     2.2490    75.0340     7.2330     6.0220     7.3730    25.8760 
   83.1250    68.8040     2.2670    78.1740     7.0210     5.8350     6.1500    25.8770 
   83.2500    69.1240     2.2840    82.1030     6.8020     5.6310     5.3550    25.8790 
   83.3750    69.2840     2.2920    85.8920     6.6250     5.4640     5.1710    25.8770 
   83.5000    69.2720     2.2900    88.1720     6.5740     5.4080     5.2060    25.8750 
   83.6250    69.0560     2.2780    85.6350     6.8010     5.5710     5.3330    25.8690 
   83.7500    68.6370     2.2590    79.8110     7.4140     5.9980     5.5120    25.8330 
   83.8750    68.0110     2.2350    74.4100     8.5770     6.7790     5.9070    25.7680 
   84.0000    67.2210     2.2180    71.8690    10.3900     8.0050     6.9280    25.7070 
   84.1250    66.3080     2.2390    72.3130    12.8200     9.7570     8.7420    25.6840 
   84.2500    65.3370     2.3070    71.1650    15.2860    11.7460    10.9440    25.6930 
   84.3750    64.3710     2.3960    66.9000    17.0340    13.5060    14.2800    25.7150 
   84.5000    63.4410     2.4500    61.3930    17.3310    14.4260    19.6030    25.7240 
   84.6250    62.5910     2.4160    59.1050    15.8790    13.9750    22.9250    25.7020 
   84.7500    61.8520     2.3350    60.2950    13.7680    12.7140    19.5120    25.6800 
   84.8750    61.2460     2.2490    61.8470    11.8270    11.2430    14.0110    25.6890 
   85.0000    60.7720     2.1880    60.9400    10.5080     9.9900    11.0440    25.7290 
   85.1250    60.4450     2.1620    59.3090    10.0060     9.2170    10.4010    25.7810 
   85.2500    60.2500     2.1600    59.3090    10.0070     8.8300    10.1990    25.8410 
   85.3750    60.1880     2.1700    60.1200    10.2290     8.6940    10.1150    25.9180 
   85.5000    60.2610     2.1850    60.7190    10.4180     8.6490    10.0200    26.0010 
   85.6250    60.4770     2.1890    60.4100    10.4580     8.5920     9.9740    26.0570 
   85.7500    60.7710     2.1830    60.5360    10.5100     8.5720    10.0520    26.0800 
   85.8750    61.1020     2.1760    61.4060    10.8380     8.7420    10.1290    26.0930 
   86.0000    61.4350     2.1890    61.8450    11.7640     9.3110    10.1600    26.1180 
   86.1250    61.7440     2.2510    59.7560    13.7950    10.6500    10.2670    26.1890 
   86.2500    62.0350     2.3530    57.1720    16.9900    12.8640    10.9180    26.3130 
   86.3750    62.3110     2.4690    57.6430    21.2410    15.9810    14.0020    26.4600 
   86.5000    62.5520     2.5600    60.2340    25.8790    19.6410    23.0670    26.5660 
   86.6250    62.7240     2.6000    60.3390    29.0560    22.5510    44.1030    26.5900 
   86.7500    62.7910     2.6050    58.0430    29.2890    23.3740    62.4310    26.5810 
   86.8750    62.7190     2.5800    55.1210    26.4850    21.8070    55.4340    26.5800 
   87.0000    62.4740     2.5270    52.8050    22.0410    18.7290    37.0260    26.5400 
   87.1250    62.0220     2.4470    52.5810    17.7950    15.4430    24.2160    26.3580 
   87.2500    61.4170     2.3600    55.2080    14.6190    12.7560    16.2410    26.0960 
   87.3750    60.7200     2.2840    58.6510    12.5910    10.8390    12.0300    25.8960 
   87.5000    60.0200     2.2290    60.3200    11.5130     9.6360    10.7300    25.8310 
   87.6250    59.4220     2.2010    59.5710    11.1980     9.0840    11.4730    25.8470 
   87.7500    58.9850     2.1880    59.4410    11.2540     8.9170    12.2800    25.8600 
   87.8750    58.7480     2.1810    60.6170    11.4450     8.9720    12.1390    25.8640 
   88.0000    58.7200     2.1750    61.8240    11.5650     9.0850    11.3690    25.8650 
   88.1250    58.9030     2.1680    61.9480    11.4370     9.0930    10.9520    25.8680 
   88.2500    59.2160     2.1640    60.9690    11.0880     8.9460    10.9840    25.8780 
   88.3750    59.6240     2.1640    60.3530    10.5990     8.6680    11.1190    25.9000 
   88.5000    60.0880     2.1680    62.1100    10.0980     8.3300    11.0390    25.9390 
   88.6250    60.5680     2.1750    65.8800     9.7620     8.0490    10.2480    25.9990 
   88.7500    61.0200     2.1820    66.6880     9.6730     7.9020     9.2520    26.0620 
   88.8750    61.4270     2.1890    64.4510     9.8380     7.9140     8.8110    26.0970 
   89.0000    61.7830     2.1970    64.0670    10.1840     8.0610     9.1150    26.0850 
   89.1250    62.0950     2.2050    66.9120    10.5550     8.2630     9.6390    26.0410 
   89.2500    62.3880     2.2100    67.5720    10.7700     8.3970     9.8530    26.0060 
   89.3750    62.6880     2.2090    65.8010    10.7330     8.3910     9.8660    25.9880 
   89.5000    63.0130     2.2020    64.8930    10.4640     8.2370     9.8750    25.9720 
   89.6250    63.3850     2.1910    64.9810    10.1100     8.0090     9.7600    25.9520 
   89.7500    63.7920     2.1800    64.6110     9.9230     7.8670     9.5080    25.9400 
   89.8750    64.2070     2.1720    64.9480    10.1260     7.9620     9.2900    25.9380 
   90.0000    64.6070     2.1750    66.0320    10.8670     8.4160     9.3710    25.9350 
   90.1250    64.9730     2.2080    65.5030    12.2040     9.3380    10.7150    25.9700 
   90.2500    65.3040     2.2770    64.0640    13.7690    10.5400    15.2610    26.0950 
   90.3750    65.6050     2.3650    63.8830    15.0920    11.7370    24.8690    26.2720 
   90.5000    65.8730     2.4300    64.1680    15.6620    12.5330    34.0710    26.3890 
   90.6250    66.0990     2.4240    64.4300    15.1110    12.5270    27.1580    26.3670 
   90.7500    66.2990     2.3680    64.1480    13.9430    11.9450    16.7030    26.3130 
   90.8750    66.4810     2.2980    63.6150    12.6280    11.0800    11.3530    26.3080 
   91.0000    66.6700     2.2440    62.1370    11.4410    10.1550     9.7520    26.3480 
   91.1250    66.9000     2.2210    61.0620    10.4360     9.2600     9.4930    26.3780 
   91.2500    67.2010     2.2230    62.2690     9.4920     8.3800     9.4410    26.3800 
   91.3750    67.5990     2.2420    67.9750     8.5610     7.5130     9.2090    26.3680 
   91.5000    68.0930     2.2670    77.9550     7.6940     6.7020     8.0110    26.4010 
   91.6250    68.6410     2.2850    85.1660     7.0250     6.0500     6.0810    26.5530 
   91.7500    69.1570     2.2880    86.9410     6.5610     5.5710     4.7980    26.7560 
   91.8750    69.5860     2.2780    87.2590     6.2800     5.2600     4.6920    26.9050 
   92.0000    69.8730     2.2670    88.4800     6.1770     5.1200     5.3010    26.9570 
   92.1250    69.9370     2.2730    88.3330     6.3380     5.2150     5.4060    26.9520 
   92.2500    69.7870     2.2970    85.3460     6.7930     5.5440     4.9220    26.9290 
   92.3750    69.4370     2.3250    81.2630     7.5720     6.1200     4.5560    26.8480 
   92.5000    68.9100     2.3360    75.9990     8.6320     6.9170     5.0640    26.6730 
   92.6250    68.2220     2.3150    70.0310     9.7970     7.8450     6.8090    26.4460 
   92.7500    67.4370     2.2770    66.9180    10.7660     8.6950     8.7140    26.2890 
   92.8750    66.6030     2.2410    66.0320    11.3350     9.2930     9.6100    26.2380 
   93.0000    65.7930     2.2180    64.9900    11.4420     9.5420     9.5520    26.2410 
   93.1250    65.1130     2.2120    65.3440    11.1510     9.4170     9.6790    26.2400 
   93.2500    64.6210     2.2130    67.7970    10.7240     9.1050    10.0880    26.2380 
   93.3750    64.3520     2.2150    69.4210    10.3120     8.7330    10.1470    26.2400 
   93.5000    64.3000     2.2150    67.4110    10.0140     8.3960     9.5340    26.2420 
   93.6250    64.4170     2.2120    63.2630     9.9250     8.1820     8.7640    26.2410 
