~V
VERS. 2.00: Ver 2.00
~W
STRT.M 57.0000:
STOP.M 247.0000:
STEP.M 0.1250:
NULL. -999.2500:
UWI. F10194:
~C
DEPT.M :
SP.MV :
DEN.GM/CC :
GR.API :
RML.OHMM :
RI. :
RXO.OHMM :
CALI.CM :
~A
# ...
  158.2500    -9.0860     2.2560    79.1390     8.8110     8.1220     7.7540    25.9080 
  158.3750    -9.0000     2.2680    78.7800     8.6750     7.7950     7.0930    25.8020 
  158.5000    -8.9250     2.2790    80.1010     8.9880     7.8680     7.1820    25.6840 
  158.6250    -8.8990     2.2830    82.2760     9.6290     8.2880     8.1470    25.6240 
  158.7500    -8.9670     2.2830    82.2930    10.3720     8.9090     9.6270    25.6530 
  158.8750    -9.1120     2.2840    79.6640    10.8860     9.4630    11.0720    25.7310 
  159.0000    -9.2730     2.2860    78.0050    10.9510     9.7030    11.5660    25.7700 
  159.1250    -9.4420     2.2910    78.7800    10.6020     9.5560    10.8200    25.7360 
  159.2500    -9.6350     2.3010    80.0390    10.1000     9.1760     9.5620    25.6620 
  159.3750    -9.8430     2.3100    80.9710     9.8790     8.9160     8.5610    25.6020 
  159.5000   -10.0500     2.3140    81.8620    10.1830     9.0490     8.5990    25.5840 
  159.6250   -10.2280     2.3070    81.2130    10.9270     9.6010     9.9940    25.6060 
  159.7500   -10.3650     2.2890    77.4850    11.8030    10.3830    12.3280    25.6470 
  159.8750   -10.4650     2.2710    72.8900    12.3270    11.0050    14.4220    25.6810 
  160.0000   -10.5230     2.2600    71.1740    12.1900    11.1210    14.6350    25.6880 
  160.1250   -10.5140     2.2620    72.7750    11.4190    10.6320    12.5420    25.6550 
  160.2500   -10.4330     2.2750    75.6870    10.3000     9.7210     9.4700    25.5960 
  160.3750   -10.2980     2.2910    77.7520     9.2510     8.7460     7.2970    25.5530 
  160.5000   -10.1050     2.3020    78.0630     8.5120     7.9750     6.5760    25.5350 
  160.6250    -9.8500     2.3070    77.9860     8.1000     7.4750     6.5500    25.5210 
  160.7500    -9.5710     2.3050    80.2210     7.9650     7.2240     6.5000    25.4930 
  160.8750    -9.3730     2.3030    84.5360     8.0940     7.2130     6.1870    25.4680 
  161.0000    -9.3170     2.3010    87.1830     8.4580     7.4220     6.0510    25.4620 
  161.1250    -9.3750     2.2980    85.7720     8.9940     7.8120     6.6110    25.4910 
  161.2500    -9.5010     2.2910    82.0610     9.6070     8.3190     7.9160    25.5560 
  161.3750    -9.6800     2.2820    79.9180    10.1770     8.8330     9.5050    25.6360 
  161.5000    -9.9330     2.2740    80.6960    10.6610     9.2730    10.5090    25.6750 
  161.6250   -10.3050     2.2720    82.8270    11.1670     9.6620    10.2590    25.6600 
  161.7500   -10.7800     2.2770    84.1880    11.9460    10.1580     9.4440    25.6460 
  161.8750   -11.2680     2.2840    84.6210    13.3960    11.0810    10.1180    25.6870 
  162.0000   -11.7080     2.2830    84.6220    15.7100    12.6730    13.0470    25.7730 
  162.1250   -12.1240     2.2700    82.7960    18.7890    14.9890    17.8820    25.8700 
  162.2500   -12.5370     2.2490    78.3080    22.2950    17.8840    23.8990    25.9530 
  162.3750   -12.9300     2.2290    73.5430    25.5780    20.9220    29.7210    26.0120 
  162.5000   -13.2840     2.2170    71.5150    27.9810    23.4980    33.7470    26.0470 
  162.6250   -13.5750     2.2120    71.7720    29.1230    25.1340    34.7310    26.0630 
  162.7500   -13.7670     2.2130    71.4760    29.1510    25.6620    32.1070    26.0680 
  162.8750   -13.8270     2.2160    70.4250    28.2290    25.1520    28.6660    26.0690 
  163.0000   -13.7600     2.2210    71.1970    26.8260    23.9490    26.7500    26.0700 
  163.1250   -13.5910     2.2290    74.1790    25.5420    22.4320    25.4230    26.0670 
  163.2500   -13.3490     2.2330    76.4740    23.9340    20.9190    23.7680    26.0510 
  163.3750   -13.0790     2.2330    76.2140    22.5620    19.7680    21.7510    25.9880 
  163.5000   -12.8260     2.2310    74.9810    21.9890    19.1700    19.5390    25.8750 
  163.6250   -12.6050     2.2310    73.9340    22.0380    19.1130    18.1520    25.7740 
  163.7500   -12.4350     2.2290    72.4330    22.4290    19.4470    18.4560    25.7640 
  163.8750   -12.3600     2.2230    71.4440    22.7510    19.8910    19.6680    25.7820 
  164.0000   -12.3980     2.2190    72.1780    22.6790    20.1390    19.7370    25.7470 
  164.1250   -12.5640     2.2190    73.3030    22.1310    20.0190    18.1420    25.6960 
  164.2500   -12.8520     2.2230    73.2780    21.2530    19.5470    16.6930    25.7030 
  164.3750   -13.2120     2.2310    73.3740    20.3760    18.9140    16.3610    25.7750 
  164.5000   -13.5640     2.2430    75.0580    19.8340    18.3990    16.4650    25.8250 
  164.6250   -13.8860     2.2580    76.7630    19.8110    18.2080    16.4180    25.8170 
  164.7500   -14.1840     2.2740    77.2080    20.3680    18.4340    16.4450    25.7980 
  164.8750   -14.4490     2.2860    77.3480    21.5650    19.1620    17.0080    25.7980 
  165.0000   -14.6950     2.2910    77.8070    23.3960    20.4140    18.6020    25.8190 
  165.1250   -14.9320     2.2880    77.6220    25.8700    22.2170    21.1640    25.8660 
  165.2500   -15.1480     2.2820    75.8430    29.0900    24.6590    24.1840    25.9570 
  165.3750   -15.3450     2.2720    72.8810    33.3640    27.9760    28.4090    26.0960 
  165.5000   -15.5830     2.2570    70.7200    38.9680    32.3820    34.6980    26.2910 
  165.6250   -15.9160     2.2380    70.4510    46.1910    38.1360    43.0790    26.5000 
  165.7500   -16.3710     2.2180    70.7130    55.4080    45.6070    53.2980    26.6980 
  165.8750   -16.9520     2.1990    69.3600    67.2060    55.3900    64.7770    26.8450 
  166.0000   -17.6140     2.1820    66.5290    81.6050    67.5690    76.7860    26.9380 
  166.1250   -18.3120     2.1660    63.4920    98.0120    81.6680    90.5890    27.0190 
  166.2500   -19.0400     2.1540    61.5100   115.2870    96.7070   107.2610    27.1110 
  166.3750   -19.7800     2.1480    62.0400   131.2690   110.8370   120.7420    27.2030 
  166.5000   -20.4930     2.1460    64.3640   143.8880   122.2840   124.9630    27.2910 
  166.6250   -21.1410     2.1430    65.7310   152.1990   130.1970   122.5070    27.3770 
  166.7500   -21.6920     2.1410    65.2390   156.6910   134.8520   119.1520    27.4620 
  166.8750   -22.1170     2.1410    64.5670   158.9260   137.3750   118.2230    27.5410 
  167.0000   -22.4340     2.1410    65.3540   160.6210   139.2010   120.8420    27.6170 
  167.1250   -22.7100     2.1400    67.0070   162.6850   141.2230   124.8860    27.6880 
  167.2500   -22.9950     2.1380    67.5260   165.4930   143.8620   127.6370    27.7450 
  167.3750   -23.2960     2.1310    66.6770   169.7400   147.8050   126.0610    27.7980 
  167.5000   -23.6070     2.1210    66.2660   175.9960   153.6600   120.2920    27.8440 
  167.6250   -23.9020     2.1070    66.5250   184.2220   161.5720   114.7500    27.8690 
  167.7500   -24.1520     2.0910    65.6700   193.3950   170.8780   113.9660    27.8760 
  167.8750   -24.3800     2.0740    63.0130   200.7050   179.4070   116.9230    27.8770 
  168.0000   -24.6100     2.0630    60.1700   202.8800   184.2970   117.4830    27.8780 
  168.1250   -24.7980     2.0580    58.6540   197.6580   183.2510   113.1500    27.8920 
  168.2500   -24.8990     2.0590    59.0520   185.0270   175.3890   106.7020    27.9330 
  168.3750   -24.9400     2.0650    60.7340   167.0980   161.5990   101.4270    28.0160 
  168.5000   -24.9760     2.0750    61.5210   148.2890   145.2120    97.1150    28.1060 
  168.6250   -25.0490     2.0830    61.0920   132.6010   129.7290    92.0710    28.1700 
  168.7500   -25.1730     2.0860    61.8020   120.3420   117.2650    85.7930    28.2050 
  168.8750   -25.3310     2.0860    64.3470   112.1280   109.2030    79.7110    28.2180 
  169.0000   -25.4760     2.0840    66.6680   108.2570   105.4240    75.5790    28.2120 
  169.1250   -25.5950     2.0820    67.0850   107.9660   105.1690    73.9130    28.1560 
  169.2500   -25.7070     2.0810    65.9530   110.5130   107.7640    74.4730    28.0800 
  169.3750   -25.8070     2.0750    64.5250   115.0660   112.4440    77.9730    28.1310 
