~V
VERS. 2.00: Ver 2.00
~W
STRT.M 59.0000:
STOP.M 202.0000:
STEP.M 0.1250:
NULL. -999.2500:
UWI. F10133:
~C
DEPT.M :
GR.API :
RML.OHMM :
RI. :
RXO.OHMM :
CALI.CM :
SP.MV :
DEN.GM/CC :
~A
# ...
  126.5000    82.2850    11.9410     9.1740     8.5160    26.3400   -19.9010     2.3250 
  126.6250    79.5760    13.8710    10.8180    13.0030    26.5720   -20.1640     2.2830 
  126.7500    80.6370    15.6710    12.6100    17.1450    26.7090   -20.3990     2.2350 
  126.8750    84.2050    16.9620    14.1270    20.2850    26.7420   -20.5390     2.1960 
  127.0000    85.1340    17.5370    14.9740    20.1290    26.7170   -20.6840     2.1730 
  127.1250    83.2430    17.4370    15.0080    17.7500    26.6660   -20.8480     2.1640 
  127.2500    81.1940    17.1500    14.7370    15.1700    26.6170   -20.9380     2.1700 
  127.3750    78.6620    16.9800    14.5280    14.4630    26.5070   -21.0060     2.1950 
  127.5000    76.0380    17.0340    14.5430    14.9230    26.2680   -21.1070     2.2440 
  127.6250    75.9170    17.2160    14.7470    16.6050    25.9400   -21.1320     2.3090 
  127.7500    77.0790    17.3360    14.9330    18.6120    25.7680   -21.1200     2.3690 
  127.8750    77.0780    17.3420    14.9950    18.8170    25.6660   -21.1580     2.4070 
  128.0000    76.8540    17.3200    14.9660    16.5190    25.6150   -21.1760     2.4210 
  128.1250    76.2320    17.4620    15.0310    12.7600    25.4320   -21.1230     2.4260 
  128.2500    73.9300    17.8250    15.3160    13.0730    25.2790   -21.0790     2.4400 
  128.3750    73.1370    18.3250    15.8110    16.3760    25.1230   -21.0300     2.4720 
  128.5000    74.7700    18.7730    16.3690    20.6160    25.0440   -20.9090     2.5120 
  128.6250    73.9890    18.9360    16.7250    20.5710    25.0140   -20.7410     2.5450 
  128.7500    69.4600    18.8210    16.7630    18.2420    24.9420   -20.6160     2.5610 
  128.8750    63.9830    18.5640    16.5540    15.1440    24.7710   -20.4960     2.5600 
  129.0000    60.7140    18.3640    16.2950    14.3850    24.6970   -20.3670     2.5490 
  129.1250    61.0530    18.4090    16.2150    14.6990    24.6490   -20.3140     2.5380 
  129.2500    64.4620    18.6660    16.3510    16.5110    24.6150   -20.2700     2.5290 
  129.3750    68.2880    19.0390    16.6470    17.7360    24.6120   -20.1670     2.5250 
  129.5000    69.8870    19.4220    17.0070    17.8010    24.6330   -20.0760     2.5220 
  129.6250    70.8030    19.7200    17.3480    17.2870    24.6630   -20.0610     2.5170 
  129.7500    70.8700    19.8930    17.6240    16.9360    24.7200   -20.0340     2.5070 
  129.8750    69.0040    19.8960    17.7790    16.5450    24.8540   -20.0160     2.4940 
  130.0000    68.2060    19.6790    17.7450    16.7420    24.9290   -20.0590     2.4800 
  130.1250    71.5430    19.1980    17.4350    17.3390    24.8390   -20.0710     2.4710 
  130.2500    75.6840    18.5730    16.9380    17.6440    24.7360   -20.0570     2.4690 
  130.3750    77.3800    17.9540    16.3870    16.1110    24.7330   -20.1060     2.4740 
  130.5000    76.3380    17.5120    15.9480    13.4170    24.7860   -20.1640     2.4830 
  130.6250    73.6010    17.4310    15.8150    13.7250    24.8080   -20.1390     2.4910 
  130.7500    70.7590    17.6600    15.9940    14.6930    24.8120   -20.1130     2.4960 
  130.8750    70.3510    18.0530    16.4150    15.0030    24.7380   -20.0970     2.4950 
  131.0000    71.5140    18.3670    16.8840    15.0610    24.6230   -20.0380     2.4870 
  131.1250    71.6900    18.2600    17.0210    16.5890    24.6530   -19.9370     2.4720 
  131.2500    72.3140    17.6750    16.6410    17.3380    24.8830   -19.8100     2.4540 
  131.3750    74.0050    16.7290    15.7980    16.3580    25.1970   -19.5860     2.4380 
  131.5000    73.8110    15.6890    14.7480    13.5410    25.4480   -19.2700     2.4290 
  131.6250    70.4080    14.9310    13.8600    11.0050    25.6710   -19.0200     2.4280 
  131.7500    67.7100    14.6450    13.3640    10.2460    25.7940   -18.8220     2.4320 
  131.8750    67.0430    14.8980    13.3700    11.1670    25.8030   -18.5650     2.4390 
  132.0000    66.8190    15.6380    13.8870    12.6290    25.7470   -18.3070     2.4520 
  132.1250    66.6230    16.7340    14.8790    13.8650    25.6860   -18.1600     2.4700 
  132.2500    65.5590    17.8700    16.0390    15.0150    25.6930   -18.0760     2.4930 
  132.3750    63.0890    18.7990    17.0830    16.3890    25.7330   -18.0710     2.5150 
  132.5000    60.9210    19.3460    17.7560    18.8640    25.7340   -18.1990     2.5300 
  132.6250    61.3540    19.4200    17.8930    18.8210    25.6950   -18.3410     2.5310 
  132.7500    64.1590    19.2470    17.7070    17.7910    25.7060   -18.4200     2.5220 
  132.8750    66.7990    19.0570    17.4340    16.0280    25.8070   -18.5710     2.5100 
  133.0000    67.2930    19.0570    17.2980    15.3740    25.9480   -18.7810     2.4990 
  133.1250    64.5100    19.3950    17.4940    15.8460    26.0270   -18.9200     2.4920 
  133.2500    61.7860    19.9470    17.9700    17.0920    26.0680   -19.0650     2.4880 
  133.3750    60.5640    20.5400    18.5990    18.6170    26.0580   -19.2790     2.4860 
  133.5000    60.4850    20.9820    19.1980    18.7760    26.0470   -19.4470     2.4910 
  133.6250    59.5720    21.1070    19.5480    19.9470    26.0440   -19.5730     2.5050 
  133.7500    59.0750    20.9970    19.6330    19.0030    26.0400   -19.7320     2.5240 
  133.8750    59.6400    20.7750    19.5260    17.9550    25.9610   -19.8180     2.5430 
  134.0000    59.5370    20.5660    19.3350    17.0560    25.7730   -19.8340     2.5520 
  134.1250    58.2410    20.4440    19.1580    16.1310    25.5950   -19.9010     2.5460 
  134.2500    57.7820    20.3780    19.0260    16.5370    25.5440   -19.9600     2.5330 
  134.3750    59.0000    20.3290    18.9390    17.4990    25.5930   -19.9080     2.5210 
  134.5000    58.7820    20.2900    18.8950    18.3040    25.5730   -19.8170     2.5150 
  134.6250    55.2980    20.3090    18.9280    18.0690    25.3420   -19.7670     2.5180 
  134.7500    52.4650    20.4260    19.0540    16.8510    24.9320   -19.6800     2.5250 
  134.8750    51.7390    20.6350    19.2630    15.9560    24.5290   -19.5800     2.5370 
  135.0000    52.2740    20.8750    19.5060    16.2590    24.2130   -19.5190     2.5530 
  135.1250    51.6980    21.0320    19.6820    17.3890    23.9970   -19.4300     2.5710 
  135.2500    49.8150    21.0490    19.7170    17.8880    23.9260   -19.2820     2.5800 
  135.3750    48.5690    20.9330    19.5900    17.3690    24.0250   -19.1850     2.5750 
  135.5000    50.7880    20.7490    19.3460    16.3100    24.3790   -19.1490     2.5540 
  135.6250    56.1210    20.5890    19.0870    15.8210    24.7830   -19.0300     2.5270 
  135.7500    58.3320    20.5060    18.9030    16.3680    24.8380   -18.9270     2.5060 
  135.8750    56.2820    20.5230    18.8380    17.2610    24.6770   -18.9010     2.4950 
  136.0000    53.3960    20.6440    18.9110    18.4120    24.5880   -18.8450     2.4910 
  136.1250    53.3890    20.8870    19.1370    18.1150    24.5120   -18.7480     2.4900 
  136.2500    55.5880    21.2140    19.4640    17.0610    24.3000   -18.7120     2.4920 
  136.3750    58.2310    21.5860    19.8510    16.9020    24.0020   -18.7070     2.5000 
  136.5000    60.0820    21.9580    20.2500    18.0050    23.8120   -18.6640     2.5150 
  136.6250    59.9360    22.2790    20.5980    20.2270    23.7760   -18.6690     2.5350 
  136.7500    59.3280    22.5420    20.8730    20.0470    23.7940   -18.7040     2.5540 
  136.8750    60.1520    22.7440    21.0870    18.7400    23.7860   -18.6620     2.5670 
  137.0000    61.2900    22.8650    21.2420    18.2260    23.8440   -18.5920     2.5720 
  137.1250    60.5990    22.8210    21.2670    18.0600    24.0780   -18.5770     2.5650 
  137.2500    59.5000    22.5730    21.1090    19.0490    24.4400   -18.5260     2.5510 
  137.3750    60.2770    22.1210    20.7380    21.0840    24.7630   -18.3690     2.5300 
  137.5000    61.9460    21.5470    20.1920    21.7580    24.9400   -18.2150     2.5090 
  137.6250    61.8620    21.0310    19.6230    20.6400    25.0560   -18.0870     2.4930 
