~V
VERS. 2.00: Ver 2.00
~W
STRT.M 40.0000:
STOP.M 206.0000:
STEP.M 0.1250:
NULL. -999.2500:
UWI. F10149:
~C
DEPT.M :
SP.MV :
DEN.GM/CC :
GR.API :
RML.OHMM :
RI. :
RXO.OHMM :
CALI.CM :
~A
# ...
  107.5000   -19.5980     2.2070    85.8170     7.0300     5.1340     5.7940    24.8660 
  107.6250   -18.7150     2.1620    86.0990     6.7830     5.1040     5.6330    24.8030 
  107.7500   -18.0080     2.1270    84.6910     6.5150     5.1570     5.6670    24.6990 
  107.8750   -17.4620     2.1080    85.1310     6.2830     5.2400     5.6350    24.6600 
  108.0000   -17.1140     2.1100    87.7130     6.1210     5.3080     5.6120    24.6820 
  108.1250   -16.9360     2.1350    87.0850     6.0500     5.3250     5.6810    24.7220 
  108.2500   -16.7750     2.1720    84.8750     6.0560     5.2910     5.7880    24.7490 
  108.3750   -16.6340     2.2130    85.1180     6.1220     5.2140     5.7380    24.7600 
  108.5000   -16.5340     2.2480    86.5910     6.1990     5.1130     5.4520    24.7800 
  108.6250   -16.4030     2.2670    84.1710     6.2030     5.0100     5.3260    24.8080 
  108.7500   -16.3090     2.2750    80.9960     6.1120     4.9210     5.3870    24.8080 
  108.8750   -16.3420     2.2790    81.5770     5.9840     4.8600     5.5830    24.7670 
  109.0000   -16.4670     2.2840    85.3600     5.9440     4.8570     5.7560    24.7200 
  109.1250   -16.6960     2.2880    87.4820     6.1950     4.9970     6.1030    24.6860 
  109.2500   -17.0470     2.2870    85.9670     6.8010     5.3270     6.5240    24.6510 
  109.3750   -17.4530     2.2780    83.0670     7.7570     5.8890     7.0470    24.5810 
  109.5000   -17.8280     2.2650    81.7060     8.9070     6.6560     8.5060    24.4720 
  109.6250   -18.0940     2.2510    79.2800     9.7920     7.4280    11.9420    24.3960 
  109.7500   -18.1700     2.2430    73.8090     9.9450     7.8470    15.1790    24.3750 
  109.8750   -17.9580     2.2400    71.8390     9.2210     7.6740    14.9050    24.3730 
  110.0000   -17.5170     2.2390    78.7960     7.9390     6.9640    11.8520    24.4090 
  110.1250   -16.9490     2.2340    88.0120     6.7480     6.0450     8.2360    24.5140 
  110.2500   -16.3300     2.2250    91.1660     6.0080     5.2730     5.7080    24.6400 
  110.3750   -15.6920     2.2120    90.0040     5.7000     4.7580     5.2030    24.6840 
  110.5000   -15.1240     2.1980    89.0670     5.6530     4.4840     5.7570    24.6660 
  110.6250   -14.7890     2.1920    90.3660     5.6910     4.4080     6.3390    24.6560 
  110.7500   -14.6970     2.1970    91.2970     5.7920     4.4690     6.3060    24.6700 
  110.8750   -14.8890     2.2140    89.8660     6.0970     4.7020     5.9620    24.6940 
  111.0000   -15.3140     2.2420    86.4770     6.7500     5.1680     5.6850    24.6970 
  111.1250   -15.7970     2.2780    84.0820     7.8350     5.9470     6.7860    24.6020 
  111.2500   -16.1650     2.3130    83.2710     9.0570     6.9060     9.5550    24.3930 
  111.3750   -16.3180     2.3410    82.4870     9.9840     7.7830    13.5760    24.2030 
  111.5000   -16.2720     2.3540    79.1070    10.1660     8.1980    15.7220    24.2080 
  111.6250   -16.0060     2.3440    75.8610     9.4020     7.8280    12.2860    24.3410 
  111.7500   -15.5910     2.3180    78.5820     8.2960     7.0310     8.4070    24.4420 
  111.8750   -15.0760     2.2880    86.4760     7.3130     6.1860     6.6150    24.4790 
  112.0000   -14.4530     2.2660    94.1290     6.6660     5.5430     6.0320    24.4900 
  112.1250   -13.7830     2.2620    95.9020     6.3740     5.2160     5.8990    24.5170 
  112.2500   -13.2080     2.2720    94.6120     6.2450     5.0990     5.8440    24.5750 
  112.3750   -12.7980     2.2870    93.3850     6.1610     5.0930     5.9360    24.6200 
  112.5000   -12.5180     2.3010    92.9120     6.0620     5.1110     5.8730    24.6670 
  112.6250   -12.4270     2.3070    92.9280     5.9640     5.1120     5.6490    24.7130 
  112.7500   -12.4940     2.3040    92.4570     5.9220     5.1110     5.4880    24.7630 
  112.8750   -12.6480     2.2960    90.2690     5.9640     5.1390     5.4240    24.7850 
  113.0000   -12.8720     2.2880    87.6000     6.0900     5.2200     5.6540    24.7860 
  113.1250   -13.2060     2.2830    88.1450     6.2870     5.3620     6.2130    24.7820 
  113.2500   -13.5960     2.2790    92.0920     6.5020     5.5180     6.4970    24.7740 
  113.3750   -13.9980     2.2730    92.6220     6.6770     5.6390     6.7070    24.7460 
  113.5000   -14.4470     2.2660    86.3570     6.7820     5.6880     7.2040    24.6890 
  113.6250   -14.9060     2.2590    79.8210     6.8310     5.6850     7.6020    24.6380 
  113.7500   -15.3500     2.2570    77.6850     6.9080     5.7220     7.3060    24.6140 
  113.8750   -15.8580     2.2570    77.0180     7.0870     5.8680     7.0640    24.6070 
  114.0000   -16.4180     2.2540    76.8550     7.4130     6.1440     7.2780    24.6100 
  114.1250   -16.9220     2.2410    79.2760     7.8960     6.5410     8.9880    24.5970 
  114.2500   -17.3950     2.2170    80.5740     8.4970     7.0070    12.1070    24.6010 
  114.3750   -17.8630     2.1910    78.7140     9.2630     7.5620    13.5070    24.6330 
  114.5000   -18.2920     2.1760    77.4460    10.3240     8.2880    12.1340    24.5820 
  114.6250   -18.7070     2.1920    78.9030    11.9420     9.3790    13.4640    24.4660 
  114.7500   -19.1620     2.2400    78.2410    14.0670    10.8790    20.6800    24.4260 
  114.8750   -19.5940     2.3050    73.4180    16.4410    12.7320    32.4310    24.4680 
  115.0000   -20.0500     2.3600    67.0160    18.5380    14.6610    42.2460    24.4520 
  115.1250   -20.5470     2.3690    63.8380    19.5550    16.0070    39.5390    24.2840 
  115.2500   -21.0200     2.3330    64.0960    19.4550    16.4160    31.3330    24.0850 
  115.3750   -21.5120     2.2710    65.0410    18.6150    16.0000    24.9760    23.9390 
  115.5000   -22.0150     2.2080    66.1320    17.5330    15.1940    22.2820    23.8490 
  115.6250   -22.4960     2.1670    68.3860    16.5360    14.4520    21.0220    23.8830 
  115.7500   -22.8790     2.1510    70.3270    15.7080    13.9660    19.4270    24.0030 
  115.8750   -23.1610     2.1570    69.6500    15.1050    13.7480    17.3620    24.1670 
  116.0000   -23.3340     2.1790    67.7700    14.8020    13.7460    16.1510    24.2800 
  116.1250   -23.3860     2.2050    65.4390    14.8500    13.9010    17.4090    24.2800 
  116.2500   -23.3340     2.2190    60.4620    15.0850    14.1310    19.5970    24.2400 
  116.3750   -23.1770     2.2140    57.0670    15.4220    14.4290    21.5720    24.2300 
  116.5000   -22.9060     2.1910    60.3160    15.8780    14.8440    21.5860    24.2660 
  116.6250   -22.4240     2.1590    67.5520    16.5840    15.4690    21.8510    24.3010 
  116.7500   -21.7650     2.1310    70.0190    17.5010    16.2440    22.6810    24.3190 
  116.8750   -20.9730     2.1110    67.0560    18.4130    16.9950    25.2270    24.3270 
  117.0000   -20.0440     2.1000    63.4740    18.9280    17.4120    29.8550    24.3030 
  117.1250   -18.9530     2.1050    62.5320    18.5590    17.1190    29.2070    24.2270 
  117.2500   -17.8410     2.1310    61.8570    17.6260    16.3410    23.7670    24.1920 
  117.3750   -16.7560     2.1840    60.5690    16.8220    15.5470    19.2560    24.2480 
  117.5000   -15.6920     2.2600    58.5900    16.9350    15.2840    18.5880    24.3230 
  117.6250   -14.7540     2.3440    55.5660    18.8790    16.2750    18.2400    24.3620 
  117.7500   -13.9890     2.4160    52.9370    24.0180    18.7430    22.7530    24.3810 
  117.8750   -13.3620     2.4680    51.3530    31.1260    22.7920    30.6300    24.4170 
  118.0000   -12.8780     2.5060    49.0410    37.7780    27.9860    39.4890    24.4850 
  118.1250   -12.5810     2.5360    44.9850    42.5780    32.7290    44.4790    24.5440 
  118.2500   -12.3600     2.5550    43.8290    43.8260    35.2510    43.8280    24.5380 
  118.3750   -12.1800     2.5550    46.4610    41.8350    35.1420    36.2290    24.5140 
  118.5000   -12.0790     2.5330    48.2580    38.4560    33.3650    30.1390    24.4800 
  118.6250   -12.0930     2.4950    46.3380    35.6180    31.3300    29.5140    24.4690 
