~V
VERS. 2.00: Ver 2.00
~W
STRT.M 55.0000:
STOP.M 215.0000:
STEP.M 0.1250:
NULL. -999.2500:
UWI. F10125:
~C
DEPT.M :
GR.API :
RML.OHMM :
RI. :
RXO.OHMM :
CALI.CM :
DEN.GM/CC :
SP.MV :
~A
# ...
   66.2500    60.3140    11.9020     9.0590    11.6650    24.2980     2.1770   -28.9510 
   66.3750    59.8820    12.4470     9.2750    11.7110    24.7220     2.1790   -28.8560 
   66.5000    64.0310    12.7670     9.4130    11.8640    25.2220     2.1840   -28.7550 
   66.6250    67.7110    12.7190     9.4390    12.1060    25.6070     2.1900   -28.6130 
   66.7500    68.9790    12.4460     9.3980    12.1590    25.9410     2.2000   -28.4920 
   66.8750    69.0550    12.0820     9.3100    12.0190    26.2290     2.2170   -28.3200 
   67.0000    69.9210    11.6920     9.1540    11.8190    26.4060     2.2360   -28.0580 
   67.1250    70.8430    11.2270     8.8380    11.7740    26.4800     2.2530   -27.7280 
   67.2500    72.7080    10.6100     8.3330    11.2460    26.3630     2.2740   -27.3490 
   67.3750    80.5590     9.7750     7.6450     9.8520    26.0340     2.2980   -26.8930 
   67.5000    93.4090     8.7340     6.8360     7.5790    25.6570     2.3120   -26.3840 
   67.6250   103.1230     7.6260     6.0300     6.7020    25.4920     2.3080   -25.8760 
   67.7500   106.1020     6.6880     5.3570     6.2830    25.4040     2.3040   -25.4620 
   67.8750   107.0380     6.1160     4.9050     5.7950    25.4050     2.3050   -25.1720 
   68.0000   108.7750     6.0710     4.7450     5.3970    25.4600     2.2990   -25.0160 
   68.1250   103.8630     6.7520     4.9960     5.6220    25.4550     2.2760   -25.0000 
   68.2500    93.1290     8.0330     5.6230     6.5700    25.3690     2.2490   -25.1040 
   68.3750    82.2710     9.7410     6.5860     8.4090    25.2520     2.2250   -25.3540 
   68.5000    75.2180    11.5330     7.7390    10.6750    25.1520     2.2030   -25.7590 
   68.6250    70.0910    12.8400     8.7450    11.6020    25.1420     2.1840   -26.2850 
   68.7500    64.0110    13.3980     9.3130    11.6640    25.1820     2.1700   -26.7720 
   68.8750    61.1050    13.2700     9.3850    11.5310    25.2230     2.1610   -27.1940 
   69.0000    63.4110    12.7680     9.1230    11.5570    25.2480     2.1580   -27.5460 
   69.1250    69.6170    12.2630     8.7700    11.7400    25.1860     2.1620   -27.8370 
   69.2500    72.9390    11.9570     8.5070    12.1180    25.0830     2.1710   -28.0460 
   69.3750    70.1520    11.8640     8.3720    12.7310    25.0610     2.1790   -28.1080 
   69.5000    64.7790    11.9200     8.3430    13.2520    25.1950     2.1810   -28.0270 
   69.6250    62.1060    12.0520     8.3790    13.2650    25.4050     2.1740   -27.7870 
   69.7500    62.5190    12.1780     8.4280    12.4290    25.5860     2.1650   -27.4410 
   69.8750    64.3120    12.2580     8.4720    11.8410    25.7010     2.1550   -27.0250 
   70.0000    66.6120    12.2470     8.4960    11.4130    25.7140     2.1500   -26.5370 
   70.1250    70.2400    12.0120     8.4290    10.7050    25.5930     2.1590   -25.9720 
   70.2500    71.6000    11.4620     8.1880    10.0880    25.3780     2.1830   -25.3400 
   70.3750    69.8540    10.5580     7.7110    10.1210    25.1500     2.2140   -24.6760 
   70.5000    69.5090     9.3840     7.0140     9.8910    25.0150     2.2430   -23.9780 
   70.6250    76.2030     8.1390     6.2030     8.4570    24.9490     2.2680   -23.2390 
   70.7500    87.5140     7.0520     5.4500     6.6260    24.9160     2.2930   -22.5070 
   70.8750    97.6760     6.2340     4.8530     5.5240    24.9140     2.3150   -21.8010 
   71.0000   102.5080     5.7160     4.4510     5.2170    24.9590     2.3310   -21.1880 
   71.1250   101.5020     5.5440     4.2790     5.2310    25.0100     2.3390   -20.6820 
   71.2500   102.8880     5.6940     4.3120     5.2660    25.0260     2.3400   -20.2780 
   71.3750   108.4510     6.1960     4.5700     5.3050    25.1130     2.3310   -19.9690 
   71.5000   111.6420     7.0360     5.0600     5.4440    25.3370     2.3130   -19.7830 
   71.6250   104.4020     8.0960     5.7550     6.1750    25.4900     2.2890   -19.7560 
   71.7500    92.8110     9.0320     6.4510     7.5620    25.4310     2.2710   -19.8280 
   71.8750    83.0620     9.5010     6.9010     8.4960    25.1700     2.2640   -19.9310 
   72.0000    80.6090     9.2720     6.8960     7.8800    24.8320     2.2700   -20.0010 
   72.1250    90.0740     8.3660     6.3950     6.1050    24.6500     2.2860   -20.0370 
   72.2500   105.2150     7.3150     5.7350     5.1050    24.6370     2.3050   -20.0460 
   72.3750   116.9340     6.4890     5.1520     4.8880    24.6380     2.3180   -20.0510 
   72.5000   120.3810     6.0530     4.7640     5.0120    24.6030     2.3180   -20.0430 
   72.6250   116.7020     6.0010     4.5990     5.0170    24.5310     2.3100   -20.0220 
   72.7500   109.8370     6.0850     4.5440     4.8980    24.4810     2.3100   -20.0180 
   72.8750   104.8720     6.1360     4.5080     4.8330    24.4600     2.3150   -20.0400 
   73.0000   103.2190     6.0580     4.4360     4.8530    24.4570     2.3150   -20.1390 
   73.1250   101.7710     5.8590     4.3270     4.8410    24.5650     2.3100   -20.2990 
   73.2500    98.4540     5.6840     4.2430     4.8410    24.8440     2.3100   -20.5140 
   73.3750    96.5190     5.6800     4.2550     4.8540    25.2260     2.3160   -20.7610 
   73.5000    97.9300     5.9970     4.4320     4.9360    25.5010     2.3140   -21.0350 
   73.6250    97.7130     6.8510     4.8840     5.5730    25.5410     2.2970   -21.3630 
   73.7500    92.8000     8.1820     5.6070     7.1650    25.4730     2.2700   -21.7300 
   73.8750    83.7150     9.7860     6.5510     9.3970    25.4470     2.2380   -22.1480 
   74.0000    75.2310    11.2350     7.5320    10.8720    25.4670     2.2110   -22.5540 
   74.1250    73.4330    11.7760     8.1050    11.3000    25.3160     2.2070   -22.9100 
   74.2500    74.7140    11.1970     8.0060    11.3780    24.9790     2.2210   -23.1790 
   74.3750    75.7840     9.7570     7.2950    10.3120    24.7830     2.2400   -23.3550 
   74.5000    76.8880     8.0860     6.3130     8.0330    24.7930     2.2480   -23.4430 
   74.6250    81.7740     6.8720     5.4650     6.0890    24.8840     2.2500   -23.3880 
   74.7500    86.2940     6.3010     4.9200     5.2500    24.9270     2.2560   -23.2440 
   74.8750    87.9560     6.3300     4.7030     5.7330    24.9280     2.2700   -23.0320 
   75.0000    87.5220     6.7850     4.7600     6.9780    24.9320     2.2850   -22.8200 
   75.1250    85.3780     7.3870     4.9870     6.8130    24.9810     2.2910   -22.6380 
   75.2500    83.4900     7.7950     5.1960     6.3550    25.0070     2.2870   -22.5290 
   75.3750    84.7370     7.8240     5.2700     6.5080    25.0200     2.2820   -22.4940 
   75.5000    87.7240     7.4850     5.1770     6.8610    25.0820     2.2870   -22.5250 
   75.6250    86.8700     7.0850     5.0290     6.4040    25.2050     2.3110   -22.6460 
   75.7500    82.9790     7.1520     5.0640     6.2540    25.2930     2.3430   -22.8330 
   75.8750    81.0310     8.1580     5.5040     6.7650    25.3160     2.3760   -23.1070 
   76.0000    80.0970    10.4350     6.5500     8.4810    25.3100     2.4170   -23.4280 
   76.1250    76.2730    14.2080     8.4920    13.2210    25.3330     2.4700   -23.7980 
   76.2500    71.1870    18.5810    11.1040    23.7750    25.3740     2.5070   -24.1780 
   76.3750    67.5310    22.0710    13.6980    39.2650    25.3740     2.4890   -24.5890 
   76.5000    66.2910    22.9330    15.0550    41.2270    25.2340     2.4040   -25.0560 
   76.6250    66.6390    20.3910    14.2170    26.6520    24.9210     2.2970   -25.5670 
   76.7500    67.1470    16.7450    12.3660    17.1010    24.6830     2.2220   -26.0750 
   76.8750    67.0850    13.6210    10.4960    13.7330    24.5090     2.1880   -26.5140 
   77.0000    67.2480    11.6530     9.0710    12.8330    24.2390     2.1840   -26.8980 
   77.1250    69.2840    10.8590     8.2400    12.6300    24.0010     2.1920   -27.2290 
   77.2500    68.9040    10.6450     7.8020    12.5220    24.0010     2.2000   -27.5380 
   77.3750    66.7690    10.6760     7.6200    12.2170    24.2510     2.2050   -27.7790 
