~V
VERS. 2.00: Ver 2.00
~W
STRT.M 45.0000:
STOP.M 252.0000:
STEP.M 0.1250:
NULL. -999.2500:
UWI. F10190:
~C
DEPT.M :
GR.API :
RML.OHMM :
RI. :
RXO.OHMM :
CALI.CM :
SP.MV :
DEN.GM/CC :
~A
# ...
  236.2500    61.8020    10.4240     9.1730     9.0250    24.8960   -13.1820     2.3410 
  236.3750    60.4300    10.3200     9.0920     9.2780    24.9270   -13.0550     2.3260 
  236.5000    60.6520    10.2570     9.0140     9.9340    24.9430   -12.9390     2.3270 
  236.6250    61.4470    10.2390     8.9610    10.4560    24.9480   -12.8450     2.3310 
  236.7500    60.6060    10.2500     8.9330    10.7720    24.9430   -12.7360     2.3260 
  236.8750    58.4790    10.2710     8.9190    10.8180    24.9270   -12.6580     2.3140 
  237.0000    58.5850    10.3030     8.9180    11.2200    24.8960   -12.5940     2.3050 
  237.1250    59.7940    10.3600     8.9320    11.0100    24.8830   -12.5300     2.3090 
  237.2500    59.3570    10.4430     8.9680    10.8010    24.8810   -12.4710     2.3250 
  237.3750    56.6350    10.5480     9.0260    10.7280    24.8830   -12.3840     2.3460 
  237.5000    55.3940    10.6700     9.1170    10.6820    24.8890   -12.3500     2.3630 
  237.6250    56.9300    10.8110     9.2450    10.5100    24.8990   -12.3470     2.3780 
  237.7500    58.3730    10.9860     9.4170    10.5240    24.8870   -12.3900     2.3950 
  237.8750    58.0040    11.2090     9.6350    10.7130    24.8490   -12.4450     2.4130 
  238.0000    57.5610    11.4700     9.8850    11.4920    24.7940   -12.4950     2.4270 
  238.1250    58.0210    11.7150    10.1250    13.5670    24.7690   -12.5580     2.4340 
  238.2500    57.6830    11.8920    10.3150    15.3500    24.7950   -12.6110     2.4400 
  238.3750    55.3850    11.9690    10.4280    15.8740    24.8450   -12.6890     2.4580 
  238.5000    53.9960    11.9310    10.4370    13.0220    24.8680   -12.7410     2.4910 
  238.6250    54.1120    11.8200    10.3640    10.8540    24.8730   -12.7500     2.5160 
  238.7500    53.5300    11.6590    10.2250     9.4960    24.8730   -12.7360     2.5120 
  238.8750    52.7350    11.4610    10.0320     8.5060    24.8730   -12.6950     2.4780 
  239.0000    54.0080    11.2150     9.7850     7.8400    24.8730   -12.6340     2.4310 
  239.1250    55.9100    10.9330     9.5070     7.2560    24.8700   -12.5700     2.3980 
  239.2500    55.1260    10.6360     9.2250     6.7850    24.8560   -12.4920     2.3850 
  239.3750    53.5120    10.3620     8.9760     6.5140    24.8250   -12.3840     2.3830 
  239.5000    55.0940    10.1660     8.8100     6.3990    24.8110   -12.2620     2.3760 
  239.6250    58.0220    10.0710     8.7380     6.4310    24.8180   -12.1340     2.3650 
  239.7500    59.8840    10.0770     8.7500     6.5350    24.8450   -11.9820     2.3540 
  239.8750    59.7180    10.1490     8.8130     6.6510    24.8660   -11.7980     2.3440 
  240.0000    58.3240    10.2260     8.8750     6.9250    24.8630   -11.6270     2.3300 
  240.1250    57.6390    10.2530     8.8950     7.1510    24.8380   -11.4650     2.3100 
  240.2500    58.4100    10.2160     8.8620     7.2170    24.8140   -11.3680     2.2900 
  240.3750    58.5730    10.1370     8.7930     7.1500    24.7970   -11.2850     2.2800 
  240.5000    55.7980    10.0620     8.7210     6.8620    24.7770   -11.1840     2.2850 
  240.6250    54.8160    10.0410     8.6870     6.2890    24.7560   -11.0870     2.2970 
  240.7500    57.0740    10.1040     8.7200     5.8700    24.7620   -11.0390     2.3070 
  240.8750    58.2870    10.2600     8.8340     5.9750    24.7880   -11.0530     2.3040 
  241.0000    56.3650    10.5080     9.0340     6.9720    24.8000   -11.0530     2.2880 
  241.1250    56.7050    10.8030     9.2840     8.4820    24.8040   -11.0440     2.2750 
  241.2500    60.5390    11.0980     9.5470     9.8750    24.8040   -11.0210     2.2780 
  241.3750    64.0480    11.3350     9.7750    11.4340    24.8110   -11.0230     2.2990 
  241.5000    63.6560    11.4530     9.9090    12.5140    24.8320   -11.0300     2.3290 
  241.6250    62.3940    11.4670     9.9480    13.3030    24.8560   -11.0470     2.3560 
  241.7500    60.6920    11.4050     9.9080    13.4680    24.8490   -11.0640     2.3810 
  241.8750    57.1290    11.3030     9.8200    13.5620    24.8040   -11.0650     2.4060 
  242.0000    52.1310    11.2100     9.7270    13.2560    24.7560   -11.0650     2.4300 
  242.1250    49.7900    11.1530     9.6590    12.4750    24.7200   -11.0650     2.4490 
  242.2500    49.7900    11.1260     9.6180    11.2500    24.6680   -11.0290     2.4610 
  242.3750    49.7900    11.1150     9.5930    10.2910    24.5940   -10.9130     2.4660 
  242.5000    49.7900    11.0980     9.5690    10.0690    24.5250   -10.7880     2.4630 
  242.6250    49.7900    11.0550     9.5320     9.8580    24.4830   -10.6780     2.4540 
  242.7500    49.7900    10.9830     9.4760     9.3950    24.4760   -10.5630     2.4420 
  242.8750    49.7900    10.9010     9.4120     8.9550    24.5380   -10.4000     2.4310 
  243.0000    49.7900    10.8350     9.3620     9.1020    24.6600   -10.2540     2.4240 
  243.1250    49.7900    10.7940     9.3320     9.4660    24.7610   -10.1320     2.4210 
  243.2500    49.7900    10.7780     9.3140    10.1590    24.7990    -9.9500     2.4210 
  243.3750    49.7900    10.7860     9.2970    11.5810    24.8040    -9.8260     2.4270 
  243.5000    49.7900    10.8100     9.2700    12.1580    24.8040    -9.7260     2.4380 
  243.6250    49.7900    10.8360     9.2360    11.8350    24.8040    -9.6190     2.4510 
  243.7500    49.7900    10.8550     9.2040    10.6650    24.8040    -9.5240     2.4580 
  243.8750    49.7900    10.8640     9.1840     9.5650    24.8120    -9.4750     2.4560 
  244.0000    49.7900    10.8650     9.1760     8.9770    24.8380    -9.4910     2.4500 
  244.1250    49.7900    10.8630     9.1730     8.7500    24.8800    -9.5030     2.4490 
  244.2500    49.7900    10.8570     9.1720     8.8060    24.8990    -9.5270     2.4540 
  244.3750    49.7900    10.8450     9.1730     8.7990    24.8290    -9.5730     2.4600 
  244.5000    49.7900    10.8270     9.1770     8.7550    24.7630    -9.6690     2.4630 
  244.6250    49.7900    10.8130     9.1820     8.6110    24.7320    -9.7840     2.4630 
  244.7500    49.7900    10.8100     9.1880     8.2860    24.7280    -9.8810     2.4640 
  244.8750    49.7900    10.8180     9.1940     7.9620    24.7250    -9.9670     2.4650 
  245.0000    49.7900    10.8220     9.1970     7.6840    24.7250   -10.0160     2.4630 
  245.1250    49.7900    10.8200     9.1960     7.4550    24.7300   -10.0340     2.4610 
  245.2500    49.7900    10.8150     9.1940     7.2940    24.7410   -10.0550     2.4640 
  245.3750    49.7900    10.8080     9.1910     7.3500    24.7550   -10.0550     2.4710 
  245.5000    49.7900    10.8060     9.1890     7.7730    24.7410   -10.0370     2.4800 
  245.6250    49.7900    10.8070     9.1880     8.6350    24.7310   -10.0160     2.4880 
  245.7500    49.7900    10.8180     9.1850     9.0810    24.7240    -9.9450     2.4940 
  245.8750    49.7900    10.8360     9.1830     8.8370    24.7230    -9.8260     2.4930 
  246.0000    49.7900    10.8620     9.1810     8.8450    24.7240    -9.7170     2.4870 
  246.1250    49.7900    10.8900     9.1790     9.6550    24.7340    -9.6310     2.4800 
  246.2500    49.7900    10.9130     9.1780    10.7100    24.7560    -9.4920     2.4740 
  246.3750    49.7900    10.9270     9.1770    10.9880    24.7700    -9.3530     2.4730 
  246.5000    49.7900    10.9250     9.1770    10.1200    24.7490    -9.2010     2.4730 
  246.6250    49.7900    10.8960     9.1780     8.1720    24.7190    -9.0330     2.4650 
  246.7500    49.7900    10.8310     9.1800     7.3780    24.7100    -8.8860     2.4480 
  246.8750    49.7900    10.7580     9.1820     7.2750    24.7620    -8.7800     2.4290 
  247.0000    49.7900    10.7090     9.1830     7.5110    24.8290    -8.6770     2.4140 
  247.1250    49.7900    10.7080     9.1810     7.6750    24.8660    -8.5930     2.4040 
  247.2500    49.7900    10.7520     9.1740     7.9660    24.8730    -8.6030     2.3990 
  247.3750    49.7900    10.7750     9.1640     8.8460    24.8730    -8.6090     2.3990 
