~V
VERS. 2.00: Ver 2.00
~W
STRT.M 56.0000:
STOP.M 214.0000:
STEP.M 0.1250:
NULL. -999.2500:
UWI. F10128:
~C
DEPT.M :
SP.MV :
GR.API :
RML.OHMM :
RI. :
RXO.OHMM :
CALI.CM :
DEN.GM/CC :
~A
# ...
  202.2500    -6.3280    77.4810    12.0770    11.1620     9.9970    24.4050     2.5050 
  202.3750    -6.2780    76.8420    12.1830    11.2660    10.6020    24.4230     2.5030 
  202.5000    -6.2280    74.6130    12.2900    11.3970    10.5580    24.4150     2.5070 
  202.6250    -6.1580    72.8300    12.3730    11.5290    10.6310    24.3730     2.5180 
  202.7500    -6.0620    73.5730    12.4250    11.6420    10.7590    24.2850     2.5340 
  202.8750    -5.9830    74.7970    12.4510    11.7200    10.7700    24.1420     2.5430 
  203.0000    -5.8750    73.9120    12.4680    11.7740    10.9910    24.0020     2.5380 
  203.1250    -5.7520    71.7190    12.4820    11.8100    11.3200    23.9340     2.5220 
  203.2500    -5.7090    70.7410    12.5000    11.8400    11.6780    23.9580     2.5030 
  203.3750    -5.7510    70.7410    12.5380    11.8770    12.1650    24.0100     2.4910 
  203.5000    -5.7990    70.7410    12.6060    11.9320    12.9770    24.1380     2.4920 
  203.6250    -5.9020    70.7410    12.7080    12.0120    13.5080    24.3280     2.5040 
  203.7500    -6.0680    70.7410    12.8290    12.1120    12.9660    24.4520     2.5220 
  203.8750    -6.1680    70.7410    12.9300    12.2190    12.4920    24.4850     2.5380 
  204.0000    -6.2410    70.7410    12.9800    12.3050    12.6360    24.4920     2.5470 
  204.1250    -6.3140    70.7410    12.9660    12.3480    12.7190    24.4890     2.5470 
  204.2500    -6.3210    70.7410    12.8930    12.3320    12.2900    24.4930     2.5370 
  204.3750    -6.2300    70.7410    12.7680    12.2470    12.0390    24.5030     2.5220 
  204.5000    -6.1310    70.7410    12.6200    12.1230    12.0590    24.4970     2.5060 
  204.6250    -5.9780    70.7410    12.4740    11.9960    11.7050    24.4790     2.4950 
  204.7500    -5.7890    70.7410    12.3650    11.9020    11.0910    24.4820     2.4890 
  204.8750    -5.6670    70.7410    12.3470    11.8910    10.6220    24.4740     2.4890 
  205.0000    -5.5560    70.7410    12.4340    11.9710    10.5650    24.4200     2.4880 
  205.1250    -5.4450    70.7410    12.6290    12.1460    10.9110    24.3240     2.4850 
  205.2500    -5.3630    70.7410    12.9040    12.4030    11.4110    24.3300     2.4820 
  205.3750    -5.3200    70.7410    13.2180    12.7170    12.3030    24.4240     2.4840 
  205.5000    -5.2770    70.7410    13.5080    13.0310    13.1050    24.5000     2.4930 
  205.6250    -5.2630    70.7410    13.7340    13.2980    13.2180    24.4780     2.5050 
  205.7500    -5.2570    70.7410    13.8770    13.4920    13.4070    24.3540     2.5170 
  205.8750    -5.2600    70.7410    13.9440    13.6140    13.7550    24.2390     2.5250 
  206.0000    -5.2770    70.7410    13.9950    13.7140    14.4670    24.1320     2.5280 
  206.1250    -5.3130    70.7410    14.0850    13.8380    15.6760    24.0730     2.5280 
  206.2500    -5.3630    70.7410    14.2510    14.0250    18.2470    23.9940     2.5270 
  206.3750    -5.4000    70.7410    14.5100    14.2970    23.2870    23.8730     2.5270 
  206.5000    -5.4430    70.7410    14.8110    14.6150    26.7570    23.7140     2.5300 
  206.6250    -5.4760    70.7410    15.0970    14.9290    23.8010    23.4970     2.5340 
  206.7500    -5.5430    70.7410    15.3140    15.1890    20.8180    23.2330     2.5380 
  206.8750    -5.5730    70.7410    15.4070    15.3350    20.1860    23.1190     2.5380 
  207.0000    -5.5860    70.7410    15.3980    15.3810    21.4840    23.1080     2.5330 
  207.1250    -5.5840    70.7410    15.3290    15.3540    20.5220    23.1770     2.5260 
  207.2500    -5.5690    70.7410    15.2660    15.3030    17.9210    23.2960     2.5210 
  207.3750    -5.5360    70.7410    15.2960    15.2970    16.4860    23.4380     2.5230 
  207.5000    -5.4990    70.7410    15.4580    15.3920    16.1610    23.4980     2.5320 
  207.6250    -5.4580    70.7410    15.7550    15.6260    15.9730    23.4280     2.5450 
  207.7500    -5.3760    70.7410    16.1450    15.9870    14.7120    23.3510     2.5560 
  207.8750    -5.2820    70.7410    16.5390    16.4030    13.5700    23.2690     2.5590 
  208.0000    -5.2130    70.7410    16.8450    16.7560    13.5320    23.2190     2.5540 
  208.1250    -5.1400    70.7410    17.0200    16.9820    13.8170    23.0830     2.5450 
  208.2500    -5.0570    70.7410    17.0770    17.0780    13.5520    22.8550     2.5360 
  208.3750    -5.0240    70.7410    17.0710    17.0830    13.4920    22.7380     2.5280 
  208.5000    -4.9770    70.7410    17.0730    17.0650    13.6140    22.6930     2.5230 
  208.6250    -4.9560    70.7410    17.1050    17.0470    13.6840    22.5330     2.5200 
  208.7500    -4.9610    70.7410    17.1590    17.0320    13.2300    22.1390     2.5170 
  208.8750    -5.0200    70.7410    17.2050    17.0220    12.2840    21.5000     2.5140 
  209.0000    -5.0970    70.7410    17.2260    17.0130    11.4610    20.7740     2.5090 
  209.1250    -5.1680    70.7410    17.2280    17.0050    10.6280    20.0470     2.5010 
  209.2500    -5.2630    70.7410    17.2240    17.0040     9.7730    19.4380     2.4880 
  209.3750    -5.3330    70.7410    17.2220    17.0040     9.1290    19.0260     2.4640 
  209.5000    -5.3230    70.7410    17.2230    17.0040     8.6910    18.6760     2.4330 
  209.6250    -5.1450    70.7410    17.2230    17.0040     8.6020    18.3410     2.3960 
  209.7500    -4.8140    70.7410    17.2230    17.0040     9.0840    18.0520     2.3580 
  209.8750    -4.3980    70.7410    17.2230    17.0040     9.3210    18.2170     2.3210 
  210.0000    -3.9660    70.7410    17.2230    17.0040     9.3010    18.5730     2.2870 
  210.1250    -3.5270    70.7410    17.2230    17.0040     9.3100    18.8690     2.2560 
  210.2500    -3.0910    70.7410    17.2230    17.0040     9.2550    18.9870     2.2280 
  210.3750    -2.6650    70.7410    17.2230    17.0040     8.8910    18.9430     2.2010 
  210.5000    -2.3430    70.7410    17.2230    17.0040     8.6140    18.8030     2.1740 
  210.6250    -2.2080    70.7410    17.2230    17.0040     8.6040    18.5640     2.1450 
  210.7500    -2.1830    70.7410    17.2230    17.0040     8.7390    18.2870     2.1160 
  210.8750    -2.1730    70.7410    17.2230    17.0040     8.7270    18.0830     2.0880 
  211.0000    -2.1830    70.7410    17.2230    17.0040     8.5970    17.9880     2.0640 
  211.1250    -2.2400    70.7410    17.2230    17.0040     8.4050    17.9290     2.0440 
  211.2500    -2.2930    70.7410    17.2230    17.0040     8.0500    17.8500     2.0270 
  211.3750    -2.3710    70.7410    17.2230    17.0040     7.5460    17.6260     2.0140 
  211.5000    -2.4420    70.7410    17.2230    17.0040     7.2530    17.2890     2.0060 
  211.6250    -2.4490    70.7410    17.2230    17.0040     7.1920    16.8280     2.0020 
  211.7500    -2.4690    70.7410    17.2230    17.0040     7.2000    16.4720     2.0010 
  211.8750    -2.5390    70.7410    17.2230    17.0040     7.1070    16.2860     1.9970 
  212.0000    -2.5890    70.7410    17.2230    17.0040     6.9550    16.1320     1.9870 
  212.1250    -2.6500    70.7410    17.2230    17.0040     6.5760    15.9250     1.9700 
  212.2500    -2.7250    70.7410    17.2230    17.0040     6.1350    15.6860     1.9500 
  212.3750    -2.8200    70.7410    17.2230    17.0040     5.7050    15.4590     1.9300 
  212.5000    -2.8420    70.7410    17.2230    17.0040     5.5100    15.3190     1.9130 
  212.6250    -2.8420    70.7410    17.2230    17.0040     5.5200    15.1640     1.8980 
  212.7500  -999.2500    70.7410    17.2230    17.0040     5.5580    14.8570     1.8860 
  212.8750  -999.2500    70.7410    17.2230    17.0040     5.4980    14.3430     1.8770 
  213.0000  -999.2500    70.7410    17.2230    17.0040     5.5310    13.8690     1.8700 
  213.1250  -999.2500    70.7410    17.2230    17.0040     5.6610    13.5890     1.8760 
  213.2500  -999.2500    70.7410    17.2230    17.0040     5.7530    13.4880     1.8870 
  213.3750  -999.2500    70.7410    17.2230    17.0040     5.7700    13.4710     1.8940 
