~V
VERS. 2.00: Ver 2.00
~W
STRT.M 55.0000:
STOP.M 224.0000:
STEP.M 0.1250:
NULL. -999.2500:
UWI. F10137:
~C
DEPT.M :
DEN.GM/CC :
SP.MV :
GR.API :
RML.OHMM :
RI. :
RXO.OHMM :
CALI.CM :
~A
# ...
  122.5000     2.3680   -19.0760    52.1750    16.1160    15.9310    14.8510    27.6840 
  122.6250     2.3710   -19.0690    50.7230    16.1900    15.7940    15.2530    27.6750 
  122.7500     2.3840   -19.0780    49.6410    17.0520    16.3450    17.7420    27.6550 
  122.8750     2.4050   -19.1070    49.5830    18.4220    17.4280    19.8510    27.6460 
  123.0000     2.4280   -19.1420    49.3950    19.7680    18.6330    20.8630    27.6340 
  123.1250     2.4500   -19.1540    48.2020    20.5820    19.5010    21.7150    27.6140 
  123.2500     2.4650   -19.1390    46.9490    20.6460    19.7690    21.4070    27.5900 
  123.3750     2.4650   -19.1510    47.9130    20.1150    19.4760    20.1130    27.5560 
  123.5000     2.4530   -19.2120    50.5150    19.4720    18.9920    19.0790    27.5300 
  123.6250     2.4420   -19.2910    51.5060    19.1160    18.6710    18.8150    27.5240 
  123.7500     2.4390   -19.3650    49.5310    19.1750    18.6560    18.8950    27.5310 
  123.8750     2.4430   -19.4160    47.7230    19.5860    18.9370    19.6260    27.5220 
  124.0000     2.4510   -19.4490    48.0770    20.1010    19.3320    21.5760    27.4900 
  124.1250     2.4580   -19.4820    48.2520    20.4570    19.6250    23.4750    27.4740 
  124.2500     2.4580   -19.5370    47.1930    20.4990    19.6760    23.4820    27.4800 
  124.3750     2.4500   -19.6130    47.3230    20.1970    19.4390    21.7890    27.4770 
  124.5000     2.4410   -19.6910    49.6620    19.7180    19.0340    20.5350    27.4530 
  124.6250     2.4380   -19.7520    52.2140    19.2850    18.6340    20.8460    27.4150 
  124.7500     2.4420   -19.7990    53.1830    19.0400    18.3600    21.9460    27.3670 
  124.8750     2.4450   -19.8420    52.5300    19.0440    18.2820    21.3030    27.3270 
  125.0000     2.4380   -19.8870    50.6960    19.2420    18.3740    20.8540    27.3140 
  125.1250     2.4270   -19.9400    48.3610    19.5290    18.5610    22.2690    27.3320 
  125.2500     2.4240   -20.0000    46.7000    19.8270    18.7810    23.2070    27.3560 
  125.3750     2.4330   -20.0500    46.3660    20.0900    18.9860    22.5460    27.3690 
  125.5000     2.4380   -20.0930    46.6920    20.3080    19.1610    21.7920    27.3640 
  125.6250     2.4280   -20.1300    47.3100    20.5040    19.3150    22.0490    27.3370 
  125.7500     2.4120   -20.1460    48.4540    20.7250    19.4870    22.0980    27.2950 
  125.8750     2.4110   -20.1420    49.9640    21.0430    19.7440    22.0190    27.2760 
  126.0000     2.4340   -20.1400    51.4350    21.4440    20.0970    22.9930    27.2650 
  126.1250     2.4710   -20.1550    52.0930    21.8040    20.4620    25.0100    27.2450 
  126.2500     2.5100   -20.1830    50.3590    21.9680    20.7180    26.9160    27.2190 
  126.3750     2.5400   -20.1930    46.8650    21.8520    20.7930    26.3600    27.1850 
  126.5000     2.5560   -20.1620    45.0760    21.5920    20.7870    24.8920    27.1480 
  126.6250     2.5640   -20.1270    45.7730    21.4540    20.8950    23.8500    27.1150 
  126.7500     2.5740   -20.1360    45.8770    21.6550    21.2950    23.4910    27.0980 
  126.8750     2.5860   -20.1990    44.4230    22.2200    22.0360    25.7820    27.1070 
  127.0000     2.5940   -20.2810    43.8660    22.7170    22.7750    30.0940    27.1320 
  127.1250     2.5910   -20.3500    44.1600    22.4290    22.8280    31.0100    27.1520 
  127.2500     2.5680   -20.3930    43.6740    20.8160    21.5760    26.8100    27.1670 
  127.3750     2.5230   -20.4190    45.9380    17.8990    18.9260    21.2420    27.1890 
  127.5000     2.4600   -20.4390    53.9590    14.4820    15.6440    15.3390    27.2130 
  127.6250     2.3900   -20.4420    64.0920    11.4050    12.5740    10.2100    27.2230 
  127.7500     2.3220   -20.4190    70.9330     9.0430    10.1110     7.7140    27.2080 
  127.8750     2.2670   -20.3730    74.2150     7.4590     8.3670     7.2860    27.1520 
  128.0000     2.2380   -20.3130    77.1020     6.4370     7.1940     7.0640    27.0650 
  128.1250     2.2330   -20.2580    80.1600     5.7800     6.4270     6.4540    26.9720 
  128.2500     2.2460   -20.2080    82.3080     5.4580     6.0260     5.9240    26.8830 
  128.3750     2.2630   -20.1590    83.0940     5.6370     6.1050     6.0820    26.8200 
  128.5000     2.2820   -20.1050    81.3070     6.5150     6.8070     6.7860    26.7670 
  128.6250     2.3080   -20.0480    75.3610     8.2270     8.2750     8.4430    26.6800 
  128.7500     2.3490   -19.9960    65.5830    10.7080    10.5690    13.8800    26.5700 
  128.8750     2.4050   -19.9620    56.1900    13.2730    13.2210    27.5230    26.4810 
  129.0000     2.4530   -19.9390    52.0230    14.6700    14.9490    37.0660    26.4360 
  129.1250     2.4580   -19.9100    54.1580    14.0590    14.6800    29.6080    26.4040 
  129.2500     2.4090   -19.8640    60.4660    11.8330    12.6930    16.3260    26.3390 
  129.3750     2.3380   -19.8050    67.9290     9.2690    10.2440     9.2590    26.2430 
  129.5000     2.2840   -19.7540    74.4810     7.3290     8.2740     6.9430    26.1780 
  129.6250     2.2600   -19.7320    78.6010     6.2400     7.0260     6.4340    26.1610 
  129.7500     2.2570   -19.7280    80.3350     5.8890     6.4480     6.7060    26.1530 
  129.8750     2.2680   -19.6940    81.1940     6.1750     6.4970     6.9670    26.1560 
  130.0000     2.2950   -19.6160    80.0390     6.9930     7.0860     7.1740    26.2090 
  130.1250     2.3400   -19.5180    75.1600     8.2780     8.1400     8.8150    26.3060 
  130.2500     2.4030   -19.4300    67.7150     9.9630     9.6110    13.3410    26.3880 
  130.3750     2.4710   -19.3880    60.4350    11.8840    11.3860    16.2810    26.4230 
  130.5000     2.5210   -19.3920    54.5980    13.7790    13.2420    15.6640    26.4370 
  130.6250     2.5430   -19.4110    50.5210    15.4400    14.9530    14.6600    26.4530 
  130.7500     2.5490   -19.4110    48.9370    16.7630    16.3680    15.7280    26.4600 
  130.8750     2.5580   -19.4020    48.8000    17.6610    17.3430    19.2080    26.4550 
  131.0000     2.5750   -19.4110    49.5780    18.0770    17.8070    22.9130    26.4680 
  131.1250     2.5850   -19.4440    51.9880    17.9470    17.7170    23.6750    26.4890 
  131.2500     2.5770   -19.4910    55.1340    17.3060    17.1180    20.7960    26.4990 
  131.3750     2.5550   -19.5420    56.6590    16.5100    16.3150    16.8740    26.5150 
  131.5000     2.5330   -19.5980    56.3110    16.1510    15.8030    14.3700    26.5560 
  131.6250     2.5220   -19.6590    56.0530    16.7160    15.9990    14.1860    26.6080 
  131.7500     2.5250   -19.7270    56.0050    18.3830    17.1140    16.2330    26.6430 
  131.8750     2.5450   -19.7900    53.9650    20.8780    19.0860    21.2830    26.6710 
  132.0000     2.5750   -19.8450    50.2180    23.2130    21.2070    29.4500    26.7290 
  132.1250     2.6020   -19.9040    47.3940    24.1740    22.3900    35.4290    26.8260 
  132.2500     2.6110   -19.9760    47.3550    23.1570    21.9300    32.8100    26.9440 
  132.3750     2.5950   -20.0420    49.6940    20.6430    20.0430    23.9700    27.0440 
  132.5000     2.5590   -20.0710    52.3450    17.9440    17.7950    16.5380    27.0980 
  132.6250     2.5180   -20.0500    53.6790    16.0380    16.0510    13.5910    27.1070 
  132.7500     2.4840   -20.0110    52.8630    15.2000    15.1120    13.8410    27.1050 
  132.8750     2.4670   -20.0160    50.9950    15.3470    15.0110    15.4220    27.1170 
  133.0000     2.4640   -20.0650    50.1560    16.0700    15.4910    16.5890    27.1260 
  133.1250     2.4660   -20.1170    50.9200    16.9610    16.2270    16.4490    27.1400 
  133.2500     2.4690   -20.1520    52.4770    17.8020    17.0090    16.6070    27.1680 
  133.3750     2.4720   -20.1750    53.1980    18.5290    17.7250    16.9100    27.1630 
  133.5000     2.4750   -20.2020    52.1020    19.1940    18.3770    17.4150    27.1470 
  133.6250     2.4800   -20.2410    49.8780    19.8240    18.9800    19.0330    27.2080 
