~V
VERS. 2.00: Ver 2.00
~W
STRT.M 55.0000:
STOP.M 247.0000:
STEP.M 0.1250:
NULL. -999.2500:
UWI. F10183:
~C
DEPT.M :
SP.MV :
GR.API :
RML.OHMM :
RI. :
RXO.OHMM :
CALI.CM :
DEN.GM/CC :
~A
   55.0000   103.9790    36.8160    21.3100     0.4850     0.4600    24.9260     2.0100 
   55.1250   104.2220    38.2300     4.6970     0.4920     0.4790    24.9700     1.9840 
   55.2500   104.4030    41.1350     1.8540     0.4990     0.5200    25.0190     1.9560 
   55.3750   104.5440    44.3920     1.3620     0.4970     0.5670    25.0650     1.9360 
   55.5000   104.6380    48.0970     1.9280     0.4820     0.6030    25.1000     1.9300 
   55.6250   104.5560    52.0100     4.2740     0.4580     0.6330    25.1120     1.9380 
   55.7500   104.3790    52.6420     8.1470     0.4350     0.6570    25.1210     1.9500 
   55.8750   104.1610    50.5760    13.2030     0.4210     0.6840    25.1290     1.9590 
   56.0000   103.8690    48.9470    19.0340     0.4170     0.7170    25.1280     1.9610 
   56.1250   103.4800    48.5860    23.2350     0.4170     0.7370    25.1230     1.9570 
   56.2500   103.0420    47.3660    29.0560     0.4180     0.7360    25.1070     1.9510 
   56.3750   102.5080    46.5080    53.0720     0.4190     0.7400    25.0890     1.9460 
   56.5000   101.8250    48.6070   188.7290     0.4210     0.7780    25.0740     1.9420 
   56.6250   100.9600    50.1980 26712.9530     0.4230     0.8690    25.0570     1.9400 
   56.7500    99.8070    48.2380 150296.9690     0.4260     0.9610    25.0420     1.9410 
   56.8750    98.3030    46.5070 347396.7500     0.4280     1.0380    25.0210     1.9440 
   57.0000    96.4170    47.3670 595882.8130     0.4290     1.1140    24.9910     1.9450 
   57.1250    93.9680    47.8070 858708.7500     0.4260     1.1910    24.9520     1.9410 
   57.2500    91.0250    47.3690 687824.3750     0.4210     1.2850    24.9160     1.9340 
   57.3750    87.6330    49.0710 443440.4690     0.4140     1.3600    24.8810     1.9300 
   57.5000    83.9110    51.3470  4857.4610     0.4050     1.3810    24.8410     1.9360 
   57.6250    79.9390    49.4940    54.8570     0.3860     1.3120    24.7850     1.9600 
   57.7500    75.7230    45.7710     7.3470     0.3530     1.1840    24.7180     2.0080 
   57.8750    71.1450    43.6890     1.6510     0.3030     1.0650    24.6420     2.0820 
   58.0000    66.1070    42.9430     0.3430     0.2470     0.8740    24.5580     2.1800 
   58.1250    60.4950    41.7570     0.0000     0.2040     0.6840    24.4580     2.2840 
   58.2500    54.3700    40.2780    -0.0990     0.1920     0.5900    24.3500     2.3520 
   58.3750    47.6500    39.7800    -0.0610     0.2300     0.6990    24.2390     2.3530 
   58.5000    40.2770    39.9790     0.0960     0.3480     1.0210    24.1460     2.2920 
   58.6250    32.2430    38.9500     0.4320     0.6300     1.7540    24.1290     2.2050 
   58.7500    24.0140    37.9190     0.9650     1.1220     2.4480    24.2030     2.1270 
   58.8750    15.9680    39.9190     1.6850     1.8450     3.1840    24.3410     2.0750 
   59.0000     8.4290    43.7230     2.5080     2.7500     4.1730    24.5010     2.0570 
   59.1250     1.8250    45.5290     3.2270     3.6750     4.4490    24.6530     2.0660 
   59.2500    -3.8570    45.2930     3.6500     4.4120     4.2930    24.7910     2.0800 
   59.3750    -8.5330    43.9280     3.7910     4.8920     3.9440    24.9080     2.0780 
   59.5000   -12.1580    41.7380     3.8460     5.2100     3.8360    25.0060     2.0510 
   59.6250   -14.6610    41.1390     3.9970     5.5150     4.1890    25.0630     2.0090 
   59.7500   -16.4580    44.7990     4.2490     5.8650     4.8880    25.0340     1.9790 
   59.8750   -17.7790    50.3280     4.5430     6.2260     5.7910    24.8760     1.9790 
   60.0000   -18.7990    54.2420     4.8010     6.5330     6.8830    24.6410     2.0130 
   60.1250   -19.5980    54.7390     4.9430     6.7080     8.0680    24.4850     2.0680 
   60.2500   -20.2580    52.2340     4.9780     6.7530     8.7600    24.4010     2.1170 
   60.3750   -20.7980    50.4000     4.9460     6.7000     9.0190    24.3440     2.1440 
   60.5000   -21.2650    53.2590     4.9100     6.6110     9.0080    24.2840     2.1520 
   60.6250   -21.6320    58.4250     4.9550     6.5820     8.5930    24.2180     2.1530 
   60.7500   -21.9540    59.4640     5.1190     6.6750     8.2690    24.1580     2.1580 
   60.8750   -22.2080    58.2260     5.4050     6.9060     8.6190    24.1090     2.1660 
   61.0000   -22.4180    59.6090     5.7700     7.2370    10.0360    24.0730     2.1750 
   61.1250   -22.5750    61.3030     6.1230     7.5730    11.8920    24.0510     2.1820 
   61.2500   -22.6650    59.1730     6.3680     7.8040    13.6120    24.0320     2.1860 
   61.3750   -22.7140    55.7950     6.4450     7.8620    13.9860    24.0180     2.1880 
   61.5000   -22.7600    55.6120     6.3590     7.7430    11.3980    24.0120     2.1900 
   61.6250   -22.8330    57.2210     6.1640     7.4960     9.4200    24.0170     2.1910 
   61.7500   -22.8610    57.3290     5.9580     7.2280     8.6470    24.0330     2.1890 
   61.8750   -22.7830    55.9960     5.7860     6.9940     8.4900    24.0510     2.1830 
   62.0000   -22.6200    55.1520     5.6680     6.8170     8.4030    24.0590     2.1760 
   62.1250   -22.3920    57.0430     5.6100     6.7020     8.2810    24.0480     2.1710 
   62.2500   -22.0920    58.5800     5.5930     6.6230     8.1310    24.0100     2.1700 
   62.3750   -21.7320    58.5670     5.6020     6.5630     8.0000    23.9410     2.1710 
   62.5000   -21.3130    58.4370     5.6140     6.5040     7.8820    23.8590     2.1680 
   62.6250   -20.8530    61.1030     5.5900     6.4160     7.7250    23.8000     2.1580 
   62.7500   -20.3800    65.7730     5.5200     6.2880     7.4940    23.7740     2.1500 
   62.8750   -20.0210    71.3310     5.4180     6.1320     7.1750    23.7640     2.1480 
   63.0000   -19.7570    78.7730     5.3160     5.9770     6.8670    23.7470     2.1580 
   63.1250   -19.6170    84.5400     5.2550     5.8630     6.6230    23.7040     2.1790 
   63.2500   -19.6470    83.6720     5.2520     5.8060     6.5950    23.6340     2.2000 
   63.3750   -19.8290    77.0990     5.3020     5.8060     6.8330    23.5550     2.2150 
   63.5000   -20.1420    70.3470     5.3900     5.8490     7.1650    23.5010     2.2210 
   63.6250   -20.5440    67.4070     5.4990     5.9180     7.3910    23.5050     2.2140 
   63.7500   -21.0140    64.4200     5.6140     5.9940     7.5940    23.5430     2.2000 
   63.8750   -21.4840    58.9080     5.7330     6.0710     8.0260    23.5790     2.1830 
   64.0000   -21.9120    54.2670     5.8540     6.1460     8.4760    23.5800     2.1720 
   64.1250   -22.2080    53.9770     5.9700     6.2140     8.6390    23.5420     2.1740 
   64.2500   -22.3690    57.0070     6.0720     6.2680     8.5430    23.5080     2.1860 
   64.3750   -22.4350    60.5260     6.1550     6.3020     8.2780    23.5060     2.1990 
   64.5000   -22.3690    62.5330     6.2220     6.3120     8.0590    23.5290     2.2050 
   64.6250   -22.2260    64.0040     6.2840     6.3020     8.0480    23.5280     2.2010 
   64.7500   -22.0430    64.8940     6.3490     6.2820     8.1440    23.4770     2.1930 
   64.8750   -21.8510    65.6150     6.4140     6.2530     8.2170    23.3980     2.1880 
   65.0000   -21.6670    64.6570     6.4750     6.2170     8.2450    23.3320     2.1880 
   65.1250   -21.5550    62.0060     6.5240     6.1720     8.2530    23.3070     2.1890 
   65.2500   -21.5120    62.2230     6.5570     6.1170     8.2100    23.3110     2.1890 
   65.3750   -21.4640    65.5900     6.5710     6.0510     8.0930    23.3030     2.1870 
   65.5000   -21.4290    68.6320     6.5700     5.9780     7.9660    23.2670     2.1840 
   65.6250   -21.3730    67.9250     6.5720     5.9100     7.8340    23.2450     2.1850 
   65.7500   -21.3010    66.2030     6.6160     5.8720     7.7590    23.2660     2.1900 
   65.8750   -21.2070    64.1460     6.7540     5.8980     7.7490    23.3290     2.1990 
   66.0000   -21.0750    63.6300     7.0410     6.0270     7.7580    23.4050     2.2090 
   66.1250   -20.9210    68.2360     7.5310     6.3050     7.8500    23.4550     2.2220 
