~V
VERS. 2.00: Ver 2.00
~W
STRT.M 55.0000:
STOP.M 242.0000:
STEP.M 0.1250:
NULL. -999.2500:
UWI. F10187:
~C
DEPT.M :
GR.API :
RML.OHMM :
RI. :
RXO.OHMM :
CALI.CM :
DEN.GM/CC :
SP.MV :
~A
# ...
  178.7500    88.5200    15.0980    12.5390    16.0930    24.0940     2.4140   -14.7940 
  178.8750    95.5070    13.7740    11.3410    10.8610    24.0280     2.4140   -14.7990 
  179.0000   101.7720    12.5060    10.1290     8.3920    23.8950     2.4150   -14.7570 
  179.1250   103.3810    11.6900     9.2810     8.4040    23.7580     2.4140   -14.7210 
  179.2500   100.7990    11.3310     8.8310     8.6800    23.6340     2.4110   -14.6560 
  179.3750    98.2460    11.3280     8.7220     8.8160    23.5920     2.4080   -14.5550 
  179.5000    98.2550    11.5280     8.8350     8.6880    23.6060     2.4070   -14.5550 
  179.6250    96.3840    11.7900     9.0400     8.6040    23.6910     2.4100   -14.6310 
  179.7500    92.1320    12.0290     9.2330     8.7960    23.8740     2.4140   -14.6190 
  179.8750    88.8060    12.2300     9.3940     9.1310    24.1960     2.4190   -14.6020 
  180.0000    87.6330    12.4010     9.5240     9.4610    24.5800     2.4240   -14.6220 
  180.1250    86.8110    12.5550     9.6250     9.9420    24.7590     2.4270   -14.6220 
  180.2500    85.5410    12.7020     9.7010    10.2280    24.7910     2.4280   -14.6360 
  180.3750    85.6840    12.8530     9.7530    10.3890    24.7720     2.4250   -14.6690 
  180.5000    87.7390    13.0180     9.7890    10.5630    24.7620     2.4160   -14.6560 
  180.6250    90.7700    13.2250     9.8270    11.0090    24.7600     2.3990   -14.5770 
  180.7500    92.4690    13.5320     9.8920    11.5500    24.7510     2.3810   -14.5420 
  180.8750    91.2320    14.0850    10.0580    12.2520    24.7270     2.3670   -14.5370 
  181.0000    89.2210    15.1350    10.4780    13.3100    24.6980     2.3630   -14.4680 
  181.1250    88.8160    17.2160    11.5060    14.5260    24.6710     2.3640   -14.3370 
  181.2500    87.5590    20.5890    13.3870    16.4530    24.6450     2.3610   -14.2700 
  181.3750    84.2610    25.4850    16.4520    21.3210    24.6340     2.3470   -14.1730 
  181.5000    80.3630    31.8160    20.9380    32.8230    24.6240     2.3250   -13.9980 
  181.6250    77.7950    38.8950    26.7790    53.2550    24.6050     2.3060   -13.8690 
  181.7500    75.3750    45.2710    32.7210    59.3420    24.5820     2.2970   -13.6860 
  181.8750    73.9500    49.9630    37.5970    51.3730    24.5880     2.2960   -13.4420 
  182.0000    75.7820    52.8520    40.9350    44.7650    24.6260     2.2960   -13.2860 
  182.1250    78.3910    54.8090    43.3010    45.8380    24.6590     2.2890   -13.2330 
  182.2500    78.3800    57.2460    46.0400    57.3520    24.6550     2.2760   -13.1650 
  182.3750    76.2530    60.7180    49.8570    71.6220    24.6400     2.2640   -13.1390 
  182.5000    72.6070    64.9820    54.8220    73.8920    24.6070     2.2650   -13.1120 
  182.6250    67.9090    68.7550    60.2730    70.7800    24.5140     2.2990   -12.9940 
  182.7500    63.7230    70.1380    64.6000    73.0790    24.3360     2.3620   -12.9510 
  182.8750    61.8620    67.2810    65.6820    79.5380    24.1070     2.4370   -12.9420 
  183.0000    61.3060    59.3030    61.2070    82.6770    23.8600     2.5000   -12.7760 
  183.1250    62.5570    46.9860    49.8380    64.1650    23.5440     2.5220   -12.3930 
  183.2500    68.4130    34.1420    36.1730    37.6260    23.3320     2.5130   -11.8870 
  183.3750    78.9750    23.3190    24.2220    20.5960    23.3280     2.4920   -11.2640 
  183.5000    91.9540    15.6320    15.7900    11.9130    23.4770     2.4790   -10.5540 
  183.6250   103.4850    11.2430    11.0220     7.8830    23.6910     2.4820    -9.8490 
  183.7500   111.0000     8.7960     8.3160     5.7470    23.9050     2.4900    -9.1940 
  183.8750   114.5060     7.6150     6.9230     5.4090    24.0850     2.4940    -8.6000 
  184.0000   116.0140     7.2340     6.3840     5.6350    24.1930     2.4930    -8.1170 
  184.1250   115.4450     7.3850     6.4890     5.8440    24.2240     2.4900    -7.8310 
  184.2500   110.0280     7.7130     6.8840     6.0610    24.2340     2.4880    -7.7100 
  184.3750   102.8070     7.9880     7.2960     6.3260    24.2430     2.4880    -7.6500 
  184.5000    96.8110     8.0320     7.4510     6.5590    24.2510     2.4950    -7.6740 
  184.6250    95.9660     7.7460     7.1490     6.4960    24.2170     2.5240    -7.7830 
  184.7500   102.5090     7.2860     6.5730     5.8280    24.1920     2.5780    -7.8410 
  184.8750   116.4740     6.8380     5.9440     4.7810    24.2030     2.6490    -7.9150 
  185.0000   129.5970     6.5930     5.4650     4.0920    24.2240     2.7160    -8.1030 
  185.1250   127.3210     6.7860     5.3310     4.4820    24.2310     2.7460    -8.3700 
  185.2500   113.8650     7.4930     5.5920     5.7060    24.2220     2.7330    -8.6840 
  185.3750    98.8350     8.8490     6.3430     7.6020    24.1840     2.6840    -9.2090 
  185.5000    88.1450    11.0490     7.7420     9.9100    24.1150     2.6180    -9.8760 
  185.6250    83.0320    14.6060    10.2480    12.5420    24.0850     2.5520   -10.6080 
  185.7500    80.3490    19.7050    14.1560    16.8590    24.1970     2.4950   -11.4330 
  185.8750    79.1270    26.6500    19.9220    29.9190    24.4800     2.4440   -12.2640 
  186.0000    78.0590    35.5690    27.8720    49.4240    24.7740     2.3960   -13.0110 
  186.1250    75.4180    46.3630    38.1200    68.2960    24.8670     2.3510   -13.6910 
  186.2500    71.4600    57.7440    49.2670    76.1070    24.8620     2.3110   -14.3400 
  186.3750    67.8700    68.4770    59.9150    81.4730    24.8400     2.2810   -14.8590 
  186.5000    65.2540    77.4990    68.9200    90.1580    24.8860     2.2660   -15.2600 
  186.6250    64.4170    83.7730    75.3280    98.3180    24.8790     2.2690   -15.5520 
  186.7500    64.6880    87.3710    79.2890   110.4190    24.7890     2.2830   -15.7500 
  186.8750    64.3970    87.8960    80.4790   132.5470    24.6570     2.2980   -15.8880 
  187.0000    61.9260    84.8940    78.4710   148.6760    24.5780     2.3050   -15.9320 
  187.1250    59.6040    77.9030    72.6470   125.3220    24.6340     2.3000   -15.9030 
  187.2500    61.9350    68.7200    64.4560    86.1410    24.7220     2.2940   -15.8380 
  187.3750    67.4440    59.1030    55.5090    65.2720    24.8990     2.2940   -15.7020 
  187.5000    70.9320    50.6990    47.4260    54.3150    25.0540     2.3050   -15.5490 
  187.6250    70.5750    45.0030    41.6450    46.4860    25.0580     2.3210   -15.4350 
  187.7500    70.3350    41.9440    38.2400    38.7710    24.9930     2.3310   -15.2740 
  187.8750    73.2690    41.3630    37.1900    35.7790    24.9110     2.3260   -15.0570 
  188.0000    78.3490    42.8700    38.2510    37.8470    24.7410     2.3060   -14.8910 
  188.1250    80.9140    45.9410    41.1020    43.3130    24.4790     2.2780   -14.7470 
  188.2500    79.6530    49.2800    44.5380    50.0170    24.3320     2.2530   -14.5180 
  188.3750    76.1010    51.8220    47.4490    53.9600    24.3090     2.2390   -14.3150 
  188.5000    73.6210    52.7700    48.8370    53.8920    24.2410     2.2360   -14.1120 
  188.6250    73.1530    51.7310    48.0860    49.5410    24.1140     2.2410   -13.8080 
  188.7500    72.8730    49.6730    46.1310    47.7380    24.0290     2.2490   -13.5680 
  188.8750    72.7620    47.4480    43.8520    47.9110    23.9590     2.2600   -13.3890 
  189.0000    73.9910    45.6920    41.9200    49.6910    24.0310     2.2710   -13.1650 
  189.1250    77.6310    44.8250    40.6890    48.3490    24.1320     2.2790   -12.9570 
  189.2500    79.3680    44.7930    40.0560    47.8310    24.2010     2.2810   -12.8160 
  189.3750    77.4050    45.6950    40.1720    49.1560    24.2230     2.2830   -12.5950 
  189.5000    74.0340    47.6780    41.3920    51.0500    24.2300     2.2980   -12.3060 
  189.6250    72.9320    50.7440    44.1760    49.5420    24.2170     2.3540   -12.0280 
  189.7500    72.2150    53.6820    47.7010    49.9460    24.1860     2.4510   -11.6650 
  189.8750    68.6800    54.6970    50.2110    66.5260    24.1390     2.5760   -11.1870 
