~V
VERS. 2.00: Ver 2.00
~W
STRT.M 51.0000:
STOP.M 246.0000:
STEP.M 0.1250:
NULL. -999.2500:
UWI. F10182:
~C
DEPT.M :
SP.MV :
GR.API :
RML.OHMM :
RI. :
RXO.OHMM :
DEN.GM/CC :
CALI.CM :
~A
# ...
  174.7500   -12.3160    61.3900   134.7190   133.4920   150.7500     2.2090    23.5740 
  174.8750   -12.2730    62.9720   124.8400   124.6040   144.4640     2.2060    23.6990 
  175.0000   -12.2260    62.5730   117.3500   117.6110   131.1790     2.2020    23.8090 
  175.1250   -12.1400    61.6030   113.5440   114.0350   102.7650     2.1970    23.8380 
  175.2500   -12.0790    60.6260   114.5300   115.3510    97.7550     2.1900    23.8170 
  175.3750   -11.9850    58.0000   126.4820   120.2330    99.1910     2.1820    23.8370 
  175.5000   -11.9060    55.6280   139.2110   126.2490   106.9930     2.1750    23.8390 
  175.6250   -11.8080    55.3090   140.1470   129.2080   121.1440     2.1740    23.8150 
  175.7500   -11.7070    54.8180   131.4190   123.6720   149.0960     2.1870    23.9030 
  175.8750   -11.6150    53.7350   115.8340   111.0710   175.0510     2.2110    24.0510 
  176.0000   -11.5260    55.2560    98.5550    95.5360   163.4790     2.2380    24.1640 
  176.1250   -11.4720    60.2610    84.1650    81.5220   116.2360     2.2570    24.1830 
  176.2500   -11.4110    64.0260    75.6830    72.4680    82.1420     2.2560    24.1800 
  176.3750   -11.4060    64.4910    72.1160    68.0280    64.6310     2.2420    24.1730 
  176.5000   -11.3950    63.9250    72.5210    67.4190    59.7970     2.2250    24.1630 
  176.6250   -11.4190    64.1680    76.0200    69.7680    61.2170     2.2180    24.1320 
  176.7500   -11.4420    64.4780    82.4150    74.8490    59.7010     2.2240    24.0760 
  176.8750   -11.4750    63.2390    91.0410    81.9740    71.2580     2.2360    23.9540 
  177.0000   -11.5140    60.8730   101.9150    91.0380    84.2780     2.2510    23.7930 
  177.1250   -11.5210    57.2590   114.9900   101.8640    90.1720     2.2690    23.6730 
  177.2500   -11.5620    54.5740   129.7270   113.8770   101.1050     2.2890    23.8240 
  177.3750   -11.5610    55.4180   144.0720   125.4120   143.9280     2.3010    23.9730 
  177.5000   -11.5430    57.4950   156.3840   135.1740   186.5640     2.2920    24.0360 
  177.6250   -11.5420    55.7910   166.3890   142.8940   184.1390     2.2600    23.9910 
  177.7500   -11.5230    50.3850   176.0580   149.9790   191.0900     2.2140    23.9630 
  177.8750   -11.5270    47.5470   188.6240   159.0700   192.7620     2.1780    24.0030 
  178.0000   -11.5160    48.4100   206.3120   172.0100   202.2670     2.1610    24.0800 
  178.1250   -11.5200    48.5410   229.6450   189.2320   232.6470     2.1620    24.1850 
  178.2500   -11.4990    47.4450   256.1790   208.9510   265.2760     2.1700    24.1970 
  178.3750   -11.4800    47.5310   277.8660   225.6200   277.8840     2.1720    24.1810 
  178.5000   -11.4840    48.7470   284.1810   232.3080   275.1830     2.1680    24.1530 
  178.6250   -11.4870    49.3230   265.6610   222.1710   289.3000     2.1600    24.1370 
  178.7500   -11.4590    50.4600   220.7970   191.1510   313.1740     2.1570    24.1280 
  178.8750   -11.4400    53.3330   169.6100   151.1570   336.1840     2.1630    24.1130 
  179.0000   -11.3720    55.6220   125.7160   113.1440   285.4290     2.1780    24.0750 
  179.1250   -11.3260    57.0030    94.5550    84.0360   147.7440     2.2000    24.0490 
  179.2500   -11.2390    58.3470    77.1210    66.8820    77.8170     2.2220    24.0620 
  179.3750   -11.1580    58.2140    68.2780    57.8080    54.8480     2.2370    24.0910 
  179.5000   -11.0640    56.6110    65.3050    54.3020    54.9070     2.2400    24.0790 
  179.6250   -10.9110    56.1510    65.8010    54.1450    59.0780     2.2320    24.0430 
  179.7500   -10.7640    57.5330    67.3100    55.2800    60.2920     2.2170    23.9960 
  179.8750   -10.6120    58.3660    67.3360    55.5170    70.7130     2.2040    23.9540 
  180.0000   -10.4580    58.0820    64.7780    53.8190    80.8750     2.2010    23.9380 
  180.1250   -10.2950    59.3240    60.0600    50.3300    71.8340     2.2150    23.9260 
  180.2500   -10.1330    61.2890    54.8970    46.2360    56.6600     2.2630    23.9490 
  180.3750    -9.9610    60.9960    50.8220    42.8060    48.6850     2.3470    23.9410 
  180.5000    -9.7650    58.3040    47.9290    40.2100    46.4470     2.4540    23.9860 
  180.6250    -9.5570    55.6470    45.3110    37.7920    45.1830     2.5490    24.1280 
  180.7500    -9.3280    56.4670    41.3450    34.2350    45.5020     2.5820    24.1520 
  180.8750    -9.0570    58.1980    35.6660    29.2400    46.4350     2.5590    24.1920 
  181.0000    -8.7860    58.6530    29.1110    23.5530    41.8820     2.5110    24.2250 
  181.1250    -8.4760    56.3840    23.0600    18.3600    29.3410     2.4740    24.2220 
  181.2500    -8.1900    52.7920    18.7660    14.6650    17.0840     2.4750    24.1490 
  181.3750    -7.8950    51.6650    16.1170    12.3040    13.0680     2.5010    24.1200 
  181.5000    -7.6240    54.3790    14.8410    11.0290    10.8030     2.5300    24.0710 
  181.6250    -7.3960    56.7760    14.6040    10.5820    10.2380     2.5480    23.9860 
  181.7500    -7.1680    54.8960    15.1280    10.7830    12.5440     2.5650    24.0340 
  181.8750    -6.9950    51.2780    15.9050    11.2570    14.6120     2.5920    24.1960 
  182.0000    -6.8280    48.1280    16.6310    11.7650    15.5690     2.6270    24.3840 
  182.1250    -6.7180    45.9860    17.1350    12.1470    16.0280     2.6500    24.4880 
  182.2500    -6.6290    44.7520    17.4160    12.3770    15.2610     2.6470    24.4740 
  182.3750    -6.5530    45.6550    17.6540    12.5830    13.9080     2.6340    24.4770 
  182.5000    -6.5020    48.0660    17.9330    12.8360    11.2050     2.6270    24.4350 
  182.6250    -6.4760    49.4280    18.1930    13.0990    11.1780     2.6280    24.3870 
  182.7500    -6.4770    48.0810    18.1510    13.1650    14.5760     2.6140    24.4010 
  182.8750    -6.4730    46.0390    17.6160    12.8600    17.1040     2.5730    24.3850 
  183.0000    -6.4750    45.9990    16.5540    12.1430    15.3740     2.5160    24.3750 
  183.1250    -6.4910    47.8700    15.1400    11.1440    10.6600     2.4610    24.3410 
  183.2500    -6.4920    50.6280    13.6940    10.0990     8.6720     2.4320    24.3050 
  183.3750    -6.5120    53.2200    12.4620     9.1930     7.9650     2.4220    24.2760 
  183.5000    -6.5220    53.4590    11.5050     8.4700     8.0790     2.4190    24.2890 
  183.6250    -6.5350    50.5390    10.7830     7.9060     7.6930     2.4120    24.3260 
  183.7500    -6.5750    48.1570    10.2480     7.4650     7.2740     2.3990    24.3810 
  183.8750    -6.6160    47.5800     9.8600     7.1060     6.8180     2.3910    24.4100 
  184.0000    -6.6900    47.8210     9.6600     6.8490     6.8550     2.3980    24.4050 
  184.1250    -6.7430    48.2500     9.6840     6.7230     6.9170     2.4230    24.3320 
  184.2500    -6.8140    49.3970     9.9550     6.7770     7.3630     2.4650    24.2590 
  184.3750    -6.8710    49.7260    10.3920     6.9900     8.2660     2.5080    24.3370 
  184.5000    -6.9070    48.3490    10.9450     7.3510    10.2540     2.5370    24.4210 
  184.6250    -6.9550    46.6700    11.5510     7.8200    13.0870     2.5370    24.4550 
  184.7500    -6.9580    45.3420    12.0880     8.3000    15.5650     2.5040    24.4690 
  184.8750    -6.9740    44.5170    12.4380     8.6680    15.9020     2.4580    24.4130 
  185.0000    -6.9660    45.1370    12.5270     8.8530    13.0680     2.4150    24.3890 
  185.1250    -6.9380    47.3900    12.3870     8.8630    10.5290     2.4020    24.3770 
  185.2500    -6.9190    49.3190    12.2120     8.7960     9.9180     2.4520    24.3440 
  185.3750    -6.8950    49.2900    12.2250     8.7880    10.5930     2.5320    24.3370 
  185.5000    -6.8960    47.7950    12.4640     8.8710    13.8620     2.5640    24.3260 
  185.6250    -6.9030    45.5360    12.7790     8.9880    18.1320     2.5100    24.2740 
  185.7500    -6.9190    42.6910    12.8310     8.9830    21.6180     2.3900    24.1910 
  185.8750    -6.9450    41.1250    12.4320     8.7520    21.7430     2.2690    24.1490 
