~V
VERS. 2.00: Ver 2.00
~W
STRT.M 52.0000:
STOP.M 236.0000:
STEP.M 0.1250:
NULL. -999.2500:
UWI. F10181:
~C
DEPT.M :
GR.API :
RML.OHMM :
RI. :
RXO.OHMM :
CALI.CM :
DEN.GM/CC :
SP.MV :
~A
# ...
  187.0000    84.5060     9.0120     7.6590     7.7480    25.6690     2.2390    -8.7450 
  187.1250    83.1340     9.3670     8.0050     8.0950    25.2410     2.2620    -8.7830 
  187.2500    81.4160     9.5930     8.2580     8.4530    24.7000     2.2900    -8.7540 
  187.3750    81.2970     9.6410     8.3560     8.7350    24.0810     2.3190    -8.6290 
  187.5000    84.9260     9.5060     8.2750     8.9650    23.6390     2.3460    -8.4150 
  187.6250    88.8280     9.2180     8.0210     8.5570    23.4700     2.3640    -8.1280 
  187.7500    90.0330     8.8820     7.6880     8.0540    23.3950     2.3740    -7.7770 
  187.8750    90.4290     8.5730     7.3430     7.7780    23.2580     2.3790    -7.4170 
  188.0000    90.6860     8.3540     7.0500     7.7300    23.0710     2.3830    -7.0600 
  188.1250    87.0750     8.3030     6.8910     7.7510    22.9160     2.3890    -6.7040 
  188.2500    82.6930     8.4310     6.8950     7.6580    22.8050     2.3970    -6.3730 
  188.3750    82.9920     8.7370     7.0790     7.4360    22.6750     2.4050    -6.0920 
  188.5000    86.0090     9.1770     7.4190     7.4530    22.9280     2.4130    -5.8450 
  188.6250    85.0810     9.6330     7.8370     8.0830    23.2340     2.4200    -5.6110 
  188.7500    83.7130     9.9230     8.1780     8.8470    23.4090     2.4280    -5.3870 
  188.8750    85.0770     9.8970     8.3050     9.3120    23.5370     2.4390    -5.1530 
  189.0000    85.9180     9.4800     8.1260     9.3840    23.6960     2.4500    -4.8980 
  189.1250    80.4990     8.6930     7.6120     9.1470    23.7680     2.4500    -4.6130 
  189.2500    74.1980     7.7990     6.9500     8.6340    23.7740     2.4370    -4.2880 
  189.3750    69.2220     7.0090     6.3040     7.7530    23.7320     2.4150    -3.9120 
  189.5000    62.1420     6.4780     5.8110     6.6420    23.6500     2.3940    -3.5310 
  189.6250    53.2910     6.3200     5.5840     5.8920    23.6050     2.3870    -3.1810 
  189.7500    49.2640     6.4360     5.5800     5.7820    23.6160     2.3940    -2.8740 
  189.8750    50.0660     6.7200     5.7420     6.0560    23.6570     2.4070    -2.6220 
  190.0000    51.4440     7.0350     5.9770     6.4150    23.6930     2.4190    -2.4320 
  190.1250    54.7530     7.2200     6.1670     6.6790    23.6840     2.4260    -2.3250 
  190.2500    61.1200     7.2100     6.2300     6.7400    23.6380     2.4310    -2.2970 
  190.3750    65.8500     7.0130     6.1470     6.6300    23.5740     2.4370    -2.3380 
  190.5000    66.2250     6.6960     5.9500     6.4090    23.4840     2.4420    -2.4190 
  190.6250    68.7210     6.3710     5.7130     6.1410    23.4290     2.4450    -2.5350 
  190.7500    75.4520     6.1570     5.5390     6.0020    23.4190     2.4430    -2.6930 
  190.8750    81.9460     6.1400     5.5050     6.0400    23.4880     2.4350    -2.8840 
  191.0000    83.0590     6.3780     5.6680     6.1650    23.5870     2.4250    -3.1020 
  191.1250    80.0950     6.9090     6.0860     6.4930    23.6310     2.4160    -3.3110 
  191.2500    80.3490     7.6060     6.6800     7.3890    23.6430     2.4090    -3.4890 
  191.3750    82.5960     8.3180     7.3460     8.8800    23.6470     2.4060    -3.6490 
  191.5000    80.9050     8.8570     7.9310    10.1380    23.6500     2.4050    -3.7910 
  191.6250    74.8390     8.9860     8.2140    10.5080    23.6520     2.4040    -3.8990 
  191.7500    72.3740     8.7270     8.1500    10.2370    23.6490     2.4020    -3.9680 
  191.8750    73.9250     8.1910     7.7950     9.8170    23.6330     2.3990    -3.9950 
  192.0000    75.3940     7.5720     7.2960     9.2500    23.5970     2.3970    -3.9740 
  192.1250    74.5700     7.0840     6.8370     8.5900    23.5650     2.3980    -3.9490 
  192.2500    73.6580     6.7930     6.5120     7.5140    23.5370     2.4030    -3.9520 
  192.3750    73.8660     6.6840     6.3280     6.9830    23.5270     2.4090    -3.9740 
  192.5000    77.1130     6.6960     6.2520     7.0020    23.5250     2.4130    -4.0160 
  192.6250    83.0400     6.7710     6.2420     7.1400    23.5240     2.4130    -4.1200 
  192.7500    87.0110     6.8590     6.2560     7.1890    23.5190     2.4100    -4.2810 
  192.8750    88.3790     6.9590     6.2900     7.1570    23.5120     2.4070    -4.4930 
  193.0000    88.0940     7.1000     6.3690     7.1480    23.5100     2.4040    -4.7600 
  193.1250    85.5540     7.3850     6.5780     7.3530    23.5120     2.4050    -5.0780 
  193.2500    81.2450     7.9180     6.9890     7.9550    23.5090     2.4090    -5.4160 
  193.3750    78.1000     8.8470     7.7100     8.9340    23.4960     2.4120    -5.7960 
  193.5000    77.3470    10.3320     8.8710    10.1220    23.4670     2.4120    -6.2190 
  193.6250    76.2550    12.7640    10.7250    12.2470    23.4190     2.4080    -6.6570 
  193.7500    74.8590    16.0610    13.3130    16.1040    23.3500     2.4010    -7.1070 
  193.8750    74.6040    20.2840    16.7250    21.7870    23.2800     2.3880    -7.5570 
  194.0000    74.7970    25.5600    21.0190    29.5630    23.2300     2.3700    -7.9940 
  194.1250    72.5630    31.4710    26.3880    40.2580    23.2820     2.3430    -8.4030 
  194.2500    68.3650    38.3600    32.7550    45.8210    23.3510     2.3110    -8.7880 
  194.3750    65.3280    46.4000    40.2410    49.5580    23.3850     2.2800    -9.1540 
  194.5000    64.7020    55.6240    48.8800    60.0490    23.3960     2.2540    -9.5200 
  194.6250    63.8840    65.7620    58.4930    68.9650    23.4280     2.2370    -9.8550 
  194.7500    60.2730    75.8290    68.2050    76.1240    23.4900     2.2260   -10.1420 
  194.8750    56.8410    84.8730    77.1360    81.2060    23.5500     2.2190   -10.4110 
  195.0000    57.7420    92.0550    84.4540    85.6130    23.5790     2.2150   -10.6730 
  195.1250    61.3370    96.4950    89.3200    86.4890    23.5830     2.2120   -10.9230 
  195.2500    63.1900    98.3270    91.8600    89.3830    23.5830     2.2100   -11.1520 
  195.3750    61.9650    97.2690    91.7810    94.3200    23.5830     2.2080   -11.3490 
  195.5000    59.4330    93.4320    89.0500   100.5330    23.5830     2.2040   -11.4960 
  195.6250    59.7980    87.8570    84.3420   102.5000    23.5820     2.2010   -11.6080 
  195.7500    61.9010    82.8440    79.7130   101.5770    23.5720     2.2020   -11.6890 
  195.8750    62.0200    80.1090    76.8360   100.7480    23.5490     2.2080   -11.7330 
  196.0000    59.7070    80.8040    76.9880    98.7110    23.5360     2.2170   -11.7460 
  196.1250    58.4280    86.0670    81.4600    99.4840    23.5450     2.2260   -11.7490 
  196.2500    59.1490    95.1380    89.6650    92.2670    23.5670     2.2290   -11.7670 
  196.3750    60.5570   107.5280   101.2020    89.1520    23.5960     2.2270   -11.8090 
  196.5000    61.0770   122.3630   115.2620    97.3930    23.6620     2.2190   -11.8500 
  196.6250    58.1980   138.3100   130.6080   110.6180    23.7910     2.2110   -11.9000 
  196.7500    54.0680   153.4250   145.3900   119.6770    23.8830     2.2050   -11.9620 
  196.8750    52.2090   166.0860   158.1460   125.6700    23.9260     2.2010   -12.0380 
  197.0000    53.1260   174.6980   167.4630   133.6060    23.9490     2.1980   -12.1240 
  197.1250    55.2950   176.8820   171.1790   144.5290    23.9820     2.1970   -12.2120 
  197.2500    58.8640   173.6820   169.3940   153.2890    24.0150     2.1970   -12.3010 
  197.3750    62.0910   165.7750   162.2500   152.3100    24.0410     2.1970   -12.3660 
  197.5000    61.2580   154.8310   150.7100   138.6720    24.0540     2.1980   -12.4350 
  197.6250    56.1010   142.6440   136.5130   127.9740    24.0560     2.2000   -12.5120 
  197.7500    52.8130   130.9440   122.4540   120.2000    24.0570     2.2030   -12.5930 
  197.8750    54.3710   117.0090   110.1180   112.2420    24.0570     2.2080   -12.6830 
  198.0000    58.0400   106.0870   100.2890   102.3950    24.0570     2.2160   -12.7880 
  198.1250    58.7510    98.4050    93.4150    96.1950    24.0560     2.2260   -12.8990 
