~V
VERS. 2.00: Ver 2.00
~W
STRT.M 49.0000:
STOP.M 251.0000:
STEP.M 0.1250:
NULL. -999.2500:
UWI. F10165:
~C
DEPT.M :
GR.API :
RML.OHMM :
RI. :
RXO.OHMM :
CALI.CM :
SP.MV :
DEN.GM/CC :
~A
# ...
  127.7500    48.7710    18.2350    17.3200    16.3610    25.8990   -16.5280     2.5230 
  127.8750    47.8160    18.7310    17.7530    17.2370    25.8560   -16.5300     2.5320 
  128.0000    45.1900    19.2420    18.2420    18.2790    25.8740   -16.5260     2.5290 
  128.1250    44.1470    19.6880    18.7090    18.0780    25.9450   -16.5410     2.5130 
  128.2500    45.2490    20.0400    19.1080    17.9260    26.0260   -16.5380     2.4870 
  128.3750    46.3430    20.2770    19.4030    18.1940    26.1410   -16.5330     2.4510 
  128.5000    45.8260    20.3880    19.5650    19.2510    26.2610   -16.5490     2.4190 
  128.6250    44.2410    20.3820    19.5860    20.3870    26.2540   -16.5510     2.4100 
  128.7500    44.7080    20.3640    19.5690    20.6040    26.1270   -16.5530     2.4260 
  128.8750    46.5650    20.4760    19.6500    20.3540    25.9890   -16.5760     2.4520 
  129.0000    47.5410    20.8950    20.0010    20.4770    25.8720   -16.5820     2.4710 
  129.1250    46.5990    21.8340    20.8450    20.9120    25.7650   -16.5900     2.4820 
  129.2500    45.0980    23.1720    22.1170    22.0990    25.6890   -16.6380     2.4960 
  129.3750    43.4530    24.6650    23.6300    24.9810    25.6840   -16.6760     2.5120 
  129.5000    42.9630    25.9470    25.0410    29.2310    25.7370   -16.6850     2.5210 
  129.6250    45.1540    26.5320    25.8350    32.1620    25.8100   -16.7070     2.5020 
  129.7500    47.7890    26.3780    25.8820    30.7370    25.8480   -16.7430     2.4690 
  129.8750    48.7490    25.6230    25.2750    27.2510    25.8860   -16.7720     2.4410 
  130.0000    49.3040    24.5230    24.2560    26.1980    25.9700   -16.8060     2.4330 
  130.1250    49.3540    23.3230    23.0710    27.1740    26.0150   -16.8450     2.4440 
  130.2500    47.6880    22.2040    21.9390    26.3590    26.0100   -16.8550     2.4550 
  130.3750    46.3110    21.2530    20.9650    23.8930    25.9780   -16.8570     2.4590 
  130.5000    46.6170    20.5090    20.2010    21.3060    26.0000   -16.8970     2.4600 
  130.6250    46.6290    20.0310    19.7040    19.9860    26.1340   -16.9440     2.4620 
  130.7500    45.0400    19.7770    19.4310    19.2510    26.2220   -16.9530     2.4640 
  130.8750    43.9960    19.6960    19.3420    19.4510    26.2050   -16.9720     2.4650 
  131.0000    44.1980    19.7080    19.3630    20.6270    26.1690   -17.0140     2.4670 
  131.1250    44.1310    19.7330    19.4150    20.2010    26.1740   -17.0340     2.4680 
  131.2500    44.0600    19.7240    19.4390    20.8520    26.1820   -17.0630     2.4720 
  131.3750    45.0170    19.6520    19.4010    21.0150    26.2040   -17.1010     2.4760 
  131.5000    46.7460    19.4780    19.2610    21.4460    26.2590   -17.1090     2.4760 
  131.6250    47.6080    19.1300    18.9400    20.2950    26.3430   -17.1220     2.4680 
  131.7500    46.8160    18.6180    18.4410    20.5950    26.4340   -17.1710     2.4490 
  131.8750    44.6530    18.0100    17.8170    19.7890    26.5300   -17.2030     2.4190 
  132.0000    42.4570    17.4490    17.2010    18.0730    26.6180   -17.2110     2.3910 
  132.1250    42.2370    17.1460    16.7880    15.7970    26.6340   -17.2430     2.3870 
  132.2500    43.5320    17.1340    16.6360    15.5920    26.6020   -17.2680     2.4050 
  132.3750    44.5600    17.3570    16.7130    16.7920    26.5710   -17.2820     2.4340 
  132.5000    45.1260    17.6680    16.9080    19.2110    26.5720   -17.3210     2.4510 
  132.6250    46.4060    17.8560    17.0420    19.1180    26.6110   -17.3670     2.4360 
  132.7500    47.5970    17.8310    17.0070    18.2340    26.6470   -17.3820     2.4050 
  132.8750    47.2450    17.6330    16.8150    17.0290    26.6860   -17.4000     2.3790 
  133.0000    45.5290    17.3840    16.5650    15.8870    26.7400   -17.4490     2.3650 
  133.1250    43.5320    17.2300    16.3910    15.1130    26.8030   -17.4890     2.3600 
  133.2500    42.6070    17.2150    16.3440    15.2140    26.6940   -17.5200     2.3620 
  133.3750    42.0330    17.3000    16.3960    16.5330    26.3890   -17.5780     2.3790 
  133.5000    40.7540    17.3920    16.4580    17.6400    25.9880   -17.6310     2.4160 
  133.6250    39.2600    17.3530    16.4030    17.2960    25.8000   -17.6590     2.4570 
  133.7500    39.0090    17.1400    16.1870    16.8960    25.7460   -17.7070     2.4810 
  133.8750    40.2010    16.7860    15.8420    16.9650    25.7430   -17.7650     2.4880 
  134.0000    41.7660    16.3710    15.4400    17.0130    25.7420   -17.7880     2.4870 
  134.1250    41.8930    15.9720    15.0550    15.9210    25.7330   -17.8160     2.4860 
  134.2500    40.5190    15.6090    14.7060    14.8450    25.7190   -17.8640     2.4860 
  134.3750    41.0950    15.2740    14.3890    14.5010    25.7220   -17.8890     2.4820 
  134.5000    45.5410    14.9420    14.0810    15.1460    25.7330   -17.9150     2.4720 
  134.6250    50.1670    14.5920    13.7510    14.3380    25.7410   -17.9490     2.4580 
  134.7500    52.3300    14.2470    13.4090    12.8430    25.7370   -17.9700     2.4490 
  134.8750    53.5920    13.9420    13.0820    12.2990    25.7280   -18.0060     2.4460 
  135.0000    55.4050    13.6770    12.7760    12.4540    25.7180   -18.0660     2.4370 
  135.1250    56.1640    13.4070    12.4600    11.8290    25.7470   -18.1000     2.4100 
  135.2500    57.7450    13.0740    12.0920    11.5640    25.7530   -18.1250     2.3810 
  135.3750    61.2490    12.6460    11.6530    11.4250    25.6890   -18.1810     2.3650 
  135.5000    62.8170    12.1640    11.1750    10.2200    25.5530   -18.2350     2.3600 
  135.6250    59.1400    11.7910    10.7880     8.7210    25.4860   -18.2780     2.3530 
  135.7500    55.2850    11.6730    10.6070     8.0390    25.5450   -18.3400     2.3460 
  135.8750    54.3560    11.8910    10.7050     8.3340    25.6310   -18.3960     2.3500 
  136.0000    55.2000    12.4470    11.1080     9.4350    25.6680   -18.4310     2.3730 
  136.1250    58.1450    13.3110    11.8370    11.5200    25.6550   -18.4820     2.4050 
  136.2500    64.2680    14.3160    12.7690    13.1450    25.6140   -18.5510     2.4260 
  136.3750    69.7300    15.3810    13.8180    14.0030    25.5730   -18.5950     2.4270 
  136.5000    69.0320    16.4980    14.9320    15.1120    25.6410   -18.6200     2.4150 
  136.6250    64.9540    17.7290    16.1190    17.6530    25.7920   -18.6730     2.4040 
  136.7500    65.1680    18.9730    17.3060    20.1540    25.9140   -18.7110     2.4000 
  136.8750    68.6830    19.8670    18.1990    22.2430    25.9570   -18.7270     2.3990 
  137.0000    69.8150    19.8200    18.2520    22.3810    25.9620   -18.7680     2.3940 
  137.1250    68.0420    18.1190    16.7720    22.9960    25.9570   -18.8220     2.3770 
  137.2500    68.6320    15.2520    14.2300    20.3400    25.9460   -18.8400     2.3500 
  137.3750    74.1320    12.0240    11.3840    14.0890    25.9420   -18.8610     2.3160 
  137.5000    80.6950     9.2430     8.9150     8.1670    25.9450   -18.9050     2.2840 
  137.6250    82.7090     7.5060     7.2770     5.8450    25.9130   -18.9200     2.2690 
  137.7500    81.4400     6.6680     6.3540     5.1420    25.8470   -18.9290     2.2690 
  137.8750    80.0860     6.5810     6.0500     5.1640    25.8440   -18.9580     2.2760 
  138.0000    78.9300     7.0860     6.2620     5.8040    25.9020   -18.9670     2.2780 
  138.1250    76.5420     8.0450     6.9250     7.2190    25.9990   -18.9730     2.2630 
  138.2500    73.8960     9.1320     7.7930     8.5680    26.0910   -19.0180     2.2400 
  138.3750    72.5400    10.0870     8.6620     9.1660    26.1530   -19.0610     2.2200 
  138.5000    72.0020    10.6990     9.3290     9.6300    26.1750   -19.0760     2.2080 
  138.6250    71.1560    10.8080     9.6000    10.0940    26.1710   -19.1180     2.2020 
  138.7500    69.6390    10.5830     9.5430    10.1380    26.1570   -19.1820     2.2000 
  138.8750    68.5320    10.2120     9.2850     9.8560    26.1300   -19.2250     2.2020 
