~V
VERS. 2.00: Ver 2.00
~W
STRT.M 50.0000:
STOP.M 236.0000:
STEP.M 0.1250:
NULL. -999.2500:
UWI. F10180:
~C
DEPT.M :
SP.MV :
GR.API :
RML.OHMM :
RI. :
RXO.OHMM :
CALI.CM :
DEN.GM/CC :
~A
# ...
  128.7500   -10.2340    78.3390     7.0140     6.7390     7.1610    24.6250     2.1780 
  128.8750   -10.4220    76.2730     7.5040     7.3180     8.6140    24.8980     2.1360 
  129.0000   -10.5870    75.5810     8.0230     7.9300     9.2640    25.0610     2.1180 
  129.1250   -10.7560    75.5080     8.4850     8.3970     9.3960    24.9170     2.1230 
  129.2500   -10.9460    75.4780     8.9160     8.6430     9.1830    24.6910     2.1380 
  129.3750   -11.0380    75.3870     9.2720     8.6250     9.1680    24.6780     2.1510 
  129.5000   -10.9560    75.7700     9.4180     8.3960     9.3420    24.8760     2.1620 
  129.6250   -10.8080    77.9570     9.2640     7.9880     9.3540    25.0670     2.1790 
  129.7500   -10.6100    83.1060     8.8190     7.4600     8.7540    25.0470     2.2070 
  129.8750   -10.2440    88.9370     8.2030     6.9090     7.4360    24.7920     2.2460 
  130.0000    -9.8480    93.1930     7.6360     6.4400     6.4350    24.4610     2.2830 
  130.1250    -9.5170    94.3240     7.2440     6.1090     6.1300    24.1600     2.3130 
  130.2500    -9.1670    92.6800     7.0450     5.9270     6.1720    24.0200     2.3320 
  130.3750    -8.8040    91.5520     6.9050     5.8680     6.4810    24.0070     2.3390 
  130.5000    -8.5620    91.5920     6.6950     5.8460     6.6850    23.9950     2.3380 
  130.6250    -8.3460    91.9450     6.4670     5.8050     6.4490    23.9750     2.3320 
  130.7500    -8.1660    92.7410     6.3310     5.7240     6.1190    23.9750     2.3230 
  130.8750    -8.1260    92.7970     6.3170     5.6250     6.0900    23.9960     2.3140 
  131.0000    -8.1360    92.0480     6.3240     5.5620     6.2970    24.0110     2.3100 
  131.1250    -8.2010    90.7380     6.3240     5.5790     6.3470    24.1040     2.3100 
  131.2500    -8.3480    89.5420     6.3310     5.7160     6.2780    24.3000     2.3150 
  131.3750    -8.4990    88.1650     6.3040     6.0330     6.7290    24.4690     2.3110 
  131.5000    -8.6360    87.3000     6.4280     6.5160     7.3890    24.3130     2.2860 
  131.6250    -8.8490    87.3990     7.0490     7.1210     8.2760    23.9630     2.2340 
  131.7500    -9.0390    86.8590     8.1790     7.7180     8.9980    23.8110     2.1660 
  131.8750    -9.1400    83.5740     9.1620     8.0490     9.4770    23.9830     2.1140 
  132.0000    -9.2140    80.8170     9.4110     7.9850     9.4590    24.2740     2.1020 
  132.1250    -9.1820    82.1600     8.9390     7.5430     8.5330    24.4840     2.1340 
  132.2500    -9.0590    88.7060     8.0830     6.8940     6.9080    24.6170     2.1880 
  132.3750    -8.9320    94.7300     7.1620     6.3050     5.8360    24.8230     2.2380 
  132.5000    -8.8280    95.3470     6.4620     5.9640     5.5530    24.9800     2.2740 
  132.6250    -8.6880    92.3920     6.1150     5.9390     5.7930    25.0200     2.3080 
  132.7500    -8.5220    90.6180     6.1960     6.2050     6.6690    25.0260     2.3480 
  132.8750    -8.4010    91.7320     6.7830     6.6310     8.1600    25.0330     2.3900 
  133.0000    -8.2870    94.4150     7.6060     6.9550     9.7010    24.9790     2.4140 
  133.1250    -8.1330    95.7860     8.2830     7.0030     9.8540    24.9310     2.4060 
  133.2500    -8.0120    94.6320     8.4570     6.7600     9.9940    24.9450     2.3710 
  133.3750    -7.9300    93.4450     8.0180     6.4130     7.6630    24.9590     2.3350 
  133.5000    -7.7530    93.4620     7.4440     6.2750     6.8270    24.9640     2.3280 
  133.6250    -7.5470    90.0690     7.1880     6.5860     7.0330    24.9800     2.3620 
  133.7500    -7.3940    80.0710     7.5210     7.5290     9.2710    25.0240     2.4340 
  133.8750    -7.1660    68.6770     8.6580     9.3120    15.0280    25.0060     2.5220 
  134.0000    -6.9240    62.8620    10.5060    11.6430    20.0280    24.9770     2.5980 
  134.1250    -6.7580    61.0480    12.8970    14.0440    21.0060    24.9680     2.6450 
  134.2500    -6.6090    59.1650    15.3340    15.8920    21.2830    24.9730     2.6580 
  134.3750    -6.5200    57.4730    16.9460    16.5910    21.0580    24.9620     2.6380 
  134.5000    -6.5310    57.6610    17.4990    16.4400    19.7660    24.9410     2.6040 
  134.6250    -6.5430    56.7430    17.2390    15.9010    17.7550    24.9410     2.5710 
  134.7500    -6.5350    54.2240    16.6530    15.4050    17.2010    24.9300     2.5510 
  134.8750    -6.6390    54.6950    16.2150    15.2200    17.8190    24.8290     2.5530 
  135.0000    -6.7330    58.0780    16.0730    15.2950    18.2240    24.7640     2.5670 
  135.1250    -6.7810    60.9170    16.1870    15.5310    19.9630    24.7960     2.5820 
  135.2500    -6.8440    62.3870    16.4510    15.8200    19.5580    24.8610     2.5870 
  135.3750    -6.8640    66.1470    16.7450    16.0660    17.7070    24.9060     2.5770 
  135.5000    -6.8200    69.6350    16.9870    16.2420    15.0450    24.9070     2.5560 
  135.6250    -6.8020    69.7830    17.1570    16.3480    13.9070    24.8760     2.5310 
  135.7500    -6.8300    67.1230    17.2540    16.3750    14.8460    24.8410     2.5100 
  135.8750    -6.7780    64.6360    17.2500    16.2830    16.3120    24.8430     2.4990 
  136.0000    -6.7460    62.3950    17.1350    16.0860    16.2460    24.8790     2.5000 
  136.1250    -6.7700    59.6460    16.9170    15.8520    15.2610    24.8940     2.5100 
  136.2500    -6.7230    58.4100    16.6770    15.7160    14.8540    24.8630     2.5250 
  136.3750    -6.5880    60.1420    16.6120    15.9110    15.3590    24.8790     2.5440 
  136.5000    -6.5110    61.8130    16.8800    16.4940    16.5740    24.8830     2.5640 
  136.6250    -6.4290    61.0200    17.5490    17.4040    18.8040    24.8860     2.5860 
  136.7500    -6.2730    58.7380    18.5350    18.4210    22.1290    24.8740     2.6040 
  136.8750    -6.2040    56.8690    19.5430    19.1300    25.3970    24.8140     2.6060 
  137.0000    -6.1420    55.2670    20.1870    19.2940    24.8840    24.7190     2.5890 
  137.1250    -6.0600    55.1100    20.2510    18.8930    21.4850    24.6470     2.5560 
  137.2500    -6.0510    56.7220    19.7490    18.1270    17.8260    24.6800     2.5180 
  137.3750    -6.1050    58.5170    18.9010    17.3110    17.0060    24.8000     2.4910 
  137.5000    -6.1960    59.4520    18.0850    16.6770    16.4520    24.8810     2.4820 
  137.6250    -6.3770    59.3950    17.4700    16.2660    16.3030    24.9100     2.4860 
  137.7500    -6.6290    59.1260    17.0830    16.0100    16.6200    24.9220     2.4990 
  137.8750    -6.8960    59.2150    16.8450    15.7980    17.2940    24.9350     2.5120 
  138.0000    -7.1990    58.3700    16.6230    15.5730    17.6360    24.9530     2.5220 
  138.1250    -7.4980    56.2840    16.3900    15.3830    16.2500    24.9470     2.5310 
  138.2500    -7.7630    54.5430    16.2060    15.3230    15.1980    24.9270     2.5440 
  138.3750    -8.0450    53.9720    16.2100    15.5130    15.9270    24.9120     2.5600 
  138.5000    -8.2740    53.3490    16.4450    15.9090    17.0910    24.9070     2.5730 
  138.6250    -8.3860    53.8120    16.8830    16.4230    18.0660    24.9180     2.5770 
  138.7500    -8.4480    56.8690    17.4260    16.9310    19.1060    24.9090     2.5680 
  138.8750    -8.4820    59.3670    17.9220    17.3060    19.3970    24.8910     2.5480 
  139.0000    -8.4720    59.5570    18.2840    17.5430    18.4420    24.8850     2.5270 
  139.1250    -8.4470    58.8900    18.5090    17.6760    18.7790    24.9020     2.5100 
  139.2500    -8.4480    57.4400    18.6310    17.7330    19.9130    24.9440     2.5040 
  139.3750    -8.4330    54.6010    18.6640    17.7010    20.1250    24.9570     2.5120 
  139.5000    -8.3540    54.3560    18.6170    17.5930    20.4490    24.9400     2.5270 
  139.6250    -8.3110    57.5090    18.4940    17.4470    19.6340    24.8990     2.5450 
  139.7500    -8.2870    59.9050    18.3410    17.3410    17.9690    24.8950     2.5580 
  139.8750    -8.2070    58.8590    18.2680    17.3950    16.9000    24.8950     2.5610 
