~V
VERS. 2.00: Ver 2.00
~W
STRT.M 63.0000:
STOP.M 800.0000:
STEP.M 0.1250:
NULL. -999.2500:
UWI. F10168:
~C
DEPT.M :
SP.MV :
GR.API :
RML.OHMM :
RI. :
RXO.OHMM :
CALI.CM :
DEN.GM/CC :
~A
# ...
  794.2500  -999.2500    65.8980    25.1700    25.1390     7.6800    15.1430     2.1100 
  794.3750  -999.2500    65.8980    25.1700    25.1390     7.6810    15.1390     2.1140 
  794.5000  -999.2500    65.8980    25.1700    25.1390     7.6820    15.1370     2.1170 
  794.6250  -999.2500    65.8980    25.1700    25.1390     7.6820    15.1350     2.1200 
  794.7500  -999.2500    65.8980    25.1700    25.1390     7.6810    15.1350     2.1220 
  794.8750  -999.2500    65.8980    25.1700    25.1390     7.6820    15.1350     2.1230 
  795.0000  -999.2500    65.8980    25.1700    25.1390     7.6820    15.1350     2.1230 
  795.1250  -999.2500    65.8980    25.1700    25.1390     7.6830    15.1350     2.1210 
  795.2500  -999.2500    65.8980    25.1700    25.1390     7.6820    15.1350     2.1170 
  795.3750  -999.2500    65.8980    25.1700    25.1390     7.6810    15.1340     2.1140 
  795.5000  -999.2500    65.8980    25.1700    25.1390     7.6810    15.1320     2.1110 
  795.6250  -999.2500    65.8980    25.1700    25.1390     7.6810    15.1300     2.1080 
  795.7500  -999.2500    65.8980    25.1700    25.1390     7.6810    15.1280     2.1080 
  795.8750  -999.2500    65.8980    25.1700    25.1390     7.6810    15.1270     2.1080 
  796.0000  -999.2500    65.8980    25.1700    25.1390     7.6820    15.1270     2.1100 
  796.1250  -999.2500    65.8980    25.1700    25.1390     7.6820    15.1270     2.1120 
  796.2500  -999.2500    65.8980    25.1700    25.1390     7.6820    15.1270     2.1130 
  796.3750  -999.2500    65.8980    25.1700    25.1390     7.6810    15.1270     2.1110 
  796.5000  -999.2500    65.8980    25.1700    25.1390     7.6820    15.1270     2.1090 
  796.6250  -999.2500    65.8980    25.1700    25.1390     7.6820    15.1270     2.1080 
  796.7500  -999.2500    65.8980    25.1700    25.1390     7.6830    15.1270     2.1090 
  796.8750  -999.2500    65.8980    25.1700    25.1390     7.6820    15.1270     2.1110 
  797.0000  -999.2500    65.8980    25.1700    25.1390     7.6810    15.1260     2.1130 
  797.1250  -999.2500    65.8980    25.1700    25.1390     7.6800    15.1240     2.1140 
  797.2500  -999.2500    65.8980    25.1700    25.1390     7.6800    15.1210     2.1140 
  797.3750  -999.2500    65.8980    25.1700    25.1390     7.6800    15.1200     2.1150 
  797.5000  -999.2500    65.8980    25.1700    25.1390     7.6810    15.1190     2.1180 
  797.6250  -999.2500    65.8980    25.1700    25.1390     7.6810    15.1190     2.1230 
  797.7500  -999.2500    65.8980    25.1700    25.1390     7.6810    15.1190     2.1280 
  797.8750  -999.2500    65.8980    25.1700    25.1390     7.6810    15.1180     2.1320 
  798.0000  -999.2500    65.8980    25.1700    25.1390     7.6810    15.1160     2.1310 
  798.1250  -999.2500    65.8980    25.1700    25.1390     7.6800    15.1120     2.1270 
  798.2500  -999.2500    65.8980    25.1700    25.1390     7.6810    15.1080     2.1210 
  798.3750  -999.2500    65.8980    25.1700    25.1390     7.6810    15.1010     2.1150 
  798.5000  -999.2500    65.8980    25.1700    25.1390     7.6810    15.0960     2.1110 
  798.6250  -999.2500    65.8980    25.1700    25.1390     7.6810    15.0920     2.1080 
  798.7500  -999.2500    65.8980    25.1700    25.1390     7.6810    15.0890     2.1060 
  798.8750  -999.2500  -999.2500  -999.2500  -999.2500  -999.2500  -999.2500     2.1060 
  799.0000  -999.2500  -999.2500  -999.2500  -999.2500  -999.2500  -999.2500     2.1060 
  799.1250  -999.2500  -999.2500  -999.2500  -999.2500  -999.2500  -999.2500     2.1060 
  799.2500  -999.2500  -999.2500  -999.2500  -999.2500  -999.2500  -999.2500     2.1060 
  799.3750  -999.2500  -999.2500  -999.2500  -999.2500  -999.2500  -999.2500     2.1070 
  799.5000  -999.2500  -999.2500  -999.2500  -999.2500  -999.2500  -999.2500     2.1090 
  799.6250  -999.2500  -999.2500  -999.2500  -999.2500  -999.2500  -999.2500     2.1100 
  799.7500  -999.2500  -999.2500  -999.2500  -999.2500  -999.2500  -999.2500     2.1100 
  799.8750  -999.2500  -999.2500  -999.2500  -999.2500  -999.2500  -999.2500     2.1030 
  800.0000  -999.2500  -999.2500  -999.2500  -999.2500  -999.2500  -999.2500     2.0980 
