~V
VERS. 2.00: Ver 2.00
~W
STRT.M 50.0000:
STOP.M 284.0000:
STEP.M 0.1250:
NULL. -999.2500:
UWI. F10107:
~C
DEPT.M :
DEN.GM/CC :
SP.MV :
GR.API :
RML.OHMM :
RI. :
RXO.OHMM :
CALI.CM :
~A
# ...
   83.7500     2.1710    -5.5160    57.4930     8.7900     7.5810     6.5610    22.6750 
   83.8750     2.1730    -5.7100    57.6630     8.8100     7.6260     6.6640    22.7430 
   84.0000     2.1780    -5.9060    57.2460     8.7810     7.6250     6.8100    22.6370 
   84.1250     2.1770    -6.1020    55.4530     8.6840     7.5590     6.8710    22.6130 
   84.2500     2.1670    -6.2860    54.9680     8.5450     7.4450     6.8120    22.7580 
   84.3750     2.1530    -6.4560    54.9080     8.3960     7.3080     6.8030    22.8620 
   84.5000     2.1400    -6.6100    52.6900     8.2730     7.1760     6.7700    22.8800 
   84.6250     2.1340    -6.7300    50.7900     8.2140     7.0810     6.7180    22.8650 
   84.7500     2.1350    -6.8100    52.4530     8.2130     7.0300     6.6920    22.8470 
   84.8750     2.1390    -6.8480    54.3320     8.2550     7.0160     6.6900    22.8210 
   85.0000     2.1410    -6.8480    53.6230     8.3160     7.0250     6.6740    22.8090 
   85.1250     2.1370    -6.7800    53.7840     8.3620     7.0370     6.6830    22.8220 
   85.2500     2.1310    -6.6500    56.4470     8.3710     7.0310     6.6700    22.8680 
   85.3750     2.1240    -6.4600    57.8400     8.3250     6.9930     6.6390    22.9320 
   85.5000     2.1210    -6.2240    55.7030     8.2230     6.9190     6.6090    22.9790 
   85.6250     2.1270    -5.9690    54.3670     8.0850     6.8160     6.6340    23.0340 
   85.7500     2.1380    -5.7110    57.5560     7.9690     6.7210     6.7210    23.1230 
   85.8750     2.1510    -5.4620    63.3240     7.9230     6.6660     6.6720    23.1980 
   86.0000     2.1580    -5.2350    65.5500     7.9810     6.6790     6.5260    23.1920 
   86.1250     2.1550    -5.0430    59.6590     8.1550     6.7760     6.4130    23.0440 
   86.2500     2.1430    -4.8980    53.0120     8.3760     6.9210     6.4900    22.8210 
   86.3750     2.1300    -4.8010    50.7880     8.5730     7.0670     6.4780    22.6470 
   86.5000     2.1210    -4.7380    52.5700     8.6780     7.1660     6.5200    22.5460 
   86.6250     2.1210    -4.7060    54.4570     8.6300     7.1680     6.7090    22.5670 
   86.7500     2.1270    -4.6990    55.6600     8.4700     7.0870     6.9020    22.6660 
   86.8750     2.1370    -4.7010    58.1940     8.2600     6.9540     6.9330    22.8260 
   87.0000     2.1480    -4.6970    61.0510     8.0720     6.8170     6.8440    22.9780 
   87.1250     2.1600    -4.6860    61.2950     7.9780     6.7270     6.7180    23.0490 
   87.2500     2.1690    -4.6710    59.8750     7.9810     6.7000     6.6580    22.9640 
   87.3750     2.1730    -4.6460    59.8260     8.0580     6.7300     6.5650    22.8640 
   87.5000     2.1730    -4.6110    61.5630     8.1610     6.7940     6.4680    22.7720 
   87.6250     2.1680    -4.5390    62.6260     8.2230     6.8490     6.3490    22.7190 
   87.7500     2.1650    -4.4280    64.1660     8.2000     6.8570     6.3740    22.6690 
   87.8750     2.1650    -4.2800    67.2770     8.0760     6.7980     6.4820    22.6210 
   88.0000     2.1700    -4.1030    69.2370     7.8780     6.6780     6.6140    22.6080 
   88.1250     2.1770    -3.8980    66.8640     7.6720     6.5340     6.6980    22.6930 
   88.2500     2.1850    -3.6760    63.2090     7.5410     6.4250     6.6160    22.8750 
   88.3750     2.1900    -3.4550    61.6810     7.5360     6.3940     6.5180    23.0860 
   88.5000     2.1920    -3.2500    62.5370     7.6600     6.4540     6.2950    23.2130 
   88.6250     2.1890    -3.0990    61.9560     7.8560     6.5840     6.3140    23.2490 
   88.7500     2.1850    -2.9860    59.6850     8.0020     6.7030     6.5830    23.2610 
   88.8750     2.1860    -2.9010    58.8250     8.0010     6.7420     7.0220    23.3000 
   89.0000     2.1940    -2.8350    62.5870     7.8010     6.6500     7.3940    23.3950 
   89.1250     2.2100    -2.7700    68.7490     7.4180     6.4150     7.4180    23.4880 
   89.2500     2.2260    -2.6870    72.6220     7.0070     6.1360     6.9280    23.5460 
   89.3750     2.2380    -2.5880    74.2760     6.7060     5.9090     6.3610    23.5880 
   89.5000     2.2390    -2.4790    74.8380     6.6110     5.8130     6.1630    23.6260 
   89.6250     2.2300    -2.3720    71.7440     6.7610     5.9010     6.0260    23.6220 
   89.7500     2.2160    -2.2890    66.0210     7.0240     6.0960     5.8130    23.5810 
   89.8750     2.2060    -2.2530    62.0270     7.2650     6.3080     5.7400    23.5440 
   90.0000     2.2060    -2.2670    61.4410     7.3550     6.4340     5.9900    23.5500 
   90.1250     2.2180    -2.3260    65.2180     7.1820     6.3710     6.2550    23.6330 
   90.2500     2.2370    -2.4240    72.3760     6.8200     6.1480     6.3420    23.7630 
   90.3750     2.2550    -2.5440    80.0160     6.3760     5.8320     6.0930    23.9060 
   90.5000     2.2680    -2.6700    82.6480     5.9740     5.5170     5.7430    23.9930 
   90.6250     2.2750    -2.7890    79.6580     5.7410     5.3060     5.5840    24.0220 
   90.7500     2.2800    -2.8990    77.5960     5.6820     5.2270     5.6100    24.0250 
   90.8750     2.2870    -3.0010    77.8230     5.7770     5.2740     5.7500    24.0240 
   91.0000     2.2980    -3.1060    77.7740     5.9870     5.4220     5.9800    24.0200 
   91.1250     2.3090    -3.2420    76.2950     6.2730     5.6410     6.3160    23.9820 
   91.2500     2.3150    -3.4080    75.0210     6.5750     5.8780     6.9940    23.9380 
   91.3750     2.3090    -3.5980    74.4100     6.8520     6.0980     7.6400    23.8660 
   91.5000     2.2890    -3.7920    73.5400     7.0660     6.2690     6.7630    23.7540 
   91.6250     2.2640    -3.9510    70.6250     7.1710     6.3510     6.2360    23.6040 
   91.7500     2.2440    -4.0570    67.5940     7.1670     6.3430     6.1400    23.4870 
   91.8750     2.2370    -4.0900    65.5090     7.0640     6.2520     6.2320    23.4700 
   92.0000     2.2400    -4.0450    63.2720     6.9150     6.1130     6.2830    23.5600 
   92.1250     2.2460    -3.9350    62.0030     6.8580     6.0210     6.3100    23.7470 
   92.2500     2.2500    -3.8000    64.4350     7.0530     6.0910     6.3210    23.9220 
   92.3750     2.2520    -3.6630    68.8150     7.6360     6.4330     6.3860    23.9920 
   92.5000     2.2580    -3.5480    71.1730     8.6500     7.1080     6.7650    23.9440 
   92.6250     2.2800    -3.4900    69.6150     9.9890     8.0970     8.0490    23.8260 
   92.7500     2.3150    -3.5020    66.2910    11.2580     9.1370    10.4220    23.7110 
   92.8750     2.3520    -3.5920    60.7460    12.0860     9.9450    14.0120    23.5840 
   93.0000     2.3740    -3.7580    53.9090    12.2010    10.2650    18.3410    23.3530 
   93.1250     2.3560    -3.9920    51.0630    11.4850     9.9100    18.6140    22.8940 
   93.2500     2.3050    -4.2610    53.9460    10.3990     9.1750    13.2190    22.5020 
   93.3750     2.2420    -4.5550    58.1320     9.3430     8.3630     8.6320    22.3270 
   93.5000     2.1870    -4.8660    58.6380     8.5840     7.7070     7.0280    22.3160 
   93.6250     2.1560    -5.1870    56.7290     8.2270     7.3280     6.8060    22.4160 
   93.7500     2.1430    -5.4980    56.0080     8.1050     7.1440     6.7790    22.6130 
   93.8750     2.1400    -5.7960    55.0980     8.0920     7.0780     6.7250    22.8400 
   94.0000     2.1390    -6.0670    53.1390     8.0970     7.0620     6.6530    23.0000 
   94.1250     2.1350    -6.2980    53.3850     8.0840     7.0590     6.5570    23.0040 
   94.2500     2.1310    -6.4900    54.1440     8.0700     7.0620     6.5310    22.9510 
   94.3750     2.1290    -6.6340    52.4330     8.0700     7.0770     6.5380    22.8790 
   94.5000     2.1300    -6.7240    50.6300     8.0950     7.1050     6.5820    22.7900 
   94.6250     2.1340    -6.7450    51.3650     8.1410     7.1420     6.6340    22.7070 
   94.7500     2.1420    -6.7060    51.9730     8.1920     7.1770     6.7680    22.6430 
   94.8750     2.1520    -6.6130    51.7030     8.2380     7.2030     7.0060    22.6110 
