~V
VERS. 2.00: Ver 2.00
~W
STRT.M 57.0000:
STOP.M 281.0000:
STEP.M 0.1250:
NULL. -999.2500:
UWI. F10139:
~C
DEPT.M :
SP.MV :
GR.API :
RML.OHMM :
RI. :
RXO.OHMM :
CALI.CM :
DEN.GM/CC :
~A
# ...
  203.2500   -37.0290    51.7460   304.8200   293.0980   143.6860    25.2300     2.1660 
  203.3750   -36.4000    53.4500   288.9220   279.4440   143.9100    25.1120     2.1660 
  203.5000   -35.9280    54.1560   263.0170   256.7500   133.6550    25.0020     2.1610 
  203.6250   -35.5380    52.7420   226.8360   223.6830   120.0180    24.9140     2.1540 
  203.7500   -35.1670    50.7560   191.0660   189.2130    98.5940    24.7890     2.1530 
  203.8750   -34.8160    51.8080   163.7970   161.2450    72.4200    24.5580     2.1610 
  204.0000   -34.5510    55.4780   149.2260   144.8960    48.8870    24.2490     2.1790 
  204.1250   -34.3280    57.2350   151.1880   145.1220    40.9760    24.0040     2.2000 
  204.2500   -34.1060    54.6940   167.6520   160.2560    46.3470    23.9510     2.2140 
  204.3750   -33.9870    49.5140   197.7070   188.8450    67.1770    24.1020     2.2160 
  204.5000   -33.9110    45.6640   236.3830   225.3040   102.0170    24.4330     2.2070 
  204.6250   -33.9110    45.3330   266.5520   254.3720   126.2670    24.7690     2.1940 
  204.7500   -33.9380    47.2420   270.1240   261.2840   132.1740    25.0890     2.1860 
  204.8750   -33.9840    50.2360   245.0540   243.0840   137.4740    25.3090     2.1850 
  205.0000   -34.0500    52.4950   204.7600   208.9220   134.3250    25.3510     2.1900 
  205.1250   -34.0450    53.2780   164.2690   171.1550   122.2100    25.2670     2.1990 
  205.2500   -33.9710    55.0180   130.0790   137.4270   114.2160    25.1840     2.2120 
  205.3750   -33.7430    58.4710   103.4200   109.9340    99.7970    25.1200     2.2290 
  205.5000   -33.4230    62.1170    84.0880    89.2560    74.5020    25.0380     2.2520 
  205.6250   -33.0490    64.4280    71.8380    75.6910    54.4960    24.9690     2.2780 
  205.7500   -32.6130    66.7230    63.6050    66.3500    45.3750    24.8970     2.3000 
  205.8750   -32.1170    68.4490    57.1220    58.9340    43.4000    24.8440     2.3160 
  206.0000   -31.5450    68.3730    50.3970    51.4190    45.7950    24.8190     2.3240 
  206.1250   -30.9500    68.3090    42.6580    43.1910    47.3320    24.8300     2.3250 
  206.2500   -30.3580    68.5510    35.3220    35.6550    42.6280    24.8770     2.3270 
  206.3750   -29.8010    68.9160    30.0800    30.2200    30.3070    24.8710     2.3350 
  206.5000   -29.2900    69.6630    28.2230    27.7630    19.4820    24.8200     2.3510 
  206.6250   -28.8980    69.5370    31.2730    29.5120    19.8600    24.7910     2.3680 
  206.7500   -28.6250    66.1400    39.0000    35.5400    33.4380    24.8380     2.3730 
  206.8750   -28.4550    60.6150    51.4390    46.2050    61.3020    24.8880     2.3610 
  207.0000   -28.3810    56.7050    67.3470    60.4910    85.5250    24.9090     2.3330 
  207.1250   -28.4520    55.8200    81.8230    73.8270    83.6440    24.8950     2.3020 
  207.2500   -28.6350    56.5110    89.2630    80.9850    76.7640    24.8860     2.2790 
  207.3750   -28.8770    57.1450    89.1940    81.3130    71.5580    24.8830     2.2670 
  207.5000   -29.1390    56.6390    85.7050    78.0690    65.5180    24.8770     2.2650 
  207.6250   -29.2920    54.3000    83.0900    74.9450    59.2050    24.8580     2.2740 
  207.7500   -29.3330    52.8290    82.4590    73.2800    57.7100    24.8340     2.2990 
  207.8750   -29.2560    52.8870    83.3370    72.8160    62.0380    24.8290     2.3400 
  208.0000   -29.0330    54.1060    84.6590    72.7400    67.1230    24.8410     2.3880 
  208.1250   -28.5870    56.1740    84.2410    71.3880    65.4380    24.8400     2.4120 
  208.2500   -27.8900    57.9490    79.9610    67.1110    60.4830    24.7690     2.4010 
  208.3750   -26.9950    59.2810    70.7430    59.0040    54.4190    24.6410     2.3700 
  208.5000   -25.9480    61.0360    57.7910    47.9180    46.9180    24.5700     2.3540 
  208.6250   -24.7830    63.3090    44.3610    36.4850    32.8080    24.5090     2.3900 
  208.7500   -23.6180    64.9880    33.2440    27.0960    18.3110    24.3050     2.4640 
  208.8750   -22.5030    65.9380    25.2460    20.4240    12.3250    23.9930     2.5420 
  209.0000   -21.4460    67.3610    17.5210    16.1720    10.7740    23.8240     2.5890 
  209.1250   -20.4950    68.7930    15.2720    13.9490    11.3360    23.9550     2.5860 
  209.2500   -19.6760    68.5700    14.4580    12.9550    12.1700    24.1650     2.5600 
  209.3750   -18.9760    67.5080    14.7250    12.9130    13.5870    24.2950     2.5350 
  209.5000   -18.3420    68.0160    15.7520    13.5880    15.8030    24.4670     2.5250 
  209.6250   -17.7200    71.2390    17.2210    14.7400    15.9630    24.6100     2.5300 
  209.7500   -17.0860    73.2750    18.5830    15.8830    16.1170    24.6890     2.5430 
  209.8750   -16.4510    72.3690    19.2580    16.5030    18.1430    24.7280     2.5600 
  210.0000   -15.8040    71.1190    18.7070    16.0950    18.4860    24.7130     2.5830 
  210.1250   -15.1820    73.7860    16.6880    14.4420    15.2040    24.6900     2.6090 
  210.2500   -14.6470    78.3580    14.0980    12.3280    12.1470    24.6630     2.6280 
  210.3750   -14.2100    82.5770    11.7290    10.3850     9.1560    24.6280     2.6330 
  210.5000   -13.8590    85.6390    10.1390     8.9900     7.6480    24.6230     2.6190 
  210.6250   -13.5920    85.7990     9.6870     8.3760     7.4900    24.6220     2.5870 
  210.7500   -13.3880    82.9620    10.0460     8.3610     8.4240    24.6100     2.5520 
  210.8750   -13.2080    79.4840    10.8440     8.7580    10.0640    24.5570     2.5240 
  211.0000   -13.0880    76.9390    11.5900     9.2570    11.2310    24.4820     2.5110 
  211.1250   -12.9910    74.2690    11.6810     9.3910    11.3390    24.4090     2.5200 
  211.2500   -12.7780    71.0070    11.0560     9.0110    10.0490    24.4390     2.5420 
  211.3750   -12.3830    67.1550     9.9850     8.2720     8.3050    24.4720     2.5640 
  211.5000   -11.8420    62.0600     8.8870     7.4610     6.5630    24.4700     2.5740 
  211.6250   -11.2730    58.2120     8.1210     6.8380     5.9190    24.5070     2.5600 
  211.7500   -10.7180    58.1060     7.6910     6.4440     5.9140    24.5300     2.5260 
  211.8750   -10.2120    60.6810     7.5040     6.2450     6.0530    24.5650     2.4830 
  212.0000    -9.7520    63.2240     7.4570     6.1810     5.8940    24.5340     2.4420 
  212.1250    -9.3650    65.3310     7.4930     6.2070     5.6050    24.4950     2.4140 
  212.2500    -9.0870    66.6430     7.5890     6.2800     5.5490    24.6020     2.3990 
  212.3750    -8.9520    67.0950     7.7370     6.3880     5.7430    24.9110     2.3950 
  212.5000    -8.9350    69.0010     7.9040     6.5090     6.0650    25.2320     2.3960 
  212.6250    -8.9370    72.9920     8.0230     6.6020     6.2370    25.3930     2.3980 
  212.7500    -8.9380    74.1940     8.0690     6.6430     6.3330    25.4850     2.4040 
  212.8750    -8.9100    72.1100     8.0650     6.6400     6.3260    25.5280     2.4150 
  213.0000    -8.8360    70.5240     8.0690     6.6280     6.3560    25.5620     2.4310 
  213.1250    -8.6980    70.6570     8.1380     6.6560     6.6370    25.5960     2.4450 
  213.2500    -8.5300    70.1120     8.2480     6.7210     6.9970    25.5920     2.4520 
  213.3750    -8.3420    69.4610     8.3400     6.7940     7.2180    25.5780     2.4500 
  213.5000    -8.1240    69.9160     8.3470     6.8280     7.2490    25.5520     2.4410 
  213.6250    -7.9330    69.3800     8.2130     6.7710     7.2030    25.4950     2.4300 
  213.7500    -7.7810    67.1800     7.9870     6.6400     6.8450    25.4310     2.4160 
  213.8750    -7.6550    63.5950     7.7410     6.4770     6.4820    25.3920     2.4000 
  214.0000    -7.5440    58.7000     7.5480     6.3380     6.2370    25.4040     2.3830 
  214.1250    -7.4720    53.8590     7.4720     6.2810     6.2350    25.4240     2.3720 
  214.2500    -7.4160    51.9500     7.4980     6.3090     6.2230    25.4070     2.3700 
  214.3750    -7.4090    52.2550     7.5980     6.4090     6.2150    25.3690     2.3790 
