~V
VERS. 2.00: Ver 2.00
~W
STRT.M 62.0000:
STOP.M 275.0000:
STEP.M 0.1250:
NULL. -999.2500:
UWI. F10141:
~C
DEPT.M :
GR.API :
RML.OHMM :
RI. :
RXO.OHMM :
CALI.CM :
DEN.GM/CC :
SP.MV :
~A
# ...
  174.5000    73.2400     9.0910     9.7330    10.3870    25.1550     2.4170   -11.0070 
  174.6250    74.4720     8.9940     9.6810    10.1690    25.1640     2.4020   -11.3630 
  174.7500    78.5490     8.8870     9.5830    10.0040    25.1690     2.3770   -11.7330 
  174.8750    83.7560     8.7200     9.4010     9.8150    25.1630     2.3550   -12.0720 
  175.0000    85.9030     8.4710     9.1190     9.4570    25.1640     2.3450   -12.3680 
  175.1250    85.1560     8.1530     8.7510     8.9290    25.1750     2.3540   -12.6460 
  175.2500    83.6710     7.8310     8.3680     8.3880    25.1930     2.3750   -12.9050 
  175.3750    82.2890     7.5360     8.0130     7.9770    25.1130     2.3960   -13.1650 
  175.5000    82.1160     7.2980     7.7270     8.0620    24.8650     2.4110   -13.4490 
  175.6250    84.2890     7.2510     7.6200     8.6930    24.7260     2.4090   -13.7560 
  175.7500    86.1250     7.6300     7.8460     9.5180    24.6170     2.3910   -14.0880 
  175.8750    85.4890     8.8780     8.6810    10.2210    24.6040     2.3560   -14.5090 
  176.0000    82.0340    11.7410    10.6580    11.3530    24.7200     2.3110   -15.0290 
  176.1250    74.3450    19.9300    15.5400    17.6870    24.9200     2.2710   -15.6480 
  176.2500    65.2470    31.5960    25.2400    44.7690    25.0800     2.2480   -16.3520 
  176.3750    58.6260    49.9750    42.1350   116.0510    25.1690     2.2470   -17.1180 
  176.5000    55.5390    75.1840    66.7440   214.7490    25.1940     2.2640   -17.8990 
  176.6250    54.5650   100.2840    92.3340   183.7680    25.1480     2.2890   -18.6700 
  176.7500    55.8530   112.7510   106.6030   134.8100    25.0730     2.3130   -19.4150 
  176.8750    58.4460   110.3960   106.5660    95.3570    25.0630     2.3300   -20.0980 
  177.0000    59.9300   101.9280    99.0710    69.9520    25.1380     2.3360   -20.7140 
  177.1250    60.5690    96.5300    92.7430    65.4770    25.2260     2.3260   -21.2530 
  177.2500    62.5700    96.5670    91.1220    68.2090    25.2630     2.3040   -21.7110 
  177.3750    65.4280   102.3360    94.9290    67.6980    25.2670     2.2770   -22.1060 
  177.5000    68.3780   114.1220   104.5760    76.1330    25.2490     2.2520   -22.4620 
  177.6250    69.3330   133.4500   121.5970   133.8010    25.2120     2.2340   -22.7880 
  177.7500    66.6280   158.6510   144.2580   300.5740    25.1780     2.2210   -23.0860 
  177.8750    62.0960   186.4940   169.4300   423.5940    25.1550     2.2120   -23.3690 
  178.0000    59.6690   210.7170   191.6470   320.9850    25.1630     2.2040   -23.5850 
  178.1250    58.4930   223.0320   203.9060   245.5960    25.1890     2.1960   -23.7290 
  178.2500    55.8850   225.1510   207.1550   223.6220    25.1750     2.1890   -23.8300 
  178.3750    54.5890   222.5820   205.6600   186.7470    25.1080     2.1850   -23.8640 
  178.5000    56.8360   220.8300   204.3850   160.2450    25.0290     2.1880   -23.8370 
  178.6250    59.9710   222.5650   206.3870   186.2870    25.0020     2.1980   -23.7160 
  178.7500    62.1600   225.9820   210.4730   240.9270    24.9530     2.2100   -23.4940 
  178.8750    63.6090   229.1640   214.9500   256.8240    24.9250     2.2210   -23.1810 
  179.0000    63.1050   231.0500   218.6680   226.1950    24.9900     2.2260   -22.8270 
  179.1250    60.0530   230.8660   220.7380   187.0150    25.0690     2.2260   -22.4180 
  179.2500    58.3110   226.0140   219.1070   188.1470    25.1120     2.2300   -21.9110 
  179.3750    58.1670   210.9160   209.1300   203.2030    25.1280     2.2420   -21.2880 
  179.5000    56.9080   183.1990   187.4860   208.0690    25.1360     2.2630   -20.5880 
  179.6250    55.3550   149.2900   156.7090   201.1360    25.1390     2.2880   -19.9050 
  179.7500    56.0590   120.3970   127.1980   172.5330    25.1130     2.3050   -19.2750 
  179.8750    58.4390   101.0230   105.2500   113.8230    25.0150     2.3090   -18.6770 
  180.0000    61.0750    91.8800    93.4830    72.6400    24.8180     2.3020   -18.1380 
  180.1250    63.6660    93.1930    93.0790    80.8880    24.6510     2.2880   -17.6800 
  180.2500    66.5700   101.5200   100.1690   119.8830    24.5910     2.2700   -17.3340 
  180.3750    69.1900   114.7880   112.2290   168.9190    24.5920     2.2490   -17.1310 
  180.5000    70.7630   130.4230   126.5760   171.3550    24.6510     2.2240   -17.0290 
  180.6250    68.3540   145.7560   140.7690   138.5010    24.8230     2.1980   -16.9890 
  180.7500    64.4700   161.1310   155.1960   120.6640    25.0450     2.1760   -17.0250 
  180.8750    61.6310   179.9350   172.9900   134.7870    25.1880     2.1630   -17.1360 
  181.0000    60.1660   205.3970   197.0640   193.9300    25.2480     2.1590   -17.2890 
  181.1250    58.1150   235.7490   226.0530   319.0370    25.2410     2.1650   -17.4340 
  181.2500    55.5810   258.7130   249.7710   406.5110    25.2190     2.1740   -17.5410 
  181.3750    53.3990   261.4770   257.3860   391.2980    25.2060     2.1860   -17.5800 
  181.5000    52.6020   240.5040   244.0360   323.0770    25.2030     2.2020   -17.6050 
  181.6250    54.1500   204.6910   214.1610   250.2380    25.2060     2.2210   -17.6310 
  181.7500    55.6230   169.0850   181.5400   190.2280    25.2120     2.2400   -17.5940 
  181.8750    55.4540   139.0820   152.6180   149.3400    25.2210     2.2540   -17.4890 
  182.0000    55.8550   115.5790   129.4090   121.7710    25.2140     2.2630   -17.3170 
  182.1250    59.0960    97.3880   111.2450   101.2960    25.2090     2.2770   -17.1010 
  182.2500    61.9410    81.0130    94.5120    81.3160    25.2050     2.3050   -16.9270 
  182.3750    62.4480    64.9910    77.3200    72.1310    25.2030     2.3470   -16.8170 
  182.5000    62.5400    49.4580    59.7080    72.6290    25.1990     2.3950   -16.6780 
  182.6250    64.9080    36.2040    44.0790    58.0720    25.1970     2.4310   -16.5080 
  182.7500    69.2800    26.1560    32.1810    32.4100    25.1920     2.4440   -16.3940 
  182.8750    74.6550    19.4650    24.3340    17.7970    25.1550     2.4380   -16.3590 
  183.0000    80.7180    15.6120    19.8120    12.7280    25.0700     2.4210   -16.3900 
  183.1250    85.9520    14.1490    17.9600    11.7920    24.9160     2.4090   -16.5410 
  183.2500    87.6200    14.1400    17.7120    12.9940    24.8050     2.4060   -16.7660 
  183.3750    84.9400    15.2560    18.7570    16.8940    24.7720     2.4070   -17.0800 
  183.5000    79.8620    17.3060    20.9170    22.4670    24.7940     2.4030   -17.4920 
  183.6250    76.8020    20.5890    24.4280    20.3620    24.8750     2.3780   -17.9660 
  183.7500    75.2120    25.6220    29.6830    23.1210    24.9470     2.3340   -18.4430 
  183.8750    72.5090    33.6020    37.9020    30.0630    24.9120     2.2780   -18.9520 
  184.0000    68.4440    46.3070    51.1220    44.3980    24.7770     2.2230   -19.5210 
  184.1250    64.5740    68.0280    74.4890    72.3780    24.7020     2.1860   -20.0860 
  184.2500    60.9320   101.5390   111.3480   128.2330    24.8040     2.1680   -20.6050 
  184.3750    56.1100   150.4710   164.6730   255.3970    25.0290     2.1650   -21.0610 
  184.5000    50.5870   215.3340   231.8270   432.1820    25.1400     2.1710   -21.4720 
  184.6250    47.9170   284.5890   296.0540   572.7290    25.0480     2.1780   -21.8460 
  184.7500    47.9580   331.0560   333.1410   588.1790    24.9580     2.1870   -22.1770 
  184.8750    48.9290   339.4230   333.5560   529.8990    25.0180     2.1960   -22.4200 
  185.0000    49.5160   319.7670   308.9120   389.3460    25.1540     2.2060   -22.5670 
  185.1250    51.5300   294.7400   279.9830   252.9960    25.2070     2.2110   -22.6230 
  185.2500    53.7260   277.9260   259.4560   213.5340    25.1920     2.2090   -22.5950 
  185.3750    52.5660   271.3050   249.4790   234.1850    25.1920     2.2030   -22.5090 
  185.5000    49.7960   273.6010   248.9420   272.5010    25.2510     2.1980   -22.3990 
  185.6250    49.3450   282.6180   256.0590   287.4300    25.3080     2.2020   -22.2200 
