~V
VERS. 2.00: Ver 2.00
~W
STRT.M 50.0000:
STOP.M 284.0000:
STEP.M 0.1250:
NULL. -999.2500:
UWI. F10107:
~C
DEPT.M :
DEN.GM/CC :
SP.MV :
GR.API :
RML.OHMM :
RI. :
RXO.OHMM :
CALI.CM :
~A
# ...
  106.2500     2.1710    -5.8590    60.4560     8.1060     6.9380     7.0060    22.1050 
  106.3750     2.1730    -5.8250    56.4970     8.1100     6.9520     7.0390    22.1260 
  106.5000     2.1730    -5.7950    53.7920     8.1180     6.9760     7.0100    22.0600 
  106.6250     2.1710    -5.7510    56.9020     8.1050     6.9920     7.0500    21.9120 
  106.7500     2.1630    -5.6940    60.4630     8.0710     6.9980     7.0970    21.8000 
  106.8750     2.1520    -5.6260    59.4000     8.0280     6.9970     7.0740    21.7500 
  107.0000     2.1420    -5.5380    56.2540     7.9940     6.9990     6.9630    21.7390 
  107.1250     2.1360    -5.4310    55.3960     7.9890     7.0140     6.8030    21.7410 
  107.2500     2.1350    -5.3240    55.3880     8.0190     7.0430     6.7370    21.7560 
  107.3750     2.1350    -5.2300    55.4240     8.0780     7.0860     6.7310    21.8020 
  107.5000     2.1350    -5.1540    55.3840     8.1550     7.1370     6.7270    21.8680 
  107.6250     2.1330    -5.1060    54.8420     8.2270     7.1850     6.6790    21.9200 
  107.7500     2.1300    -5.0600    53.4900     8.2690     7.2140     6.6420    21.9390 
  107.8750     2.1270    -4.9870    52.9510     8.2660     7.2100     6.6520    21.9420 
  108.0000     2.1250    -4.8690    53.4300     8.2310     7.1750     6.7010    21.9420 
  108.1250     2.1260    -4.6820    53.5350     8.2460     7.1560     6.7080    21.9470 
  108.2500     2.1350    -4.4370    53.3150     8.4230     7.2370     6.7070    21.9720 
  108.3750     2.1610    -4.1430    53.5460     8.8400     7.4880     6.8050    22.0330 
  108.5000     2.2110    -3.7980    54.0860     9.4590     7.9110     7.2520    22.1350 
  108.6250     2.2880    -3.4000    54.5920    10.0470     8.3740     8.7890    22.3810 
  108.7500     2.3680    -2.9980    55.3400    10.2850     8.6380    11.2290    22.7740 
  108.8750     2.4290    -2.6260    56.6580     9.9680     8.5190    15.0070    23.1750 
  109.0000     2.4490    -2.3130    60.9510     9.0890     7.9620    22.0420    23.4330 
  109.1250     2.4230    -2.0960    68.6610     7.8810     7.0830    18.5310    23.5080 
  109.2500     2.3810    -1.9520    74.8260     6.7920     6.2200    10.3630    23.5080 
  109.3750     2.3430    -1.8710    76.3920     6.0660     5.5790     6.5100    23.4840 
  109.5000     2.3160    -1.8640    74.0560     5.7610     5.2440     5.6120    23.4190 
  109.6250     2.3000    -1.9570    70.7490     5.8390     5.2330     5.7030    23.3820 
  109.7500     2.2840    -2.1300    67.9820     6.0890     5.4050     5.8620    23.3360 
  109.8750     2.2670    -2.3820    67.7270     6.3790     5.6590     5.9900    23.2240 
  110.0000     2.2490    -2.7060    69.6830     6.6220     5.9090     6.1500    23.0040 
  110.1250     2.2350    -3.1070    70.0900     6.7730     6.0950     6.3820    22.7950 
  110.2500     2.2270    -3.5570    68.5630     6.8560     6.2150     6.6320    22.6750 
  110.3750     2.2270    -4.0410    66.4230     6.8950     6.2770     6.6610    22.6650 
  110.5000     2.2340    -4.5480    63.8010     6.9160     6.2970     6.5590    22.7510 
  110.6250     2.2420    -5.0450    60.0610     6.9520     6.2950     6.4860    22.9260 
  110.7500     2.2450    -5.5170    57.9050     7.0360     6.3060     6.4750    23.1390 
  110.8750     2.2380    -5.9500    59.5160     7.1920     6.3570     6.5280    23.3030 
  111.0000     2.2190    -6.3260    62.4050     7.4260     6.4650     6.5630    23.3150 
  111.1250     2.1960    -6.6190    61.3520     7.7170     6.6330     6.7800    23.1700 
  111.2500     2.1800    -6.8630    59.1510     8.0020     6.8210     7.2580    23.0470 
  111.3750     2.1740    -7.0700    58.5070     8.2290     6.9930     8.0430    22.9960 
  111.5000     2.1790    -7.2380    58.0570     8.3780     7.1220     8.8470    22.9760 
  111.6250     2.1900    -7.3550    54.0620     8.4660     7.2090     8.2800    22.9350 
  111.7500     2.2000    -7.4160    51.1360     8.5670     7.2980     7.5770    22.8870 
  111.8750     2.2090    -7.4120    54.0500     8.7220     7.4210     7.2840    22.8710 
  112.0000     2.2150    -7.3500    59.0680     8.9220     7.5790     7.3130    22.8570 
  112.1250     2.2180    -7.2490    59.8300     9.0940     7.7250     7.2580    22.8990 
  112.2500     2.2200    -7.1120    59.2160     9.1610     7.7980     7.0680    23.0050 
  112.3750     2.2180    -6.9560    59.8050     9.0930     7.7670     6.9770    23.0700 
  112.5000     2.2130    -6.7960    60.4990     8.9330     7.6480     7.0630    22.9880 
  112.6250     2.2030    -6.6660    57.5000     8.7830     7.5090     7.4630    22.8270 
  112.7500     2.1910    -6.5830    54.1880     8.7280     7.4260     7.9670    22.7900 
  112.8750     2.1780    -6.5640    53.4430     8.7720     7.4210     8.5360    22.9200 
  113.0000     2.1690    -6.6140    54.8620     8.8590     7.4670     9.5980    23.0930 
  113.1250     2.1660    -6.7310    57.0000     8.8800     7.4990    10.9200    23.1120 
  113.2500     2.1670    -6.8900    59.0180     8.7770     7.4570    10.6520    23.0200 
  113.3750     2.1680    -7.0580    59.7930     8.5550     7.3280     8.7300    22.9520 
  113.5000     2.1680    -7.2130    58.4900     8.2710     7.1380     7.5170    22.9130 
  113.6250     2.1660    -7.3250    55.0640     8.0130     6.9440     7.1800    22.8570 
  113.7500     2.1650    -7.3860    52.4000     7.8320     6.7940     7.0260    22.8380 
  113.8750     2.1690    -7.4000    51.0540     7.7390     6.7040     6.9070    22.8690 
  114.0000     2.1760    -7.3630    52.0420     7.7180     6.6720     6.9050    22.9000 
  114.1250     2.1830    -7.2680    54.4250     7.7500     6.6900     6.9970    22.9050 
  114.2500     2.1880    -7.1300    57.2170     7.8000     6.7290     7.1090    22.8870 
  114.3750     2.1920    -6.9560    60.5270     7.8520     6.7740     7.1200    22.8420 
  114.5000     2.1940    -6.7630    63.3470     7.8920     6.8110     7.1150    22.7880 
  114.6250     2.1990    -6.5780    61.6180     7.9110     6.8300     7.1780    22.7620 
  114.7500     2.2070    -6.4210    57.4850     7.9100     6.8320     7.2470    22.7560 
  114.8750     2.2160    -6.3030    56.2030     7.8910     6.8170     7.2570    22.7570 
  115.0000     2.2240    -6.2380    58.4130     7.8550     6.7870     7.2040    22.7570 
  115.1250     2.2270    -6.2520    59.4360     7.8090     6.7450     7.1450    22.7670 
  115.2500     2.2250    -6.3400    58.2600     7.7610     6.7000     7.1040    22.7900 
  115.3750     2.2170    -6.4990    56.1990     7.7190     6.6570     7.0810    22.8120 
  115.5000     2.2060    -6.7130    54.1880     7.6860     6.6190     7.0970    22.8250 
  115.6250     2.1960    -6.9580    51.5840     7.6600     6.5860     7.1430    22.8590 
  115.7500     2.1880    -7.2030    49.8440     7.6320     6.5560     7.1850    22.9230 
  115.8750     2.1850    -7.4240    50.4500     7.6030     6.5260     7.2010    22.9920 
  116.0000     2.1860    -7.6110    52.6860     7.5780     6.5000     7.1730    23.0290 
  116.1250     2.1920    -7.7550    54.6930     7.5800     6.4930     7.1390    23.0400 
  116.2500     2.1990    -7.8570    55.2860     7.6230     6.5180     7.0240    23.0450 
  116.3750     2.2050    -7.9220    56.7450     7.7140     6.5800     6.8880    23.0470 
  116.5000     2.2090    -7.9500    59.9940     7.8400     6.6760     6.8360    23.0500 
  116.6250     2.2100    -7.9320    61.6880     7.9720     6.7870     6.8900    23.0430 
  116.7500     2.2100    -7.8910    59.5300     8.0740     6.8840     6.9710    23.0130 
  116.8750     2.2080    -7.8420    56.1960     8.1240     6.9460     7.0630    22.9640 
  117.0000     2.2040    -7.7780    54.9780     8.1170     6.9660     7.1670    22.9050 
  117.1250     2.1980    -7.6880    55.0780     8.0630     6.9410     7.2850    22.8290 
  117.2500     2.1910    -7.5890    53.2410     7.9930     6.8940     7.4230    22.7500 
  117.3750     2.1820    -7.4890    50.7770     7.9230     6.8360     7.5510    22.6880 
