~V
VERS. 2.00: Ver 2.00
~W
STRT.M 40.0000:
STOP.M 206.0000:
STEP.M 0.1250:
NULL. -999.2500:
UWI. F10149:
~C
DEPT.M :
SP.MV :
DEN.GM/CC :
GR.API :
RML.OHMM :
RI. :
RXO.OHMM :
CALI.CM :
~A
# ...
  141.2500   -14.1690     2.1840    55.1920    19.6170    14.8160    19.9260    24.8400 
  141.3750   -14.1890     2.1990    58.4180    20.0220    15.2990    20.8230    24.5890 
  141.5000   -14.2640     2.2160    62.1140    19.8840    15.4940    20.0540    24.3850 
  141.6250   -14.3600     2.2300    62.9330    19.3170    15.3670    19.2610    24.3170 
  141.7500   -14.4770     2.2380    63.6500    18.6630    15.0620    19.0480    24.2970 
  141.8750   -14.5770     2.2410    64.0600    18.1180    14.6900    18.9930    24.2520 
  142.0000   -14.6610     2.2400    63.1650    17.7740    14.3390    17.8390    24.1380 
  142.1250   -14.7780     2.2370    63.1660    17.6170    14.0730    16.5460    24.0070 
  142.2500   -14.8740     2.2340    64.9030    17.5070    13.8760    16.0620    24.0040 
  142.3750   -14.9430     2.2320    67.1280    17.3590    13.7140    16.3190    24.0440 
  142.5000   -14.9720     2.2340    69.0170    17.1050    13.5430    16.3350    24.0490 
  142.6250   -14.9960     2.2380    70.2840    16.7010    13.3160    15.9640    24.0130 
  142.7500   -14.9870     2.2430    69.2300    16.2320    13.0400    15.4290    23.9610 
  142.8750   -14.9780     2.2450    66.7180    15.7910    12.7530    14.7630    23.9240 
  143.0000   -14.9840     2.2460    66.8810    15.4780    12.5160    14.6460    23.9370 
  143.1250   -14.9410     2.2460    68.7760    15.4040    12.4180    14.8340    23.9590 
  143.2500   -14.8830     2.2450    70.0190    15.5580    12.4700    14.8400    23.9540 
  143.3750   -14.8350     2.2440    72.1310    15.9160    12.6760    15.0920    23.9140 
  143.5000   -14.7520     2.2390    75.4190    16.4250    13.0240    15.3760    23.8660 
  143.6250   -14.6500     2.2250    75.1300    16.9880    13.4950    16.1380    23.8380 
  143.7500   -14.5540     2.2070    72.4250    17.4270    13.9720    16.6130    23.8320 
  143.8750   -14.4210     2.1880    72.2120    17.5310    14.2870    16.8340    23.8430 
  144.0000   -14.2520     2.1730    75.1940    17.0520    14.2280    17.3110    23.8910 
  144.1250   -14.0610     2.1710    78.9870    15.7150    13.5510    17.6300    24.0030 
  144.2500   -13.8670     2.1790    81.7470    13.8720    12.4290    17.0460    24.1360 
  144.3750   -13.6640     2.1960    81.3950    12.0250    11.1160    15.3110    24.2340 
  144.5000   -13.4890     2.2160    76.6470    10.6550     9.8950    12.5450    24.2590 
  144.6250   -13.3530     2.2350    72.2750    10.0770     9.0310    11.1720    24.2210 
  144.7500   -13.1990     2.2480    72.2510    10.0440     8.5530    11.3490    24.1880 
  144.8750   -13.0860     2.2570    75.9170    10.3250     8.4470    12.0580    24.1670 
  145.0000   -13.0370     2.2630    79.4210    10.7580     8.6650    12.1090    24.1510 
  145.1250   -13.0390     2.2640    78.9410    11.2980     9.1420    13.2960    24.1310 
  145.2500   -13.0550     2.2620    74.2310    11.8870     9.7070    14.2150    24.1220 
  145.3750   -13.1000     2.2590    69.1130    12.4570    10.2550    14.3250    24.1220 
  145.5000   -13.1350     2.2570    68.0460    12.9500    10.7220    14.5740    24.1520 
  145.6250   -13.1520     2.2580    71.7890    13.3370    11.0430    15.6250    24.2630 
  145.7500   -13.2020     2.2610    76.0180    13.6440    11.2100    16.4570    24.4200 
  145.8750   -13.2160     2.2650    76.5670    13.8500    11.2220    16.6430    24.5230 
  146.0000   -13.2080     2.2660    73.2270    13.8910    11.0920    16.2300    24.5490 
  146.1250   -13.2230     2.2610    69.7260    13.6740    10.8400    15.6210    24.5170 
  146.2500   -13.2170     2.2540    68.5140    13.2980    10.5600    15.0510    24.4900 
  146.3750   -13.1880     2.2460    69.2430    12.8930    10.3230    14.4980    24.5050 
  146.5000   -13.2020     2.2390    69.6940    12.5670    10.1620    14.5910    24.5760 
  146.6250   -13.2000     2.2370    69.2330    12.3750    10.0660    14.5320    24.6050 
  146.7500   -13.2080     2.2400    68.7920    12.2630     9.9940    14.6350    24.5830 
  146.8750   -13.2570     2.2480    69.9620    12.1840     9.9380    14.7170    24.5220 
  147.0000   -13.2810     2.2610    71.9160    12.1480     9.9280    14.4040    24.4540 
  147.1250   -13.2830     2.2730    70.3500    12.3000    10.0690    14.0160    24.3950 
  147.2500   -13.3300     2.2790    68.9860    12.7660    10.4260    14.3940    24.3440 
  147.3750   -13.3870     2.2790    70.9970    13.6570    11.0460    15.8650    24.3120 
  147.5000   -13.4460     2.2730    73.9800    15.0020    11.9340    17.4610    24.3000 
  147.6250   -13.5020     2.2640    73.2170    16.7030    13.0290    17.9690    24.3030 
  147.7500   -13.5280     2.2560    70.6420    18.3430    14.1080    18.8160    24.3340 
  147.8750   -13.5310     2.2500    70.4070    19.4970    14.9410    20.7210    24.4220 
  148.0000   -13.5560     2.2450    72.3730    19.8750    15.3430    22.8060    24.5380 
  148.1250   -13.5500     2.2360    71.6070    19.4250    15.2240    22.7530    24.5910 
  148.2500   -13.5380     2.2210    67.2540    18.6710    14.8410    21.4260    24.5860 
  148.3750   -13.5480     2.2010    63.5380    17.9840    14.4270    20.0870    24.5670 
  148.5000   -13.5310     2.1810    64.7750    17.5330    14.1670    19.8880    24.5590 
  148.6250   -13.5680     2.1730    68.1020    17.2930    14.1680    19.1460    24.5590 
  148.7500   -13.6350     2.1780    68.1880    17.0630    14.2910    18.8340    24.5590 
  148.8750   -13.7020     2.1950    66.6940    16.7330    14.3470    18.6070    24.5520 
  149.0000   -13.7450     2.2170    68.1730    16.2440    14.1520    18.0960    24.5320 
  149.1250   -13.8520     2.2350    73.6800    15.5110    13.5860    16.6400    24.4870 
  149.2500   -13.9340     2.2460    78.1880    14.5680    12.8070    14.4510    24.4390 
  149.3750   -13.9980     2.2500    78.6530    13.5210    11.9760    12.4520    24.3960 
  149.5000   -14.1110     2.2480    75.6250    12.5230    11.2250    11.6920    24.3740 
  149.6250   -14.1650     2.2450    74.3990    11.7090    10.6300    11.5760    24.3580 
  149.7500   -14.1970     2.2450    78.5380    11.0540    10.1500    11.3720    24.3130 
  149.8750   -14.2380     2.2490    85.2450    10.4950     9.7560    10.9920    24.2350 
  150.0000   -14.2700     2.2560    87.4860    10.0020     9.4330    10.4500    24.1500 
  150.1250   -14.3040     2.2630    81.9630     9.6900     9.2110     9.9140    24.0650 
  150.2500   -14.3520     2.2680    76.5650     9.6650     9.1020     9.6400    23.9880 
  150.3750   -14.3920     2.2720    76.2310     9.8910     9.0940     9.8680    23.9280 
  150.5000   -14.3920     2.2760    80.0900    10.1520     9.1230    10.4700    23.8940 
  150.6250   -14.4040     2.2840    81.8950    10.1510     9.0670    10.8720    23.8770 
  150.7500   -14.4320     2.2950    80.3730     9.8620     8.8600    11.0020    23.8910 
  150.8750   -14.4730     2.3060    79.7770     9.4620     8.5320    11.0050    23.9600 
  151.0000   -14.5200     2.3120    81.5450     9.2330     8.2180    10.8100    24.0800 
  151.1250   -14.5250     2.3070    81.5790     9.5270     8.1820    10.7360    24.1830 
  151.2500   -14.5230     2.2920    76.9760    10.4790     8.6190    11.6040    24.3030 
  151.3750   -14.5540     2.2720    71.4930    12.2320     9.7290    14.0020    24.5090 
  151.5000   -14.6240     2.2490    68.9640    14.8680    11.6790    18.9900    24.7900 
  151.6250   -14.7200     2.2260    67.7990    18.3390    14.6210    26.7250    24.9410 
  151.7500   -14.8350     2.2080    65.9620    21.8970    18.0220    35.1650    24.9890 
  151.8750   -14.9400     2.1990    63.5790    24.7250    21.1280    38.2630    24.9930 
  152.0000   -15.0820     2.1990    61.7200    26.2500    23.1780    37.0910    24.9930 
  152.1250   -15.2650     2.2060    61.0530    26.3740    23.7460    34.8610    24.9930 
  152.2500   -15.4450     2.2140    62.1040    25.9030    23.4940    33.2880    24.9930 
  152.3750   -15.6110     2.2210    65.0050    25.3050    22.8980    33.3960    24.9930 
