~V
VERS. 2.00: Ver 2.00
~W
STRT.M 55.0000:
STOP.M 224.0000:
STEP.M 0.1250:
NULL. -999.2500:
UWI. F10137:
~C
DEPT.M :
DEN.GM/CC :
SP.MV :
GR.API :
RML.OHMM :
RI. :
RXO.OHMM :
CALI.CM :
~A
   55.0000  -999.2500    39.2560  -999.2500  -999.2500  -999.2500  -999.2500  -999.2500 
   55.1250  -999.2500    39.1960  -999.2500  -999.2500  -999.2500  -999.2500  -999.2500 
   55.2500  -999.2500    39.1110  -999.2500  -999.2500  -999.2500  -999.2500  -999.2500 
   55.3750  -999.2500    39.0950  -999.2500  -999.2500  -999.2500  -999.2500  -999.2500 
   55.5000  -999.2500    39.2030  -999.2500  -999.2500  -999.2500  -999.2500  -999.2500 
   55.6250  -999.2500    39.3280  -999.2500  -999.2500  -999.2500  -999.2500  -999.2500 
   55.7500  -999.2500    39.3890  -999.2500  -999.2500  -999.2500  -999.2500  -999.2500 
   55.8750  -999.2500    39.4050  -999.2500  -999.2500  -999.2500  -999.2500  -999.2500 
   56.0000  -999.2500    39.3910  -999.2500  -999.2500  -999.2500  -999.2500  -999.2500 
   56.1250  -999.2500    39.3610  -999.2500  -999.2500  -999.2500  -999.2500  -999.2500 
   56.2500  -999.2500    39.3900  -999.2500  -999.2500  -999.2500  -999.2500  -999.2500 
   56.3750  -999.2500    39.3920  -999.2500  -999.2500  -999.2500  -999.2500  -999.2500 
   56.5000  -999.2500    39.2630  -999.2500  -999.2500  -999.2500  -999.2500  -999.2500 
   56.6250  -999.2500    39.0540  -999.2500  -999.2500  -999.2500  -999.2500  -999.2500 
   56.7500  -999.2500    38.8290  -999.2500  -999.2500  -999.2500  -999.2500  -999.2500 
   56.8750  -999.2500    38.5980  -999.2500  -999.2500  -999.2500  -999.2500  -999.2500 
   57.0000  -999.2500    38.3910  -999.2500  -999.2500  -999.2500  -999.2500  -999.2500 
   57.1250  -999.2500    38.2010  -999.2500  -999.2500  -999.2500  -999.2500  -999.2500 
   57.2500  -999.2500    37.9620  -999.2500  -999.2500  -999.2500  -999.2500  -999.2500 
   57.3750  -999.2500    37.6710  -999.2500  -999.2500  -999.2500  -999.2500  -999.2500 
   57.5000  -999.2500    37.3710  -999.2500  -999.2500  -999.2500  -999.2500  -999.2500 
   57.6250  -999.2500    37.0890  -999.2500  -999.2500  -999.2500  -999.2500  -999.2500 
   57.7500  -999.2500    36.8190  -999.2500  -999.2500  -999.2500  -999.2500  -999.2500 
   57.8750  -999.2500    36.5500     0.0000     0.0000     0.0000     0.0000     0.0000 
   58.0000  -999.2500    36.2610     0.0000     0.0000     0.0000     0.0000     0.0000 
   58.1250  -999.2500    35.9420     0.0000     0.0000     0.0000     0.0000     0.0000 
   58.2500     1.8960    35.6100     0.0000     0.0000     0.0000     0.0000     0.0000 
   58.3750     1.8960    35.2510    25.9120     0.9420     0.4600     0.0020    15.3920 
   58.5000     1.8930    34.8500    44.0720     1.5750     0.7650     0.0020    25.6520 
   58.6250     1.8850    34.4080    45.5520     1.5880     0.7630     0.0030    25.6520 
   58.7500     1.8720    33.9250    45.5190     1.5940     0.7600     0.0040    25.6530 
   58.8750     1.8480    33.3900    43.0420     1.5620     0.7560     0.0030    25.6540 
   59.0000     1.8160    32.7940    40.1170     1.4920     0.7600     0.0010    25.6540 
   59.1250     1.7930    32.1540    38.6270     1.4080     0.7760     0.0010    25.6540 
   59.2500     1.7960    31.4750    38.0640     1.3460     0.8050     0.0020    25.6540 
   59.3750     1.8210    30.7570    37.7510     1.3340     0.8390     0.0040    25.6540 
   59.5000     1.8460    30.0360    38.3360     1.3650     0.8660     0.0050    25.6540 
   59.6250     1.8610    29.3320    39.6340     1.4090     0.8830     0.0040    25.6540 
   59.7500     1.8790    28.6650    40.6200     1.4390     0.8920     0.0060    25.6540 
   59.8750     1.9120    28.0640    40.7270     1.4450     0.8990     0.0150    25.6540 
   60.0000     1.9520    27.5390    39.6820     1.4390     0.9040     0.0230    25.6540 
   60.1250     1.9800    27.0770    37.9390     1.4340     0.9080     0.0250    25.6540 
   60.2500     1.9890    26.6720    37.0260     1.4320     0.9120     0.0280    25.6540 
   60.3750     1.9850    26.3150    37.7440     1.4260     0.9160     0.0310    25.6580 
   60.5000     1.9760    25.9840    39.0360     1.4160     0.9180     0.0200    25.6710 
   60.6250     1.9630    25.6580    40.0340     1.4080     0.9200     0.0060    25.6890 
   60.7500     1.9500    25.3130    40.7190     1.4030     0.9210     0.0010    25.6960 
   60.8750     1.9480    24.9370    40.6030     1.3900     0.9210     0.0000    25.6810 
   61.0000     1.9610    24.5230    39.8660     1.3610     0.9220     0.0000    25.6630 
   61.1250     1.9770    24.0620    39.5620     1.3190     0.9230     0.0000    25.6560 
   61.2500     1.9770    23.5430    39.7230     1.2730     0.9240     0.0000    25.6540 
   61.3750     1.9530    22.9660    39.4280     1.2320     0.9270     0.0000    25.6540 
   61.5000     1.9230    22.3310    38.9460     1.1960     0.9300     0.0000    25.6540 
   61.6250     1.9120    21.6370    39.4030     1.1600     0.9320     0.0000    25.6540 
   61.7500     1.9270    20.8900    41.2170     1.1220     0.9330     0.0000    25.6540 
   61.8750     1.9480    20.0570    43.6090     1.0790     0.9330     0.0000    25.6550 
   62.0000     1.9540    19.1140    45.9130     1.0300     0.9340     0.0000    25.6560 
   62.1250     1.9430    18.0770    47.3530     0.9810     0.9370     0.0000    25.6550 
   62.2500     1.9270    16.9410    46.5400     0.9380     0.9420     0.0000    25.6540 
   62.3750     1.9170    15.6870    43.0010     0.9120     0.9460     0.0000    25.6540 
   62.5000     1.9120    14.2920    38.8280     0.8980     0.9450     0.0000    25.6540 
   62.6250     1.9110    12.7540    36.4730     0.8780     0.9260     0.0000    25.6540 
   62.7500     1.9200    11.0660    36.2240     0.8260     0.8720     0.0000    25.6540 
   62.8750     1.9420     9.1880    36.6840     0.7330     0.7740     0.0000    25.6540 
   63.0000     1.9670     7.1060    36.8760     0.6270     0.6550     0.0000    25.6510 
   63.1250     1.9840     4.8200    36.3030     0.5390     0.5490     0.0010    25.6420 
   63.2500     1.9920     2.3550    35.4140     0.4840     0.4720     0.0040    25.6300 
   63.3750     2.0070    -0.2540    36.0470     0.4720     0.4290     0.0190    25.7300 
   63.5000     2.0380    -2.9430    38.4670     0.5010     0.4160     0.0870    26.1740 
   63.6250     2.0550    -5.6800    40.8680     0.5650     0.4290     0.4680    27.0530 
   63.7500     2.0460    -8.4560    41.8590     0.6610     0.4860     1.5310    27.8720 
   63.8750     2.0270   -11.2070    42.1820     0.8020     0.6420     3.3080    27.8920 
   64.0000     1.9830   -13.8260    43.3570     1.0330     0.9720     5.1600    27.7820 
   64.1250     1.8830   -16.2340    45.3720     1.4380     1.5490     6.3120    28.6200 
   64.2500     1.7410   -18.4120    46.8950     2.1000     2.4090     6.7090    30.0720 
   64.3750     1.6310   -20.3300    46.4990     2.9450     3.4720     6.7590    31.1130 
   64.5000     1.5910   -21.9960    45.6930     3.7120     4.5450     6.5570    31.1210 
   64.6250     1.6160   -23.4060    47.0610     4.2750     5.4900     6.2850    29.8590 
   64.7500     1.6940   -24.5360    50.5740     4.7240     6.2910     6.5940    27.7360 
   64.8750     1.8100   -25.3720    53.7470     5.1590     6.9550     7.9030    26.1170 
   65.0000     1.9250   -25.9910    55.4580     5.5860     7.4710     9.4770    25.5110 
   65.1250     1.9980   -26.4500    56.8540     5.9500     7.8220    10.3630    25.4410 
   65.2500     2.0250   -26.7850    58.2430     6.2020     8.0050    10.5720    25.4870 
   65.3750     2.0300   -27.0310    58.4430     6.3170     8.0450    10.6340    25.4620 
   65.5000     2.0380   -27.2000    57.3220     6.3290     8.0070    10.6740    25.3550 
   65.6250     2.0530   -27.3370    56.1290     6.2930     7.9450    10.6610    25.2500 
   65.7500     2.0700   -27.4530    56.1700     6.2620     7.8870    10.5680    25.1710 
   65.8750     2.0840   -27.5400    57.0250     6.2990     7.8480    10.4430    25.0850 
   66.0000     2.0920   -27.5910    58.3530     6.4280     7.8320    10.2720    24.9790 
   66.1250     2.0960   -27.6130    60.4210     6.6120     7.8330    10.0660    24.9010 
