~V
VERS. 2.00: Ver 2.00
~W
STRT.M 40.0000:
STOP.M 206.0000:
STEP.M 0.1250:
NULL. -999.2500:
UWI. F10149:
~C
DEPT.M :
SP.MV :
DEN.GM/CC :
GR.API :
RML.OHMM :
RI. :
RXO.OHMM :
CALI.CM :
~A
# ...
  175.0000   -21.3990     2.3300    50.5120   365.7220   290.8520   249.8450    24.2060 
  175.1250   -20.8720     2.4430    50.6030   413.1060   337.2230   458.1030    24.0180 
  175.2500   -20.3430     2.5490    52.7180   434.4620   371.8150   846.7710    23.9450 
  175.3750   -19.8040     2.6280    52.8340   399.1650   370.0570   984.2220    23.9280 
  175.5000   -19.2630     2.6720    49.8460   334.1640   318.2510   593.7140    23.9230 
  175.6250   -18.7270     2.6770    46.6800   241.5250   230.0240   245.7080    23.9670 
  175.7500   -18.2340     2.6600    46.0450   153.5020   146.1930    88.9790    24.1380 
  175.8750   -17.7780     2.6310    48.2740    89.0500    84.8090    50.8060    24.4200 
  176.0000   -17.3160     2.5980    52.8720    49.4900    47.1330    49.1920    24.6930 
  176.1250   -16.8930     2.5620    57.5880    29.6780    28.2650    33.1750    24.7650 
  176.2500   -16.5530     2.5170    60.3730    19.1310    18.2200    19.1730    24.7720 
  176.3750   -16.3220     2.4670    61.5270    13.6300    12.9810    12.8670    24.8140 
  176.5000   -16.1930     2.4180    60.8630    10.7810    10.2670    10.5920    24.8400 
  176.6250   -16.1590     2.3870    58.7920     9.4800     9.0290    10.2900    24.7900 
  176.7500   -16.2080     2.3810    58.4600     8.8960     8.4730    10.1420    24.7610 
  176.8750   -16.3800     2.3950    60.6920     8.7630     8.3460     9.7420    24.7480 
  177.0000   -16.7110     2.4150    61.7170     8.9260     8.5010     9.3160    24.7260 
  177.1250   -17.1680     2.4180    58.7700     9.3340     8.8890     9.2360    24.7120 
  177.2500   -17.6480     2.3980    57.9010    10.0450     9.4290     9.7510    24.7020 
  177.3750   -18.0970     2.3600    60.3840    10.8800    10.0470    10.5030    24.6720 
  177.5000   -18.4390     2.3200    61.4120    11.5640    10.6160    11.1830    24.5830 
  177.6250   -18.6310     2.3040    57.6540    11.9480    10.9270    11.9850    24.4800 
  177.7500   -18.7440     2.3210    53.3770    11.9500    10.9190    12.5050    24.3500 
  177.8750   -18.7740     2.3680    50.7590    11.6680    10.6220    12.6060    24.2540 
  178.0000   -18.7380     2.4220    48.9330    11.3310    10.1630    12.5360    24.2420 
  178.1250   -18.6550     2.4450    49.5820    11.1650     9.7090    12.3590    24.3120 
  178.2500   -18.5330     2.4270    52.1000    11.1400     9.3690    11.4560    24.3620 
  178.3750   -18.3930     2.3790    55.9010    11.1490     9.1650    10.6400    24.3970 
  178.5000   -18.3290     2.3270    60.9040    11.1050     9.0610    10.2240    24.4260 
  178.6250   -18.3840     2.2980    64.1770    10.9680     8.9650    10.7370    24.4630 
  178.7500   -18.4870     2.2970    61.6910    10.7670     8.7850    11.4900    24.5160 
  178.8750   -18.6140     2.3190    53.7860    10.5050     8.4890    11.0500    24.5700 
  179.0000   -18.7380     2.3480    46.5430    10.1710     8.1060    10.2500    24.6250 
  179.1250   -18.8520     2.3660    45.4800     9.7570     7.7180    10.0520    24.7060 
  179.2500   -18.9700     2.3690    46.1030     9.3960     7.4300     9.9780    24.7540 
  179.3750   -19.0920     2.3640    44.9520     9.2370     7.3220     9.8350    24.7760 
  179.5000   -19.2020     2.3620    42.3950     9.3640     7.4350     9.8890    24.7930 
  179.6250   -19.2750     2.3690    41.4560     9.7680     7.7810    10.3310    24.8000 
  179.7500   -19.2750     2.3830    42.0150    10.2200     8.2230    11.4420    24.8030 
  179.8750   -19.1740     2.3960    42.1120    10.4980     8.5960    12.8160    24.7960 
  180.0000   -18.9270     2.4050    42.3550    10.4180     8.7190    13.3090    24.7650 
  180.1250   -18.5030     2.4060    44.6840     9.8850     8.4140    11.7360    24.6850 
  180.2500   -17.9630     2.4050    47.6950     9.1190     7.8040    10.1120    24.5810 
  180.3750   -17.3170     2.4000    48.3990     8.3060     7.0600     8.7710    24.4590 
  180.5000   -16.5950     2.3880    47.0200     7.2210     6.3540     7.8210    24.3420 
  180.6250   -15.8400     2.3660    48.1180     6.7040     5.8280     7.1030    24.2290 
  180.7500   -15.0940     2.3400    52.1280     6.3530     5.4980     6.6780    24.1770 
  180.8750   -14.4030     2.3170    56.4270     6.1800     5.3510     6.8490    24.1500 
  181.0000   -13.8180     2.3050    57.9750     6.1940     5.3600     7.2810    24.1360 
  181.1250   -13.3510     2.3080    58.8430     6.4020     5.5060     7.4840    24.1480 
  181.2500   -12.9610     2.3170    63.0180     6.7170     5.7240     7.3690    24.2190 
  181.3750   -12.6390     2.3260    68.2550     7.0550     5.9670     7.2690    24.3410 
  181.5000   -12.3660     2.3270    70.8920     7.3240     6.1770     7.5330    24.4340 
  181.6250   -12.0770     2.3190    70.0340     7.4360     6.2860     7.9910    24.4650 
  181.7500   -11.8040     2.3050    71.6830     7.4180     6.2860     8.2170    24.4690 
  181.8750   -11.5360     2.2890    76.1880     7.3360     6.1970     8.0530    24.4710 
  182.0000   -11.2490     2.2790    77.3110     7.2640     6.0740     7.8900    24.4720 
  182.1250   -10.9790     2.2800    72.3300     7.2720     5.9880     7.8960    24.4710 
  182.2500   -10.7390     2.2950    66.8000     7.3590     5.9700     8.1400    24.4670 
  182.3750   -10.5360     2.3190    64.0080     7.4840     6.0120     9.2070    24.4510 
  182.5000   -10.3700     2.3440    63.0710     7.5800     6.0760    10.2760    24.4120 
  182.6250   -10.2710     2.3590    64.6290     7.5570     6.0960     9.3870    24.3590 
  182.7500   -10.1990     2.3590    67.7640     7.4110     6.0420     7.9430    24.3300 
  182.8750   -10.1360     2.3450    69.0230     7.1860     5.9220     6.9320    24.3250 
  183.0000   -10.1380     2.3260    67.4350     6.9770     5.7780     6.5970    24.3370 
  183.1250   -10.1610     2.3090    65.5380     6.8940     5.6690     7.0200    24.3820 
  183.2500   -10.1530     2.2980    64.5460     6.9290     5.6150     7.7560    24.4050 
  183.3750   -10.1410     2.2910    62.9300     7.0190     5.6050     7.9550    24.3700 
  183.5000   -10.1010     2.2870    60.5080     7.0860     5.6120     7.4390    24.2550 
  183.6250   -10.0660     2.2860    59.2890     7.0720     5.6120     7.0300    24.1120 
  183.7500   -10.0400     2.2880    58.5330     7.0160     5.5970     7.0850    24.0560 
  183.8750    -9.9820     2.2940    58.6340     6.9740     5.5740     7.5390    24.1090 
  184.0000    -9.8630     2.3010    60.2490     6.9790     5.5530     8.2000    24.2120 
  184.1250    -9.7290     2.3110    62.4380     7.0150     5.5440     8.1140    24.3320 
  184.2500    -9.6010     2.3220    62.9700     7.0290     5.5390     8.3570    24.3630 
  184.3750    -9.4770     2.3340    61.5650     6.9910     5.5250     8.4790    24.3100 
  184.5000    -9.4120     2.3460    60.1970     6.9070     5.4950     7.4220    24.2030 
  184.6250    -9.3480     2.3560    60.0510     6.8330     5.4580     6.8010    24.1150 
  184.7500    -9.2380     2.3610    60.2990     6.8360     5.4530     6.6970    24.0930 
  184.8750    -9.1460     2.3620    60.4830     6.9440     5.5090     6.8200    24.1940 
  185.0000    -9.1000     2.3610    59.2210     7.1450     5.6300     6.9470    24.3750 
  185.1250    -9.0590     2.3600    57.5480     7.3810     5.7790     7.0910    24.4700 
  185.2500    -9.0480     2.3580    57.8150     7.5620     5.8940     7.4030    24.3520 
  185.3750    -9.0290     2.3490    59.3570     7.6320     5.9340     7.8310    24.1530 
  185.5000    -8.9480     2.3360    58.3970     7.5840     5.8980     7.5790    24.0440 
  185.6250    -8.8590     2.3270    54.2480     7.4900     5.8400     7.0180    24.0370 
  185.7500    -8.8320     2.3300    52.2520     7.4500     5.8330     6.9740    24.1160 
  185.8750    -8.8230     2.3480    54.8540     7.5010     5.9020     7.7030    24.3030 
  186.0000    -8.7710     2.3730    59.8400     7.6240     6.0290     8.2460    24.4390 
  186.1250    -8.7420     2.3900    63.1500     7.7560     6.1640     8.4550    24.4960 
