~V
VERS. 2.00: Ver 2.00
~W
STRT.M 50.0000:
STOP.M 207.0000:
STEP.M 0.1250:
NULL. -999.2500:
UWI. F10134:
~C
DEPT.M :
SP.MV :
DEN.GM/CC :
GR.API :
RML.OHMM :
RI. :
RXO.OHMM :
CALI.CM :
~A
# ...
   83.7500    -3.1780     2.1200    60.1030    10.1870     6.9940     9.0550    24.7500 
   83.8750    -3.0820     2.1350    59.6820    10.7000     7.3550    11.3850    25.0020 
   84.0000    -2.9770     2.1520    60.6830    10.9960     7.5790    14.5910    25.2980 
   84.1250    -2.8500     2.1580    61.6120    10.8670     7.5160    11.8400    25.4950 
   84.2500    -2.7120     2.1470    61.2240    10.4160     7.2300     8.8960    25.5550 
   84.3750    -2.5830     2.1230    59.2220     9.8280     6.8350     7.4950    25.5540 
   84.5000    -2.4990     2.0970    56.2920     9.3310     6.4780     7.1770    25.5040 
   84.6250    -2.4880     2.0770    53.8470     9.1990     6.3290     7.2790    25.3190 
   84.7500    -2.5450     2.0720    53.9920     9.4720     6.4320     7.5020    25.0750 
   84.8750    -2.6770     2.0940    56.5590    10.0870     6.7660     7.8010    24.9430 
   85.0000    -2.8610     2.1500    58.8790    10.8770     7.2470     8.4440    25.0260 
   85.1250    -3.0600     2.2260    58.7990    11.5720     7.7270    10.7290    25.2400 
   85.2500    -3.2380     2.2790    57.6190    11.9290     8.0400    13.5930    25.3970 
   85.3750    -3.3640     2.2870    56.2190    11.8280     8.0850    12.6930    25.4540 
   85.5000    -3.4250     2.2540    56.7590    11.3370     7.8690     9.8780    25.4540 
   85.6250    -3.4110     2.2110    60.1220    10.6880     7.4900     8.4690    25.4970 
   85.7500    -3.3410     2.1800    62.9710    10.1450     7.1160     8.1410    25.6150 
   85.8750    -3.2090     2.1600    63.5690     9.8050     6.8330     8.2320    25.7760 
   86.0000    -3.0300     2.1370    64.2380     9.6490     6.6620     8.5650    25.9180 
   86.1250    -2.8230     2.1050    66.0130     9.5690     6.5740     8.6970    25.9930 
   86.2500    -2.5900     2.0670    65.8510     9.4570     6.5070     8.0940    26.0270 
   86.3750    -2.3350     2.0270    62.5720     9.2990     6.4360     7.3260    26.0400 
   86.5000    -2.0540     1.9930    59.6110     9.1250     6.3620     6.8950    26.0420 
   86.6250    -1.7360     1.9790    61.2300     8.9820     6.3010     6.8360    26.0170 
   86.7500    -1.3910     1.9910    66.4990     8.8940     6.2690     6.9520    25.9410 
   86.8750    -1.0330     2.0270    71.7710     8.8600     6.2780     7.0320    25.8240 
   87.0000    -0.6650     2.0740    73.3290     8.8670     6.3240     6.7390    25.6820 
   87.1250    -0.2810     2.1060    71.1340     8.8960     6.3870     6.3760    25.5470 
   87.2500     0.1290     2.1150    70.4120     8.9390     6.4310     6.5580    25.4470 
   87.3750     0.5600     2.1090    71.9760     8.9880     6.4320     6.7910    25.4080 
   87.5000     1.0190     2.1050    73.2810     9.0230     6.3800     6.9140    25.4400 
   87.6250     1.5100     2.1190    72.2410     9.0020     6.2740     6.8810    25.5460 
   87.7500     2.0190     2.1500    72.5940     8.8930     6.1340     6.6930    25.6840 
   87.8750     2.5080     2.1910    75.5850     8.6730     5.9770     6.3890    25.7990 
   88.0000     2.9460     2.2320    79.1750     8.3710     5.8200     6.1430    25.8470 
   88.1250     3.2700     2.2580    83.7730     8.1000     5.6980     6.0130    25.8450 
   88.2500     3.4580     2.2670    88.5740     7.9870     5.6430     6.0100    25.8480 
   88.3750     3.4990     2.2620    89.2460     8.0950     5.6810     6.0000    25.8480 
   88.5000     3.3950     2.2480    83.5600     8.4320     5.8210     6.0360    25.7780 
   88.6250     3.1410     2.2300    74.4300     8.9650     6.0650     6.2500    25.5550 
   88.7500     2.7970     2.2090    68.3690     9.5400     6.3580     7.1730    25.2800 
   88.8750     2.4080     2.1870    66.8220    10.0250     6.6390     9.3140    25.1020 
   89.0000     2.0240     2.1620    67.6670    10.3180     6.8420    12.7440    25.0790 
   89.1250     1.7030     2.1400    68.5070    10.3050     6.8800    13.8170    25.1480 
   89.2500     1.4860     2.1240    68.9910    10.0390     6.7640    10.5360    25.2180 
   89.3750     1.3870     2.1160    69.2110     9.6160     6.5360     8.3700    25.2830 
   89.5000     1.4050     2.1150    68.3230     9.1780     6.2700     7.3450    25.3390 
   89.6250     1.5500     2.1220    66.4790     8.8600     6.0470     6.5840    25.3760 
   89.7500     1.7720     2.1330    64.5800     8.6770     5.8980     6.1480    25.3960 
   89.8750     2.0300     2.1460    62.1310     8.5910     5.8180     6.1760    25.4290 
   90.0000     2.2890     2.1570    60.7840     8.5390     5.7800     6.4110    25.5180 
   90.1250     2.5230     2.1600    63.9820     8.4640     5.7480     6.3270    25.6600 
   90.2500     2.7370     2.1570    68.1380     8.3690     5.6970     6.1540    25.7700 
   90.3750     2.9500     2.1530    70.0770     8.2790     5.6300     6.0800    25.8080 
   90.5000     3.1470     2.1490    70.7040     8.2050     5.5610     6.0450    25.8050 
   90.6250     3.3190     2.1480    72.1450     8.1470     5.5110     6.0530    25.8020 
   90.7500     3.4570     2.1470    71.7690     8.1010     5.4880     6.2790    25.7950 
   90.8750     3.5470     2.1450    70.1630     8.0700     5.4930     6.6410    25.7810 
   91.0000     3.5700     2.1430    69.0510     8.0680     5.5220     6.7010    25.7610 
   91.1250     3.4610     2.1440    66.5830     8.1220     5.5770     6.7030    25.7260 
   91.2500     3.2230     2.1490    63.0750     8.2310     5.6520     6.7250    25.6500 
   91.3750     2.8540     2.1570    61.8030     8.3890     5.7430     6.7520    25.4710 
   91.5000     2.3860     2.1670    65.0270     8.5770     5.8420     6.8540    25.1850 
   91.6250     1.8620     2.1740    68.3060     8.7690     5.9410     7.1010    24.9190 
   91.7500     1.3200     2.1770    67.7840     8.9340     6.0260     7.2810    24.7920 
   91.8750     0.8110     2.1740    65.1320     9.0430     6.0840     7.3650    24.7800 
   92.0000     0.3750     2.1670    62.6200     9.0670     6.0990     7.4330    24.7900 
   92.1250     0.0710     2.1600    61.6970     8.9660     6.0570     7.5670    24.7890 
   92.2500    -0.1160     2.1550    62.7460     8.7890     5.9900     7.5820    24.7950 
   92.3750    -0.2020     2.1530    64.8090     8.6310     5.9380     7.4140    24.8110 
   92.5000    -0.1980     2.1570    65.4970     8.6050     5.9370     7.2270    24.8260 
   92.6250    -0.0990     2.1670    64.4060     8.8160     6.0240     7.0960    24.8270 
   92.7500     0.0730     2.1810    63.6880     9.1830     6.1830     7.2010    24.8410 
   92.8750     0.3160     2.1970    63.2040     9.5850     6.3860     7.6110    24.8930 
   93.0000     0.6240     2.2080    61.9630     9.9000     6.5930     8.2240    24.9680 
   93.1250     1.0110     2.2110    60.6450    10.0350     6.7540     8.6840    25.0120 
   93.2500     1.4780     2.2080    60.5660    10.0080     6.8330     9.0560    25.0160 
   93.3750     2.0260     2.2040    62.9260     9.8110     6.7960     9.0550    25.0200 
   93.5000     2.6420     2.2040    68.2770     9.4260     6.6240     8.2820    25.0870 
   93.6250     3.3340     2.2180    73.6450     8.8180     6.3020     7.5830    25.2460 
   93.7500     4.1070     2.2440    76.5560     8.0830     5.8910     6.8210    25.4280 
   93.8750     4.9470     2.2740    78.6760     7.3360     5.4480     5.8180    25.5660 
   94.0000     5.8290     2.3000    81.0390     6.7150     5.0420     5.0750    25.6390 
   94.1250     6.6870     2.3130    82.7550     6.3670     4.7540     4.7880    25.6460 
   94.2500     7.4550     2.3180    83.8690     6.2910     4.6080     4.6960    25.5970 
   94.3750     8.0680     2.3190    85.0590     6.4830     4.6250     4.7120    25.5250 
   94.5000     8.4750     2.3190    86.1460     6.9080     4.8120     4.8920    25.4720 
   94.6250     8.5860     2.3150    87.5410     7.5180     5.1690     5.4300    25.4640 
   94.7500     8.4490     2.3030    87.8730     8.1770     5.6110     5.9140    25.4660 
   94.8750     8.1060     2.2830    85.1070     8.7620     6.0540     6.1280    25.4470 
