~V
VERS. 2.00: Ver 2.00
~W
STRT.M 50.0000:
STOP.M 223.0000:
STEP.M 0.1250:
NULL. -999.2500:
UWI. F10135:
~C
DEPT.M :
SP.MV :
DEN.GM/CC :
GR.API :
RML.OHMM :
RI. :
RXO.OHMM :
CALI.CM :
~A
# ...
  185.0000   -22.4010     2.3650   107.8140     7.9670     7.1910     8.0530    24.0280 
  185.1250   -22.5900     2.3780   106.8580     8.3220     7.4670     8.4430    23.9810 
  185.2500   -22.6050     2.3930   103.0660     8.7740     7.8430     9.2420    23.9020 
  185.3750   -22.4780     2.4060    97.9220     9.2750     8.2850    10.5360    23.8440 
  185.5000   -22.2470     2.4150    95.7740     9.7450     8.7310    11.5360    23.8240 
  185.6250   -21.9520     2.4230   100.0190    10.0480     9.0660    10.4020    23.8240 
  185.7500   -21.5750     2.4350   103.3810    10.1110     9.2040    10.4440    23.8240 
  185.8750   -21.0600     2.4520   100.4890     9.8990     9.0930    10.8560    23.8240 
  186.0000   -20.3840     2.4730    94.3170     9.4350     8.7310    11.0650    23.8240 
  186.1250   -19.5110     2.4910    95.2500     8.7910     8.1600     9.7950    23.8240 
  186.2500   -18.5150     2.5030   103.4490     8.1290     7.5220     8.6260    23.8240 
  186.3750   -17.4790     2.5060   113.2060     7.5750     6.9320     7.6970    23.8110 
  186.5000   -16.4580     2.4990   120.1360     7.2460     6.4970     7.3020    23.7610 
  186.6250   -15.4670     2.4830   121.3060     7.3020     6.3690     6.6660    23.6530 
  186.7500   -14.5100     2.4680   118.3170     7.7380     6.5760     6.1570    23.5770 
  186.8750   -13.6450     2.4640   111.8980     8.5240     7.1350     6.5550    23.5500 
  187.0000   -12.9160     2.4730   105.8490     9.5290     7.9940     8.0750    23.5450 
  187.1250   -12.4020     2.4880   105.5210    10.4620     8.9690    11.1770    23.5290 
  187.2500   -12.0180     2.4970   108.1860    10.9910     9.7260    12.7520    23.4940 
  187.3750   -11.6300     2.4900   109.7140    10.9120     9.9940    11.7970    23.4420 
  187.5000   -11.1510     2.4700   109.4870    10.2250     9.6620    10.0110    23.4090 
  187.6250   -10.5140     2.4500   109.2680     9.1140     8.7950     8.0410    23.4010 
  187.7500    -9.7920     2.4400   103.8240     7.9700     7.7640     6.7080    23.3800 
  187.8750    -9.0110     2.4380    89.3910     7.0020     6.8000     5.7660    23.2850 
  188.0000    -8.1590     2.4350    73.2920     6.2950     6.0350     5.1800    23.0480 
  188.1250    -7.2170     2.4160    65.2260     5.8780     5.5390     4.9140    22.7600 
  188.2500    -6.2600     2.3820    63.7400     5.6480     5.2420     4.8160    22.5270 
  188.3750    -5.4130     2.3460    66.2890     5.5370     5.0940     4.8320    22.4190 
  188.5000    -4.7270     2.3230    71.9960     5.4860     5.0360     5.0970    22.3920 
  188.6250    -4.2120     2.3200    78.8990     5.4510     5.0230     5.2270    22.3890 
  188.7500    -3.8170     2.3280    83.8460     5.4160     5.0210     5.1370    22.4180 
  188.8750    -3.5040     2.3350    85.9970     5.3930     5.0260     4.9930    22.5890 
  189.0000    -3.2420     2.3410    87.1380     5.4010     5.0510     4.9660    23.0010 
  189.1250    -3.0390     2.3480    90.8740     5.4590     5.1120     5.1300    23.4200 
  189.2500    -2.8540     2.3600    95.4830     5.5420     5.2020     5.3390    23.5900 
  189.3750    -2.6740     2.3690    96.7760     5.6200     5.2990     5.5100    23.6220 
  189.5000    -2.4960     2.3670    95.2380     5.6530     5.3700     5.5890    23.6220 
  189.6250    -2.3230     2.3520    93.9630     5.6060     5.3690     5.5850    23.6070 
  189.7500    -2.1260     2.3350    93.0320     5.4950     5.2930     5.4130    23.5560 
  189.8750    -1.9060     2.3250    88.9430     5.3500     5.1550     5.1120    23.4660 
  190.0000    -1.6890     2.3210    83.1280     5.2050     4.9850     4.8120    23.3940 
  190.1250    -1.5250     2.3180    80.1620     5.0900     4.8180     4.6200    23.3470 
  190.2500    -1.4870     2.3130    77.8840     5.0050     4.6780     4.6140    23.3320 
  190.3750    -1.5080     2.3110    75.0480     4.9450     4.5700     4.6670    23.3280 
  190.5000    -1.5230     2.3170    73.8580     4.9070     4.4940     4.7070    23.3280 
  190.6250    -1.5540     2.3300    77.3890     4.9170     4.4590     4.7680    23.3280 
  190.7500    -1.6780     2.3450    81.4170     5.0190     4.4870     4.8670    23.3280 
  190.8750    -1.9570     2.3580    82.5340     5.2840     4.6300     5.0460    23.3280 
  191.0000    -2.3700     2.3660    82.6630     5.7870     4.9570     5.2900    23.3280 
  191.1250    -2.8580     2.3660    85.4250     6.6320     5.5860     5.6030    23.3280 
  191.2500    -3.3420     2.3560    91.1170     7.7570     6.5090     6.8360    23.3280 
  191.3750    -3.8270     2.3400    97.7240     9.0440     7.6780     9.7890    23.3280 
  191.5000    -4.3400     2.3270   100.6610    10.2860     8.9410    12.5120    23.3280 
  191.6250    -4.8440     2.3310    98.2700    11.1770    10.0060    12.9630    23.3280 
  191.7500    -5.3000     2.3500    95.6430    11.6320    10.6880    12.5390    23.3280 
  191.8750    -5.6510     2.3720    96.9060    11.7120    10.9650    12.3770    23.3280 
  192.0000    -5.9250     2.3870    99.8710    11.5860    10.9550    12.1420    23.3280 
  192.1250    -6.1290     2.3880    99.9420    11.4340    10.8320    11.5260    23.3280 
  192.2500    -6.2540     2.3820    97.4370    11.3320    10.7250    11.7040    23.3280 
  192.3750    -6.3370     2.3780    96.4600    11.2660    10.6460    12.0290    23.3280 
  192.5000    -6.4240     2.3810    99.3440    11.2270    10.5890    12.6040    23.3300 
  192.6250    -6.5460     2.3900   101.2060    11.2640    10.5890    10.8640    23.4000 
  192.7500    -6.6700     2.4010    99.5520    11.4160    10.6900    10.4820    23.5580 
  192.8750    -6.7770     2.4090    96.1460    11.6680    10.9040    10.7520    23.7130 
  193.0000    -6.8310     2.4100    92.1380    11.9270    11.1740    11.9570    23.7780 
  193.1250    -6.8250     2.4040    90.0560    12.0180    11.3670    14.7310    23.7780 
  193.2500    -6.7970     2.3940    91.2220    11.8680    11.3820    15.7300    23.7800 
  193.3750    -6.7510     2.3840    94.5380    11.5100    11.2000    12.4210    23.7780 
  193.5000    -6.6470     2.3770    95.7230    11.0830    10.9000    10.4210    23.7600 
  193.6250    -6.4590     2.3730    94.7280    10.8100    10.6590    10.7910    23.7150 
  193.7500    -6.2220     2.3700    95.5610    10.7980    10.6340    12.2030    23.6730 
  193.8750    -5.9850     2.3640    96.8290    11.2510    10.9140    13.4640    23.6310 
  194.0000    -5.7850     2.3540    95.7400    12.3110    11.5150    14.0320    23.5940 
  194.1250    -5.6180     2.3380    92.4950    13.7220    12.3810    13.7920    23.4860 
  194.2500    -5.4760     2.3210    87.9900    14.8000    13.2500    15.0770    23.3000 
  194.3750    -5.3660     2.3070    84.4310    15.1930    13.8330    16.7060    23.1770 
  194.5000    -5.2950     2.2990    84.8740    14.8860    13.8660    16.6810    23.3270 
  194.6250    -5.2640     2.3050    89.3650    13.9420    13.1750    16.3920    23.7730 
  194.7500    -5.2300     2.3230    94.4780    12.7260    12.0980    14.8240    24.1690 
  194.8750    -5.1600     2.3470    99.0100    11.6000    10.9780    10.9040    24.3250 
  195.0000    -5.0190     2.3680   104.3800    10.8080    10.0920     8.5610    24.3410 
  195.1250    -4.7970     2.3760   106.1850    10.4550     9.5980     9.0780    24.3390 
  195.2500    -4.5330     2.3720   102.6000    10.3520     9.3740    11.5040    24.3370 
  195.3750    -4.2040     2.3620    97.7350    10.3870     9.3210    13.2830    24.3380 
  195.5000    -3.7970     2.3520    96.4760    10.5320     9.3880    11.6070    24.3390 
  195.6250    -3.3780     2.3440    96.2000    10.9300     9.6510     8.4360    24.3400 
  195.7500    -3.0210     2.3340    90.4110    11.7090    10.2130     8.7510    24.3390 
  195.8750    -2.7140     2.3190    80.9570    12.9590    11.2000    12.5440    24.3370 
  196.0000    -2.4650     2.2960    75.5080    14.6290    12.6600    16.5600    24.3370 
  196.1250    -2.2780     2.2730    76.2010    16.4620    14.4970    18.5860    24.3370 
