~V
VERS. 2.00: Ver 2.00
~W
STRT.M 50.0000:
STOP.M 236.0000:
STEP.M 0.1250:
NULL. -999.2500:
UWI. F10144:
~C
DEPT.M :
DEN.GM/CC :
GR.API :
RML.OHMM :
RI. :
RXO.OHMM :
CALI.CM :
SP.MV :
~A
# ...
  230.0000     2.3120    56.4210     8.0200     7.2910     9.0270    24.8150   -14.0280 
  230.1250     2.1750    56.4210     8.0200     7.2910     7.7590    24.7220   -14.1090 
  230.2500     2.0150    56.4210     8.0200     7.2910     7.5750    24.5330   -14.1730 
  230.3750     1.8710    56.4210     8.0200     7.2910     7.7330    24.2180   -14.1940 
  230.5000     1.7610    56.4210     8.0200     7.2910     7.8700    23.7420   -14.2420 
  230.6250     1.6900    56.4210     8.0200     7.2910     7.9560    23.2030   -14.2890 
  230.7500     1.6590    56.4210     8.0200     7.2910     8.2140    22.8290   -14.3250 
  230.8750     1.6490    56.4210     8.0200     7.2910     8.3290    22.6970   -14.3320 
  231.0000     1.6490    56.4210     8.0200     7.2910     8.3480    22.7010   -14.3390 
  231.1250     1.6500    56.4210     8.0200     7.2910     8.3450    22.7090  -999.2500 
  231.2500     1.6520    56.4210     8.0200     7.2910     8.3430    22.7070  -999.2500 
  231.3750     1.6520    56.4210     8.0200     7.2910     8.3420    22.7060  -999.2500 
  231.5000     1.6510    56.4210     8.0200     7.2910     8.3420    22.7080  -999.2500 
  231.6250     1.6480    56.4210     8.0200     7.2910     8.3410    22.7100  -999.2500 
  231.7500     1.6450    56.4210     8.0200     7.2910     8.3410    22.7080  -999.2500 
  231.8750     1.6430    56.4210     8.0200     7.2910     8.3420    22.7010  -999.2500 
  232.0000     1.6440    56.4210     8.0200     7.2910     8.3420    22.6970  -999.2500 
  232.1250     1.6460    56.4210     8.0200     7.2910     8.3390    22.6990  -999.2500 
  232.2500     1.6480    56.4210     8.0200     7.2910     8.3340    22.7030  -999.2500 
  232.3750     1.6500    56.4210     8.0200     7.2910     8.3320    22.7030  -999.2500 
  232.5000     1.6510    56.4210     8.0200     7.2910     8.3330    22.7010  -999.2500 
  232.6250     1.6500    56.4210     8.0200     7.2910     8.3330    22.7020  -999.2500 
  232.7500     1.6500    56.4210     8.0200     7.2910     8.3330    22.7030  -999.2500 
  232.8750     1.6490    56.4210     8.0200     7.2910     8.3320    22.7030  -999.2500 
  233.0000     1.6490    56.4210     8.0200     7.2910     8.3300    22.7010  -999.2500 
  233.1250     1.6500    56.4210     8.0200     7.2910     8.3250    22.7010  -999.2500 
  233.2500     1.6520    56.4210     8.0200     7.2910     8.3200    22.7010  -999.2500 
  233.3750     1.6530    56.4210     8.0200     7.2910     8.3180    22.7030  -999.2500 
  233.5000     1.6520    56.4210     8.0200     7.2910     8.3170    22.7050  -999.2500 
  233.6250     1.6490  -999.2500  -999.2500  -999.2500  -999.2500  -999.2500  -999.2500 
  233.7500     1.6460  -999.2500  -999.2500  -999.2500  -999.2500  -999.2500  -999.2500 
  233.8750     1.6430  -999.2500  -999.2500  -999.2500  -999.2500  -999.2500  -999.2500 
  234.0000     1.6430  -999.2500  -999.2500  -999.2500  -999.2500  -999.2500  -999.2500 
  234.1250     1.6430  -999.2500  -999.2500  -999.2500  -999.2500  -999.2500  -999.2500 
  234.2500     1.6440  -999.2500  -999.2500  -999.2500  -999.2500  -999.2500  -999.2500 
  234.3750     1.6440  -999.2500  -999.2500  -999.2500  -999.2500  -999.2500  -999.2500 
  234.5000     1.6450  -999.2500  -999.2500  -999.2500  -999.2500  -999.2500  -999.2500 
  234.6250     1.6460  -999.2500  -999.2500  -999.2500  -999.2500  -999.2500  -999.2500 
  234.7500     1.6470  -999.2500  -999.2500  -999.2500  -999.2500  -999.2500  -999.2500 
  234.8750     1.6480  -999.2500  -999.2500  -999.2500  -999.2500  -999.2500  -999.2500 
  235.0000     1.6480  -999.2500  -999.2500  -999.2500  -999.2500  -999.2500  -999.2500 
  235.1250     1.6480  -999.2500  -999.2500  -999.2500  -999.2500  -999.2500  -999.2500 
  235.2500     1.6490  -999.2500  -999.2500  -999.2500  -999.2500  -999.2500  -999.2500 
  235.3750     1.6510  -999.2500  -999.2500  -999.2500  -999.2500  -999.2500  -999.2500 
  235.5000     1.6540  -999.2500  -999.2500  -999.2500  -999.2500  -999.2500  -999.2500 
  235.6250     1.6560  -999.2500  -999.2500  -999.2500  -999.2500  -999.2500  -999.2500 
  235.7500     1.6570  -999.2500  -999.2500  -999.2500  -999.2500  -999.2500  -999.2500 
  235.8750     1.6570  -999.2500  -999.2500  -999.2500  -999.2500  -999.2500  -999.2500 
  236.0000     1.6590  -999.2500  -999.2500  -999.2500  -999.2500  -999.2500  -999.2500 
