~V
VERS. 2.00: Ver 2.00
~W
STRT.M 50.0000:
STOP.M 223.0000:
STEP.M 0.1250:
NULL. -999.2500:
UWI. F10135:
~C
DEPT.M :
SP.MV :
DEN.GM/CC :
GR.API :
RML.OHMM :
RI. :
RXO.OHMM :
CALI.CM :
~A
# ...
   61.2500   239.8230     2.0340    44.0050    10.7010     0.2270     1.2300    25.7560 
   61.3750   236.8890     2.0290    44.8820    11.2410     0.2260     1.2410    25.7400 
   61.5000   232.6800     2.0270    42.5940    11.6710     0.2280     1.1420    25.6920 
   61.6250   226.7000     2.0330    44.2600    11.0830     0.2290     1.1670    25.6960 
   61.7500   219.3960     2.0480    44.8920     9.3100     0.2280     1.2110    25.7280 
   61.8750   210.9300     2.0670    44.1630     6.9690     0.2250     1.2000    25.7620 
   62.0000   201.4310     2.0820    45.3860     5.0130     0.2210     1.2130    25.7680 
   62.1250   191.1150     2.0840    46.0760     4.0410     0.2180     1.2680    25.7670 
   62.2500   180.4540     2.0760    45.2930     3.8840     0.2180     1.2770    25.7630 
   62.3750   169.7980     2.0680    45.4800     4.5620     0.2230     1.2230    25.7640 
   62.5000   159.8010     2.0770    47.1660     6.2670     0.2290     1.1980    25.7720 
   62.6250   150.7190     2.1160    47.4020     9.5350     0.2340     1.2830    25.7760 
   62.7500   142.3370     2.1720    44.6240    12.9040     0.2330     1.3690    25.7860 
   62.8750   134.6910     2.2230    41.9190    13.5990     0.2240     1.3620    25.8100 
   63.0000   127.6310     2.2490    42.7720    10.1970     0.2080     1.2980    25.8320 
   63.1250   121.0170     2.2560    45.3420     4.8590     0.1860     1.3040    25.8410 
   63.2500   114.7350     2.2840    46.4830     1.2770     0.1630     1.3250    25.8410 
   63.3750   108.6460     2.3610    46.7040    -0.0850     0.1430     1.3780    25.8400 
   63.5000   102.2540     2.4770    47.5100    -0.4230     0.1290     1.4170    25.8380 
   63.6250    94.9960     2.5680    50.2950    -0.4810     0.1230     1.2690    25.8430 
   63.7500    86.4380     2.5730    54.4210    -0.4210     0.1320     1.0230    25.8700 
   63.8750    76.3870     2.4800    60.4580    -0.2440     0.1820     1.1370    26.0130 
   64.0000    65.3420     2.3290    67.8550     0.1030     0.3140     1.6560    26.3680 
   64.1250    54.1950     2.1980    72.6300     0.8080     0.6170     2.7900    26.8850 
   64.2500    43.3450     2.1310    73.5810     1.9090     1.1160     3.3160    26.9760 
   64.3750    32.9710     2.1280    74.1030     3.2160     1.7950     3.6520    26.5480 
   64.5000    23.4420     2.1590    77.5330     4.3260     2.5720     4.4320    25.9000 
   64.6250    15.4880     2.1940    81.6150     4.8960     3.3080     5.6540    25.5530 
   64.7500     9.3900     2.2160    83.0090     5.1920     3.9140     6.4550    25.4140 
   64.8750     5.3600     2.2230    83.8490     5.5180     4.3640     6.9060    25.3520 
   65.0000     3.0090     2.2190    85.9530     5.9770     4.6660     7.0440    25.2980 
   65.1250     1.5680     2.2100    88.1460     6.4140     4.8180     7.0350    24.8450 
   65.2500     0.4990     2.2000    89.0480     6.6280     4.8730     7.0210    24.9870 
   65.3750    -0.3280     2.1910    89.4290     6.5570     4.8690     6.9570    25.0530 
   65.5000    -1.0300     2.1840    91.2710     6.2880     4.8400     6.8440    25.0670 
   65.6250    -1.5270     2.1810    93.8050     5.9980     4.8070     6.9130    25.0560 
   65.7500    -1.8500     2.1790    94.2000     5.8080     4.7780     6.9420    25.0000 
   65.8750    -2.1180     2.1790    90.6970     5.7380     4.7570     6.8760    24.9440 
   66.0000    -2.3460     2.1780    86.9020     5.7730     4.7540     6.6410    24.9330 
   66.1250    -2.5510     2.1830    87.2330     5.9130     4.7910     6.2670    24.9330 
   66.2500    -2.7880     2.2000    88.8820     6.1230     4.8670     6.1960    24.9330 
   66.3750    -2.9750     2.2310    86.8630     6.3640     4.9700     6.3360    24.9330 
   66.5000    -3.0290     2.2700    83.2800     6.5700     5.0710     6.5770    24.9400 
   66.6250    -3.0600     2.2990    84.0960     6.6470     5.1260     6.9190    24.9890 
   66.7500    -3.1410     2.3050    87.8190     6.5780     5.1220     7.1030    25.1330 
   66.8750    -3.2400     2.2910    90.7220     6.3920     5.0630     6.8180    25.2770 
   67.0000    -3.4180     2.2650    90.3680     6.1560     4.9740     6.4440    25.3200 
   67.1250    -3.6320     2.2410    86.1370     5.9570     4.8890     6.6470    25.2880 
   67.2500    -3.7500     2.2230    81.5350     5.8440     4.8350     6.8540    25.1970 
   67.3750    -3.9080     2.2110    81.2050     5.8290     4.8240     6.7990    25.0950 
   67.5000    -4.2100     2.2050    85.1920     5.8970     4.8490     6.8210    24.9610 
   67.6250    -4.5270     2.2040    87.9580     6.0070     4.8870     7.0270    24.9380 
   67.7500    -4.7920     2.2050    87.9560     6.0980     4.9130     7.5490    24.9330 
   67.8750    -4.9840     2.2100    86.9560     6.1500     4.9300     7.7930    24.9330 
   68.0000    -5.0200     2.2300    85.2680     6.1840     4.9710     7.9750    24.9330 
   68.1250    -4.9360     2.2810    85.4170     6.2670     5.0960     7.5640    24.9350 
   68.2500    -4.8240     2.3540    90.7790     6.4310     5.3070     6.6840    24.9470 
   68.3750    -4.5790     2.4260    99.2960     6.6410     5.5630     6.7740    25.0230 
   68.5000    -4.2800     2.4660   103.8040     6.8030     5.7820     9.3880    25.0670 
   68.6250    -4.0900     2.4480    99.8220     6.7790     5.8570    11.2170    25.1110 
   68.7500    -3.9710     2.3890    93.9780     6.5780     5.7830     9.8240    25.1890 
   68.8750    -4.0120     2.3170    90.8900     6.2780     5.6090     7.3450    25.2160 
   69.0000    -4.3210     2.2540    89.8100     5.9830     5.4050     6.4140    25.3120 
   69.1250    -4.7950     2.2130    88.4040     5.7560     5.2250     6.6810    25.3270 
   69.2500    -5.3700     2.1920    87.5570     5.5560     5.0600     7.0040    25.3160 
   69.3750    -6.0500     2.1930    89.2920     5.3240     4.8730     7.2050    25.2210 
   69.5000    -6.5840     2.2160    95.4610     5.0280     4.6380     6.4850    25.0730 
   69.6250    -6.7990     2.2600   105.6890     4.6980     4.3630     4.9390    24.9540 
   69.7500    -6.8790     2.3090   115.1180     4.4190     4.1110     4.0980    24.9230 
   69.8750    -6.8540     2.3490   120.9540     4.2540     3.9380     3.9150    24.8440 
   70.0000    -6.6680     2.3670   122.6920     4.2280     3.8800     4.0740    24.8070 
   70.1250    -6.4570     2.3590   119.5560     4.3280     3.9510     4.2280    24.8000 
   70.2500    -6.3410     2.3370   111.8120     4.4760     4.0970     4.3990    24.8000 
   70.3750    -6.2840     2.3170   103.5180     4.6280     4.2800     4.7620    24.8050 
   70.5000    -6.4100     2.3050    99.5490     4.7720     4.4760     5.3570    24.8210 
   70.6250    -6.8400     2.3000    99.3060     4.9380     4.6850     4.9830    24.9160 
   70.7500    -7.3980     2.2910    97.8250     5.1560     4.9170     4.8670    24.9300 
   70.8750    -8.0020     2.2700    92.4330     5.4230     5.1760     5.2500    24.9380 
   71.0000    -8.6060     2.2400    85.1840     5.6930     5.4330     6.1860    24.9540 
   71.1250    -9.0310     2.2170    80.4930     5.8610     5.6100     6.5120    25.0490 
   71.2500    -9.2550     2.2150    79.9400     5.8560     5.6390     6.4070    25.0630 
   71.3750    -9.3230     2.2410    84.2950     5.6500     5.4770     6.0510    25.0670 
   71.5000    -9.1600     2.2840    93.3130     5.2740     5.1360     5.6060    25.0670 
   71.6250    -8.7610     2.3220   104.7320     4.8270     4.6820     4.7870    25.0670 
   71.7500    -8.2800     2.3390   111.0150     4.4970     4.2620     4.2970    25.0670 
   71.8750    -7.7490     2.3380   110.6790     4.4840     4.0090     4.2690    25.0670 
   72.0000    -7.2780     2.3420   108.3540     5.0390     4.0780     4.3970    25.0600 
   72.1250    -7.0480     2.3830   104.6370     6.6400     4.7950     4.6980    25.0230 
   72.2500    -7.0000     2.4650    96.5560     9.4330     6.3710     6.5350    24.9470 
   72.3750    -7.1810     2.5670    83.7800    13.4100     9.0240    12.6820    24.9350 
