~V
VERS. 2.00: Ver 2.00
~W
STRT.M 56.0000:
STOP.M 352.0000:
STEP.M 0.1250:
NULL. -999.2500:
UWI. F10109:
~C
DEPT.M :
DEN.GM/CC :
SP.MV :
GR.API :
RML.OHMM :
RI. :
RXO.OHMM :
CALI.CM :
~A
   56.0000     2.3360  -999.2500    42.0440     8.7020     0.5080     0.2990    24.9710 
   56.1250     2.4100  -999.2500    40.2960     8.9500     0.4970     0.3140    24.9320 
   56.2500     2.4690  -999.2500    41.4860     9.1220     0.4880     0.3320    24.8530 
   56.3750     2.5140  -999.2500    43.9750     9.1340     0.4820     0.3460    24.7530 
   56.5000     2.5480  -999.2500    45.7310     8.9330     0.4800     0.3520    24.6530 
   56.6250     2.5690  -999.2500    45.0060     8.5290     0.4830     0.3460    24.5600 
   56.7500     2.5750  -999.2500    43.8620     8.1010     0.4860     0.3460    24.5070 
   56.8750     2.5600  -999.2500    44.3160     7.7760     0.4880     0.3540    24.5180 
   57.0000     2.5170  -999.2500    45.6310     7.5650     0.4900     0.3610    24.5960 
   57.1250     2.4400  -999.2500    45.3250     7.3970     0.4900     0.3600    24.6450 
   57.2500     2.3420  -999.2500    44.1900     7.1890     0.4900     0.3540    24.6180 
   57.3750     2.2360  -999.2500    43.9680     6.9210     0.4910     0.3520    24.4790 
   57.5000     2.1410  -999.2500    44.3800     6.6330     0.4920     0.3520    24.1970 
   57.6250     2.0920  -999.2500    44.0740     6.3980     0.4940     0.3570    23.8040 
   57.7500     2.1060  -999.2500    44.0960     6.2340     0.4980     0.3760    23.5200 
   57.8750     2.1820  -999.2500    45.2460     6.1070     0.5030     0.4050    23.4050 
   58.0000     2.2880  -999.2500    47.7270     5.9660     0.5080     0.4350    23.3780 
   58.1250     2.3500  -999.2500    50.4520     5.7550     0.5130     0.4540    23.3780 
   58.2500     2.3450  -999.2500    52.0990     5.4900     0.5170     0.4620    23.3940 
   58.3750     2.2930  -999.2500    53.3450     5.2280     0.5180     0.4670    23.4110 
   58.5000     2.2290  -999.2500    54.9090     5.0460     0.5160     0.4780    23.4220 
   58.6250     2.1800  -999.2500    55.7790     5.0220     0.5140     0.4940    23.4640 
   58.7500     2.1490  -999.2500    54.8300     5.1210     0.5130     0.5010    23.5320 
   58.8750     2.1340  -999.2500    53.3480     5.2790     0.5140     0.5040    23.5980 
   59.0000     2.1300  -999.2500    54.1830     5.4240     0.5160     0.4980    23.6550 
   59.1250     2.1340  -999.2500    57.2790     5.4940     0.5150     0.4810    23.7040 
   59.2500     2.1420  -999.2500    59.5980     5.4870     0.5120     0.4580    23.7520 
   59.3750     2.1520  -999.2500    59.5760     5.4270     0.5070     0.4360    23.7790 
   59.5000     2.1640  -999.2500    58.5950     5.3420     0.5010     0.4150    23.8010 
   59.6250     2.1840  -999.2500    57.5500     5.2650     0.4950     0.3950    23.8130 
   59.7500     2.2120  -999.2500    55.4480     5.2200     0.4900     0.3710    23.7920 
   59.8750     2.2490  -999.2500    53.5260     5.2150     0.4860     0.3470    23.7320 
   60.0000     2.2940  -999.2500    53.1400     5.2320     0.4830     0.3340    23.6520 
   60.1250     2.3430  -999.2500    52.3910     5.2310     0.4820     0.3330    23.5640 
   60.2500     2.3890  -999.2500    50.3000     5.1880     0.4830     0.3360    23.4970 
   60.3750     2.4250  -999.2500    47.5570     5.1160     0.4840     0.3380    23.4580 
   60.5000     2.4440  -999.2500    44.8210     5.0410     0.4830     0.3410    23.4280 
   60.6250     2.4400  -999.2500    43.3760     4.9900     0.4790     0.3460    23.3890 
   60.7500     2.4190    79.4080    44.7860     4.9510     0.4710     0.3530    23.3360 
   60.8750     2.3810    79.4180    47.1040     4.9040     0.4610     0.3610    23.2910 
   61.0000     2.3300    79.3750    47.9590     4.8480     0.4510     0.3810    23.2520 
   61.1250     2.2670    79.2790    49.2330     4.8240     0.4440     0.4370    23.2200 
   61.2500     2.2020    79.1900    52.3930     4.8720     0.4410     0.5590    23.2040 
   61.3750     2.1440    79.1380    54.9080     4.9990     0.4410     0.7660    23.2040 
   61.5000     2.1030    79.1320    55.4180     5.1640     0.4430     1.0180    23.1900 
   61.6250     2.0810    79.2300    54.4820     5.2900     0.4420     1.2640    23.1510 
   61.7500     2.0680    79.4840    52.5460     5.3300     0.4370     1.4110    23.1120 
   61.8750     2.0560    79.9360    49.8360     5.2940     0.4280     1.4860    23.0610 
   62.0000     2.0410    80.6040    48.3760     5.2420     0.4180     1.5120    22.9680 
   62.1250     2.0250    81.4490    48.0710     5.2530     0.4110     1.5450    22.8990 
   62.2500     2.0100    82.3800    46.5960     5.3410     0.4070     1.5580    22.8770 
   62.3750     2.0000    83.3460    45.0380     5.4680     0.4060     1.5200    22.8670 
   62.5000     1.9940    84.3320    45.3310     5.5710     0.4080     1.4540    22.8670 
   62.6250     1.9880    85.3200    47.1480     5.5670     0.4120     1.3900    22.9730 
   62.7500     1.9790    86.3040    48.2940     5.4560     0.4170     1.2990    23.2180 
   62.8750     1.9650    87.2990    48.1860     5.2740     0.4200     1.1990    23.6190 
   63.0000     1.9500    88.3290    46.6040     5.0840     0.4210     1.1680    24.2210 
   63.1250     1.9380    89.4570    44.1610     4.9440     0.4220     1.1710    24.9760 
   63.2500     1.9330    90.7500    43.4260     4.8560     0.4220     1.1100    25.5650 
   63.3750     1.9360    92.2780    44.9240     4.7970     0.4230     1.0170    25.8220 
   63.5000     1.9410    94.0610    45.6980     4.7410     0.4250     0.9550    25.8860 
   63.6250     1.9430    96.1010    42.7570     4.6840     0.4260     0.9060    25.9060 
   63.7500     1.9410    98.3140    39.5250     4.6450     0.4260     0.8570    25.9170 
   63.8750     1.9360   100.6350    39.6750     4.6290     0.4270     0.8190    25.9170 
   64.0000     1.9320   102.9730    42.1690     4.6270     0.4280     0.8130    25.9280 
   64.1250     1.9290   105.2500    43.1040     4.6110     0.4290     0.8170    25.9240 
   64.2500     1.9280   107.3400    42.6680     4.5730     0.4310     0.8170    25.9130 
   64.3750     1.9280   109.0740    42.6710     4.5340     0.4330     0.8210    25.9160 
   64.5000     1.9290   110.3390    42.8480     4.5250     0.4360     0.8300    25.9290 
   64.6250     1.9330   110.9900    41.3830     4.5790     0.4390     0.8400    25.9240 
   64.7500     1.9400   111.1020    41.0870     4.6810     0.4420     0.8450    25.9110 
   64.8750     1.9510   110.6450    43.0890     4.8040     0.4440     0.8400    25.9120 
   65.0000     1.9650   109.6410    44.7780     4.9120     0.4460     0.8290    25.9280 
   65.1250     1.9790   108.1080    43.5080     4.9540     0.4460     0.8150    25.9290 
   65.2500     1.9900   106.2810    41.1090     4.9160     0.4470     0.7990    25.9120 
   65.3750     1.9940   104.3480    40.6100     4.8050     0.4480     0.7750    25.8940 
   65.5000     1.9920   102.4470    41.7150     4.6510     0.4480     0.7260    25.8630 
   65.6250     1.9830   100.7250    42.8280     4.5040     0.4450     0.6270    25.8170 
   65.7500     1.9730    99.1870    43.4380     4.3850     0.4410     0.5210    25.7800 
   65.8750     1.9670    97.9130    43.3280     4.2810     0.4370     0.4700    25.7750 
   66.0000     1.9710    96.9450    43.5840     4.1640     0.4360     0.5070    25.7750 
   66.1250     1.9860    96.2280    44.7380     3.9900     0.4430     0.6340    25.7670 
   66.2500     2.0090    95.5750    46.2270     3.7500     0.4570     0.7540    25.7700 
   66.3750     2.0340    94.8610    47.3040     3.4600     0.4780     0.7980    25.7700 
   66.5000     2.0570    94.0110    47.8640     3.1570     0.5060     0.7830    25.7480 
   66.6250     2.0790    92.9470    48.3040     2.8840     0.5420     0.6890    25.7070 
   66.7500     2.1100    91.7290    47.4220     2.6430     0.5870     0.5320    25.6230 
   66.8750     2.1540    90.3830    45.1590     2.4100     0.6430     0.3860    25.4700 
   67.0000     2.2140    88.9470    43.3360     2.1660     0.7010     0.3160    25.3040 
   67.1250     2.2920    87.5070    44.6970     1.9190     0.7420     0.2600    25.1720 
