~V
VERS. 2.00: Ver 2.00
~W
STRT.M 30.0000:
STOP.M 209.0000:
STEP.M 0.1250:
NULL. -999.2500:
UWI. F10150:
~C
DEPT.M :
SP.MV :
DEN.GM/CC :
GR.API :
RML.OHMM :
RI. :
RXO.OHMM :
CALI.CM :
~A
# ...
  120.0000   -30.9220     1.7680    60.6810    10.8010    10.2390    13.2600    25.6070 
  120.1250   -29.4400     1.7710    65.0930    10.9120    10.2930    11.1730    24.8020 
  120.2500   -27.9700     1.8440    66.4820    11.2610    10.4750    10.6350    24.2370 
  120.3750   -26.5730     1.9700    65.8230    12.0390    10.9290    10.8520    23.9640 
  120.5000   -25.2380     2.1230    66.9020    13.4080    11.7940    11.8970    23.8920 
  120.6250   -23.9910     2.2680    70.9550    15.5660    13.2880    14.6950    23.8700 
  120.7500   -22.9180     2.3840    73.0260    18.3740    15.3800    16.5270    23.8090 
  120.8750   -22.0050     2.4670    71.2990    21.7270    18.0340    16.4730    23.7270 
  121.0000   -21.1710     2.5250    66.6190    25.4610    21.1270    17.7830    23.6710 
  121.1250   -20.4580     2.5640    61.0990    29.3560    24.4470    23.1460    23.6610 
  121.2500   -19.8370     2.5910    55.1810    33.1470    27.7090    26.8260    23.6610 
  121.3750   -19.2610     2.6080    48.3420    36.6630    30.7590    27.6860    23.6600 
  121.5000   -18.7770     2.6140    42.5760    39.7640    33.4870    28.1620    23.6430 
  121.6250   -18.4190     2.6150    40.3760    42.1930    35.7130    30.3150    23.6120 
  121.7500   -18.1040     2.6170    39.8870    43.8440    37.3670    32.3810    23.5790 
  121.8750   -17.8670     2.6240    39.1280    44.4940    38.2770    31.9960    23.5730 
  122.0000   -17.7680     2.6340    39.7630    43.9600    38.2650    30.6010    23.6110 
  122.1250   -17.7580     2.6410    43.8730    42.0990    37.1410    30.5660    23.6890 
  122.2500   -17.7790     2.6410    47.1990    39.4710    35.3020    31.2520    23.8010 
  122.3750   -17.8410     2.6340    48.5860    36.5420    33.1070    30.1280    23.9520 
  122.5000   -17.9430     2.6230    48.4950    33.7040    30.8830    26.8110    24.1900 
  122.6250   -18.1240     2.6140    46.8950    31.1710    28.8310    24.2010    24.4150 
  122.7500   -18.3540     2.6100    45.0360    28.8070    26.8860    22.1670    24.5100 
  122.8750   -18.5840     2.6030    45.0860    26.4940    24.9560    20.8120    24.4960 
  123.0000   -18.8450     2.5840    47.8800    24.2420    23.0540    21.2870    24.4190 
  123.1250   -19.1450     2.5460    50.7780    22.2900    21.3610    20.7680    24.3030 
  123.2500   -19.4600     2.5010    50.9280    20.8330    20.0340    17.6120    24.1770 
  123.3750   -19.7980     2.4660    47.6550    20.0070    19.1970    14.2350    24.0530 
  123.5000   -20.1060     2.4540    43.4130    19.8100    18.8940    13.9380    23.9720 
  123.6250   -20.3150     2.4710    44.3420    20.1350    19.1030    15.8820    23.9490 
  123.7500   -20.5050     2.4990    48.5060    20.6340    19.5450    17.8680    23.9700 
  123.8750   -20.6730     2.5220    50.5830    21.0920    20.0130    18.2170    23.9760 
  124.0000   -20.7450     2.5310    49.2590    21.3830    20.3490    17.3070    23.9110 
  124.1250   -20.7800     2.5290    47.8060    21.4920    20.4780    16.1690    23.8030 
  124.2500   -20.8050     2.5280    47.7500    21.5680    20.5220    15.0710    23.8090 
  124.3750   -20.7620     2.5350    48.1240    21.6880    20.5730    15.0200    23.9500 
  124.5000   -20.6890     2.5460    49.7150    21.8160    20.6330    16.1810    24.1740 
  124.6250   -20.6480     2.5490    51.7920    21.7950    20.5810    17.6340    24.3740 
  124.7500   -20.6140     2.5360    51.6420    21.5640    20.3440    17.8470    24.4990 
  124.8750   -20.5530     2.5100    48.3090    21.1810    19.9530    17.4440    24.5400 
  125.0000   -20.5340     2.4820    44.1270    20.8210    19.5470    16.3540    24.4830 
  125.1250   -20.5730     2.4700    44.8730    20.7620    19.3560    14.3620    24.3080 
  125.2500   -20.5820     2.4760    49.2910    21.1060    19.4910    13.1060    24.0400 
  125.3750   -20.6280     2.4960    54.2620    21.8620    19.9870    13.3770    23.7640 
  125.5000   -20.6970     2.5120    56.9150    22.9480    20.8150    15.4910    23.6410 
  125.6250   -20.7110     2.5110    57.4650    24.1860    21.8790    18.3760    23.7840 
  125.7500   -20.7270     2.4940    57.6980    25.2630    22.9080    18.7720    23.9890 
  125.8750   -20.7710     2.4720    56.6970    25.9030    23.6320    19.0530    24.0630 
  126.0000   -20.7870     2.4620    54.0450    25.8920    23.8110    20.8240    23.9300 
  126.1250   -20.7760     2.4720    51.1090    25.0800    23.2420    22.8370    23.8260 
  126.2500   -20.7740     2.4960    50.4250    23.8200    22.2030    20.8060    23.8880 
  126.3750   -20.7540     2.5190    53.0830    22.4620    20.9990    17.5460    24.0140 
  126.5000   -20.7670     2.5310    56.3270    21.3110    19.9090    15.6250    24.0320 
  126.6250   -20.8570     2.5300    58.9020    20.5750    19.1360    14.9590    23.9320 
  126.7500   -20.9130     2.5240    61.0620    20.1730    18.6500    15.1130    23.8550 
  126.8750   -20.9550     2.5180    61.6670    20.0040    18.3950    15.6540    23.7850 
  127.0000   -21.0460     2.5160    59.1980    19.9600    18.2860    15.7670    23.7030 
  127.1250   -21.0910     2.5180    55.3340    19.9880    18.2670    15.0290    23.6580 
  127.2500   -21.1150     2.5240    54.4670    20.0790    18.3100    14.5640    23.6440 
  127.3750   -21.1760     2.5310    55.5630    20.2430    18.4180    15.0090    23.6420 
  127.5000   -21.1970     2.5390    54.8190    20.4460    18.5700    15.5800    23.6480 
  127.6250   -21.1610     2.5450    51.7460    20.6070    18.7000    14.9280    23.6840 
  127.7500   -21.1470     2.5480    48.8840    20.6780    18.7540    14.1190    23.7560 
  127.8750   -21.1470     2.5420    47.7360    20.6470    18.7140    14.0790    23.8690 
  128.0000   -21.1030     2.5190    49.2140    20.5070    18.5800    14.5300    24.0710 
  128.1250   -21.0920     2.4730    51.8880    20.1900    18.3160    15.3520    24.3740 
  128.2500   -21.1120     2.4200    52.2530    19.6510    17.8940    14.7810    24.4840 
  128.3750   -21.0900     2.3750    50.1720    18.8760    17.2910    13.3360    24.2580 
  128.5000   -21.0960     2.3510    48.1960    17.9680    16.5610    11.9480    23.9820 
  128.6250   -21.1420     2.3590    49.6130    17.1920    15.8870    10.9660    23.8660 
  128.7500   -21.1470     2.3820    52.3240    16.7650    15.4540    10.3660    23.8370 
  128.8750   -21.1410     2.4070    54.3940    16.7580    15.3510    10.4850    23.8250 
  129.0000   -21.1360     2.4230    55.4030    17.0790    15.5460    11.3130    23.8220 
  129.1250   -21.1070     2.4250    56.3240    17.4760    15.8720    12.8320    23.8350 
  129.2500   -21.0780     2.4180    57.6950    17.6300    16.0540    13.7650    23.8760 
  129.3750   -21.0440     2.4070    58.6790    17.3760    15.9220    13.7010    23.9640 
  129.5000   -20.9820     2.4010    59.7420    16.7520    15.4580    12.7150    24.1190 
  129.6250   -20.9080     2.4010    62.7070    15.9910    14.8020    11.6370    24.3390 
  129.7500   -20.8350     2.4030    66.1210    15.3920    14.2080    10.5230    24.5260 
  129.8750   -20.7660     2.3980    68.5860    15.0790    13.8040     9.8090    24.6280 
  130.0000   -20.7610     2.3830    70.4780    15.0520    13.6300     9.4520    24.6910 
  130.1250   -20.7710     2.3610    72.6660    15.2390    13.6630     9.1290    24.7150 
  130.2500   -20.7720     2.3440    74.9330    15.4570    13.7670     9.8280    24.6120 
  130.3750   -20.8320     2.3400    76.7260    15.5810    13.8370    11.2650    24.3840 
  130.5000   -20.9240     2.3510    77.3020    15.5450    13.8030    12.3480    24.1640 
  130.6250   -20.9860     2.3720    76.1990    15.3670    13.6610    12.4430    24.1040 
  130.7500   -21.0600     2.3910    74.4100    15.2180    13.5250    11.8810    24.1400 
  130.8750   -21.1340     2.4010    72.4960    15.2880    13.5240    10.9900    24.1700 
  131.0000   -21.1290     2.3950    70.3250    15.7740    13.8000    10.7800    24.2650 
  131.1250   -21.0710     2.3680    69.1450    16.9280    14.5670    12.0110    24.4510 
