~V
VERS. 2.00: Ver 2.00
~W
STRT.M 52.0000:
STOP.M 322.0000:
STEP.M 0.1250:
NULL. -999.2500:
UWI. F10105:
~C
DEPT.M :
GR.API :
RML.OHMM :
RI. :
RXO.OHMM :
CALI.CM :
DEN.GM/CC :
SP.MV :
~A
# ...
  310.7500    85.7590     8.3840     7.7250    12.4570    26.2230     2.2740    -9.4100 
  310.8750    85.2160     8.3410     7.6720    10.5100    26.2190     2.2840    -9.5740 
  311.0000    86.6900     8.3040     7.6230     9.3920    26.2330     2.2970    -9.6160 
  311.1250    86.6900     8.3290     7.6380     9.5260    26.2430     2.3100    -9.5010 
  311.2500    86.6900     8.4010     7.7080     9.7200    26.2520     2.3190    -9.2680 
  311.3750    86.6900     8.4720     7.7900     9.8860    26.2490     2.3230    -9.0070 
  311.5000    86.6900     8.4760     7.8190    10.0000    26.2300     2.3210    -8.7840 
  311.6250    86.6900     8.3410     7.7210    10.0030    26.2640     2.3160    -8.6710 
  311.7500    86.6900     8.0970     7.5140     9.5930    26.2820     2.3110    -8.7070 
  311.8750    86.6900     7.8020     7.2490     9.0730    26.2870     2.3070    -8.8390 
  312.0000    86.6900     7.5420     7.0010     8.5820    26.2770     2.3050    -9.0120 
  312.1250    86.6900     7.4260     6.8610     8.0200    26.2680     2.3040    -9.1150 
  312.2500    86.6900     7.4720     6.8550     7.7270    26.2660     2.3030    -9.1630 
  312.3750    86.6900     7.6480     6.9730     8.3300    26.2670     2.3040    -9.2150 
  312.5000    86.6900     7.8680     7.1550     9.9700    26.2490     2.3050    -9.3080 
  312.6250    86.6900     7.9990     7.2900    11.5490    26.2110     2.3070    -9.3730 
  312.7500    86.6900     7.9680     7.2940    11.3140    26.2140     2.3080    -9.2920 
  312.8750    86.6900     7.7770     7.1500     9.6220    26.2200     2.3090    -9.0410 
  313.0000    86.6900     7.4890     6.9000     8.2050    26.2210     2.3090    -8.7220 
  313.1250    86.6900     7.1990     6.6220     7.7890    26.2180     2.3090    -8.4650 
  313.2500    86.6900     6.9770     6.3860     7.8320    26.2080     2.3100    -8.2630 
  313.3750    86.6900     6.8430     6.2160     7.9030    26.1950     2.3140    -8.0660 
  313.5000    86.6900     6.7990     6.1210     7.7230    26.2000     2.3220    -7.8720 
  313.6250    86.6900     6.8490     6.1130     7.5020    26.1890     2.3320    -7.7410 
  313.7500    86.6900     6.9750     6.1820     7.5250    26.1630     2.3400    -7.7910 
  313.8750    86.6900     7.1650     6.3290     7.7730    26.1430     2.3430    -8.1290 
  314.0000    86.6900     7.3910     6.5430     8.2500    26.1260     2.3420    -8.7040 
  314.1250    86.6900     7.6060     6.7970     8.8090    26.1410     2.3380    -9.3700 
  314.2500    86.6900     7.7710     7.0340     9.0170    26.1570     2.3360   -10.0540 
  314.3750    86.6900     7.8760     7.2160     9.1630    26.1910     2.3340   -10.6920 
  314.5000    86.6900     7.9340     7.3280     9.3060    26.2700     2.3290   -11.1880 
  314.6250    86.6900     7.9690     7.3790     9.7770    26.3340     2.3180   -11.5040 
  314.7500    86.6900     8.0000     7.4070     9.6940    26.3580     2.3060   -11.6570 
  314.8750    86.6900     8.0260     7.4230     9.2780    26.3460     2.2960   -11.6800 
  315.0000    86.6900     8.0370     7.4190     9.3770    26.3310     2.2890   -11.5210 
  315.1250    86.6900     8.0070     7.3630     9.5600    26.3680     2.2830   -11.1400 
  315.2500    86.6900     7.9240     7.2400     9.0420    26.3910     2.2750   -10.6090 
  315.3750    86.6900     7.7770     7.0520     8.3690    26.3630     2.2660   -10.0210 
  315.5000    86.6900     7.5720     6.8300     7.7050    26.2820     2.2630    -9.5420 
  315.6250    86.6900     7.3280     6.6230     7.5360    26.2620     2.2740    -9.2480 
  315.7500    86.6900     7.0820     6.4600     7.4830    26.2220     2.2950    -9.0920 
  315.8750    86.6900     6.8590     6.3450     7.7870    26.1340     2.3160    -8.9780 
  316.0000    86.6900     6.6760     6.2690     8.3330    25.9510     2.3270    -8.8830 
  316.1250    86.6900     6.5550     6.2190     8.7900    25.8180     2.3250    -8.8760 
  316.2500    86.6900     6.4920     6.1840     8.8740    25.7610     2.3160    -8.9320 
  316.3750    86.6900     6.4750     6.1670     8.7090    25.7920     2.3080    -9.0800 
  316.5000    86.6900     6.4820     6.1610     8.8010    25.8730     2.3050    -9.2960 
  316.6250    86.6900     6.4930     6.1610     9.1230    26.0600     2.3070    -9.4960 
  316.7500    86.6900     6.5010     6.1600     9.5280    26.2020     2.3100    -9.6160 
  316.8750    86.6900     6.5050     6.1600     9.7970    26.2540     2.3100    -9.7130 
  317.0000    86.6900     6.5080     6.1590     9.6530    26.2340     2.3070    -9.8750 
  317.1250    86.6900     6.5080     6.1590     9.4640    26.1640     2.3030   -10.0950 
  317.2500    86.6900     6.5080     6.1590     9.3820    26.1120     2.3040   -10.3500 
  317.3750    86.6900     6.5080     6.1590     9.2910    26.1120     2.3110   -10.6220 
  317.5000    86.6900     6.5080     6.1590     8.9010    26.1520     2.3240   -10.8490 
  317.6250    86.6900     6.5080     6.1590     8.6440    26.2050     2.3400   -11.0480 
  317.7500    86.6900     6.5080     6.1590     8.6460    26.2670     2.3500   -11.2590 
  317.8750    86.6900     6.5080     6.1590     8.8540    26.3530     2.3470   -11.4150 
  318.0000    86.6900     6.5080     6.1590     9.1750    26.4590     2.3290   -11.5270 
  318.1250    86.6900     6.5080     6.1590     9.6510    26.4820     2.3000   -11.6210 
  318.2500    86.6900     6.5080     6.1590    10.4340    26.4670     2.2740   -11.7030 
  318.3750    86.6900     6.5080     6.1590    10.6830    26.4190     2.2620   -11.8580 
  318.5000    86.6900     6.5080     6.1590    10.3580    26.3990     2.2670   -12.0570 
  318.6250    86.6900     6.5080     6.1590    10.1790    26.3710     2.2840   -12.1450 
  318.7500    86.6900     6.5080     6.1590    10.1960    26.3280     2.3050   -12.1810 
  318.8750    86.6900     6.5080     6.1590    10.4550    26.2770     2.3230   -12.2070 
  319.0000    86.6900     6.5080     6.1590    10.9780    26.2240     2.3350   -12.2240 
  319.1250    86.6900     6.5080     6.1590    10.9350    26.1860     2.3410   -12.1870 
  319.2500    86.6900     6.5080     6.1590     9.8040    26.1660     2.3410   -12.1500 
  319.3750    86.6900     6.5080     6.1590     8.8330    26.1350     2.3360   -11.9770 
  319.5000    86.6900     6.5080     6.1590     8.5590    26.0390     2.3300   -11.8540 
  319.6250    86.6900     6.5080     6.1590     8.9080    25.9140     2.3250   -11.8230 
  319.7500    86.6900     6.5080     6.1590     9.4010    25.9110     2.3230   -11.8230 
  319.8750    86.6900     6.5080     6.1590     9.2470    25.9160     2.3210  -999.2500 
  320.0000    86.6900     6.5080     6.1590     8.7990    25.8720     2.3200  -999.2500 
  320.1250    86.6900     6.5080     6.1590     8.4440    25.7620     2.3240  -999.2500 
  320.2500    86.6900     6.5080     6.1590     8.6120    25.6680     2.3320  -999.2500 
  320.3750    86.6900     6.5080     6.1590     9.4580    25.4420     2.3300  -999.2500 
  320.5000    86.6900     6.5080     6.1590    12.4720    24.8350     2.2970  -999.2500 
  320.6250    86.6900     6.5080     6.1590    21.9660    23.8850     2.2040  -999.2500 
  320.7500    86.6900     6.5080     6.1590    39.9810    23.0310     2.0630  -999.2500 
  320.8750    86.6900     6.5080     6.1590    53.6340    22.6930     1.9010  -999.2500 
  321.0000    86.6900     6.5080     6.1590    55.4490    22.6450     1.7530  -999.2500 
  321.1250    86.6900     6.5080     6.1590    55.3850    22.6450     1.6530  -999.2500 
  321.2500    86.6900     6.5080     6.1590    55.3440    22.6450     1.5940  -999.2500 
  321.3750    86.6900     6.5080     6.1590    55.3490    22.6450     1.5540  -999.2500 
  321.5000    86.6900     6.5080     6.1590    55.3190    22.6450     1.5120  -999.2500 
  321.6250    86.6900     6.5080     6.1590    55.3170    22.6450     1.4420  -999.2500 
  321.7500    86.6900     6.5080     6.1590    55.3150    22.6450     1.3430  -999.2500 
  321.8750    86.6900     6.5080     6.1590    55.3230    22.6450     1.2250  -999.2500 
