~V
VERS. 2.00: Ver 2.00
~W
STRT.M 60.0000:
STOP.M 245.0000:
STEP.M 0.1250:
NULL. -999.2500:
UWI. F10162:
~C
DEPT.M :
SP.MV :
DEN.GM/CC :
GR.API :
RML.OHMM :
RI. :
RXO.OHMM :
CALI.CM :
~A
# ...
  172.5000   -15.3570     2.2770    72.1810   122.1800   122.8570   155.8160    24.6130 
  172.6250   -15.0190     2.2880    73.6720    96.3580    95.3390    98.8580    24.4190 
  172.7500   -14.7810     2.3010    73.5390    77.4660    74.3540    44.6690    24.3710 
  172.8750   -14.5430     2.3110    75.1670    66.1450    61.0440    24.1150    24.3870 
  173.0000   -14.3590     2.3160    78.0360    62.0590    54.9170    24.0550    24.2400 
  173.1250   -14.1460     2.3110    79.8440    65.8180    56.1300    29.2780    23.9900 
  173.2500   -13.7770     2.2960    79.1370    76.2380    63.7090    33.4420    23.6040 
  173.3750   -13.3230     2.2750    75.8850    93.2610    78.4870    48.3250    23.1760 
  173.5000   -12.8150     2.2550    70.4950   115.0880   100.4920    73.3180    22.9560 
  173.6250   -12.4030     2.2500    66.0730   133.7340   124.8550    94.0180    22.8780 
  173.7500   -12.1140     2.2650    63.8560   138.3720   137.7140   103.1810    22.8070 
  173.8750   -11.8240     2.2970    61.2800   123.9200   127.2840   123.0430    22.8940 
  174.0000   -11.5580     2.3350    58.5880    95.3480    96.8500   132.9410    23.3000 
  174.1250   -11.4850     2.3630    59.7490    65.3530    64.3380    67.9440    23.9540 
  174.2500   -11.4950     2.3760    64.7890    43.0300    41.1940    29.9390    24.3770 
  174.3750   -11.5700     2.3780    71.8950    29.0730    27.3640    16.0200    24.6050 
  174.5000   -11.6840     2.3770    79.3740    21.0980    19.7770    12.7880    24.6500 
  174.6250   -11.7660     2.3810    85.4920    17.0300    15.9240    12.3820    24.5250 
  174.7500   -11.9010     2.3900    90.3120    14.7080    13.6170    11.4710    24.3230 
  174.8750   -12.0800     2.3970    95.8330    13.4050    12.2290    10.2940    24.1450 
  175.0000   -12.2100     2.3960   101.1300    12.7380    11.4480     9.0010    23.9630 
  175.1250   -12.3060     2.3820   100.9110    12.5790    11.1720     8.4580    23.8360 
  175.2500   -12.4300     2.3600    97.9940    12.7670    11.2630     8.3920    23.7260 
  175.3750   -12.5880     2.3400    96.1870    13.2400    11.6900     8.6220    23.5470 
  175.5000   -12.7750     2.3280    95.4770    13.9020    12.3800     8.9650    23.3060 
  175.6250   -12.9670     2.3280    94.2920    14.6220    13.2070    10.0560    23.2140 
  175.7500   -13.0950     2.3310    93.3370    15.2790    13.9870    11.4570    23.3790 
  175.8750   -13.1530     2.3330    93.1250    15.8310    14.6250    12.5570    23.7420 
  176.0000   -13.1610     2.3330    91.2830    16.2960    15.1070    12.8080    24.0700 
  176.1250   -13.1250     2.3360    87.4180    16.7220    15.4770    13.0160    24.1330 
  176.2500   -13.0750     2.3450    85.4690    17.1490    15.8140    13.3970    23.9240 
  176.3750   -13.0200     2.3580    86.9600    17.5610    16.1330    14.4330    23.6220 
  176.5000   -12.9550     2.3740    89.5720    17.9120    16.4020    15.3990    23.4170 
  176.6250   -12.8770     2.3890    88.6490    18.1170    16.5360    15.9440    23.3760 
  176.7500   -12.8450     2.3960    86.1290    18.1530    16.5060    15.5290    23.5330 
  176.8750   -12.8790     2.3920    84.5030    18.0040    16.3030    15.2710    23.8640 
  177.0000   -12.9420     2.3810    84.6590    17.6790    15.9270    15.4500    24.3080 
  177.1250   -12.9980     2.3720    87.1440    17.2250    15.3720    15.8560    24.6970 
  177.2500   -13.0520     2.3760    91.5680    16.8130    14.7880    15.0110    24.9120 
  177.3750   -13.1100     2.3900    94.1760    16.6170    14.3640    13.5770    24.9340 
  177.5000   -13.1950     2.4030    91.3570    16.7770    14.2560    12.7100    24.8860 
  177.6250   -13.3680     2.3970    84.9160    17.3950    14.5970    12.3070    24.8220 
  177.7500   -13.6240     2.3740    81.3790    18.2820    15.2800    13.1380    24.7750 
  177.8750   -13.8850     2.3450    81.6090    19.2170    16.1470    16.9230    24.6850 
  178.0000   -14.0930     2.3260    82.8510    19.9670    16.9340    21.7530    24.4830 
  178.1250   -14.3390     2.3270    83.2330    20.3810    17.3440    18.7680    24.0830 
  178.2500   -14.6150     2.3410    83.7860    20.6920    17.4620    16.7090    23.7730 
  178.3750   -14.9610     2.3590    84.2590    21.3290    17.5680    17.8050    23.7810 
  178.5000   -15.3900     2.3740    83.7510    22.8730    18.0990    18.8670    23.9980 
  178.6250   -15.8820     2.3810    83.1630    26.3590    19.8180    18.8820    24.1680 
  178.7500   -16.3980     2.3760    83.0420    32.2710    23.2250    21.5340    24.2830 
  178.8750   -16.9040     2.3570    81.0130    41.2060    29.0180    28.0670    24.3760 
  179.0000   -17.5060     2.3280    75.6030    53.5380    37.9430    40.5440    24.4720 
  179.1250   -18.1490     2.2960    69.5670    69.4740    50.8670    54.8410    24.5940 
  179.2500   -18.7430     2.2710    68.0610    87.0050    66.0330    67.5990    24.7250 
  179.3750   -19.2070     2.2590    70.5870   103.9330    81.0200    83.5250    24.8130 
  179.5000   -19.5080     2.2600    73.6060   118.1920    93.3800   109.9480    24.8600 
  179.6250   -19.6680     2.2670    72.4170   128.5540   101.5740   122.1910    24.7600 
  179.7500   -19.7680     2.2700    69.1090   137.0950   107.5420   104.5310    24.3280 
  179.8750   -19.8870     2.2670    65.6940   146.1660   113.6250    88.8130    23.6330 
  180.0000   -19.9670     2.2590    62.5760   157.6520   121.8680   100.7660    23.0760 
  180.1250   -19.9510     2.2510    62.8150   172.1530   133.3100   123.7630    23.1040 
  180.2500   -19.8810     2.2470    65.4820   186.9120   145.9140   136.7030    23.8000 
  180.3750   -19.8010     2.2470    66.7860   198.3440   156.7160   139.0010    24.6510 
  180.5000   -19.8070     2.2480    66.0580   203.1860   162.5380   139.6080    25.1470 
  180.6250   -19.8460     2.2460    66.3590   199.2840   161.0060   134.9580    25.2670 
  180.7500   -19.9310     2.2430    67.3090   190.2170   155.0100   126.8070    25.2460 
  180.8750   -19.9950     2.2420    66.5850   179.2380   147.2470   118.4850    25.0820 
  181.0000   -19.9540     2.2420    65.2210   169.0180   139.7650   108.9850    24.6980 
  181.1250   -20.0740     2.2410    65.4250   161.5780   134.2060   101.8660    24.1310 
  181.2500   -20.2430     2.2370    66.4730   156.9610   130.9280    92.8500    23.7310 
  181.3750   -20.2130     2.2310    67.4090   154.7830   129.7760    92.2070    23.7240 
  181.5000   -20.1330     2.2270    67.0740   154.1430   130.0870    97.0640    23.8710 
  181.6250   -20.0150     2.2260    65.7290   153.6820   130.7830   102.3340    23.7430 
  181.7500   -19.7640     2.2280    65.3560   152.1400   130.5660   105.1360    23.3670 
  181.8750   -19.5080     2.2300    66.5710   149.1150   128.7550   104.6780    23.1830 
  182.0000   -19.2420     2.2340    67.6720   145.1160   125.5690   102.4050    23.3460 
  182.1250   -18.7760     2.2410    67.1440   141.7410   122.4000    99.6720    23.8300 
  182.2500   -18.3670     2.2480    65.9070   140.6370   121.0330    89.2580    24.3240 
  182.3750   -18.1330     2.2510    65.8790   142.9500   122.7340    79.5500    24.5370 
  182.5000   -17.8450     2.2500    65.7110   149.1880   128.2450    81.8030    24.5620 
  182.6250   -17.6290     2.2470    68.7520   159.3470   138.0650   100.7680    24.6270 
  182.7500   -17.4420     2.2470    78.0140   170.6350   150.1270   120.3990    24.6430 
  182.8750   -17.1310     2.2510    85.3160   179.3190   161.5090   133.2670    24.5690 
  183.0000   -16.8200     2.2580    81.5650   180.9230   167.6460   128.8660    24.3970 
  183.1250   -16.6390     2.2620    70.1400   170.9940   162.1430    87.1340    24.1980 
  183.2500   -16.3350     2.2620    63.5660   153.3600   147.0160    44.9980    23.8060 
  183.3750   -15.9950     2.2590    62.5180   133.4920   127.6090    28.4500    23.3370 
  183.5000   -15.7760     2.2540    62.5280   117.0500   110.1010    24.8800    22.9120 
  183.6250   -15.3800     2.2500    64.5950   109.2460   100.1940    26.4540    22.7890 
