~V
VERS. 2.00: Ver 2.00
~W
STRT.M 30.0000:
STOP.M 209.0000:
STEP.M 0.1250:
NULL. -999.2500:
UWI. F10150:
~C
DEPT.M :
SP.MV :
DEN.GM/CC :
GR.API :
RML.OHMM :
RI. :
RXO.OHMM :
CALI.CM :
~A
# ...
  131.2500   -21.0120     2.3240    69.6640    18.6220    15.8100    14.4620    24.7850 
  131.3750   -20.9130     2.2700    69.9290    20.5130    17.3770    17.2000    25.2690 
  131.5000   -20.7610     2.2190    67.6930    21.8950    18.7810    19.3490    25.7300 
  131.6250   -20.6500     2.1830    65.1170    21.5040    18.9310    21.7120    26.0540 
  131.7500   -20.5620     2.1660    65.9670    19.1700    17.4180    23.0000    26.2700 
  131.8750   -20.4560     2.1680    68.2130    15.5810    14.6550    20.6870    26.4750 
  132.0000   -20.3810     2.1880    69.4570    11.9310    11.6040    14.1870    26.5920 
  132.1250   -20.2980     2.2180    70.2190     9.2910     9.1770     8.8030    26.6450 
  132.2500   -20.1820     2.2480    72.0120     7.7040     7.5420     6.2560    26.7910 
  132.3750   -20.0750     2.2670    72.7930     6.9840     6.6300     5.7110    27.0690 
  132.5000   -19.9950     2.2670    70.8570     6.8900     6.2990     5.9860    27.3220 
  132.6250   -19.9100     2.2470    69.2910     7.2410     6.4410     6.1870    27.3170 
  132.7500   -19.8350     2.2200    68.2050     7.7580     6.8120     6.2640    27.0090 
  132.8750   -19.7830     2.1970    66.5830     8.2820     7.2640     6.5340    26.4210 
  133.0000   -19.7180     2.1880    66.1640     8.7190     7.6780     6.9450    25.7050 
  133.1250   -19.7130     2.1980    69.4540     9.0500     7.9860     7.3490    25.0760 
  133.2500   -19.7850     2.2210    73.5680     9.3510     8.2270     7.6960    24.6940 
  133.3750   -19.8470     2.2490    74.4910     9.6770     8.4440     7.8540    24.5590 
  133.5000   -19.9000     2.2740    73.7250    10.0560     8.6730     8.1720    24.5530 
  133.6250   -19.9950     2.2870    72.8510    10.4890     8.9270     8.9600    24.5890 
  133.7500   -20.0910     2.2910    71.4240    10.9360     9.1810     9.8470    24.7060 
  133.8750   -20.1590     2.2890    70.9310    11.3670     9.4090    10.3530    24.9090 
  134.0000   -20.2520     2.2880    72.1660    11.7630     9.6020    10.3330    25.1170 
  134.1250   -20.3320     2.2870    72.0330    12.1380     9.7800    10.2430    25.1480 
  134.2500   -20.3580     2.2830    68.7080    12.5390     9.9900    10.6720    25.0480 
  134.3750   -20.4060     2.2690    64.7970    12.9770    10.2590    11.3280    24.8010 
  134.5000   -20.4760     2.2450    62.5070    13.3940    10.5630    11.8160    24.4730 
  134.6250   -20.4450     2.2220    61.2770    13.6370    10.8100    12.8020    24.3490 
  134.7500   -20.3960     2.2150    60.7110    13.6160    10.9070    14.7530    24.5590 
  134.8750   -20.3790     2.2320    61.6000    13.3070    10.8050    16.1730    24.8020 
  135.0000   -20.3160     2.2670    64.2210    12.8010    10.5300    13.8050    24.8280 
  135.1250   -20.2360     2.2990    66.9890    12.3060    10.1970    10.6130    24.7060 
  135.2500   -20.1440     2.3060    67.5250    11.9840     9.9430     9.5530    24.6990 
  135.3750   -19.9690     2.2860    64.7310    11.8500     9.8090     9.6220    24.7930 
  135.5000   -19.7580     2.2600    62.5590    11.7810     9.7450    10.1360    24.9070 
  135.6250   -19.5730     2.2530    65.5730    11.4860     9.5590    10.9040    24.9590 
  135.7500   -19.4100     2.2670    71.4290    10.7900     9.0860    10.7040    25.0100 
  135.8750   -19.2550     2.2860    77.0130     9.7470     8.3180     9.5060    25.0840 
  136.0000   -19.1340     2.2890    78.9840     8.6100     7.4090     7.8620    25.1400 
  136.1250   -19.0860     2.2590    76.9190     7.6960     6.5970     6.4490    25.1490 
  136.2500   -19.1180     2.2140    74.3280     7.0970     6.0030     5.4920    25.1240 
  136.3750   -19.2180     2.1720    73.4710     6.7960     5.6530     5.5820    25.1020 
  136.5000   -19.3460     2.1490    74.3810     6.7220     5.5160     6.2370    25.0920 
  136.6250   -19.5410     2.1490    74.3540     6.8300     5.5680     6.0050    25.0860 
  136.7500   -19.7260     2.1640    74.3250     7.0790     5.7470     5.6150    25.0410 
  136.8750   -19.8660     2.1850    75.7570     7.5000     6.0580     5.6090    24.9730 
  137.0000   -20.0030     2.2070    76.5510     8.1370     6.5270     6.2740    24.9060 
  137.1250   -20.0960     2.2240    75.8130     9.0390     7.2080     7.3040    24.8520 
  137.2500   -20.1000     2.2370    73.8000    10.0770     8.0310     8.1920    24.8240 
  137.3750   -20.0720     2.2440    71.2070    11.0480     8.8620     9.0660    24.8020 
  137.5000   -20.0630     2.2450    68.4910    11.6570     9.4750    10.0360    24.7690 
  137.6250   -19.9860     2.2450    65.9440    11.5340     9.5480    10.1210    24.7380 
  137.7500   -19.8820     2.2480    63.4640    10.7880     9.1050     9.6020    24.7660 
  137.8750   -19.8230     2.2570    60.6720     9.6790     8.3140     8.6960    24.8610 
  138.0000   -19.7980     2.2710    60.0950     8.5490     7.4220     7.4640    25.0040 
  138.1250   -19.7890     2.2780    62.9190     7.7550     6.7020     6.2740    25.1260 
  138.2500   -19.8580     2.2700    65.0950     7.3960     6.2760     5.6180    25.1950 
  138.3750   -19.9600     2.2460    65.6210     7.4740     6.1910     5.6640    25.2240 
  138.5000   -20.0160     2.2180    66.2830     7.9130     6.4230     6.1730    25.2270 
  138.6250   -20.0890     2.2030    69.2910     8.5770     6.9050     6.8550    25.2130 
  138.7500   -20.1560     2.2040    72.7040     9.1860     7.4150     7.5800    25.2150 
  138.8750   -20.1720     2.2130    75.3470     9.4820     7.7430     8.1560    25.2310 
  139.0000   -20.1790     2.2200    76.5200     9.2850     7.7150     7.9990    25.2400 
  139.1250   -20.1570     2.2190    78.5720     8.5480     7.2360     7.1990    25.1990 
  139.2500   -20.1170     2.2180    85.0400     7.6170     6.5310     6.4410    25.1510 
  139.3750   -20.1460     2.2270    92.8980     6.7980     5.8240     5.8650    25.1100 
  139.5000   -20.2570     2.2490    95.8160     6.3360     5.3150     5.2090    25.0820 
  139.6250   -20.4150     2.2740    91.9220     6.4710     5.2050     4.7820    25.0680 
  139.7500   -20.6590     2.2880    88.3640     7.1650     5.4990     4.9650    25.0710 
  139.8750   -20.9620     2.2880    85.1730     8.3580     6.1850     6.1410    25.0890 
  140.0000   -21.2380     2.2750    78.8070     9.8620     7.1790     8.3920    25.1080 
  140.1250   -21.5500     2.2620    73.2350    11.2680     8.2650    10.2930    25.1120 
  140.2500   -21.8620     2.2580    73.5820    12.1850     9.1280    10.7200    25.1290 
  140.3750   -22.0920     2.2690    77.3120    12.5330     9.6260    10.1190    25.1510 
  140.5000   -22.2610     2.2930    79.4600    12.5780     9.8460     9.5110    25.1490 
  140.6250   -22.3940     2.3170    78.2830    12.8000    10.0570     9.3080    25.0700 
  140.7500   -22.4310     2.3290    74.7650    13.4200    10.4740     9.5910    24.9130 
  140.8750   -22.3910     2.3210    69.4040    14.3790    11.1260    10.9300    24.7350 
  141.0000   -22.3690     2.2990    64.3800    15.4050    11.8840    13.4800    24.6600 
  141.1250   -22.3410     2.2680    62.6760    16.0150    12.4410    15.1070    24.8370 
  141.2500   -22.2530     2.2390    63.5530    15.9940    12.5850    14.7700    25.1380 
  141.3750   -22.1680     2.2150    65.4070    15.4190    12.3090    13.8380    25.4000 
  141.5000   -22.0750     2.1990    67.9840    14.6110    11.7990    12.7760    25.5210 
  141.6250   -21.9770     2.1940    70.7500    13.9830    11.3440    11.7760    25.5180 
  141.7500   -21.9180     2.1950    70.6220    13.7020    11.1210    11.0700    25.4720 
  141.8750   -21.8690     2.1980    68.1590    13.7350    11.1500    11.2400    25.4580 
  142.0000   -21.7860     2.1960    66.7230    13.9420    11.3530    12.0240    25.4870 
  142.1250   -21.6540     2.1890    68.0140    14.1820    11.6180    12.4260    25.4710 
  142.2500   -21.5560     2.1840    68.2370    14.3950    11.8620    12.5410    25.3190 
  142.3750   -21.4720     2.1890    67.6380    14.5910    12.0700    12.1370    25.0340 
