~V
VERS. 2.00: Ver 2.00
~W
STRT.M 50.0000:
STOP.M 223.0000:
STEP.M 0.1250:
NULL. -999.2500:
UWI. F10135:
~C
DEPT.M :
SP.MV :
DEN.GM/CC :
GR.API :
RML.OHMM :
RI. :
RXO.OHMM :
CALI.CM :
~A
# ...
  196.2500    -2.1310     2.2600    76.9830    18.0270    16.2810    19.2610    24.3370 
  196.3750    -2.0530     2.2610    74.5450    19.0280    17.6300    19.6530    24.3380 
  196.5000    -2.0600     2.2760    70.7780    19.3800    18.3190    19.3990    24.3390 
  196.6250    -2.0630     2.2970    68.5620    19.1860    18.3160    18.7460    24.3470 
  196.7500    -2.0170     2.3140    68.1060    18.8180    18.0010    18.1170    24.3850 
  196.8750    -1.9620     2.3230    69.4820    18.4740    17.6150    17.7960    24.4760 
  197.0000    -1.9180     2.3230    70.3420    18.2460    17.3030    17.7850    24.5970 
  197.1250    -1.9560     2.3110    71.2460    18.1600    17.1330    17.3970    24.6960 
  197.2500    -2.0430     2.2900    74.9130    18.1580    17.0620    18.1190    24.7730 
  197.3750    -2.1520     2.2680    78.5540    18.2050    17.0530    19.3550    24.8020 
  197.5000    -2.2710     2.2560    78.8230    18.2950    17.0870    20.6470    24.8070 
  197.6250    -2.4350     2.2670    77.8600    18.4890    17.2010    20.6460    24.8080 
  197.7500    -2.6330     2.2950    78.1950    18.8580    17.4570    19.5410    24.8070 
  197.8750    -2.8540     2.3270    77.4060    19.4760    17.9360    18.5710    24.8070 
  198.0000    -3.0630     2.3470    73.5020    20.3730    18.6910    18.7710    24.8240 
  198.1250    -3.2000     2.3400    71.1440    21.5370    19.7590    20.3860    24.8810 
  198.2500    -3.3060     2.3140    71.9130    22.8130    21.0020    23.2250    24.9720 
  198.3750    -3.4040     2.2810    72.9730    24.1010    22.3070    25.2550    25.0270 
  198.5000    -3.5190     2.2530    71.0460    25.3600    23.5890    26.4370    25.0440 
  198.6250    -3.6730     2.2400    67.3730    26.6410    24.8510    27.0740    25.0440 
  198.7500    -3.8910     2.2390    65.4580    28.0330    26.1750    27.7090    25.0430 
  198.8750    -4.1680     2.2420    65.5900    29.5660    27.6210    29.2530    25.0420 
  199.0000    -4.5060     2.2370    65.9210    31.1670    29.1630    32.3950    25.0390 
  199.1250    -4.8880     2.2140    64.9600    32.6060    30.6230    35.6640    25.0390 
  199.2500    -5.2870     2.1830    64.2840    33.6730    31.7900    37.8160    25.0370 
  199.3750    -5.7180     2.1560    64.8360    34.2630    32.5290    36.3710    24.9990 
  199.5000    -6.1710     2.1470    67.3680    34.4260    32.8420    33.6470    24.8770 
  199.6250    -6.5740     2.1570    70.3530    34.3490    32.8690    34.1280    24.6290 
  199.7500    -6.8420     2.1730    71.0870    34.2940    32.8910    35.4680    24.5070 
  199.8750    -6.9820     2.1830    71.4220    34.3150    33.0120    35.3130    24.4690 
  200.0000    -6.9880     2.1880    73.0050    34.3010    33.1700    34.1660    24.4310 
  200.1250    -6.9570     2.1930    75.2100    34.0440    33.1620    34.8590    24.3320 
  200.2500    -6.9200     2.2060    75.4480    33.5380    32.9220    39.4460    24.2290 
  200.3750    -6.8740     2.2310    74.3630    32.8790    32.5040    42.9000    24.1870 
  200.5000    -6.7910     2.2660    74.8840    32.1460    31.9790    39.3130    24.1800 
  200.6250    -6.7400     2.3100    76.7430    31.2190    31.2490    32.8020    24.1430 
  200.7500    -6.7840     2.3540    76.6980    29.8590    30.0980    32.0570    24.0230 
  200.8750    -6.9190     2.3860    75.6320    27.8340    28.2820    35.6820    23.8320 
  201.0000    -7.1920     2.3960    79.7800    25.0830    25.6960    38.0670    23.6950 
  201.1250    -7.5200     2.3810    91.5970    21.7550    22.4210    32.7660    23.6190 
  201.2500    -7.8720     2.3550   101.9690    18.3990    19.0080    24.0900    23.5490 
  201.3750    -8.1690     2.3280   104.2260    15.4730    15.9240    21.3470    23.4760 
  201.5000    -8.4850     2.3120    97.8160    13.3090    13.5300    16.2620    23.3810 
  201.6250    -8.7850     2.3070    88.6330    12.1720    12.1120    11.0910    23.3760 
  201.7500    -9.1340     2.3040    86.3140    11.7760    11.4450     9.5280    23.5350 
  201.8750    -9.5290     2.2980    91.9820    11.8510    11.3170    13.1750    23.7510 
  202.0000    -9.9540     2.2890   101.5190    12.0710    11.4440    20.4330    23.9080 
  202.1250   -10.3600     2.2910   107.8520    12.0870    11.4960    19.3780    23.9700 
  202.2500   -10.7710     2.3100   108.0400    11.7800    11.2820    15.6900    23.7970 
  202.3750   -11.2470     2.3420   100.6180    11.2170    10.8000    13.4160    23.9340 
  202.5000   -11.7290     2.3760    87.9340    10.5760    10.1780    13.2190    24.0990 
  202.6250   -12.2040     2.3960    77.1430    10.0800     9.6110    11.0050    24.1280 
  202.7500   -12.6310     2.4020    70.0520     9.7930     9.2090     9.9550    24.1330 
  202.8750   -12.9440     2.4050    62.9270     9.6870     8.9780     9.3850    24.1280 
  203.0000   -13.1370     2.4100    54.5390     9.6900     8.8770     9.1090    24.1060 
  203.1250   -13.2630     2.4150    49.5040     9.7350     8.8510     8.9920    23.9740 
  203.2500   -13.3830     2.4140    50.5930     9.7620     8.8310     9.0950    23.8870 
  203.3750   -13.4720     2.4050    53.6790     9.7390     8.7780     9.2980    23.8860 
  203.5000   -13.5140     2.3930    53.2650     9.6500     8.6670     9.5150    23.9790 
  203.6250   -13.5080     2.3850    51.5690     9.4900     8.4880     9.4610    24.0050 
  203.7500   -13.4610     2.3810    53.5070     9.3060     8.2720     9.1970    24.0670 
  203.8750   -13.4150     2.3770    56.0600     9.1370     8.0540     9.0330    24.1230 
  204.0000   -13.3540     2.3720    54.7740     9.0180     7.8660     8.9340    24.1330 
  204.1250   -13.3660     2.3680    53.5660     8.9710     7.7420     8.7770    24.1230 
  204.2500   -13.3230     2.3690    56.9830     8.9740     7.6780     8.7050    24.0670 
  204.3750   -13.2700     2.3750    61.1140     9.0010     7.6590     8.7440    24.0050 
  204.5000   -13.2240     2.3810    60.9070     9.0300     7.6620     8.9380    23.9790 
  204.6250   -13.2150     2.3790    58.6800     9.0450     7.6650     8.8490    23.8960 
  204.7500   -13.1650     2.3680    58.5720     9.0440     7.6570     8.6300    23.9510 
  204.8750   -13.1480     2.3530    59.4100     9.0260     7.6360     8.1820    24.0790 
  205.0000   -13.1920     2.3420    59.3710     8.9870     7.6010     7.8670    24.1270 
  205.1250   -13.2020     2.3390    59.6710     8.9030     7.5350     7.7540    24.1330 
  205.2500   -13.1520     2.3380    61.2520     8.7560     7.4180     7.9410    24.1330 
  205.3750   -13.0190     2.3330    61.8900     8.5460     7.2290     8.1220    24.1330 
  205.5000   -12.7880     2.3250    59.5130     8.2520     6.9530     7.8550    24.1330 
  205.6250   -12.4500     2.3180    55.8820     7.6850     6.5820     7.2690    24.1320 
  205.7500   -12.0790     2.3150    54.9080     6.8730     6.1500     6.8090    24.1190 
  205.8750   -11.6350     2.3140    54.5820     6.0490     5.6890     6.2800    24.0390 
  206.0000   -11.0350     2.3110    51.5940     5.4530     5.2380     5.7470    23.9860 
  206.1250   -10.3170     2.3040    49.6900     5.1370     4.8590     5.8270    23.8840 
  206.2500    -9.6510     2.2980    55.7230     4.9550     4.5940     5.7040    23.8700 
  206.3750    -9.1510     2.3000    69.5770     4.9330     4.4820     5.0990    23.8720 
  206.5000    -8.8050     2.3110    83.3920     5.1050     4.5480     4.8220    23.8880 
  206.6250    -8.5970     2.3320    86.6320     5.4670     4.8170     5.5530    23.9820 
  206.7500    -8.4570     2.3570    81.9910     5.9130     5.2090     6.4170    23.9970 
  206.8750    -8.3750     2.3780    75.1260     6.3430     5.6390     6.8490    24.0000 
  207.0000    -8.3460     2.3900    73.1950     6.6540     6.0060     7.5440    24.0000 
  207.1250    -8.3140     2.3850    80.5460     6.7460     6.1890     8.2480    24.0020 
  207.2500    -8.2390     2.3690    90.7320     6.6480     6.1810     7.6600    24.0140 
  207.3750    -8.0580     2.3510   100.3900     6.4070     6.0100     6.8370    24.0890 
