~V
VERS. 2.00: Ver 2.00
~W
STRT.M 49.0000:
STOP.M 251.0000:
STEP.M 0.1250:
NULL. -999.2500:
UWI. F10165:
~C
DEPT.M :
GR.API :
RML.OHMM :
RI. :
RXO.OHMM :
CALI.CM :
SP.MV :
DEN.GM/CC :
~A
# ...
   71.5000    74.0970     8.9550     6.5540     8.2440    25.1160   -22.7730     2.1240 
   71.6250    70.0960     9.5640     6.9290     9.3200    25.1230   -23.0090     2.0980 
   71.7500    68.3880    10.1120     7.3010    10.0900    25.1570   -23.2480     2.0860 
   71.8750    67.0680    10.5260     7.6130    10.7160    25.2020   -23.4970     2.0890 
   72.0000    65.4710    10.7640     7.8220    11.0080    25.2480   -23.7160     2.0930 
   72.1250    63.9390    10.7970     7.8870    11.2040    25.2660   -23.9040     2.0870 
   72.2500    63.2350    10.6940     7.8400    11.2100    25.2710   -24.0830     2.0790 
   72.3750    61.8710    10.5080     7.7150    11.2540    25.2710   -24.2050     2.0740 
   72.5000    60.3540    10.2960     7.5520    11.1970    25.2620   -24.2770     2.0740 
   72.6250    60.5110    10.1160     7.3930    11.1190    25.2200   -24.3360     2.0790 
   72.7500    63.2040     9.9880     7.2630    11.1120    25.1350   -24.3500     2.0890 
   72.8750    66.9850     9.9110     7.1700    11.1980    25.0430   -24.3300     2.1010 
   73.0000    66.8480     9.8680     7.1120    11.0950    24.9990   -24.3210     2.1090 
   73.1250    60.9040     9.8550     7.0890    11.0890    25.0250   -24.3070     2.1120 
   73.2500    55.3030     9.8710     7.0950    11.1740    25.1020   -24.2620     2.1090 
   73.3750    52.9220     9.9290     7.1290    11.5250    25.1920   -24.2230     2.1040 
   73.5000    53.0610    10.0420     7.1910    11.8450    25.2510   -24.1920     2.0950 
   73.6250    55.6940    10.1880     7.2680    11.8330    25.2630   -24.1210     2.0830 
   73.7500    59.7200    10.2890     7.3180    11.3610    25.2550   -24.0330     2.0740 
   73.8750    61.1340    10.2860     7.3080    11.4180    25.2630   -23.9590     2.0710 
   74.0000    58.8900    10.1570     7.2190    11.7040    25.3280   -23.8650     2.0750 
   74.1250    58.5700     9.9210     7.0550    11.4790    25.4720   -23.7400     2.0810 
   74.2500    62.9540     9.6710     6.8680    10.3730    25.5610   -23.6320     2.0850 
   74.3750    68.6920     9.4730     6.7000     9.8660    25.4650   -23.5170     2.0890 
   74.5000    71.7680     9.3560     6.5800    10.1390    25.2420   -23.3860     2.1020 
   74.6250    72.0840     9.3210     6.5270    10.5140    25.0590   -23.2940     2.1250 
   74.7500    70.8770     9.3380     6.5290    10.2790    24.9950   -23.2300     2.1450 
   74.8750    69.9860     9.4000     6.5800    10.1280    24.9890   -23.1790     2.1530 
   75.0000    69.6100     9.5090     6.6720    10.3580    25.0160   -23.1640     2.1450 
   75.1250    67.2230     9.6810     6.8130    10.5720    25.1000   -23.1760     2.1290 
   75.2500    61.8060     9.9060     6.9980    10.7510    25.2160   -23.2010     2.1160 
   75.3750    57.0290    10.1570     7.2160    11.0470    25.3200   -23.2590     2.1070 
   75.5000    57.0280    10.3790     7.4390    11.2400    25.3890   -23.3150     2.1030 
   75.6250    58.3560    10.4910     7.6060    11.7750    25.4020   -23.3200     2.1020 
   75.7500    59.1140    10.4590     7.6710    11.9780    25.3640   -23.3150     2.1030 
   75.8750    60.9930    10.2760     7.6140    11.6590    25.2840   -23.2920     2.1040 
   76.0000    62.7160     9.9810     7.4490    11.3430    25.2380   -23.2170     2.1000 
   76.1250    61.4390     9.6590     7.2230    10.7950    25.2520   -23.1130     2.0920 
   76.2500    60.0090     9.3900     7.0020    10.4930    25.2670   -22.9830     2.0830 
   76.3750    60.4790     9.2030     6.8200    10.3600    25.2710   -22.7960     2.0770 
   76.5000    59.2960     9.0920     6.6860    10.4910    25.2710   -22.5850     2.0730 
   76.6250    56.6870     9.0260     6.5970    10.8400    25.2810   -22.3840     2.0700 
   76.7500    56.7040     8.9830     6.5380    10.8150    25.3050   -22.1480     2.0690 
   76.8750    57.8100     9.0240     6.5390    10.5990    25.3370   -21.8830     2.0750 
   77.0000    56.7660     9.2480     6.6480    10.4370    25.3790   -21.6230     2.0920 
   77.1250    56.2380     9.7180     6.9040    10.3350    25.4760   -21.3400     2.1200 
   77.2500    59.4560    10.2860     7.2220    10.4210    25.5850   -21.0360     2.1610 
   77.3750    63.6900    10.7480     7.4920    11.4790    25.6020   -20.7480     2.2180 
   77.5000    66.2460    10.8760     7.5970    13.1200    25.5000   -20.4560     2.2680 
   77.6250    68.0490    10.4780     7.4380    13.5520    25.4310   -20.1460     2.2590 
   77.7500    70.3130     9.8180     7.1330     9.2160    25.4250   -19.8680     2.2020 
   77.8750    70.9270     9.2160     6.8380     8.1340    25.3970   -19.6040     2.1490 
   78.0000    69.2280     8.8870     6.6820     8.3660    25.3280   -19.3650     2.1330 
   78.1250    68.1460     8.8920     6.7400     8.5470    25.2850   -19.2050     2.1490 
   78.2500    69.4370     9.0350     6.9290     8.6190    25.2760   -19.0780     2.1640 
   78.3750    71.4030     9.1590     7.1510     9.4440    25.3090   -18.9720     2.1630 
   78.5000    71.1550     9.1870     7.3270    10.7390    25.4100   -18.9160     2.1520 
   78.6250    70.7070     9.1830     7.4390    10.2990    25.5630   -18.8850     2.1480 
   78.7500    73.9250     9.2550     7.5370     8.3290    25.6140   -18.8500     2.1490 
   78.8750    77.9580     9.3860     7.6180     7.5620    25.5030   -18.8420     2.1470 
   79.0000    78.4670     9.4470     7.6130     8.8440    25.3110   -18.8250     2.1440 
   79.1250    76.5860     9.2190     7.3850     9.2700    25.3200   -18.7620     2.1560 
   79.2500    79.2810     8.6570     6.9250     7.7960    25.5250   -18.7140     2.1860 
   79.3750    86.9100     7.8450     6.2910     5.9470    25.7420   -18.6810     2.2250 
   79.5000    95.0270     6.9680     5.5970     4.9850    25.8480   -18.6290     2.2590 
   79.6250    99.9280     6.2380     4.9790     4.7010    25.8710   -18.5820     2.2760 
   79.7500   101.2510     5.7260     4.5050     4.7210    25.8570   -18.5780     2.2800 
   79.8750   100.8710     5.4500     4.2120     4.7530    25.8130   -18.5990     2.2780 
   80.0000   101.2840     5.4620     4.1400     4.8140    25.7410   -18.6500     2.2790 
   80.1250   101.8630     6.0370     4.4380     5.0330    25.7050   -18.7790     2.2950 
   80.2500    97.4890     7.4020     5.2100     5.9500    25.6950   -18.9470     2.3290 
   80.3750    86.2590     9.8090     6.6350     8.3780    25.7050   -19.1310     2.3810 
   80.5000    73.0860    13.3090     8.8470    12.7280    25.7330   -19.3720     2.4400 
   80.6250    63.4140    17.3680    11.7350    21.2560    25.7890   -19.6780     2.4790 
   80.7500    56.5060    20.2860    14.2000    32.6830    25.8300   -19.9880     2.4740 
   80.8750    51.6600    20.5190    14.9890    34.3100    25.8320   -20.3150     2.4120 
   81.0000    49.3850    18.0450    13.8010    23.9450    25.8050   -20.6540     2.3060 
   81.1250    51.2730    14.5670    11.6010    14.7790    25.8470   -20.9590     2.1970 
   81.2500    54.3160    11.8180     9.6310    10.8770    25.9760   -21.2500     2.1150 
   81.3750    55.5690    10.2020     8.2490     9.2670    26.1160   -21.5210     2.0660 
   81.5000    53.3910     9.6080     7.4810     8.9170    26.1570   -21.7460     2.0430 
   81.6250    50.2590     9.8110     7.2770     9.1320    26.0770   -21.9480     2.0390 
   81.7500    51.9050    10.3320     7.3720     9.4330    25.9730   -22.1330     2.0440 
   81.8750    58.2710    10.9050     7.6070     9.8740    25.8930   -22.2570     2.0560 
   82.0000    64.1780    11.3550     7.8580    10.2580    25.8550   -22.3400     2.0690 
   82.1250    65.6730    11.5750     8.0360    10.4690    25.8340   -22.4230     2.0760 
   82.2500    64.3420    11.6350     8.1430    10.9290    25.7870   -22.4750     2.0820 
   82.3750    62.2440    11.6150     8.2010    12.2280    25.6810   -22.5130     2.0930 
   82.5000    59.2920    11.5800     8.2330    13.8340    25.5170   -22.5580     2.1080 
   82.6250    54.8450    11.5680     8.2460    13.4440    25.3580   -22.5600     2.1150 
