~V
VERS. 2.00: Ver 2.00
~W
STRT.M 53.0000:
STOP.M 219.0000:
STEP.M 0.1250:
NULL. -999.2500:
UWI. F10171:
~C
DEPT.M :
SP.MV :
DEN.GM/CC :
GR.API :
RML.OHMM :
RI. :
RXO.OHMM :
CALI.CM :
~A
# ...
  176.7500   -32.6900     2.1930    64.0070    85.2140    75.5080    86.3480    25.1910 
  176.8750   -32.9630     2.1910    63.4550    95.3150    84.5210    98.4390    25.1910 
  177.0000   -33.2180     2.1970    63.2920   104.1740    92.6510   104.4650    25.1910 
  177.1250   -33.4320     2.2030    62.5750   110.8650    99.1290   106.9010    25.1910 
  177.2500   -33.6240     2.2030    62.0920   114.3320   103.0700   109.8170    25.1910 
  177.3750   -33.8760     2.1950    62.5480   112.7770   102.8440   114.4830    25.1910 
  177.5000   -34.1400     2.1880    61.8540   107.0430    98.8470   117.0880    25.1910 
  177.6250   -34.3670     2.1870    60.8870    98.9400    92.3140   111.7580    25.1910 
  177.7500   -34.6620     2.1930    61.8650    91.1240    85.4120    83.3530    25.1910 
  177.8750   -35.0570     2.2040    64.6440    86.6850    80.9810    58.0450    25.1910 
  178.0000   -35.4520     2.2140    65.6200    86.5460    80.3210    52.5030    25.1910 
  178.1250   -35.9210     2.2220    65.2510    90.8150    83.8700    68.6960    25.1910 
  178.2500   -36.5050     2.2280    66.0480    98.6950    91.1450    99.2820    25.1910 
  178.3750   -37.0930     2.2340    66.7460   108.3990   100.7580   114.8470    25.1910 
  178.5000   -37.7230     2.2420    65.5610   116.8100   109.7500   119.5830    25.1810 
  178.6250   -38.4540     2.2480    63.2680   121.8740   115.9990   119.3810    25.1480 
  178.7500   -39.1540     2.2480    62.0610   123.2640   118.7740   116.1250    25.0670 
  178.8750   -39.8010     2.2410    63.5830   122.2690   118.8130   111.6920    24.9730 
  179.0000   -40.4540     2.2320    66.3640   120.9640   118.1170   107.6770    24.8880 
  179.1250   -40.9930     2.2190    68.4000   119.9830   117.4550   106.1970    24.8890 
  179.2500   -41.3880     2.1980    68.5150   119.4500   117.0660   108.4750    24.9710 
  179.3750   -41.7540     2.1770    67.2930   119.5650   117.1680   112.1330    25.0140 
  179.5000   -42.0260     2.1690    67.2850   120.5130   117.9760   113.0690    25.0300 
  179.6250   -42.1230     2.1740    68.3680   122.5170   119.7460   108.0570    25.0530 
  179.7500   -42.1570     2.1840    67.9390   125.5080   122.4760   101.2200    25.0940 
  179.8750   -42.1480     2.1870    64.9010   128.9590   125.7360   106.9840    25.1600 
  180.0000   -42.0410     2.1840    61.3590   132.0170   128.7130   128.2880    25.2040 
  180.1250   -41.8790     2.1840    59.5370   134.4040   131.0840   143.7400    25.2020 
  180.2500   -41.7360     2.1870    59.6280   136.6640   133.2570   134.0310    25.1660 
  180.3750   -41.5590     2.1900    60.5080   140.5460   136.8230   110.6400    25.0920 
  180.5000   -41.3180     2.1930    60.3580   147.3940   143.1840   105.4870    25.0100 
  180.6250   -41.1270     2.1950    58.9240   157.8980   153.1480   120.7530    24.9330 
  180.7500   -40.9480     2.1940    56.6720   171.8340   166.6390   146.9960    24.8870 
  180.8750   -40.6810     2.1840    55.2950   188.0200   182.7740   170.1790    24.8530 
  181.0000   -40.4480     2.1680    55.3360   201.4620   201.0890   170.1210    24.8230 
  181.1250   -40.2690     2.1530    55.0190   212.8870   216.2270   147.6230    24.7610 
  181.2500   -40.0330     2.1430    54.0590   222.6750   223.8390   128.0100    24.6890 
  181.3750   -39.7960     2.1370    54.5870   225.0620   222.9380   130.0870    24.6360 
  181.5000   -39.6150     2.1340    57.0670   219.0420   212.8040   130.1200    24.6150 
  181.6250   -39.3970     2.1390    59.2670   204.3800   194.1860   125.3950    24.6020 
  181.7500   -39.2150     2.1540    59.7840   183.8830   171.3980   124.7610    24.5860 
  181.8750   -39.1400     2.1730    59.9810   163.7090   151.6070   114.0690    24.5970 
  182.0000   -39.0620     2.1870    59.8620   149.7930   139.2920    95.5280    24.6100 
  182.1250   -39.0170     2.1930    57.8570   145.5690   136.3610    83.7350    24.6230 
  182.2500   -39.0930     2.1920    55.5230   152.7080   143.3310    84.3270    24.6400 
  182.3750   -39.1680     2.1840    55.7060   172.1320   160.5830   103.0700    24.6310 
  182.5000   -39.2300     2.1620    57.0040   196.7630   181.8990   148.9470    24.5720 
  182.6250   -39.3660     2.1360    57.6010   216.6490   197.5120   191.6050    24.5220 
  182.7500   -39.5020     2.1370    59.2400   220.2480   195.8410   154.8670    24.5130 
  182.8750   -39.5600     2.1880    63.6030   200.4700   172.5870    73.3550    24.5210 
  183.0000   -39.6210     2.2490    67.0960   170.5620   143.5540    38.8880    24.5780 
  183.1250   -39.7090     2.2610    67.1670   142.1100   119.0260    32.6340    24.7800 
  183.2500   -39.7520     2.2180    65.6050   121.5170   102.6820    43.0400    25.0040 
  183.3750   -39.7110     2.1730    65.6310   111.3700    95.3190    67.2070    25.1080 
  183.5000   -39.6610     2.1520    65.5880   108.8140    94.1150    84.6920    25.1070 
  183.6250   -39.5920     2.1460    63.9770   112.4070    97.8600    97.4710    25.0870 
  183.7500   -39.4530     2.1450    60.6690   120.8200   105.5070   108.9720    25.0740 
  183.8750   -39.2970     2.1520    57.4010   133.0840   116.3370   143.7910    25.1030 
  184.0000   -39.1480     2.1620    55.8290   147.1640   128.7270   161.7880    25.1430 
  184.1250   -38.9300     2.1710    56.9960   162.0700   141.8690   160.0980    25.1610 
  184.2500   -38.6530     2.1770    59.4050   177.3640   155.3760   156.6400    25.1390 
  184.3750   -38.4580     2.1800    58.5970   192.7450   168.9650   179.3600    25.1230 
  184.5000   -38.2510     2.1780    56.4580   206.4390   181.0260   210.9820    25.1200 
  184.6250   -38.0200     2.1680    56.1290   214.6860   187.9890   231.0210    25.1280 
  184.7500   -37.8360     2.1490    57.9780   213.1120   185.6390   240.0550    25.1470 
  184.8750   -37.6450     2.1350    59.1090   198.3740   171.3200   235.9500    25.1540 
  185.0000   -37.4600     2.1410    59.3670   176.6880   151.6260   208.4460    25.1160 
  185.1250   -37.2800     2.1590    59.4750   154.2780   132.3050   159.7160    25.0690 
  185.2500   -37.1280     2.1760    58.8320   135.7260   116.8430   122.1660    25.0420 
  185.3750   -36.9610     2.1930    56.8400   124.0110   107.2390   111.6100    25.0010 
  185.5000   -36.7890     2.2280    55.1160   118.2190   102.4830   105.0690    24.8720 
  185.6250   -36.6160     2.2890    55.5760   117.6710   101.9070    93.8300    24.6540 
  185.7500   -36.3770     2.3710    56.5830   121.3150   104.5740    97.8390    24.4700 
  185.8750   -36.1620     2.4580    55.1450   128.4550   109.8240   102.8100    24.5040 
  186.0000   -35.8860     2.5210    52.1210   137.4680   116.3040   115.5400    24.6050 
  186.1250   -35.6000     2.5380    50.8030   146.5390   122.3500   141.1790    24.6710 
  186.2500   -35.2720     2.5230    52.3650   151.4510   124.0220   144.5180    24.6950 
  186.3750   -34.8920     2.5190    54.9640   142.8900   113.3520   130.3510    24.7100 
  186.5000   -34.5090     2.5450    55.3850   120.8400    92.5010   153.1250    24.7080 
  186.6250   -34.0440     2.5820    53.8490    93.3220    69.8740   138.7070    24.7320 
  186.7500   -33.5750     2.6020    53.1750    69.9240    52.6140    78.0590    24.7530 
  186.8750   -33.0660     2.5880    55.2350    56.1910    43.5270    45.3780    24.7710 
  187.0000   -32.5560     2.5760    55.5720    49.5530    39.8030    38.6650    24.7840 
  187.1250   -32.0280     2.5950    51.1710    47.1620    39.1870    81.6980    24.8230 
  187.2500   -31.5120     2.6410    43.9450    45.4430    38.8910   217.6060    24.8270 
  187.3750   -30.9840     2.6700    40.1370    40.3930    35.4560   201.9790    24.8110 
  187.5000   -30.4410     2.6340    40.9290    32.3660    28.8620    81.7260    24.8100 
  187.6250   -29.9480     2.5280    42.9410    23.9700    21.3300    35.0780    24.8410 
  187.7500   -29.4920     2.3980    43.3430    17.3200    15.1290    17.6690    24.8560 
  187.8750   -29.1140     2.2980    42.1650    13.2810    11.4560    12.3260    24.8810 
