~V
VERS. 2.00: Ver 2.00
~W
STRT.M 55.0000:
STOP.M 288.0000:
STEP.M 0.1250:
NULL. -999.2500:
UWI. F10106:
~C
DEPT.M :
DEN.GM/CC :
SP.MV :
GR.API :
RML.OHMM :
RI. :
RXO.OHMM :
CALI.CM :
~A
# ...
  223.7500     2.2580   -21.6720    61.5740    32.4290    31.5480    29.4630    24.8660 
  223.8750     2.2740   -21.6780    61.0380    32.0670    31.0490    27.9720    24.6910 
  224.0000     2.2780   -21.7050    59.1840    32.4270    31.2140    27.2310    24.6210 
  224.1250     2.2660   -21.7450    56.2410    33.3920    32.0060    31.2550    24.6420 
  224.2500     2.2400   -21.7890    55.0490    34.4420    32.9890    36.2620    24.5950 
  224.3750     2.2100   -21.8410    55.8530    35.1760    33.7890    38.8310    24.4350 
  224.5000     2.1860   -21.8720    57.8360    35.3430    34.1190    36.7940    24.2210 
  224.6250     2.1800   -21.8810    59.8000    34.8670    33.8220    34.8070    24.0370 
  224.7500     2.1890   -21.8440    59.7900    34.1130    33.1810    34.2380    23.8600 
  224.8750     2.2100   -21.7610    58.5970    33.3840    32.4750    33.4070    23.6710 
  225.0000     2.2340   -21.6640    57.5540    32.8860    31.9140    31.1810    23.4760 
  225.1250     2.2520   -21.5840    58.8220    32.7660    31.6540    29.2200    23.3120 
  225.2500     2.2610   -21.5310    61.7150    33.0230    31.7160    27.8340    23.2310 
  225.3750     2.2650   -21.5030    63.2880    33.6960    32.1550    27.1210    23.2210 
  225.5000     2.2680   -21.5120    61.7640    34.7540    32.9660    26.6790    23.2540 
  225.6250     2.2710   -21.5640    58.7740    36.0340    34.0420    26.9970    23.3390 
  225.7500     2.2730   -21.6540    56.3200    37.1930    35.0750    28.5050    23.4540 
  225.8750     2.2730   -21.7680    54.9650    37.9660    35.8160    30.6220    23.5540 
  226.0000     2.2720   -21.8810    54.9570    38.2100    36.1070    31.8410    23.5920 
  226.1250     2.2700   -21.9760    57.1610    37.9300    35.8980    30.6820    23.5030 
  226.2500     2.2690   -22.0650    60.7750    37.4800    35.4750    29.0940    23.3780 
  226.3750     2.2710   -22.1420    61.7800    37.1440    35.0900    29.8630    23.3680 
  226.5000     2.2740   -22.2170    57.6820    37.0850    34.9170    32.3730    23.5180 
  226.6250     2.2800   -22.2750    53.2250    37.3030    34.9940    34.1430    23.6800 
  226.7500     2.2860   -22.3160    52.1470    37.5780    35.1490    33.7180    23.7660 
  226.8750     2.2890   -22.3240    53.1350    37.8030    35.2740    33.2190    23.8590 
  227.0000     2.2850   -22.3140    54.0960    38.0470    35.4010    34.9240    24.0350 
  227.1250     2.2710   -22.2930    54.9740    38.6400    35.8090    37.5580    24.3190 
  227.2500     2.2550   -22.2540    54.2290    39.8150    36.7310    40.1670    24.6480 
  227.3750     2.2420   -22.1970    51.2740    41.6000    38.2350    41.2820    24.9140 
  227.5000     2.2350   -22.1360    50.2100    43.7180    40.1210    43.2040    25.0230 
  227.6250     2.2280   -22.0680    52.8340    45.4530    41.8000    45.4040    25.0140 
  227.7500     2.2140   -22.0020    54.4010    46.0940    42.5920    47.9830    25.0020 
  227.8750     2.1920   -21.9290    53.6010    45.2010    42.0250    47.5600    24.9970 
  228.0000     2.1690   -21.8420    51.5500    42.7970    40.0310    42.3970    24.9720 
  228.1250     2.1580   -21.7250    49.2260    39.1320    36.9760    37.7470    24.8760 
  228.2500     2.1650   -21.5840    47.1170    35.3780    33.8090    34.5510    24.6840 
  228.3750     2.1880   -21.4120    47.1290    32.0940    31.0990    32.6740    24.4120 
  228.5000     2.2170   -21.1950    49.7760    29.3370    29.1400    31.7170    24.1320 
  228.6250     2.2380   -20.9150    52.5680    28.4230    28.0750    31.0610    23.9250 
  228.7500     2.2460   -20.5800    52.5390    28.0910    27.5850    30.0460    23.8050 
  228.8750     2.2360   -20.2290    50.9320    28.0460    27.4100    29.1490    23.7300 
  229.0000     2.2150   -19.8640    50.3530    27.9910    27.2690    29.4710    23.6540 
  229.1250     2.1900   -19.4900    51.7330    27.6520    26.8880    30.2160    23.5710 
  229.2500     2.1740   -19.1270    51.7510    27.0330    26.2330    29.6920    23.5090 
  229.3750     2.1730   -18.7810    50.0990    26.2770    25.4200    27.5690    23.4740 
  229.5000     2.1870   -18.4510    50.8980    25.5990    24.6440    25.8200    23.4370 
  229.6250     2.2070   -18.1610    54.4930    25.2200    24.1190    25.2730    23.3820 
  229.7500     2.2220   -17.9190    56.6440    25.1310    23.8620    25.2740    23.3020 
  229.8750     2.2270   -17.7080    56.0600    25.2400    23.8130    25.8680    23.1730 
  230.0000     2.2250   -17.5410    53.4910    25.4260    23.8680    26.2510    22.9850 
  230.1250     2.2190   -17.3980    51.5810    25.6100    23.9540    25.6940    22.8020 
  230.2500     2.2130   -17.2690    51.5570    25.7870    24.0460    24.5180    22.7230 
  230.3750     2.2060   -17.1520    52.2780    25.9490    24.1360    24.0750    22.6980 
  230.5000     2.2010   -17.0430    52.2830    26.0060    24.1520    24.6060    22.6640 
  230.6250     2.2000   -16.9480    50.1560    25.7070    23.8820    26.1680    22.6360 
  230.7500     2.2060   -16.8620    48.2080    24.9030    23.1820    27.2060    22.6250 
  230.8750     2.2180   -16.7760    47.6030    23.5420    21.9810    25.6740    22.6250 
  231.0000     2.2340   -16.6900    48.6350    21.7480    20.3650    22.1400    22.6370 
  231.1250     2.2500   -16.6430    50.7360    19.7940    18.5600    18.7100    22.6610 
  231.2500     2.2650   -16.6230    51.4900    17.9920    16.8580    16.0490    22.6960 
  231.3750     2.2760   -16.6220    51.1330    16.4850    15.3990    13.9380    22.7420 
  231.5000     2.2820   -16.6510    49.8340    15.2910    14.2190    12.8380    22.8090 
  231.6250     2.2760   -16.6880    47.6100    14.3870    13.3170    12.3140    22.8650 
  231.7500     2.2590   -16.7210    46.5220    13.6500    12.5920    11.8090    22.8830 
  231.8750     2.2340   -16.7390    47.3190    13.0380    12.0020    11.2530    22.8770 
  232.0000     2.2110   -16.7310    49.4030    12.5340    11.5240    10.7610    22.8760 
  232.1250     2.1970   -16.6950    51.3240    12.1590    11.1640    10.4590    22.8770 
  232.2500     2.1960   -16.6420    53.0200    11.9000    10.9040    10.2260    22.8540 
  232.3750     2.2050   -16.5910    54.3730    11.7460    10.7330    10.0040    22.8010 
  232.5000     2.2200   -16.5460    55.0910    11.6490    10.6340    10.0400    22.7430 
  232.6250     2.2390   -16.5090    55.5010    11.5610    10.5770    10.3070    22.7600 
  232.7500     2.2600   -16.4780    55.2930    11.4180    10.5220    10.5560    22.8780 
  232.8750     2.2780   -16.4820    53.4850    11.2100    10.4540    10.6540    23.1010 
  233.0000     2.2910   -16.5160    51.0610    11.0340    10.3700    10.6210    23.3610 
  233.1250     2.2910   -16.5730    49.9350    10.9020    10.2810    10.4580    23.5490 
  233.2500     2.2780   -16.6140    50.1410    10.8020    10.1960    10.2190    23.6220 
  233.3750     2.2520   -16.6300    50.3750    10.7070    10.1240     9.9680    23.5780 
  233.5000     2.2210   -16.6070    50.4290    10.6140    10.0690     9.7110    23.4730 
  233.6250     2.2030   -16.5660    51.2820    10.5780    10.0370     9.4720    23.3520 
  233.7500     2.2070   -16.5120    52.6920    10.5760    10.0280     9.3640    23.1940 
  233.8750     2.2290   -16.4590    54.8060    10.6490    10.0450     9.6030    23.0100 
  234.0000     2.2560   -16.4230    56.5970    10.7430    10.0840    10.0420    22.8710 
  234.1250     2.2740   -16.4180    57.6990    10.8370    10.1310    10.3370    22.8730 
  234.2500     2.2800   -16.4440    57.8930    10.9070    10.1620    10.5620    22.9620 
  234.3750     2.2790   -16.5050    55.8220    10.9340    10.1580    10.8310    23.0680 
  234.5000     2.2740   -16.6170    51.7580    10.9130    10.1100    11.0300    23.1720 
  234.6250     2.2580   -16.7470    48.6010    10.8640    10.0230    10.7400    23.3360 
  234.7500     2.2250   -16.8730    47.8420    10.8300     9.9410    10.3230    23.5870 
  234.8750     2.1790   -16.9820    47.7540    10.8450     9.8990    10.0880    23.8810 
