~V
VERS. 2.00: Ver 2.00
~W
STRT.M 52.0000:
STOP.M 216.0000:
STEP.M 0.1250:
NULL. -999.2500:
UWI. F10126:
~C
DEPT.M :
DEN.GM/CC :
GR.API :
RML.OHMM :
RI. :
RXO.OHMM :
CALI.CM :
SP.MV :
~A
# ...
  142.0000     2.2870    73.0250    74.1540    71.4720    50.9450    24.7810   -11.1410 
  142.1250     2.2940    72.6600    68.0010    66.0450    44.1440    24.4160   -11.0890 
  142.2500     2.3010    75.4890    63.4870    62.1690    43.8800    24.2200   -11.0340 
  142.3750     2.3130    79.8350    60.6450    59.9060    43.7400    23.9940   -11.0130 
  142.5000     2.3310    82.6210    59.1690    59.1310    43.7640    23.8600   -11.0180 
  142.6250     2.3440    82.0850    58.4050    59.3650    41.6320    23.8860   -11.0340 
  142.7500     2.3420    80.0380    57.2890    59.1980    42.7060    23.9720   -11.0670 
  142.8750     2.3210    77.8970    55.1840    57.4980    47.6890    24.1330   -11.1820 
  143.0000     2.2870    76.3800    52.0050    53.9620    47.8530    24.4050   -11.4260 
  143.1250     2.2560    76.1990    48.4470    49.4520    37.3490    24.6950   -11.7820 
  143.2500     2.2440    75.4190    45.9210    45.7660    26.2960    24.7830   -12.1920 
  143.3750     2.2520    73.5440    45.7800    44.3180    23.6870    24.7380   -12.6910 
  143.5000     2.2720    72.9480    49.2980    46.3190    32.2090    24.6560   -13.2890 
  143.6250     2.2880    74.7990    58.4890    53.8490    50.6240    24.7120   -13.9760 
  143.7500     2.2890    76.1140    73.2640    67.3190    73.7200    24.9600   -14.6770 
  143.8750     2.2710    73.9450    93.3990    87.1550   100.0590    25.1110   -15.2990 
  144.0000     2.2410    68.4080   117.4500   112.1880   122.4320    25.0350   -15.8700 
  144.1250     2.2100    65.2870   139.4920   138.4870   131.2360    24.8170   -16.4480 
  144.2500     2.1900    66.3080   160.8830   160.6350   114.1310    24.7280   -17.0380 
  144.3750     2.1800    67.0440   176.8930   175.7710    92.5990    24.3480   -17.6140 
  144.5000     2.1750    66.1990   186.8690   183.6490    89.4670    23.7730   -18.1410 
  144.6250     2.1650    66.8630   191.4650   185.6710    92.4850    23.4230   -18.6200 
  144.7500     2.1540    67.8920   194.0610   185.9640   113.2450    23.4130   -19.1340 
  144.8750     2.1500    67.0060   196.9030   187.1070   107.4760    23.5880   -19.7360 
  145.0000     2.1570    66.5420   201.4640   190.7130   111.1060    23.8120   -20.3600 
  145.1250     2.1690    69.2990   208.3100   197.6530   172.5800    23.9350   -20.9640 
  145.2500     2.1700    71.5390   215.9210   206.3890   388.8840    24.1510   -21.5960 
  145.3750     2.1550    70.6700   222.4850   214.7290   534.1430    24.6020   -22.2430 
  145.5000     2.1320    68.4710   226.3540   220.0860   442.8540    25.1690   -22.9290 
  145.6250     2.1200    68.0940   226.4790   220.2920   511.3700    25.2550   -23.6830 
  145.7500     2.1290    68.3680   224.7760   217.3650   353.3320    25.0380   -24.4330 
  145.8750     2.1580    67.5920   223.7480   214.2360   253.8110    24.6230   -25.1690 
  146.0000     2.1920    65.6630   226.2980   214.2920   252.9910    24.1610   -25.9630 
  146.1250     2.2040    65.0280   236.5340   221.9320   246.7670    24.0600   -26.7620 
  146.2500     2.1820    66.2970   255.7320   238.4500   153.5240    24.1440   -27.4740 
  146.3750     2.1320    65.8120   285.2930   265.4390   127.2140    24.3500   -28.1950 
  146.5000     2.0750    62.8360   325.6450   304.0090   153.9320    24.6870   -28.9460 
  146.6250     2.0420    61.6430   376.4910   355.1070   243.3770    24.9270   -29.6650 
  146.7500     2.0440    63.8800   431.3980   412.2420   326.5470    24.6410   -30.3820 
  146.8750     2.0710    66.3860   483.6500   467.7850   383.1240    24.0740   -31.0890 
  147.0000     2.1100    66.3990   526.0150   512.9690   341.8060    23.6620   -31.7660 
  147.1250     2.1460    66.1350   549.6850   537.5770   253.0800    23.4990   -32.4620 
  147.2500     2.1810    67.9310   555.1350   542.4040   229.5120    23.4360   -33.2480 
  147.3750     2.2160    71.6850   544.0730   529.4490   269.0370    23.4200   -34.0580 
  147.5000     2.2450    75.9790   520.6900   502.8130   320.0970    23.3920   -34.8400 
  147.6250     2.2470    76.5330   490.5640   468.4620   551.5360    23.2800   -35.5840 
  147.7500     2.2150    72.2220   461.3410   435.4580   503.1490    23.2480   -36.2210 
  147.8750     2.1580    66.7000   437.7170   408.9020   325.9590    23.6520   -36.7510 
  148.0000     2.0980    63.8620   422.7510   391.4750   203.7520    24.7290   -37.1750 
  148.1250     2.0630    64.2630   419.7180   385.8890   213.4590    25.7070   -37.4470 
  148.2500     2.0560    64.2390   427.1780   390.4280   240.0790    26.0800   -37.5890 
  148.3750     2.0640    62.0150   444.6780   404.4160   268.1170    26.0790   -37.5760 
  148.5000     2.0740    57.9980   471.4520   426.8050   265.3010    26.0410   -37.4600 
  148.6250     2.0780    55.0420   507.2080   457.2030   259.9410    26.0370   -37.3610 
  148.7500     2.0840    54.1630   546.9960   492.1830   303.0260    25.8160   -37.3470 
  148.8750     2.0990    54.2040   585.3760   528.4550   310.7090    25.1620   -37.3760 
  149.0000     2.1230    54.5060   617.2360   561.8550   211.2230    24.3890   -37.4660 
  149.1250     2.1450    56.3080   639.3730   587.1510   116.5750    23.9010   -37.6050 
  149.2500     2.1590    59.6310   653.7940   603.3820    77.9890    23.7020   -37.6540 
  149.3750     2.1630    63.1350   658.4450   609.1550    66.5120    23.6700   -37.6390 
  149.5000     2.1610    66.0690   647.7250   600.6390    65.5190    23.6830   -37.5440 
  149.6250     2.1600    66.9670   612.5250   567.3530    68.6430    23.6990   -37.1980 
  149.7500     2.1630    64.5240   557.3460   511.4320    85.8990    23.7470   -36.5990 
  149.8750     2.1710    61.0670   489.7350   441.8160   158.8450    23.8690   -35.6950 
  150.0000     2.1800    59.8260   420.0530   371.7650   277.0310    24.0760   -34.5160 
  150.1250     2.1880    60.7910   359.6250   313.8370   292.3680    24.2270   -33.1200 
  150.2500     2.1910    61.9100   312.0290   269.8830   213.2250    24.3010   -31.5470 
  150.3750     2.1900    63.6790   277.1290   238.7590   186.8650    24.2230   -29.8030 
  150.5000     2.1850    65.5300   252.3430   217.6770   179.7640    23.9980   -27.9240 
  150.6250     2.1790    66.1450   234.3380   203.6130   149.0760    23.6470   -26.0070 
  150.7500     2.1760    66.8640   217.8620   191.2120   127.4050    23.3420   -24.1970 
  150.8750     2.1790    69.4700   200.2990   177.3730   119.9140    23.2000   -22.6390 
  151.0000     2.1900    71.7300   180.7680   160.9530   128.0680    23.1690   -21.2660 
  151.1250     2.2090    70.6330   160.2500   143.3430   133.0520    23.1580   -20.0640 
  151.2500     2.2310    70.5550   141.0480   127.3020   129.0680    23.1250   -19.1310 
  151.3750     2.2490    73.6650   124.8520   114.3860   101.1170    23.0820   -18.4450 
  151.5000     2.2590    76.0320   112.6440   105.2340    75.7050    23.0750   -17.9860 
  151.6250     2.2580    73.3560   105.3000   100.4820    71.2450    23.1270   -17.6950 
  151.7500     2.2510    70.8520   101.4040    99.0660    77.6890    23.1890   -17.4430 
  151.8750     2.2420    72.4530    99.3830    99.9890    78.8350    23.2340   -17.1950 
  152.0000     2.2390    75.2170    96.8010   101.0190    68.1550    23.2630   -16.9380 
  152.1250     2.2530    73.5610    90.0960    96.8950    81.0490    23.2900   -16.6740 
  152.2500     2.2780    68.8990    78.3920    84.3110   100.3150    23.3450   -16.3820 
  152.3750     2.3090    65.4350    62.7880    64.6340   102.6390    23.4430   -16.0600 
  152.5000     2.3360    68.2510    46.0780    43.9310    77.7530    23.5410   -15.6960 
  152.6250     2.3510    77.5780    31.9460    28.6990    44.0220    23.6290   -15.3290 
  152.7500     2.3580    87.1190    21.7900    19.1380    20.8680    23.7400   -14.9840 
  152.8750     2.3610    93.1950    15.6110    13.8550    10.4180    23.8300   -14.6780 
  153.0000     2.3650    95.2780    12.7340    11.3960     7.3150    23.8810   -14.4860 
  153.1250     2.3690    94.3590    12.8490    11.1670     7.7930    23.8940   -14.4700 
