~V
VERS. 2.00: Ver 2.00
~W
STRT.M 49.0000:
STOP.M 290.0000:
STEP.M 0.1250:
NULL. -999.2500:
UWI. F10103:
~C
DEPT.M :
DEN.GM/CC :
SP.MV :
GR.API :
RML.OHMM :
RI. :
RXO.OHMM :
CALI.CM :
~A
# ...
  229.0000     2.3500    -8.9240    65.9630    14.5370    12.0140    17.1080    23.7760 
  229.1250     2.3400    -9.0280    66.6430    15.1270    12.9400    16.0720    23.7340 
  229.2500     2.3330    -9.1070    68.1610    14.8710    13.1440    14.2320    23.7280 
  229.3750     2.3290    -9.1630    67.7980    14.1270    12.8320    13.0320    23.7210 
  229.5000     2.3280    -9.2140    67.4410    13.1990    12.2360    12.3770    23.6900 
  229.6250     2.3290    -9.2620    69.9000    12.3200    11.5660    11.8090    23.6230 
  229.7500     2.3340    -9.2950    72.5570    11.6220    10.9580    11.3610    23.5300 
  229.8750     2.3420    -9.3070    70.8450    11.0670    10.4310    10.6710    23.4650 
  230.0000     2.3500    -9.3140    65.9010    10.6180     9.9770     9.4340    23.4150 
  230.1250     2.3570    -9.3320    62.2670    10.2700     9.6010     8.8470    23.4000 
  230.2500     2.3620    -9.3700    63.2490    10.0840     9.3560     8.5310    23.4350 
  230.3750     2.3660    -9.4330    65.6270    10.0750     9.2590     8.4240    23.4430 
  230.5000     2.3700    -9.5290    68.1490    10.2440     9.3190     8.5980    23.4150 
  230.6250     2.3750    -9.6590    71.0700    10.5460     9.5090     9.1220    23.3510 
  230.7500     2.3790    -9.8110    71.3700    10.8770     9.7590     9.8020    23.2500 
  230.8750     2.3830    -9.9780    69.0340    11.1060     9.9580    10.4280    23.1320 
  231.0000     2.3870   -10.1570    65.6090    11.1920    10.0510    11.2460    23.0470 
  231.1250     2.3910   -10.3550    61.6570    11.2340    10.0730    12.1320    23.0730 
  231.2500     2.3950   -10.5710    58.6650    11.6350    10.2760    12.2520    23.1870 
  231.3750     2.3980   -10.7980    58.6240    12.9090    11.0410    12.1640    23.3150 
  231.5000     2.3940   -11.0280    60.5320    15.6720    12.8740    15.1650    23.4350 
  231.6250     2.3780   -11.2740    59.5830    20.8420    16.3880    23.4690    23.5230 
  231.7500     2.3480   -11.5640    54.0530    29.2310    22.6570    37.6400    23.5890 
  231.8750     2.3120   -11.9080    48.8620    40.3030    31.4830    56.3960    23.6470 
  232.0000     2.2790   -12.3100    45.9090    53.0750    42.1530    68.7850    23.6700 
  232.1250     2.2540   -12.7390    46.1760    64.3910    53.0560    60.0460    23.6430 
  232.2500     2.2420   -13.1820    49.2430    71.7790    61.4110    53.4670    23.5990 
  232.3750     2.2370   -13.6420    52.2190    75.2510    66.1900    51.7380    23.5690 
  232.5000     2.2350   -14.1100    54.1290    76.2950    68.2200    52.9030    23.5580 
  232.6250     2.2350   -14.5910    54.6460    76.9660    69.2360    52.4730    23.5470 
  232.7500     2.2350   -15.0890    52.3720    78.4280    70.4690    51.9710    23.5220 
  232.8750     2.2370   -15.5770    49.3870    80.2990    71.9930    53.0640    23.4840 
  233.0000     2.2400   -16.0280    48.6060    81.9900    73.4700    55.3900    23.4440 
  233.1250     2.2410   -16.4600    51.4050    83.1700    74.6540    56.5280    23.4000 
  233.2500     2.2400   -16.8840    54.2060    83.9910    75.6440    55.4570    23.3740 
  233.3750     2.2390   -17.2810    55.1390    85.1740    76.9780    54.6710    23.3500 
  233.5000     2.2360   -17.6590    54.7250    87.4030    79.2410    56.4220    23.3560 
  233.6250     2.2330   -18.0280    53.5300    91.1660    82.8910    60.1370    23.3990 
  233.7500     2.2290   -18.3950    52.5520    96.8030    88.3320    64.2150    23.4710 
  233.8750     2.2250   -18.7700    52.6320   103.5940    94.9840    68.4940    23.5740 
  234.0000     2.2230   -19.1720    55.1020   110.7990   102.2120    72.3870    23.7250 
  234.1250     2.2270   -19.6000    58.4910   117.6140   109.2590    74.5910    23.8850 
  234.2500     2.2350   -20.0540    58.8970   123.1180   115.2300    74.8290    23.9870 
  234.3750     2.2450   -20.5350    55.9400   127.0400   119.7910    73.3910    23.9700 
  234.5000     2.2530   -21.0200    51.8690   129.4160   122.6470    71.3690    23.8580 
  234.6250     2.2590   -21.4640    50.7450   130.1890   123.4840    69.1310    23.7110 
  234.7500     2.2610   -21.8020    53.4880   128.7490   121.7070    67.2840    23.5710 
  234.8750     2.2610   -22.0140    55.7860   126.7200   118.1330    66.8860    23.4510 
  235.0000     2.2590   -22.0920    54.0970   123.9760   114.0320    66.9180    23.4010 
  235.1250     2.2530   -22.0410    50.4910   121.5030   111.1820    62.8090    23.4470 
  235.2500     2.2380   -21.8610    49.8140   122.3950   111.8740    59.7390    23.4870 
  235.3750     2.2190   -21.6040    50.7460   127.5060   116.3530    63.1270    23.4650 
  235.5000     2.2000   -21.3000    51.6050   135.9220   123.9640    71.1090    23.4410 
  235.6250     2.1860   -20.9800    52.7050   145.5370   132.9030    76.5260    23.5430 
  235.7500     2.1840   -20.6990    55.0700   152.9390   140.1880    76.1930    23.8830 
  235.8750     2.1890   -20.4940    56.0290   156.0160   143.8560    78.3300    24.2470 
  236.0000     2.1990   -20.3570    53.5850   154.4340   143.4430    85.0340    24.4410 
  236.1250     2.2090   -20.2740    49.2190   149.7210   140.0040    90.3600    24.4460 
  236.2500     2.2190   -20.2150    48.0810   144.3410   135.4570    92.9910    24.3710 
  236.3750     2.2280   -20.1430    49.4750   139.9720   131.5040    95.1590    24.2320 
  236.5000     2.2370   -20.0400    49.3510   136.8730   128.5780    98.7460    24.0860 
  236.6250     2.2430   -19.9120    48.1580   134.9210   126.6760    94.8120    23.9920 
  236.7500     2.2440   -19.7600    49.8410   134.3240   125.9990    90.0920    23.9640 
  236.8750     2.2370   -19.5850    52.2610   135.1480   126.5910    88.0000    23.9800 
  237.0000     2.2240   -19.4020    52.0110   137.6470   128.6910    90.6710    24.0260 
  237.1250     2.2110   -19.2180    49.8430   141.8720   132.3820    94.4720    24.1650 
  237.2500     2.2030   -19.0420    49.2120   147.6060   137.5350    97.1720    24.4640 
  237.3750     2.2040   -18.8570    48.9390   153.6360   143.0790   100.3790    24.7050 
  237.5000     2.2140   -18.6610    46.9880   158.7480   147.9400   103.5250    24.7830 
  237.6250     2.2280   -18.4500    44.1080   161.7750   151.0780   103.7400    24.7140 
  237.7500     2.2380   -18.2030    44.5920   161.4280   151.3450   102.1040    24.5500 
  237.8750     2.2420   -17.9150    48.5150   158.1460   149.0390   101.5120    24.3640 
  238.0000     2.2380   -17.5820    52.1020   152.5570   144.5780    93.7300    24.1850 
  238.1250     2.2300   -17.2010    52.6220   145.6730   138.7010    87.4350    23.9650 
  238.2500     2.2220   -16.7320    51.6110   138.7130   132.3580    84.1120    23.7770 
  238.3750     2.2220   -16.2060    51.3220   132.7930   126.6730    87.2520    23.7730 
  238.5000     2.2340   -15.6360    51.6520   128.8360   122.7090    94.0800    23.9710 
  238.6250     2.2640   -15.0370    51.8320   127.8220   121.7540   102.2680    24.1980 
  238.7500     2.3180   -14.4140    51.7470   131.4750   126.0370   109.1210    24.2910 
  238.8750     2.3880   -13.7820    51.9650   139.1900   135.3160   121.1750    24.3360 
  239.0000     2.4610   -13.1480    52.4120   148.4340   147.4840   147.5740    24.3620 
  239.1250     2.5210   -12.5120    51.7880   153.8100   157.0570   188.9680    24.3440 
  239.2500     2.5440   -11.9000    49.8670   146.1310   153.8820   220.6270    24.2930 
  239.3750     2.5270   -11.3230    48.0010   122.4640   133.5280   233.9950    24.2320 
  239.5000     2.4670   -10.7820    46.8850    86.8130    97.9290   210.1150    24.2020 
  239.6250     2.3620   -10.2670    47.2060    51.8780    59.2170    82.0360    24.2360 
  239.7500     2.2240    -9.8040    47.5800    29.3240    32.6500    24.5590    24.4440 
  239.8750     2.0910    -9.3920    44.8710    16.5320    17.7470     8.2260    24.9860 
  240.0000     1.9900    -9.0380    40.2700     9.9080    10.2800     4.5540    26.0610 
  240.1250     1.9580    -8.7360    38.8090     6.7700     6.7560     4.1100    27.7730 
