~V
VERS. 2.00: Ver 2.00
~W
STRT.M 52.0000:
STOP.M 233.0000:
STEP.M 0.1250:
NULL. -999.2500:
UWI. F10175:
~C
DEPT.M :
GR.API :
RML.OHMM :
RI. :
RXO.OHMM :
CALI.CM :
DEN.GM/CC :
SP.MV :
~A
# ...
  119.5000    85.1230     4.6360     3.9220     4.3550    23.5560     2.3130    -4.2540 
  119.6250    84.9170     4.5720     3.7460     4.4510    23.5560     2.2920    -4.3890 
  119.7500    87.9250     5.0020     3.8970     4.3770    23.5140     2.2640    -4.6450 
  119.8750    87.7570     6.0410     4.4880     4.5470    23.4810     2.2470    -4.9730 
  120.0000    80.9950     7.6640     5.6320     5.7850    23.5270     2.2600    -5.3080 
  120.1250    73.2070     9.5030     7.3450     8.5610    23.6970     2.3240    -5.4670 
  120.2500    67.9220    10.7970     8.9690    14.2710    23.8710     2.4130    -5.5380 
  120.3750    64.0940    10.9650     9.5450    23.7280    24.0100     2.4880    -5.5560 
  120.5000    65.0050     9.8910     8.6020    21.3480    24.1180     2.5140    -5.5670 
  120.6250    75.2770     8.0170     6.8150    10.2840    24.2950     2.4730    -5.7080 
  120.7500    87.4450     6.2740     5.2920     5.0270    24.5410     2.4030    -5.9330 
  120.8750    92.5660     5.1340     4.3400     4.0070    24.6940     2.3370    -6.2740 
  121.0000    89.7960     4.6920     3.9470     4.4590    24.6120     2.2950    -6.6600 
  121.1250    82.9000     4.8120     4.0410     5.1980    24.3900     2.2770    -7.0370 
  121.2500    77.4130     5.0970     4.3460     5.4870    24.1890     2.2650    -7.2690 
  121.3750    77.0260     5.3110     4.6420     5.3200    24.0520     2.2480    -7.3250 
  121.5000    82.5100     5.3170     4.7420     5.0840    23.8450     2.2260    -7.1780 
  121.6250    90.5210     5.0680     4.5550     4.7380    23.7320     2.2070    -6.7190 
  121.7500    96.2030     4.6950     4.2160     4.0630    23.7840     2.2010    -6.0850 
  121.8750    99.7730     4.3090     3.8410     3.7620    23.8490     2.2090    -5.3240 
  122.0000   102.9300     3.9930     3.5120     3.7010    23.8370     2.2300    -4.5710 
  122.1250   105.8270     3.8060     3.2810     3.6130    23.7970     2.2580    -3.9500 
  122.2500   107.5220     3.7230     3.1310     3.5120    23.7440     2.2860    -3.5030 
  122.3750   104.5500     3.7100     3.0330     3.4860    23.6660     2.3090    -3.2560 
  122.5000    97.4070     3.7200     2.9510     3.4670    23.5750     2.3250    -3.1540 
  122.6250    94.9570     3.6970     2.8470     3.2180    23.5620     2.3370    -3.2170 
  122.7500    99.7370     3.6070     2.7070     3.1230    23.5710     2.3450    -3.3510 
  122.8750   103.5760     3.4550     2.5330     3.0770    23.5670     2.3500    -3.5530 
  123.0000   100.2710     3.2860     2.3530     3.0200    23.5370     2.3480    -3.7810 
  123.1250    95.0960     3.2140     2.2410     3.0030    23.5560     2.3360    -3.9950 
  123.2500    93.2500     3.3370     2.2800     3.0350    23.5510     2.3280    -4.2540 
  123.3750    91.0990     3.7550     2.5570     3.1910    23.4730     2.3380    -4.5220 
  123.5000    84.7500     4.5520     3.1500     3.9690    23.3970     2.3770    -4.8880 
  123.6250    76.8980     5.7580     4.1450     6.3960    23.5090     2.4340    -5.3030 
  123.7500    71.7990     7.0360     5.3410    10.7080    23.6170     2.4710    -5.7420 
  123.8750    68.9880     7.9750     6.3860    13.7010    23.5790     2.4630    -6.1410 
  124.0000    67.4490     8.2290     6.8430    12.0350    23.4440     2.4040    -6.4660 
  124.1250    67.1720     7.6320     6.4300     8.4190    23.3070     2.3160    -6.7060 
  124.2500    68.8320     6.6050     5.5880     6.2740    23.3540     2.2440    -6.8290 
  124.3750    72.5460     5.5050     4.6790     5.2360    23.5200     2.2090    -6.7870 
  124.5000    79.4500     4.5890     3.9140     4.3920    23.6960     2.2110    -6.5500 
  124.6250    86.7970     3.9960     3.3900     3.8570    23.7780     2.2340    -6.1850 
  124.7500    92.6570     3.6430     3.0520     3.9270    23.8040     2.2540    -5.7550 
  124.8750    95.4100     3.4640     2.8560     3.9310    23.8160     2.2630    -5.4070 
  125.0000    94.5350     3.4060     2.7660     3.8250    23.8980     2.2590    -5.1980 
  125.1250    93.6420     3.4330     2.7620     3.5480    24.1080     2.2510    -5.1640 
  125.2500    93.4420     3.4880     2.7960     3.4630    24.2870     2.2450    -5.2140 
  125.3750    92.3310     3.5270     2.8330     3.6150    24.1930     2.2440    -5.3620 
  125.5000    89.4950     3.5140     2.8350     3.9980    23.9920     2.2490    -5.5410 
  125.6250    91.3400     3.4110     2.7680     4.0310    24.0850     2.2600    -5.7420 
  125.7500    96.3680     3.2410     2.6420     3.7580    24.4500     2.2690    -5.9550 
  125.8750    98.8070     3.0340     2.4810     3.3790    24.7670     2.2750    -6.1060 
  126.0000    97.7460     2.8300     2.3150     3.0470    24.7920     2.2760    -6.1750 
  126.1250    96.7380     2.6700     2.1790     2.9420    24.2500     2.2770    -6.1440 
  126.2500   100.3100     2.5650     2.0850     2.9800    23.8600     2.2820    -6.0940 
  126.3750   105.3370     2.5140     2.0340     2.9980    23.7230     2.2910    -6.0680 
  126.5000   105.6440     2.5050     2.0190     2.9630    23.8510     2.2970    -6.1490 
  126.6250    99.8160     2.5280     2.0290     3.0120    24.2090     2.2930    -6.3420 
  126.7500    95.6170     2.5630     2.0470     3.1030    24.6140     2.2840    -6.5570 
  126.8750    96.3370     2.5980     2.0640     3.1070    24.9710     2.2770    -6.7620 
  127.0000    97.8320     2.6230     2.0770     3.1050    25.2030     2.2790    -6.9000 
  127.1250    98.1900     2.6200     2.0760     3.0730    25.2620     2.2870    -6.9210 
  127.2500   100.7840     2.5880     2.0590     2.9960    25.1970     2.2940    -6.8420 
  127.3750   105.1340     2.5290     2.0260     2.9670    25.0710     2.2940    -6.6170 
  127.5000   107.5960     2.4540     1.9840     2.9700    24.9110     2.2890    -6.2660 
  127.6250   106.2090     2.3800     1.9430     2.7980    24.6420     2.2820    -5.8180 
  127.7500   103.4720     2.3230     1.9110     2.6300    24.3890     2.2760    -5.4120 
  127.8750   100.8200     2.2940     1.8970     2.6430    24.2400     2.2690    -5.0790 
  128.0000    99.2030     2.2990     1.9030     2.7930    24.2640     2.2630    -4.8750 
  128.1250    99.6690     2.3490     1.9360     2.9120    24.4050     2.2600    -4.7890 
  128.2500   101.1410     2.4260     1.9910     2.8150    24.4050     2.2600    -4.7840 
  128.3750   100.0680     2.5080     2.0530     2.6440    24.2790     2.2630    -4.8570 
  128.5000    96.3780     2.5610     2.0990     2.6750    24.0660     2.2680    -4.9650 
  128.6250    93.3850     2.5410     2.0910     2.8040    23.8430     2.2730    -5.0880 
  128.7500    92.5000     2.4460     2.0210     2.7930    23.7240     2.2770    -5.1660 
  128.8750    94.7950     2.2950     1.8960     2.5830    23.7120     2.2770    -5.2050 
  129.0000    99.2500     2.1300     1.7430     2.3220    23.7300     2.2730    -5.2240 
  129.1250   108.1510     2.0100     1.6080     2.1750    23.6900     2.2670    -5.2920 
  129.2500   117.9310     1.9670     1.5230     2.2110    23.6580     2.2650    -5.4250 
  129.3750   120.7000     2.0040     1.5010     2.3720    23.6230     2.2700    -5.6590 
  129.5000   114.1700     2.0960     1.5340     2.6280    23.5710     2.2800    -6.0000 
  129.6250   105.7470     2.2010     1.5970     2.9710    23.4540     2.2890    -6.3840 
  129.7500   101.0510     2.2850     1.6540     3.3220    23.2950     2.2880    -6.7410 
  129.8750    97.5640     2.3570     1.6990     3.3440    23.1990     2.2780    -7.0550 
  130.0000    94.8260     2.4640     1.7560     3.2410    23.2800     2.2630    -7.2750 
  130.1250    95.3240     2.6890     1.8850     3.0940    23.4630     2.2530    -7.3850 
  130.2500    93.3460     3.0410     2.1110     3.1820    23.5860     2.2580    -7.3590 
  130.3750    86.4880     3.4790     2.4280     3.8960    23.6910     2.2840    -7.2510 
  130.5000    80.3880     3.9100     2.7840     5.5020    23.8900     2.3260    -7.0550 
  130.6250    79.3190     4.2040     3.0780     7.3970    24.1450     2.3760    -6.8970 
