~V
VERS. 2.00: Ver 2.00
~W
STRT.M 58.0000:
STOP.M 213.0000:
STEP.M 0.1250:
NULL. -999.2500:
UWI. F10138:
~C
DEPT.M :
GR.API :
RML.OHMM :
RI. :
RXO.OHMM :
CALI.CM :
DEN.GM/CC :
SP.MV :
~A
# ...
  148.0000    62.2860    14.3000    10.7220    12.9110    27.0690     2.2800   -13.9620 
  148.1250    65.9500    15.8710    11.9010    15.1490    27.4420     2.2680   -13.9630 
  148.2500    68.8710    17.6440    13.2810    15.8360    27.6810     2.2560   -13.9890 
  148.3750    69.3750    19.6310    14.8450    16.4500    27.7990     2.2430   -14.0230 
  148.5000    65.5990    21.8030    16.5760    18.3940    27.8180     2.2300   -14.0880 
  148.6250    60.7750    23.8750    18.3380    21.0780    27.7440     2.2190   -14.2250 
  148.7500    57.2410    25.2780    19.7590    22.4880    27.7550     2.2090   -14.3640 
  148.8750    56.2200    25.3850    20.3420    23.1440    27.8210     2.2000   -14.4720 
  149.0000    58.2120    23.8440    19.6800    23.2140    27.9730     2.1920   -14.5550 
  149.1250    60.5870    20.8400    17.7070    21.4680    27.9630     2.1890   -14.6550 
  149.2500    61.7190    17.5840    15.3060    17.5350    27.9730     2.1960   -14.7340 
  149.3750    63.0320    14.8780    13.1380    12.7340    27.8010     2.2110   -14.7900 
  149.5000    67.9530    13.1250    11.6010    10.0730    27.7020     2.2310   -14.8400 
  149.6250    72.6610    12.5380    10.9540     9.9080    27.6510     2.2470   -14.9080 
  149.7500    70.9330    12.7910    11.0210    10.5140    27.7560     2.2540   -14.9880 
  149.8750    64.8270    13.6140    11.6490    11.5660    28.0280     2.2520   -15.0680 
  150.0000    60.4510    14.5990    12.5590    13.2890    28.2740     2.2450   -15.1540 
  150.1250    61.7550    15.1190    13.2510    14.0110    28.3900     2.2390   -15.2330 
  150.2500    63.5560    14.8870    13.3600    13.6070    28.4080     2.2380   -15.3180 
  150.3750    63.9490    14.0390    12.8740    13.1830    28.4050     2.2430   -15.4580 
  150.5000    64.3410    13.0170    12.0860    12.1690    28.3780     2.2530   -15.6400 
  150.6250    65.8930    12.3540    11.4180    10.3610    28.4530     2.2600   -15.8240 
  150.7500    68.6840    12.2360    11.1080     9.3960    28.6880     2.2590   -16.1180 
  150.8750    70.4730    12.6740    11.2240    10.4000    29.0390     2.2520   -16.5580 
  151.0000    69.2900    13.6030    11.7470    13.5950    29.4830     2.2450   -17.0780 
  151.1250    67.9110    15.1040    12.7070    15.3390    29.5900     2.2510   -17.7730 
  151.2500    68.3400    17.3560    14.1300    15.3090    29.6580     2.2720   -18.6450 
  151.3750    67.4550    20.8960    16.3060    16.5820    29.7850     2.2990   -19.5680 
  151.5000    63.8730    26.5720    19.8270    19.9210    30.1070     2.3180   -20.4930 
  151.6250    62.2480    36.4500    26.5380    29.2530    30.7740     2.3090   -21.4770 
  151.7500    63.7340    51.8520    38.1670    56.2860    31.6670     2.2780   -22.4510 
  151.8750    63.3310    74.5350    56.7470   113.7250    32.4650     2.2400   -23.3520 
  152.0000    58.9220   105.1570    82.8940   173.3180    33.1370     2.2090   -24.1890 
  152.1250    53.7210   139.9630   112.9200   187.4280    33.3360     2.1940   -24.9240 
  152.2500    51.5610   166.7800   136.6680   201.0310    33.4740     2.1910   -25.5220 
  152.3750    52.6820   176.5020   146.9220   208.2940    33.7410     2.1940   -26.0500 
  152.5000    53.8870   171.2850   144.2880   196.3460    34.0700     2.1960   -26.5610 
  152.6250    52.9610   161.9620   136.0090   165.9480    34.3810     2.1960   -26.9800 
  152.7500    51.1400   157.3130   130.1420   139.5770    34.7210     2.1960   -27.3470 
  152.8750    50.7950   160.5610   130.3280   124.8030    35.1460     2.1950   -27.7140 
  153.0000    51.4270   173.7970   139.0880   132.1920    35.4750     2.1920   -28.0660 
  153.1250    50.0770   200.8160   160.0980   184.6480    35.7030     2.1870   -28.3760 
  153.2500    46.5460   239.9290   191.5530   278.7970    36.0200     2.1810   -28.6630 
  153.3750    43.0840   287.2600   229.8960   371.8190    36.2290     2.1730   -28.9530 
  153.5000    42.3400   332.1180   267.1920   451.9400    36.3660     2.1680   -29.2170 
  153.6250    44.3700   354.6300   289.9440   462.4420    36.5840     2.1680   -29.4680 
  153.7500    46.2970   350.9870   294.3610   411.9700    36.8520     2.1750   -29.7190 
  153.8750    47.0910   327.5390   283.1960   337.0880    37.2000     2.1890   -29.9470 
  154.0000    46.7450   292.4940   261.5680   294.4170    37.4580     2.2090   -30.1970 
  154.1250    46.4410   250.2660   231.8970   295.8890    37.6660     2.2280   -30.4370 
  154.2500    46.1150   206.4890   197.9300   301.0030    37.8750     2.2430   -30.6930 
  154.3750    46.5210   166.0120   163.3270   258.1550    37.9870     2.2530   -30.9720 
  154.5000    49.4210   132.6320   132.2580   195.3890    38.0610     2.2560   -31.2320 
  154.6250    55.4590   109.1300   108.7930   141.0290    38.3030     2.2530   -31.4690 
  154.7500    60.0580    93.2760    92.3960    96.9820    38.5790     2.2470   -31.7010 
  154.8750    60.2940    83.6500    82.1830    74.9540    38.8610     2.2430   -31.9360 
  155.0000    57.7400    78.9270    76.9460    66.7570    39.2100     2.2410   -32.1080 
  155.1250    56.7250    78.7060    76.2470    64.9750    39.6130     2.2410   -32.2510 
  155.2500    56.6750    81.7460    78.8110    63.6570    39.9850     2.2410   -32.4150 
  155.3750    56.2520    87.7010    84.3090    64.8950    40.1220     2.2360   -32.5110 
  155.5000    56.2530    96.0600    92.2730    68.8860    40.2620     2.2260   -32.5940 
  155.6250    57.7040   105.7920   101.7740    84.7190    40.4780     2.2110   -32.7270 
  155.7500    58.3610   114.6140   110.5870   110.3480    40.6260     2.1960   -32.8000 
  155.8750    56.0890   120.3420   116.5640   131.8370    40.7760     2.1840   -32.8220 
  156.0000    50.7100   121.6770   118.2690   136.6550    40.9630     2.1740   -32.8780 
  156.1250    45.8360   118.9770   115.5900   124.3950    41.2190     2.1660   -32.9160 
  156.2500    45.1720   115.5270   111.4940   108.1530    41.4490     2.1590   -32.8580 
  156.3750    47.0020   113.6770   108.2930    98.5090    41.5880     2.1520   -32.8150 
  156.5000    48.8460   114.8040   107.5470    98.7290    41.6780     2.1440   -32.7900 
  156.6250    48.7630   119.7510   110.3170   105.9560    41.6910     2.1360   -32.7010 
  156.7500    49.5070   127.3470   115.6820   112.0550    41.6920     2.1300   -32.6640 
  156.8750    50.7170   136.5950   122.7370   115.5220    41.6790     2.1240   -32.6580 
  157.0000    50.3580   146.4180   130.4170   123.3870    41.6740     2.1170   -32.6160 
  157.1250    49.2540   155.7940   137.7170   138.9240    41.6750     2.1060   -32.6160 
  157.2500    50.0440   164.4640   144.3990   144.0540    41.6820     2.0920   -32.6910 
  157.3750    52.8550   172.7010   150.7560   137.5340    41.6840     2.0750   -32.7080 
  157.5000    55.2500   180.9370   157.2280   136.2870    41.6900     2.0580   -32.6440 
  157.6250    53.3170   189.3320   163.9500   147.8870    41.6820     2.0440   -32.5930 
  157.7500    48.8730   197.3800   170.3760   159.3030    41.6590     2.0350   -32.4570 
  157.8750    45.9400   204.3410   175.8700   162.4090    41.6290     2.0320   -32.2150 
  158.0000    46.3920   209.6500   180.0610   158.4030    41.6010     2.0320   -31.9400 
  158.1250    48.8020   213.0720   182.9340   152.8370    41.5950     2.0320   -31.5590 
  158.2500    48.4800   215.4840   185.2040   149.0680    41.5740     2.0300   -31.0540 
  158.3750    46.7960   217.2850   187.1960   154.9680    41.5330     2.0260   -30.5430 
  158.5000    46.9420   218.3050   188.8060   178.8310    41.5190     2.0220   -30.0450 
  158.6250    47.8220   217.5540   189.3130   199.5640    41.5180     2.0200   -29.4630 
  158.7500    46.5610   214.8270   188.4560   198.7290    41.5150     2.0230   -28.9210 
  158.8750    43.7280   210.6400   186.4870   183.8170    41.5020     2.0280   -28.4200 
  159.0000    43.3930   206.0670   184.1580   179.9620    41.4520     2.0320   -27.8820 
  159.1250    45.7410   201.5920   182.0350   177.9300    41.4370     2.0350   -27.4010 
