~V
VERS. 2.00: Ver 2.00
~W
STRT.M 57.0000:
STOP.M 247.0000:
STEP.M 0.1250:
NULL. -999.2500:
UWI. F10194:
~C
DEPT.M :
SP.MV :
DEN.GM/CC :
GR.API :
RML.OHMM :
RI. :
RXO.OHMM :
CALI.CM :
~A
# ...
  192.0000   -24.0150     2.3250    74.3960    29.6660    29.3530    19.3540    25.5270 
  192.1250   -24.2870     2.3020    75.1780    30.8840    29.9720    20.9720    25.4340 
  192.2500   -24.6280     2.2790    76.7250    32.8950    31.4620    23.2010    25.3260 
  192.3750   -24.9960     2.2650    77.3640    35.1870    33.3920    25.4810    25.2270 
  192.5000   -25.3480     2.2610    75.9140    37.2450    35.2400    27.5020    25.1540 
  192.6250   -25.6440     2.2650    74.1420    38.7640    36.6260    28.6360    25.0970 
  192.7500   -25.9010     2.2710    74.9070    39.7210    37.4350    28.4700    25.0420 
  192.8750   -26.1060     2.2730    77.5750    40.3350    37.7780    28.2700    24.9790 
  193.0000   -26.2290     2.2720    78.7200    40.9900    37.9720    28.7870    24.8940 
  193.1250   -26.2770     2.2700    77.2280    42.0550    38.3500    29.6350    24.7430 
  193.2500   -26.2880     2.2690    75.3010    43.8560    39.2050    30.3860    24.5340 
  193.3750   -26.2630     2.2630    74.3710    46.9260    40.9950    31.0840    24.4000 
  193.5000   -26.2320     2.2520    72.9830    51.7350    44.1600    32.2550    24.3910 
  193.6250   -26.2910     2.2410    70.4090    58.7160    49.1410    34.8870    24.3590 
  193.7500   -26.4240     2.2330    68.3070    68.2620    56.3660    40.4970    24.2200 
  193.8750   -26.5730     2.2270    68.5100    80.6610    66.2260    49.7750    24.0580 
  194.0000   -26.8050     2.2190    69.9680    95.2480    78.2560    61.0750    23.9430 
  194.1250   -27.1400     2.2120    70.1650   110.7110    91.3760    71.9370    23.8780 
  194.2500   -27.5120     2.2070    68.6460   125.6030   104.3480    80.4880    23.8860 
  194.3750   -27.9270     2.2040    67.3720   138.1770   115.6670    86.7630    23.9350 
  194.5000   -28.3790     2.2010    66.9890   147.5070   124.4570    92.8810    23.9690 
  194.6250   -28.8060     2.2000    66.5020   153.4190   130.4710    99.8290    23.9920 
  194.7500   -29.2180     2.2020    65.7690   155.8680   133.6160   106.4710    24.0360 
  194.8750   -29.6570     2.2040    65.0370   154.5050   133.5340   110.8560    24.0980 
  195.0000   -30.0210     2.2040    63.7150   149.7290   130.4640   112.1720    24.1270 
  195.1250   -30.2740     2.2040    62.6220   142.6740   125.2310   110.5080    24.1010 
  195.2500   -30.4880     2.2080    63.7570   134.8380   118.9970   105.8350    24.0410 
  195.3750   -30.6640     2.2160    66.4530   128.1370   113.3840    98.7920    23.9900 
  195.5000   -30.7690     2.2240    67.9760   123.7890   109.6050    93.6960    23.9500 
  195.6250   -30.8130     2.2280    67.5030   122.0230   108.0800    93.2020    23.9150 
  195.7500   -30.8200     2.2290    66.7120   122.4090   108.5800    97.4220    23.9030 
  195.8750   -30.8120     2.2310    66.5900   124.0410   110.3940   103.4380    23.9140 
  196.0000   -30.7930     2.2350    66.3120   125.7130   112.4360   107.4810    23.9320 
  196.1250   -30.7600     2.2410    66.0770   126.4480   113.7710   108.8710    23.9260 
  196.2500   -30.7160     2.2450    66.8650   125.7390   113.8850   108.3330    23.8860 
  196.3750   -30.6720     2.2430    68.1360   123.4120   112.5550   106.2070    23.8640 
  196.5000   -30.6320     2.2330    68.4440   119.9250   110.1460   103.4940    23.8940 
  196.6250   -30.5950     2.2100    68.0530   115.9930   107.2830   100.9370    23.9790 
  196.7500   -30.5640     2.1690    68.1960   112.2410   104.5450    97.7150    24.1690 
  196.8750   -30.5220     2.1200    68.1470   109.2180   102.5100    93.2930    24.5320 
  197.0000   -30.4690     2.0860    66.9660   106.9300   101.3190    90.1810    24.9680 
  197.1250   -30.3740     2.0850    65.0580   104.8490   100.6050    90.2340    25.1790 
  197.2500   -30.1630     2.1130    63.2870   102.1910    99.6690    92.5350    24.9920 
  197.3750   -29.9010     2.1570    61.8240    98.0120    97.5290    93.9950    24.4560 
  197.5000   -29.6380     2.1990    60.3360    92.1520    93.6610    92.4330    24.0090 
  197.6250   -29.3380     2.2280    59.4750    84.9570    88.1340    87.5530    23.7980 
  197.7500   -28.9570     2.2410    60.4170    77.4200    81.3820    78.6320    23.7220 
  197.8750   -28.5210     2.2450    63.0380    69.9730    74.0820    68.2370    23.7270 
  198.0000   -28.0670     2.2510    66.3720    63.0690    66.9260    59.9930    23.7450 
  198.1250   -27.6440     2.2640    70.7910    57.1470    60.3750    53.5350    23.7120 
  198.2500   -27.3050     2.2770    75.7190    51.6320    54.6770    47.3820    23.7250 
  198.3750   -26.9660     2.2780    77.0770    47.9980    50.1260    42.0410    23.8650 
  198.5000   -26.5950     2.2690    74.0010    46.1170    46.9210    38.6260    24.0430 
  198.6250   -26.2710     2.2610    70.9430    45.4360    45.3920    37.0240    24.0550 
  198.7500   -26.0350     2.2610    70.7700    46.5270    46.2200    36.3740    23.8460 
  198.8750   -25.8640     2.2490    70.9970    51.3240    51.0340    38.7250    23.6310 
  199.0000   -25.7340     2.1900    68.6200    61.8620    61.5520    49.8470    23.7460 
  199.1250   -25.6110     2.0900    63.4690    79.7390    79.6280    75.5160    24.4290 
  199.2500   -25.4650     1.9930    57.7080   107.2240   107.0500   117.4400    25.5240 
  199.3750   -25.3300     1.9360    54.8160   147.5690   145.0160   171.6100    26.3780 
  199.5000   -25.2360     1.9260    55.0590   199.8810   190.7350   220.4150    26.7840 
  199.6250   -25.1470     1.9540    55.5560   259.5430   239.0250   246.1690    26.8860 
  199.7500   -25.0450     2.0240    54.3500   320.4700   285.2450   258.6480    26.6540 
  199.8750   -24.9410     2.1490    52.4280   376.9210   327.0650   275.0830    26.0750 
  200.0000   -24.8240     2.3220    51.1400   428.6050   366.5510   303.4950    25.4120 
  200.1250   -24.7200     2.5030    50.3540   474.4950   405.0030   341.7840    24.9180 
  200.2500   -24.6340     2.6400    49.7350   503.6820   436.4820   390.5240    24.6820 
  200.3750   -24.5750     2.7060    49.6000   497.0490   443.1780   447.8970    24.6080 
  200.5000   -24.5380     2.7280    50.2240   435.9330   409.4910   498.7110    24.5710 
  200.6250   -24.4960     2.7360    51.7120   327.4540   332.5420   513.7860    24.5080 
  200.7500   -24.4790     2.7370    53.2210   216.7480   229.1110   470.0570    24.3860 
  200.8750   -24.5060     2.7230    53.3830   122.7700   135.3370   355.6830    24.2020 
  201.0000   -24.5810     2.6840    52.7910    64.0970    72.6150   195.4520    24.0580 
  201.1250   -24.7110     2.6180    53.8470    35.0540    37.9890    77.1980    24.0480 
  201.2500   -24.9250     2.5390    59.0770    19.4160    21.1040    28.6030    24.1750 
  201.3750   -25.2370     2.4710    68.1930    13.1250    13.8570    15.0930    24.3660 
  201.5000   -25.5870     2.4270    76.9400    11.1870    11.0200    12.4920    24.5070 
  201.6250   -25.9720     2.4030    82.2250    10.7700    10.0710    12.6630    24.5670 
  201.7500   -26.3440     2.3920    84.5830    11.2330    10.1880    13.5200    24.5920 
  201.8750   -26.6390     2.3940    85.7280    12.1350    10.9410    14.5040    24.6080 
  202.0000   -26.8490     2.4030    86.3170    13.0430    11.8930    15.4330    24.6250 
  202.1250   -26.9560     2.4190    85.8300    13.5810    12.6190    16.1820    24.6370 
  202.2500   -26.9140     2.4390    83.7640    13.5040    12.7910    16.5640    24.6310 
  202.3750   -26.6440     2.4580    81.4650    12.7150    12.1990    16.0530    24.6050 
  202.5000   -26.1900     2.4670    81.7060    11.4710    11.0260    14.3770    24.5740 
  202.6250   -25.6380     2.4710    86.1510    10.1800     9.6710    11.9840    24.5640 
  202.7500   -25.0680     2.4770    93.2600     9.1570     8.4720     9.7230    24.5720 
  202.8750   -24.5570     2.4860    99.4950     8.6080     7.6730     8.5830    24.5850 
  203.0000   -24.1430     2.4880   102.7730     8.5020     7.3050     8.4980    24.6400 
  203.1250   -23.8450     2.4700   102.0900     8.7020     7.2800     8.8450    24.8250 
