~V
VERS. 2.00: Ver 2.00
~W
STRT.M 55.0000:
STOP.M 242.0000:
STEP.M 0.1250:
NULL. -999.2500:
UWI. F10187:
~C
DEPT.M :
GR.API :
RML.OHMM :
RI. :
RXO.OHMM :
CALI.CM :
DEN.GM/CC :
SP.MV :
~A
# ...
   77.5000    69.4110     8.7460     7.3050     8.5880    25.0560     2.0940   -27.6670 
   77.6250    69.5730     9.0920     7.3700     8.7420    25.3620     2.0830   -28.2620 
   77.7500    66.9350     9.8070     7.7340     8.8570    25.4140     2.0900   -28.6440 
   77.8750    63.7140    10.8150     8.3970     9.3030    25.2620     2.1280   -28.8860 
   78.0000    61.5150    11.8780     9.2420    11.2410    24.8880     2.1850   -28.9230 
   78.1250    60.9330    12.5400     9.9430    18.4320    24.5190     2.2300   -28.9160 
   78.2500    61.9930    12.5420    10.1670    27.3100    24.3770     2.2390   -28.9770 
   78.3750    64.0490    11.8770     9.8050    21.9740    24.3170     2.2110   -28.9720 
   78.5000    64.7140    10.8080     9.0330    11.9760    23.9810     2.1700   -28.9500 
   78.6250    64.0300     9.7660     8.1880     9.2160    23.6280     2.1430   -29.0820 
   78.7500    63.3210     9.0420     7.5320     8.5850    23.5660     2.1350   -29.2020 
   78.8750    62.1780     8.6880     7.1450     8.6770    23.6590     2.1390   -29.2400 
   79.0000    61.2760     8.6170     6.9960     8.8160    23.7120     2.1480   -29.3060 
   79.1250    61.4300     8.6850     7.0020     8.8620    23.6970     2.1570   -29.3830 
   79.2500    60.9020     8.7380     7.0320     8.8800    23.6950     2.1620   -29.4230 
   79.3750    60.0190     8.7250     7.0330     8.9530    23.7120     2.1640   -29.4180 
   79.5000    60.6860     8.6440     6.9880     8.9480    23.7100     2.1650   -29.3060 
   79.6250    62.4300     8.5260     6.9040     8.9340    23.6890     2.1680   -29.0740 
   79.7500    63.3890     8.4150     6.8070     9.0620    23.6960     2.1700   -28.8120 
   79.8750    63.8050     8.3270     6.7100     9.0520    23.7300     2.1670   -28.4950 
   80.0000    65.7820     8.2630     6.6210     8.8570    23.7450     2.1560   -28.1040 
   80.1250    67.9530     8.2110     6.5480     8.7400    23.6850     2.1400   -27.6660 
   80.2500    68.9170     8.1670     6.4910     8.7670    23.5120     2.1260   -27.1770 
   80.3750    68.1700     8.1470     6.4560     8.8520    23.2730     2.1190   -26.7590 
   80.5000    67.1540     8.1870     6.4610     9.0930    23.0290     2.1190   -26.5390 
   80.6250    66.5610     8.3380     6.5500     9.4670    22.8590     2.1250   -26.3670 
   80.7500    64.1380     8.5800     6.7260     9.7420    22.9190     2.1410   -26.2210 
   80.8750    61.4150     8.8560     6.9650    10.0240    23.1260     2.1670   -26.2360 
   81.0000    62.9880     9.0800     7.2100    10.8750    23.2040     2.2010   -26.3110 
   81.1250    66.2070     9.1370     7.3600    12.4450    22.9100     2.2310   -26.3580 
   81.2500    65.7680     9.0040     7.3610    12.7850    22.8350     2.2440   -26.4890 
   81.3750    63.4310     8.6990     7.2080    11.3590    23.1030     2.2360   -26.5750 
   81.5000    64.2390     8.2720     6.9310     9.9900    23.6070     2.2130   -26.3980 
   81.6250    66.7880     7.7860     6.5750     9.4920    24.0510     2.1910   -25.9450 
   81.7500    67.5880     7.3160     6.2030     9.2620    24.2550     2.1850   -25.1330 
   81.8750    69.9790     6.9060     5.8590     8.4720    24.2920     2.1970   -23.8880 
   82.0000    76.2380     6.5980     5.5760     7.2750    24.2250     2.2180   -22.4440 
   82.1250    83.8790     6.4490     5.4080     6.2500    24.0510     2.2330   -20.9700 
   82.2500    89.6220     6.4460     5.3630     5.9510    23.8820     2.2310   -19.4130 
   82.3750    91.9070     6.5590     5.4390     6.0370    23.7720     2.2130   -17.8200 
   82.5000    90.1180     6.7280     5.6030     6.2000    23.7020     2.1930   -16.3280 
   82.6250    87.8920     6.8570     5.7850     6.1150    23.6280     2.1880   -15.1140 
   82.7500    88.1830     6.8850     5.9060     5.9840    23.5790     2.2030   -14.2130 
   82.8750    89.9800     6.7990     5.9270     5.9090    23.5490     2.2300   -13.5530 
   83.0000    91.5800     6.6240     5.8440     5.6800    23.6010     2.2560   -13.0180 
   83.1250    93.3330     6.3920     5.6720     5.5520    23.9450     2.2710   -12.5240 
   83.2500    95.9330     6.1370     5.4550     5.4170    24.4250     2.2810   -12.0340 
   83.3750    97.5260     5.8640     5.2120     5.3220    24.7460     2.2940   -11.5790 
   83.5000    97.1850     5.5800     4.9510     5.2100    24.8540     2.3140   -11.2450 
   83.6250    97.0250     5.3460     4.6930     5.0780    24.7930     2.3350   -10.9650 
   83.7500    98.5660     5.2690     4.5080     4.9390    24.7060     2.3480   -10.7820 
   83.8750   101.1610     5.4700     4.5020     4.8380    24.6480     2.3460   -10.8710 
   84.0000   101.4520     6.0440     4.7800     4.9010    24.6200     2.3320   -11.2120 
   84.1250    99.0840     7.0460     5.4700     5.5460    24.6560     2.3140   -11.7200 
   84.2500    95.2440     8.2480     6.4930     8.2520    24.6790     2.2980   -12.4030 
   84.3750    88.6860     9.3560     7.6780    14.4210    24.5420     2.2820   -13.2930 
   84.5000    80.2050    10.0410     8.6810    16.0640    24.0880     2.2620   -14.1860 
   84.6250    74.9230    10.0140     9.0200    10.6920    23.5760     2.2360   -15.0710 
   84.7500    73.4130     9.5020     8.7520     7.9570    23.3020     2.2120   -15.8980 
   84.8750    74.3640     8.7980     8.1480     7.2960    23.1610     2.2000   -16.4490 
   85.0000    77.5570     8.1590     7.4930     7.2940    22.9740     2.2070   -16.6900 
   85.1250    82.8330     7.6990     6.9640     7.3210    22.7050     2.2320   -16.6620 
   85.2500    87.0610     7.3100     6.5210     7.0860    22.4520     2.2630   -16.3810 
   85.3750    89.3340     6.9000     6.0800     6.4270    22.2720     2.2910   -15.8390 
   85.5000    91.5600     6.4880     5.6130     5.8220    22.3030     2.3070   -15.2130 
   85.6250    94.2770     6.3090     5.2540     5.4840    22.7560     2.3090   -14.5960 
   85.7500    95.6200     6.6550     5.2040     5.4320    23.4190     2.3120   -14.0890 
   85.8750    94.4440     7.8140     5.6800     5.7630    23.8970     2.3340   -13.7930 
   86.0000    89.9140     9.9800     6.9090     7.0980    24.0860     2.3870   -13.7630 
   86.1250    82.2590    13.1650     9.2520    11.7630    24.1070     2.4620   -14.1020 
   86.2500    74.2740    16.4210    12.3410    23.2900    24.0670     2.5200   -14.7500 
   86.3750    69.2200    18.5060    15.1220    34.0390    23.9180     2.5320   -15.6190 
   86.5000    67.0370    18.4200    16.0110    29.7020    23.6740     2.4870   -16.6160 
   86.6250    65.9330    16.0290    14.3020    17.3510    23.3480     2.4010   -17.6870 
   86.7500    66.4230    13.0290    11.8250    10.7940    23.0240     2.3140   -18.6810 
   86.8750    69.0270    10.5870     9.7080     7.8100    22.7610     2.2480   -19.6240 
   87.0000    72.2280     9.1640     8.3160     6.9440    22.6050     2.2100   -20.5440 
   87.1250    73.9620     8.7110     7.6540     7.1700    22.7490     2.1940   -21.3210 
   87.2500    74.9330     8.6810     7.3760     7.4570    23.0970     2.1850   -21.9670 
   87.3750    75.9250     8.7820     7.2790     7.7750    23.4280     2.1770   -22.6140 
   87.5000    75.8720     8.8360     7.2190     7.9540    23.6680     2.1690   -23.2360 
   87.6250    74.6600     8.7700     7.1260     8.1030    23.8280     2.1590   -23.7310 
   87.7500    74.1400     8.6340     7.0150     8.1670    23.9120     2.1480   -24.2400 
   87.8750    74.5260     8.4820     6.9130     8.2270    23.9070     2.1370   -24.7280 
   88.0000    75.2690     8.3480     6.8350     8.2160    23.8880     2.1290   -25.1160 
   88.1250    75.2960     8.2520     6.7890     8.0670    23.8860     2.1270   -25.4550 
   88.2500    75.4350     8.1970     6.7720     8.0250    23.8920     2.1300   -25.7240 
   88.3750    75.7970     8.2010     6.7890     8.0320    23.9080     2.1340   -25.8260 
   88.5000    75.1910     8.2820     6.8450     8.1160    23.9220     2.1370   -25.8410 
   88.6250    73.5970     8.4390     6.9330     8.1750    23.9230     2.1410   -25.9420 
