~V
VERS. 2.00: Ver 2.00
~W
STRT.M 60.0000:
STOP.M 241.0000:
STEP.M 0.1250:
NULL. -999.2500:
UWI. F10158:
~C
DEPT.M :
SP.MV :
DEN.GM/CC :
GR.API :
RML.OHMM :
RI. :
RXO.OHMM :
CALI.CM :
~A
# ...
   93.7500    64.5820     2.2050    60.6160    10.0160     8.1010     8.6400    26.2410 
   93.8750    64.7220     2.1970    59.9180    10.2000     8.1190     9.2180    26.2410 
   94.0000    64.7960     2.1910    60.8850    10.3280     8.1500     9.8040    26.2410 
   94.1250    64.7850     2.1910    62.9080    10.2320     8.0830     9.6710    26.2380 
   94.2500    64.7260     2.1940    64.5070     9.9380     7.9030     9.1820    26.2340 
   94.3750    64.6650     2.1970    65.0780     9.5670     7.6640     8.6180    26.2310 
   94.5000    64.6490     2.1950    64.7540     9.2900     7.4650     8.2180    26.2220 
   94.6250    64.7270     2.1870    65.2230     9.2980     7.4350     8.2790    26.2030 
   94.7500    64.8850     2.1770    65.9710     9.6000     7.6110     8.7040    26.1860 
   94.8750    65.0930     2.1680    65.8100    10.1660     7.9970     9.1940    26.1800 
   95.0000    65.3310     2.1670    65.7960    10.9070     8.5540     9.7830    26.1820 
   95.1250    65.5840     2.1810    68.3340    11.6450     9.1730    11.8850    26.1880 
   95.2500    65.8240     2.2070    71.3250    12.1650     9.6750    16.9830    26.1930 
   95.3750    66.0270     2.2340    71.9850    12.3220     9.9240    24.9210    26.1930 
   95.5000    66.1730     2.2480    70.8210    12.0610     9.8480    31.8770    26.1880 
   95.6250    66.2290     2.2350    69.9480    11.3970     9.4210    28.8990    26.1600 
   95.7500    66.1890     2.2080    69.6040    10.5730     8.8130    20.0550    26.0980 
   95.8750    66.0660     2.1850    68.9280     9.7730     8.1620    12.9870    26.0210 
   96.0000    65.8820     2.1800    68.5960     9.1180     7.5780     9.6030    25.9610 
   96.1250    65.6720     2.1970    70.1480     8.6940     7.1470     8.6120    25.9430 
   96.2500    65.4600     2.2180    71.3020     8.4770     6.8740     8.1230    25.9410 
   96.3750    65.2520     2.2310    70.5610     8.4510     6.7590     7.9360    25.9420 
   96.5000    65.0330     2.2320    69.7380     8.6000     6.7920     8.1390    25.9460 
   96.6250    64.7550     2.2250    69.8160     8.9210     6.9830     8.1190    25.9360 
   96.7500    64.3880     2.2180    68.9290     9.3420     7.2810     7.9570    25.8750 
   96.8750    63.9140     2.2100    67.0690     9.7950     7.6400     8.2710    25.7570 
   97.0000    63.3420     2.1980    66.2980    10.2150     8.0050     9.1280    25.6360 
   97.1250    62.7080     2.1820    66.5380    10.5360     8.3140     9.7760    25.5820 
   97.2500    62.0740     2.1670    65.6030    10.7510     8.5430    10.3920    25.5760 
   97.3750    61.4830     2.1570    63.5240    10.8650     8.6810    11.3350    25.5810 
   97.5000    60.9810     2.1560    61.3210    10.9120     8.7470    12.1770    25.5850 
   97.6250    60.6170     2.1620    61.7730    10.9310     8.7670    11.8390    25.5870 
   97.7500    60.3730     2.1690    63.6040    10.9510     8.7720    11.0970    25.5830 
   97.8750    60.2320     2.1740    63.3470    10.9740     8.7710    10.7860    25.5790 
   98.0000    60.1550     2.1770    61.4410    10.9970     8.7630    10.9840    25.5780 
   98.1250    60.1230     2.1770    61.0840    11.0170     8.7520    11.8570    25.5790 
   98.2500    60.1110     2.1780    61.8880    11.0270     8.7420    13.1430    25.5790 
   98.3750    60.1140     2.1800    61.8680    11.0050     8.7240    13.6160    25.5790 
   98.5000    60.1400     2.1820    60.3600    10.9140     8.6730    12.6750    25.5780 
   98.6250    60.2090     2.1840    59.6110    10.7240     8.5610    11.6040    25.5790 
   98.7500    60.3440     2.1830    59.8790    10.4840     8.4070    11.3620    25.5890 
   98.8750    60.5520     2.1830    62.6750    10.2630     8.2500    11.3920    25.6110 
   99.0000    60.8280     2.1840    66.7770    10.1380     8.1400    10.9170    25.6480 
   99.1250    61.1610     2.1870    68.5720    10.1810     8.1340    10.2470    25.6910 
   99.2500    61.5080     2.1920    69.5880    10.3370     8.2130    10.0180    25.7230 
   99.3750    61.8420     2.1940    70.3500    10.5250     8.3400    10.3430    25.7350 
   99.5000    62.1430     2.1910    70.2670    10.6590     8.4600    10.8190    25.7350 
   99.6250    62.4050     2.1840    69.4710    10.6700     8.5170    10.8850    25.7350 
   99.7500    62.6610     2.1750    68.7180    10.5980     8.5120    10.6280    25.7350 
   99.8750    62.9270     2.1690    67.7830    10.5070     8.4700    10.2790    25.7350 
  100.0000    63.2330     2.1660    66.1180    10.4560     8.4280    10.0820    25.7340 
  100.1250    63.6040     2.1690    65.6910    10.4630     8.4070    10.1190    25.7340 
  100.2500    64.0240     2.1770    66.9220    10.4700     8.3860    10.2280    25.7410 
  100.3750    64.4750     2.1850    68.0030    10.4240     8.3410    10.3000    25.7570 
  100.5000    64.9550     2.1900    68.6540    10.2990     8.2580    10.2950    25.7760 
  100.6250    65.4450     2.1930    67.3790    10.1600     8.1710    10.2700    25.7850 
  100.7500    65.9290     2.1990    64.6900    10.1990     8.1930    10.3170    25.7870 
  100.8750    66.4170     2.2140    63.4580    10.6250     8.4700    10.4350    25.8060 
  101.0000    66.9120     2.2500    65.0320    11.5630     9.1200    10.4520    25.8560 
  101.1250    67.4040     2.3190    66.7440    13.0020    10.2160    11.1350    25.9160 
  101.2500    67.8750     2.3980    66.2760    14.5380    11.5290    14.6040    25.9510 
  101.3750    68.3010     2.4540    64.3790    15.7230    12.7560    23.1490    25.9320 
  101.5000    68.6490     2.4600    62.7600    16.1530    13.5380    33.7250    25.8290 
  101.6250    68.9120     2.4220    64.3090    15.6200    13.5550    29.6650    25.6480 
  101.7500    69.1300     2.3720    67.6760    14.5980    13.0380    19.1600    25.4950 
  101.8750    69.3320     2.3270    68.9960    13.4110    12.2100    13.9010    25.4330 
  102.0000    69.5640     2.2920    67.3490    12.2040    11.2170    13.7740    25.4360 
  102.1250    69.9010     2.2670    67.5740    10.9750    10.1170    14.5490    25.4460 
  102.2500    70.3760     2.2530    72.3700     9.7360     8.9850    12.8610    25.4730 
  102.3750    70.9890     2.2540    80.3770     8.5720     7.9060    10.0550    25.5510 
  102.5000    71.6910     2.2650    89.5040     7.6260     6.9840     7.6670    25.6660 
  102.6250    72.4010     2.2730    96.4340     7.0550     6.3520     6.1710    25.7530 
  102.7500    73.0290     2.2690    98.5040     6.7630     5.9690     5.5520    25.7860 
  102.8750    73.5150     2.2580    96.0110     6.6340     5.7700     5.6290    25.7900 
  103.0000    73.8100     2.2470    92.3700     6.5890     5.6980     5.8590    25.7840 
  103.1250    73.8540     2.2430    93.8360     6.6770     5.7730     5.9390    25.7500 
  103.2500    73.6810     2.2480    98.0020     6.9940     6.0330     6.0630    25.6960 
  103.3750    73.3070     2.2670    97.3100     7.6340     6.5410     6.3090    25.6420 
  103.5000    72.7710     2.3000    90.0230     8.6220     7.3230     6.7670    25.5820 
  103.6250    72.0930     2.3330    80.6740     9.8680     8.3470     7.7710    25.4610 
  103.7500    71.3400     2.3450    72.3570    11.0570     9.3870     9.3120    25.2970 
  103.8750    70.5620     2.3350    64.9230    11.8980    10.2020    10.7580    25.1590 
  104.0000    69.8040     2.3210    61.0400    12.2120    10.6030    11.3090    25.0960 
  104.1250    69.1270     2.3290    63.0670    11.9900    10.5080    10.9440    25.1150 
  104.2500    68.5590     2.3520    66.4520    11.5580    10.1560    10.4370    25.2320 
  104.3750    68.0900     2.3600    69.9550    11.1200     9.7190    10.0270    25.4640 
  104.5000    67.7100     2.3340    73.9730    10.7790     9.3040     9.6610    25.7320 
  104.6250    67.4000     2.2820    76.5090    10.5550     8.9600     9.4770    25.8540 
  104.7500    67.1210     2.2380    77.2620    10.3720     8.6640     9.5160    25.8130 
  104.8750    66.8690     2.2190    76.5790    10.1680     8.3930     9.6380    25.7110 
