~V
VERS. 2.00: Ver 2.00
~W
STRT.M 55.0000:
STOP.M 288.0000:
STEP.M 0.1250:
NULL. -999.2500:
UWI. F10106:
~C
DEPT.M :
DEN.GM/CC :
SP.MV :
GR.API :
RML.OHMM :
RI. :
RXO.OHMM :
CALI.CM :
~A
# ...
  246.2500     2.3910    -8.9770    69.3490    14.2780    14.2510    10.4420    23.6460 
  246.3750     2.3180    -8.5820    74.4770    11.3580    11.3090     7.4810    23.8830 
  246.5000     2.2670    -8.2600    74.3490     9.8560     9.6210     7.1110    24.0410 
  246.6250     2.2440    -7.9950    72.0970     9.4140     8.9360     7.2790    24.0930 
  246.7500     2.2430    -7.7640    71.3650     9.5970     8.8590     7.3320    24.0650 
  246.8750     2.2620    -7.5510    72.8070    10.4190     9.3690     7.4050    23.9840 
  247.0000     2.2960    -7.3520    75.3560    12.1310    10.6350     8.0050    23.9260 
  247.1250     2.3470    -7.1580    75.8350    15.5870    13.3840    11.0930    23.9830 
  247.2500     2.4070    -6.9690    71.3560    21.4520    18.2940    19.2720    24.0800 
  247.3750     2.4670    -6.7740    64.1640    30.6320    26.3470    34.1560    24.1290 
  247.5000     2.5170    -6.5870    59.3930    43.4760    38.0590    55.7210    24.1000 
  247.6250     2.5480    -6.4140    58.9290    58.3540    52.1860    84.3670    24.0350 
  247.7500     2.5660    -6.2520    58.0180    70.4780    64.1440   111.4720    23.9900 
  247.8750     2.5810    -6.1000    55.1430    74.8390    69.0120   130.2610    23.9730 
  248.0000     2.5980    -5.9400    51.4910    67.4970    62.9430   143.7390    23.9740 
  248.1250     2.6160    -5.7540    48.8040    49.6470    46.6990   138.2560    23.9700 
  248.2500     2.6210    -5.5240    49.5380    32.0200    30.1620   102.3150    23.9760 
  248.3750     2.6070    -5.2630    56.0710    19.4260    18.2140    55.5470    23.9930 
  248.5000     2.5760    -4.9650    68.6210    11.9100    11.1080    23.8900    23.9960 
  248.6250     2.5400    -4.6470    79.3120     8.3350     7.6850    11.3130    23.9530 
  248.7500     2.5090    -4.3210    82.5040     6.6920     6.0070     6.6470    23.8750 
  248.8750     2.4850    -3.9860    82.0100     6.1740     5.3610     5.4430    23.8050 
  249.0000     2.4650    -3.6570    82.5920     6.2550     5.3200     5.4710    23.8080 
  249.1250     2.4480    -3.3470    83.9340     6.5570     5.5910     5.8810    23.9020 
  249.2500     2.4400    -3.0510    82.7790     6.7550     5.8600     5.9890    24.0300 
  249.3750     2.4430    -2.7680    79.4590     6.7080     5.9570     5.8100    24.1330 
  249.5000     2.4520    -2.4990    75.4210     6.3990     5.8140     5.4580    24.1600 
  249.6250     2.4500    -2.2630    70.2730     5.9200     5.4630     4.9640    24.1210 
  249.7500     2.4260    -2.0590    63.2460     5.4510     5.0670     4.5080    24.0810 
  249.8750     2.3820    -1.9020    55.6950     5.0840     4.7230     4.2080    24.0700 
  250.0000     2.3320    -1.7860    49.8200     4.8490     4.4770     4.0250    24.1030 
  250.1250     2.2920    -1.7210    47.5850     4.7220     4.3410     3.9390    24.1770 
  250.2500     2.2680    -1.7110    48.5940     4.6530     4.2740     3.9020    24.2330 
  250.3750     2.2620    -1.7570    51.2630     4.6110     4.2530     3.9300    24.2280 
  250.5000     2.2710    -1.8620    54.1040     4.5510     4.2680     4.0480    24.1480 
  250.6250     2.2930    -2.0030    58.5170     4.5680     4.3110     4.2690    24.0270 
  250.7500     2.3140    -2.1700    65.9830     4.6130     4.3690     4.5500    23.9380 
  250.8750     2.3300    -2.3620    74.8050     4.6720     4.4370     4.8350    23.9160 
  251.0000     2.3370    -2.5790    80.2850     4.7390     4.5130     5.0610    23.9550 
  251.1250     2.3390    -2.8240    80.1580     4.8650     4.6200     5.1760    24.0300 
  251.2500     2.3430    -3.1010    77.8320     5.0820     4.7840     5.3300    24.1200 
  251.3750     2.3520    -3.3980    75.1630     5.4150     5.0350     5.6700    24.1970 
  251.5000     2.3660    -3.6910    72.7970     5.8720     5.3840     6.2030    24.2430 
  251.6250     2.3840    -3.9710    71.7520     6.3980     5.8200     6.9010    24.2710 
  251.7500     2.3990    -4.2160    71.5000     6.8970     6.2680     7.7100    24.2940 
  251.8750     2.4060    -4.4220    71.3850     7.3050     6.6660     8.3630    24.3040 
  252.0000     2.4000    -4.5860    70.9060     7.6100     6.9890     8.8360    24.3090 
  252.1250     2.3790    -4.6990    70.8230     7.8840     7.2700     8.7060    24.3150 
  252.2500     2.3520    -4.7720    71.6490     8.2350     7.5920     8.5010    24.3080 
  252.3750     2.3280    -4.8280    73.7370     8.7030     7.9900     8.5040    24.2760 
  252.5000     2.3160    -4.8850    75.0480     9.2190     8.4240     9.1610    24.2100 
  252.6250     2.3220    -4.9650    72.9630     9.5660     8.7320    10.0100    24.1100 
  252.7500     2.3370    -5.0860    69.8660     9.5570     8.7560    10.2280    24.0380 
  252.8750     2.3530    -5.2560    69.4490     9.1250     8.4200     9.4730    24.0070 
  253.0000     2.3620    -5.4880    72.3700     8.3790     7.7840     8.1560    24.0290 
  253.1250     2.3610    -5.8370    76.5460     7.6300     7.0780     7.0620    24.0780 
  253.2500     2.3550    -6.3060    80.5680     7.2400     6.6070     6.5190    24.0990 
  253.3750     2.3460    -6.8820    82.9260     7.4480     6.5780     6.6020    24.0670 
  253.5000     2.3360    -7.5510    83.4390     8.3770     7.1170     7.3690    23.9650 
  253.6250     2.3260    -8.2890    82.4230    10.1430     8.3840     8.8940    23.7530 
  253.7500     2.3210    -9.0260    79.6570    12.4530    10.2160    10.9630    23.4850 
  253.8750     2.3190    -9.7390    75.2050    14.9910    12.4190    13.0420    23.2460 
  254.0000     2.3170   -10.4120    70.0470    17.3450    14.6740    14.2000    23.1080 
  254.1250     2.3110   -10.9860    66.4050    19.0070    16.5060    14.2220    23.0620 
  254.2500     2.3000   -11.4450    63.6570    19.9340    17.7140    13.8900    23.0380 
  254.3750     2.2870   -11.7880    60.8540    20.2960    18.3350    13.5540    23.0230 
  254.5000     2.2760   -12.0110    59.2970    20.3910    18.5860    13.4850    23.0100 
  254.6250     2.2710   -12.1040    61.1110    20.4530    18.6790    13.4780    22.9890 
  254.7500     2.2710   -12.1430    64.3310    20.5200    18.7130    13.4900    22.9510 
  254.8750     2.2740   -12.1470    66.3680    20.5140    18.6610    13.5420    22.8960 
  255.0000     2.2760   -12.1180    64.9640    20.3670    18.4900    13.5880    22.8360 
  255.1250     2.2760   -12.0780    61.7720    20.0470    18.1910    13.4880    22.7860 
  255.2500     2.2710   -12.0240    60.4020    19.6500    17.8500    13.4440    22.7670 
  255.3750     2.2650   -11.9450    61.2600    19.2750    17.5520    13.5730    22.7810 
  255.5000     2.2580   -11.8440    62.3960    19.0160    17.3730    13.7080    22.8210 
  255.6250     2.2500   -11.7150    62.3780    18.9590    17.3900    13.7830    22.8850 
  255.7500     2.2430   -11.5540    61.7030    19.0640    17.5680    14.0270    22.9560 
  255.8750     2.2370   -11.3570    60.3930    19.2660    17.8580    14.6080    23.0100 
  256.0000     2.2320   -11.1090    59.6600    19.4800    18.1860    15.3690    23.0440 
  256.1250     2.2310   -10.7930    60.5200    19.5740    18.4370    16.0600    23.0820 
  256.2500     2.2340   -10.4360    61.1070    19.4230    18.4860    16.5610    23.1430 
  256.3750     2.2410   -10.0750    61.3170    18.9960    18.1860    16.8090    23.2340 
  256.5000     2.2470    -9.7390    62.0020    18.1190    17.4070    16.8200    23.3670 
  256.6250     2.2470    -9.4690    62.0320    16.8310    16.0540    16.3490    23.5710 
  256.7500     2.2410    -9.2670    60.8290    15.4160    14.4130    15.2490    23.8190 
  256.8750     2.2310    -9.1240    60.3050    13.8470    12.8160    13.2710    24.0740 
  257.0000     2.2230    -9.0470    62.0600    12.4450    11.5900    10.9270    24.2660 
  257.1250     2.2190    -9.0290    65.9370    11.8610    11.0250     9.7370    24.2620 
  257.2500     2.2140    -9.0460    70.5750    11.8800    10.9910    10.3190    24.1230 
  257.3750     2.2070    -9.0760    72.7260    12.2220    11.2950    11.8600    23.9210 
