~V
VERS. 2.00: Ver 2.00
~W
STRT.M 50.0000:
STOP.M 224.0000:
STEP.M 0.1250:
NULL. -999.2500:
UWI. F10153:
~C
DEPT.M :
GR.API :
RML.OHMM :
RI. :
RXO.OHMM :
CALI.CM :
SP.MV :
DEN.GM/CC :
~A
# ...
   61.2500   122.0400     5.2490     4.9760     4.7670    24.3900   -10.8100     2.3290 
   61.3750   122.4200     5.3540     4.9740     4.8990    24.3970   -10.4470     2.3510 
   61.5000   123.3480     5.5110     5.0250     4.8900    24.4380   -10.2270     2.3780 
   61.6250   121.8210     5.6390     5.0660     4.8630    24.5140   -10.1180     2.4040 
   61.7500   117.2370     5.7030     5.0660     4.9320    24.5890   -10.1040     2.4230 
   61.8750   114.1420     5.6570     4.9870     5.0160    24.6130   -10.1780     2.4300 
   62.0000   116.1680     5.5070     4.8330     4.9420    24.5910   -10.3070     2.4230 
   62.1250   119.9460     5.3210     4.6460     4.7990    24.5550   -10.4840     2.4050 
   62.2500   121.9320     5.1970     4.4950     4.6610    24.5270   -10.7120     2.3840 
   62.3750   121.3450     5.3460     4.5320     4.5060    24.5070   -11.0250     2.3750 
   62.5000   118.6280     5.8840     4.8500     4.5620    24.4700   -11.4380     2.3940 
   62.6250   112.8300     6.8170     5.4740     5.4030    24.4000   -11.9890     2.4400 
   62.7500   103.9320     7.9700     6.2950     7.5030    24.3130   -12.6720     2.4950 
   62.8750    94.4090     8.9280     7.0780    10.1160    24.2540   -13.5400     2.5230 
   63.0000    87.4530     9.3360     7.5620    10.8900    24.2290   -14.5500     2.5050 
   63.1250    83.6950     9.3350     7.7700     9.7570    24.1880   -15.6260     2.4550 
   63.2500    82.2760     9.3990     7.9730     8.6830    24.0990   -16.7220     2.4030 
   63.3750    81.7080    10.2870     8.7070     9.4850    23.9770   -17.8150     2.3920 
   63.5000    79.6400    12.3990    10.3390    13.1550    23.8870   -18.9090     2.4340 
   63.6250    74.9640    15.7260    12.9360    20.7720    23.8550   -19.9980     2.5030 
   63.7500    68.9470    19.4870    15.9500    30.1410    23.8550   -21.0680     2.5620 
   63.8750    63.7850    21.4270    17.7870    33.4320    23.9090   -22.0850     2.5690 
   64.0000    61.0380    20.3140    17.3490    27.7270    24.0870   -23.0570     2.5180 
   64.1250    61.8220    17.3370    15.2060    19.0080    24.4090   -24.0060     2.4280 
   64.2500    65.0120    14.2220    12.6360    12.6240    24.7660   -24.9570     2.3310 
   64.3750    67.6710    12.1370    10.6550    10.4000    24.9320   -25.9100     2.2530 
   64.5000    69.0680    11.1040     9.4780    10.1970    24.8540   -26.8470     2.2070 
   64.6250    70.9080    10.8150     8.9620    10.3730    24.6790   -27.7440     2.1880 
   64.7500    72.8110    10.9370     8.8610    10.4510    24.5370   -28.5940     2.1880 
   64.8750    73.2620    11.2700     9.0500    10.6270    24.4820   -29.3520     2.2050 
   65.0000    73.7240    11.6260     9.3430    11.2170    24.4700   -30.0320     2.2290 
   65.1250    74.8780    11.9330     9.6390    11.8890    24.4730   -30.6500     2.2460 
   65.2500    74.8180    12.2010     9.9130    12.2520    24.4880   -31.2170     2.2490 
   65.3750    72.0700    12.4490    10.1570    12.2700    24.5440   -31.7060     2.2300 
   65.5000    69.2770    12.7000    10.3800    12.3870    24.6770   -32.0920     2.1990 
   65.6250    68.5350    12.9420    10.5730    12.7580    24.8910   -32.3550     2.1790 
   65.7500    69.1550    13.1420    10.7210    13.2830    25.1330   -32.5120     2.1790 
   65.8750    70.3070    13.2060    10.7620    13.9640    25.3270   -32.5700     2.1990 
   66.0000    70.5870    13.0760    10.6650    14.3390    25.4570   -32.5620     2.2190 
   66.1250    69.0250    12.7520    10.4380    13.7350    25.5440   -32.5070     2.2200 
   66.2500    67.6840    12.3090    10.1360    12.7750    25.5890   -32.4200     2.2020 
   66.3750    68.8630    11.8580     9.8300    12.1640    25.5930   -32.2900     2.1730 
   66.5000    69.0750    11.5120     9.5830    11.7270    25.5800   -32.1320     2.1530 
   66.6250    65.9610    11.3250     9.4310    11.2960    25.4550   -31.9500     2.1510 
   66.7500    62.5000    11.2690     9.3670    11.2800    25.1390   -31.7410     2.1610 
   66.8750    63.7360    11.3100     9.3810    11.7990    24.6610   -31.4760     2.1780 
   67.0000    68.6730    11.3640     9.4090    12.1040    24.2820   -31.1390     2.1900 
   67.1250    74.0220    11.3920     9.3900    12.1220    24.1220   -30.7300     2.1940 
   67.2500    78.1460    11.4110     9.3200    12.0140    24.0870   -30.2670     2.1880 
   67.3750    79.9240    11.4600     9.2130    11.6130    24.0820   -29.7670     2.1750 
   67.5000    80.4090    11.5170     9.0940    11.0170    24.0580   -29.2740     2.1610 
   67.6250    79.6160    11.4710     8.9320    10.9670    24.0130   -28.7970     2.1540 
   67.7500    77.1050    11.2410     8.6860    11.4310    23.9670   -28.3550     2.1600 
   67.8750    75.1750    10.7290     8.2920    11.5180    23.9460   -28.0520     2.1810 
   68.0000    77.5480    10.0840     7.8230    10.4310    23.9570   -27.9240     2.2080 
   68.1250    82.9680     9.5740     7.4300     8.6840    24.0020   -28.0220     2.2280 
   68.2500    87.1760     9.3520     7.2050     7.6510    24.0680   -28.3200     2.2380 
   68.3750    84.5960     9.6260     7.2870     8.4390    24.1310   -28.7990     2.2380 
   68.5000    76.9590    10.2910     7.6430    10.1900    24.1950   -29.3820     2.2410 
   68.6250    71.4510    11.1010     8.1560    12.4930    24.2890   -30.0460     2.2500 
   68.7500    70.9020    11.8220     8.6770    15.5770    24.4100   -30.7520     2.2610 
   68.8750    72.3380    12.1690     9.0040    17.4470    24.4750   -31.4410     2.2600 
   69.0000    71.7700    12.1430     9.0820    15.5550    24.4140   -32.0380     2.2400 
   69.1250    70.6770    11.9260     8.9930    13.1240    24.2710   -32.4760     2.2040 
   69.2500    70.6900    11.6970     8.8570    12.1710    24.1380   -32.7490     2.1630 
   69.3750    70.9250    11.5850     8.7710    12.2260    24.0900   -32.8360     2.1340 
   69.5000    70.9510    11.5820     8.7620    12.5530    24.1150   -32.7730     2.1250 
   69.6250    71.3820    11.5990     8.7910    12.8770    24.1770   -32.5410     2.1360 
   69.7500    71.4020    11.5680     8.8120    13.2550    24.2430   -32.1650     2.1580 
   69.8750    69.5430    11.4400     8.7780    13.4480    24.2580   -31.6420     2.1800 
   70.0000    66.8160    11.2600     8.7010    13.3610    24.2180   -30.9980     2.1910 
   70.1250    65.4220    11.0940     8.6150    13.0420    24.1670   -30.2340     2.1910 
   70.2500    65.9250    10.9570     8.5420    12.8120    24.1420   -29.3950     2.1870 
   70.3750    67.8800    10.8240     8.4760    12.8560    24.1600   -28.5090     2.1850 
   70.5000    69.6620    10.6610     8.3920    12.5250    24.1950   -27.5770     2.1870 
   70.6250    70.1440    10.4860     8.2900    11.3550    24.2190   -26.6240     2.1930 
   70.7500    70.6510    10.3490     8.1890     9.7920    24.2290   -25.6610     2.1990 
   70.8750    73.3580    10.3210     8.1270     9.3370    24.2520   -24.6380     2.2030 
   71.0000    76.4580    10.3580     8.0880    10.1980    24.3040   -23.5700     2.2060 
   71.1250    76.7300    10.3030     7.9860    11.5110    24.3300   -22.5150     2.2060 
   71.2500    74.3290    10.0390     7.7500    12.1320    24.2740   -21.5110     2.2090 
   71.3750    75.6500     9.4340     7.2920    10.8260    24.1160   -20.6640     2.2210 
   71.5000    85.3590     8.6680     6.7180     8.5910    23.9650   -20.0360     2.2420 
   71.6250    98.4960     8.0520     6.2220     6.8920    23.9110   -19.6540     2.2650 
   71.7500   106.9960     7.7430     5.9060     6.0680    23.9360   -19.4790     2.2790 
   71.8750   103.4090     7.9160     5.8980     6.3530    23.9820   -19.5440     2.2690 
   72.0000    94.4120     8.4150     6.1390     7.6830    23.9880   -19.8130     2.2400 
   72.1250    87.9510     8.9650     6.4840     9.1910    23.9520   -20.2450     2.2070 
   72.2500    85.8350     9.3650     6.7970     9.8340    23.9160   -20.7720     2.1830 
   72.3750    87.5870     9.4180     6.9290     9.2840    23.9270   -21.3030     2.1780 
