~V
VERS. 2.00: Ver 2.00
~W
STRT.M 55.0000:
STOP.M 251.0000:
STEP.M 0.1250:
NULL. -999.2500:
UWI. F10189:
~C
DEPT.M :
DEN.GM/CC :
SP.MV :
GR.API :
RML.OHMM :
RI. :
RXO.OHMM :
CALI.CM :
~A
# ...
  100.0000     2.1820   -20.9290    58.9860     7.2340     7.0670     7.7330    24.3820 
  100.1250     2.1770   -20.8950    58.0140     7.1980     7.0960     7.2510    24.4670 
  100.2500     2.1720   -20.7460    58.5190     7.0990     7.0640     7.1200    24.5650 
  100.3750     2.1680   -20.4770    59.1080     6.9290     6.9510     7.2450    24.6530 
  100.5000     2.1620   -20.1110    62.5310     6.7040     6.7650     7.3820    24.7220 
  100.6250     2.1680   -19.6730    67.9060     6.4720     6.5430     7.3180    24.7820 
  100.7500     2.1930   -19.2290    71.2120     6.2790     6.3400     6.8130    24.7750 
  100.8750     2.2310   -18.8130    72.2030     6.1500     6.1880     6.4400    24.6280 
  101.0000     2.2660   -18.4630    70.8960     6.0970     6.1060     6.5000    24.4810 
  101.1250     2.2830   -18.2400    66.5020     6.1470     6.1130     6.9070    24.3940 
  101.2500     2.2710   -18.1460    62.8340     6.2960     6.1950     7.1310    24.3290 
  101.3750     2.2350   -18.1790    63.5470     6.5450     6.3530     6.8610    24.1940 
  101.5000     2.2030   -18.3170    67.5980     6.8640     6.5780     6.7280    23.9430 
  101.6250     2.1970   -18.5590    69.3090     7.1880     6.8460     7.1780    23.8700 
  101.7500     2.2050   -18.8600    69.9090     7.4330     7.1020     7.9650    23.9440 
  101.8750     2.2100   -19.1510    70.3640     7.5180     7.2930     8.9960    24.0530 
  102.0000     2.2150   -19.4210    69.3130     7.5860     7.3920    10.3190    24.0650 
  102.1250     2.2360   -19.6640    68.6920     7.7370     7.4660    11.6660    23.9700 
  102.2500     2.2690   -19.8610    68.2240     8.5000     7.6820    12.9990    23.8430 
  102.3750     2.3160   -20.0350    65.3840     9.8580     8.1660    14.8090    23.8090 
  102.5000     2.3790   -20.2090    62.1720    11.0320     8.9380    17.2150    23.8660 
  102.6250     2.4480   -20.4040    63.9510    12.0560     9.8430    19.7370    24.0280 
  102.7500     2.4790   -20.6420    67.5750    12.6750    10.4940    21.1280    24.2760 
  102.8750     2.4400   -20.9530    67.1600    12.4410    10.5550    20.5520    24.4550 
  103.0000     2.3480   -21.3320    63.3870    11.3980     9.9600    17.8200    24.5240 
  103.1250     2.2570   -21.7910    62.8550    10.0660     8.9780    13.7420    24.5710 
  103.2500     2.1940   -22.2960    65.1280     9.0080     8.0700    11.2040    24.6120 
  103.3750     2.1570   -22.8290    65.8930     8.3850     7.4300    10.2310    24.6590 
  103.5000     2.1430   -23.3830    63.6350     8.1580     7.1020     9.6390    24.8140 
  103.6250     2.1470   -23.9330    62.1960     8.1990     7.0510     8.9890    25.2760 
  103.7500     2.1630   -24.4350    62.7120     8.3010     7.1080     8.6750    25.8330 
  103.8750     2.1820   -24.8690    61.3880     8.3800     7.1810     8.8800    26.2770 
  104.0000     2.1950   -25.2380    59.0550     8.4230     7.2310     9.5220    26.7520 
  104.1250     2.1920   -25.5080    61.2920     8.4680     7.2660    10.1110    27.3790 
  104.2500     2.1840   -25.7050    64.4500     8.5490     7.3120    10.2150    27.9590 
  104.3750     2.1720   -25.8190    63.0300     8.6680     7.3730    10.2470    28.3150 
  104.5000     2.1500   -25.8540    58.9980     8.8030     7.4370    10.5760    28.4440 
  104.6250     2.1170   -25.8380    58.4150     8.8870     7.4750    11.3350    28.5100 
  104.7500     2.0840   -25.8210    61.3760     8.8790     7.4630    11.8800    28.5750 
  104.8750     2.0520   -25.8270    63.0030     8.7770     7.3950    11.4770    28.6750 
  105.0000     2.0270   -25.8540    61.8970     8.6220     7.2880    10.3520    28.6700 
  105.1250     2.0340   -25.8960    59.9370     8.4880     7.1810     9.4420    28.2200 
  105.2500     2.0740   -25.9580    59.9040     8.4200     7.1030     9.5380    27.3860 
  105.3750     2.1220   -26.0570    61.3720     8.4190     7.0620    10.0760    26.5600 
  105.5000     2.1470   -26.1780    62.5680     8.4620     7.0510    10.6020    26.1140 
  105.6250     2.1370   -26.2800    63.1480     8.5140     7.0580    10.9260    26.0960 
  105.7500     2.1210   -26.3490    63.3980     8.5420     7.0670    10.5380    26.1800 
  105.8750     2.1120   -26.3580    62.7910     8.5370     7.0730     9.7020    26.1560 
  106.0000     2.1160   -26.3000    61.1870     8.4970     7.0670     9.5660    25.9500 
  106.1250     2.1320   -26.2210    59.7660     8.4270     7.0290    10.3000    25.6340 
  106.2500     2.1500   -26.1780    61.1870     8.3320     6.9570    10.8890    25.3700 
  106.3750     2.1640   -26.1990    64.4190     8.2160     6.8540    10.7120    25.1550 
  106.5000     2.1730   -26.3000    66.6410     8.0900     6.7340    10.0240    25.0000 
  106.6250     2.1760   -26.4660    64.8340     7.9770     6.6220     9.1740    24.8390 
  106.7500     2.1700   -26.6690    60.3830     7.8900     6.5350     8.6510    24.7560 
  106.8750     2.1600   -26.9040    57.0260     7.8360     6.4760     8.4830    24.7760 
  107.0000     2.1560   -27.1540    58.0880     7.8040     6.4390     8.7160    24.8080 
  107.1250     2.1550   -27.3960    61.7910     7.7730     6.4090     8.5720    24.8190 
  107.2500     2.1480   -27.5660    61.9050     7.7280     6.3710     8.1850    24.8460 
  107.3750     2.1390   -27.6460    58.5600     7.6760     6.3220     7.9780    24.8800 
  107.5000     2.1350   -27.6180    57.2240     7.6300     6.2660     8.0560    24.9100 
  107.6250     2.1400   -27.5100    60.0210     7.6030     6.2160     8.3230    25.0600 
  107.7500     2.1470   -27.3440    61.7750     7.5850     6.1800     8.4300    25.1310 
  107.8750     2.1550   -27.1320    61.2650     7.5570     6.1630     8.3120    25.1500 
  108.0000     2.1610   -26.8800    60.0710     7.4990     6.1600     7.8910    25.1470 
  108.1250     2.1640   -26.5650    59.0680     7.4130     6.1580     7.8410    25.1230 
  108.2500     2.1670   -26.2360    57.4970     7.3280     6.1440     8.0710    25.0410 
  108.3750     2.1730   -25.8790    55.8280     7.2630     6.1200     8.4330    24.9000 
  108.5000     2.1740   -25.4940    56.3680     7.2290     6.1000     8.6050    24.7690 
  108.6250     2.1670   -25.0350    58.3110     7.2410     6.1060     8.2160    24.6800 
  108.7500     2.1650   -24.5300    59.4230     7.2920     6.1430     7.8380    24.5620 
  108.8750     2.1690   -23.9880    59.2950     7.3640     6.1990     7.5700    24.4260 
  109.0000     2.1730   -23.4250    58.9570     7.4250     6.2480     7.5310    24.3830 
  109.1250     2.1690   -22.8120    60.0750     7.4210     6.2490     7.3870    24.5290 
  109.2500     2.1680   -22.1070    61.4570     7.3380     6.1840     6.7390    24.7270 
  109.3750     2.1790   -21.3610    62.1170     7.1900     6.0510     6.1420    24.8030 
  109.5000     2.1940   -20.6050    62.5670     7.0020     5.8680     5.7790    24.8700 
  109.6250     2.2080   -19.9170    65.0830     6.7830     5.6660     5.6030    24.9230 
  109.7500     2.2210   -19.3240    70.0240     6.5540     5.4810     5.8720    24.6730 
  109.8750     2.2350   -18.8720    75.1980     6.3800     5.3460     6.5110    24.1770 
  110.0000     2.2480   -18.5850    77.8630     6.4020     5.3310     7.2820    23.7910 
  110.1250     2.2570   -18.5450    77.5130     6.9290     5.6190     8.6140    23.6910 
  110.2500     2.2660   -18.7500    76.1220     8.1140     6.3560    11.0010    23.6470 
  110.3750     2.2850   -19.1420    75.5450    10.0470     7.6900    16.0960    23.5790 
  110.5000     2.3220   -19.6900    75.4310    12.6260     9.6570    20.2090    23.6240 
  110.6250     2.3710   -20.3570    71.9870    15.2210    11.9450    23.2220    23.8860 
  110.7500     2.4010   -21.0690    66.8100    16.5490    13.5500    24.8260    24.1600 
  110.8750     2.3740   -21.7680    63.1370    15.7220    13.5890    24.2380    24.2020 
  111.0000     2.2920   -22.4060    62.3900    13.2450    12.0990    21.4580    23.9780 
  111.1250     2.2100   -22.9080    62.8530    10.6710    10.0550    16.0170    23.6850 
