~V
VERS. 2.00: Ver 2.00
~W
STRT.M 52.0000:
STOP.M 326.0000:
STEP.M 0.1250:
NULL. -999.2500:
UWI. F10108:
~C
DEPT.M :
DEN.GM/CC :
SP.MV :
GR.API :
RML.OHMM :
RI. :
RXO.OHMM :
CALI.CM :
~A
# ...
  175.7500     2.3250    -4.0310    84.4180     5.4370     4.5590     4.4010    24.2290 
  175.8750     2.3390    -4.2330    85.8520     5.6800     4.7890     4.5530    24.1840 
  176.0000     2.3580    -4.4420    84.2010     5.9220     5.0510     4.7100    24.1870 
  176.1250     2.3760    -4.6420    80.9910     6.1010     5.3040     5.0540    24.2690 
  176.2500     2.3840    -4.7990    77.2500     6.1540     5.4780     5.7940    24.3570 
  176.3750     2.3780    -4.8970    71.5160     6.1080     5.5070     6.7820    24.3900 
  176.5000     2.3630    -4.9360    66.3280     5.9530     5.3590     7.2230    24.3560 
  176.6250     2.3440    -4.9260    67.2360     5.6180     5.0480     6.6210    24.2990 
  176.7500     2.3290    -4.9000    72.6430     5.2400     4.6970     5.6020    24.2390 
  176.8750     2.3170    -4.8690    76.9840     4.9300     4.3990     4.6240    24.1510 
  177.0000     2.3070    -4.8390    78.2980     4.7550     4.2150     4.1070    24.0140 
  177.1250     2.2970    -4.7880    78.1060     4.7460     4.1840     4.0420    23.8330 
  177.2500     2.2900    -4.7510    76.7300     4.8340     4.2530     4.0760    23.6790 
  177.3750     2.2860    -4.7290    73.8140     4.9630     4.3770     4.0130    23.5880 
  177.5000     2.2860    -4.7310    70.9680     5.0780     4.5090     4.0110    23.5340 
  177.6250     2.2890    -4.7260    69.9480     5.1310     4.6010     4.1680    23.4720 
  177.7500     2.2940    -4.6840    71.7730     5.1170     4.6370     4.2860    23.4160 
  177.8750     2.3000    -4.6070    76.4340     5.0450     4.6140     4.1690    23.4200 
  178.0000     2.3060    -4.5160    81.2620     4.9360     4.5410     4.0170    23.5010 
  178.1250     2.3090    -4.4100    79.9640     4.8130     4.4270     3.9840    23.6430 
  178.2500     2.3070    -4.2850    75.5720     4.6990     4.2960     3.9950    23.7970 
  178.3750     2.3010    -4.1630    73.8250     4.6000     4.1610     3.9350    23.9480 
  178.5000     2.2910    -4.0510    76.0290     4.5130     4.0350     3.8140    24.1100 
  178.6250     2.2820    -3.9700    78.6360     4.4370     3.9340     3.6650    24.3240 
  178.7500     2.2780    -3.9190    78.4830     4.3730     3.8640     3.6400    24.5620 
  178.8750     2.2790    -3.8680    76.8430     4.3330     3.8260     3.6920    24.7800 
  179.0000     2.2830    -3.8140    76.5910     4.3250     3.8150     3.7550    24.9490 
  179.1250     2.2880    -3.7920    79.4890     4.3560     3.8210     3.8570    25.0710 
  179.2500     2.2910    -3.7990    81.0220     4.4130     3.8330     3.9560    25.1780 
  179.3750     2.2960    -3.8190    78.2260     4.4900     3.8560     4.0720    25.2520 
  179.5000     2.3040    -3.8470    73.8150     4.5880     3.9000     4.2020    25.2620 
  179.6250     2.3180    -3.8720    72.6460     4.7270     3.9900     4.3130    25.2070 
  179.7500     2.3380    -3.8970    74.0940     4.9190     4.1380     4.4140    25.1540 
  179.8750     2.3620    -3.9480    77.5720     5.1750     4.3500     4.5820    25.1390 
  180.0000     2.3860    -4.0110    82.1590     5.4780     4.6110     4.8920    25.1580 
  180.1250     2.4040    -4.0520    87.3580     5.7730     4.8830     5.2120    25.1630 
  180.2500     2.4140    -4.0640    90.5630     5.9860     5.1110     5.5240    25.1360 
  180.3750     2.4140    -4.0500    93.2360     6.0680     5.2500     5.7980    25.0960 
  180.5000     2.4050    -4.0160    96.7840     6.0100     5.2800     5.9470    25.0870 
  180.6250     2.3900    -3.9720    98.4700     5.8450     5.1920     5.7910    25.1100 
  180.7500     2.3720    -3.9400    96.4090     5.6620     5.0430     5.5230    25.1120 
  180.8750     2.3560    -3.9050    92.7530     5.5090     4.8730     5.2920    25.0780 
  181.0000     2.3460    -3.8650    89.4820     5.4030     4.7150     5.0660    25.0440 
  181.1250     2.3440    -3.8400    87.8490     5.3360     4.5940     4.8950    25.0540 
  181.2500     2.3480    -3.8440    88.1710     5.2800     4.5080     4.8550    25.0850 
  181.3750     2.3550    -3.8710    88.1750     5.2210     4.4500     4.8510    25.1050 
  181.5000     2.3590    -3.9270    84.9980     5.1630     4.4150     4.7680    25.0930 
  181.6250     2.3570    -4.0190    80.4970     5.1260     4.4060     4.7340    25.0720 
  181.7500     2.3500    -4.1090    77.2490     5.1180     4.4170     4.6960    25.0780 
  181.8750     2.3430    -4.2090    78.3380     5.1350     4.4460     4.7070    25.1060 
  182.0000     2.3360    -4.3290    83.8940     5.1630     4.4850     4.7250    25.1140 
  182.1250     2.3330    -4.4380    88.4680     5.1890     4.5250     4.7650    25.0830 
  182.2500     2.3340    -4.5390    87.1350     5.2070     4.5560     4.8310    25.0490 
  182.3750     2.3360    -4.6240    82.8360     5.2170     4.5690     4.8750    25.0430 
  182.5000     2.3390    -4.7010    83.5150     5.2100     4.5610     4.8540    25.0630 
  182.6250     2.3400    -4.7610    86.1630     5.1680     4.5250     4.8570    25.0690 
  182.7500     2.3380    -4.8020    84.5540     5.0930     4.4730     4.8380    25.0560 
  182.8750     2.3340    -4.8090    81.9730     5.0090     4.4200     4.8540    25.0450 
  183.0000     2.3310    -4.7820    82.5020     4.9550     4.3880     4.8710    25.0620 
  183.1250     2.3340    -4.7600    83.3790     4.9780     4.4060     4.7440    25.0980 
  183.2500     2.3400    -4.7250    81.9000     5.0720     4.4770     4.4960    25.1040 
  183.3750     2.3470    -4.6960    81.1270     5.2070     4.5880     4.5780    25.0830 
  183.5000     2.3520    -4.6630    81.8780     5.3390     4.7130     4.8780    25.0650 
  183.6250     2.3520    -4.6280    81.9460     5.4140     4.8080     5.0580    25.0850 
  183.7500     2.3500    -4.6120    82.4420     5.4190     4.8480     5.0670    25.1110 
  183.8750     2.3470    -4.6310    85.1340     5.3610     4.8270     4.9690    25.1110 
  184.0000     2.3460    -4.6770    85.6040     5.2650     4.7620     4.9100    25.0840 
  184.1250     2.3440    -4.7130    83.8180     5.1700     4.6830     4.8730    25.0640 
  184.2500     2.3420    -4.7680    86.0140     5.1120     4.6270     4.8150    25.0630 
  184.3750     2.3380    -4.8520    88.6950     5.1040     4.6090     4.7370    25.0660 
  184.5000     2.3330    -4.9750    85.5210     5.1430     4.6300     4.6590    25.0430 
  184.6250     2.3270    -5.1420    77.5720     5.2090     4.6820     4.6380    24.9900 
  184.7500     2.3220    -5.3170    72.9100     5.2730     4.7410     4.6960    24.9520 
  184.8750     2.3190    -5.4910    72.8980     5.3210     4.7900     4.8100    24.9420 
  185.0000     2.3170    -5.6890    74.7050     5.3580     4.8220     4.9120    24.9280 
  185.1250     2.3140    -5.9510    77.4550     5.3980     4.8390     4.8750    24.8700 
  185.2500     2.3110    -6.2470    78.9810     5.4470     4.8520     4.8360    24.8030 
  185.3750     2.3080    -6.5560    77.7840     5.5000     4.8640     4.8030    24.7580 
  185.5000     2.3050    -6.8410    76.0770     5.5400     4.8710     4.8180    24.7300 
  185.6250     2.3030    -7.0510    75.3810     5.5480     4.8720     5.1020    24.6940 
  185.7500     2.3040    -7.2180    76.9770     5.5380     4.8790     5.3900    24.6540 
  185.8750     2.3070    -7.3590    79.6810     5.5590     4.9240     5.3260    24.6260 
  186.0000     2.3130    -7.4750    80.9810     5.7150     5.0720     5.2570    24.6230 
  186.1250     2.3270    -7.5210    79.4400     6.2500     5.4950     5.6900    24.6230 
  186.2500     2.3510    -7.5190    76.5860     7.3380     6.3390     6.7840    24.5980 
  186.3750     2.3900    -7.4700    73.2600     9.1030     7.7480     8.5990    24.5480 
  186.5000     2.4420    -7.3820    70.0510    11.4560     9.7350    11.0390    24.4890 
  186.6250     2.4970    -7.2950    65.9310    13.8730    11.9980    15.2130    24.4170 
  186.7500     2.5340    -7.2020    60.6530    15.4840    13.8070    22.3530    24.3010 
  186.8750     2.5400    -7.0650    56.3870    15.5660    14.4540    32.8450    24.1280 
