~V
VERS. 2.00: Ver 2.00
~W
STRT.M 50.0000:
STOP.M 236.0000:
STEP.M 0.1250:
NULL. -999.2500:
UWI. F10180:
~C
DEPT.M :
SP.MV :
GR.API :
RML.OHMM :
RI. :
RXO.OHMM :
CALI.CM :
DEN.GM/CC :
~A
   50.0000   256.3490  -999.2500  -999.2500  -999.2500  -999.2500  -999.2500  -999.2500 
   50.1250   253.7630  -999.2500  -999.2500  -999.2500  -999.2500  -999.2500  -999.2500 
   50.2500   251.1700  -999.2500  -999.2500  -999.2500  -999.2500  -999.2500  -999.2500 
   50.3750   248.5140  -999.2500  -999.2500  -999.2500  -999.2500  -999.2500  -999.2500 
   50.5000   245.7780  -999.2500  -999.2500  -999.2500  -999.2500  -999.2500  -999.2500 
   50.6250   242.9370  -999.2500  -999.2500  -999.2500  -999.2500  -999.2500  -999.2500 
   50.7500   239.9910  -999.2500  -999.2500  -999.2500  -999.2500  -999.2500  -999.2500 
   50.8750   236.8360  -999.2500  -999.2500  -999.2500  -999.2500  -999.2500  -999.2500 
   51.0000   233.5020  -999.2500  -999.2500  -999.2500  -999.2500  -999.2500  -999.2500 
   51.1250   229.9930  -999.2500  -999.2500  -999.2500  -999.2500  -999.2500  -999.2500 
   51.2500   226.2140  -999.2500  -999.2500  -999.2500  -999.2500  -999.2500  -999.2500 
   51.3750   222.0150  -999.2500  -999.2500  -999.2500  -999.2500  -999.2500  -999.2500 
   51.5000   217.4190  -999.2500  -999.2500  -999.2500  -999.2500  -999.2500  -999.2500 
   51.6250   212.4210  -999.2500  -999.2500  -999.2500  -999.2500  -999.2500  -999.2500 
   51.7500   206.8990  -999.2500  -999.2500  -999.2500  -999.2500  -999.2500  -999.2500 
   51.8750   200.8540  -999.2500  -999.2500  -999.2500  -999.2500  -999.2500  -999.2500 
   52.0000   194.3870  -999.2500  -999.2500  -999.2500  -999.2500  -999.2500  -999.2500 
   52.1250   187.5430  -999.2500  -999.2500  -999.2500  -999.2500  -999.2500  -999.2500 
   52.2500   180.3250  -999.2500  -999.2500  -999.2500  -999.2500  -999.2500  -999.2500 
   52.3750   172.7720     0.0000     0.0000     0.0000     0.1000     0.0000  -999.2500 
   52.5000   165.1280     0.0000     0.0000     0.0000     0.1000     0.0000  -999.2500 
   52.6250   157.3230     0.0000     0.0000     0.7660     0.1000     0.0000  -999.2500 
   52.7500   149.5490    64.8280     1.4430     1.0390     0.4440    25.9750  -999.2500 
   52.8750   141.9770    66.6590     1.4720     1.0480     0.4220    25.9890     0.0000 
   53.0000   134.5600    70.3000     1.4910     1.0350     0.5830    26.0240     0.0000 
   53.1250   127.2890    71.2430     1.4930     1.0080     0.9690    25.9980     0.0000 
   53.2500   120.2630    64.8280     1.4430     0.9760     0.4440    25.9750    -0.0080 
   53.3750   113.6880    61.9250     1.4090     0.9400     0.5830    25.9740     2.0780 
   53.5000   107.3390    61.5850     1.3710     0.9060     0.7280    25.9750     2.0780 
   53.6250   101.2210    64.7430     1.3360     0.8840     0.6470    25.9760     2.0760 
   53.7500    95.2740    67.3660     1.3170     0.8860     0.5620    25.9790     2.0650 
   53.8750    89.2720    66.4480     1.3280     0.9180     0.5710    25.9800     2.0410 
   54.0000    83.2530    65.0700     1.3640     0.9630     0.6450    25.9810     2.0110 
   54.1250    77.2890    64.1050     1.4130     1.0110     0.7010    25.9810     1.9860 
   54.2500    71.2520    63.0330     1.4620     1.0480     0.7360    25.9810     1.9750 
   54.3750    65.1270    63.2410     1.4960     1.0680     0.8750    25.9730     1.9860 
   54.5000    59.0660    65.0570     1.5140     1.0720     1.1490    25.9520     2.0100 
   54.6250    53.1210    67.4950     1.5160     1.0680     1.1390    25.9270     2.0390 
   54.7500    47.4380    68.0530     1.5110     1.0670     0.7040    25.9140     2.0680 
   54.8750    42.2830    67.8710     1.5140     1.0860     0.5370    25.9130     2.0920 
   55.0000    37.5720    69.7250     1.5370     1.1220     0.5160    25.9130     2.1130 
   55.1250    33.2530    71.7450     1.5780     1.1720     0.6110    25.9130     2.1290 
   55.2500    29.5250    71.5300     1.6310     1.2220     0.7220    25.9060     2.1360 
   55.3750    26.3970    69.1980     1.6790     1.2540     0.7910    25.8850     2.1350 
   55.5000    23.6840    66.4260     1.7090     1.2580     0.8060    25.8550     2.1300 
   55.6250    21.4850    63.2030     1.7060     1.2180     0.7580    25.8400     2.1250 
   55.7500    19.6830    60.1710     1.6560     1.1130     0.7080    25.8410     2.1180 
   55.8750    18.2020    59.2170     1.5190     0.9120     0.9520    25.8330     2.1080 
   56.0000    16.9130    58.1850     1.2970     0.6530     1.1810    25.8110     2.1080 
   56.1250    15.8360    56.2950     1.0230     0.3980     1.4240    25.7840     2.1450 
   56.2500    14.8420    56.0570     0.7630     0.2070     1.6690    25.7620     2.2350 
   56.3750    13.8380    57.9240     0.5930     0.1150     1.4890    25.7120     2.3760 
   56.5000    12.8580    59.4830     0.5110     0.0930     1.2990    25.5510     2.5070 
   56.6250    11.7470    60.1100     0.4990     0.1350     1.7100    25.1070     2.5760 
   56.7500    10.4650    61.6340     0.5540     0.2690     2.8220    24.3820     2.5560 
   56.8750     8.9890    63.8600     0.7420     0.6070     5.5620    23.7850     2.4530 
   57.0000     7.4430    65.0300     1.1380     1.2180     7.3640    23.5190     2.3300 
   57.1250     5.8980    66.0280     1.8280     2.1210     7.9820    23.4390     2.2300 
   57.2500     4.3950    68.5770     2.8150     3.2030     8.1550    23.4120     2.1730 
   57.3750     2.9570    70.6980     3.9550     4.2300     8.3520    23.4170     2.1600 
   57.5000     1.6090    70.2030     4.9910     5.0520     8.6440    23.4060     2.1640 
   57.6250     0.4170    68.5580     5.8060     5.6640     8.8860    23.3940     2.1660 
   57.7500    -0.5390    68.5580     6.4100     6.1250     9.0100    23.3890     2.1600 
   57.8750    -1.2320    69.5790     6.8510     6.4710     9.1000    23.3350     2.1450 
   58.0000    -1.7540    69.8490     7.1970     6.7360     9.2710    23.1850     2.1290 
   58.1250    -2.1510    70.7470     7.4590     6.9260     9.4150    23.0290     2.1170 
   58.2500    -2.4530    72.6290     7.6440     7.0490     9.5710    23.0000     2.1100 
   58.3750    -2.6210    71.4040     7.7520     7.1070     9.7800    23.1090     2.1040 
   58.5000    -2.7720    68.0340     7.8030     7.1170     9.9980    23.2210     2.0990 
   58.6250    -2.8470    66.4980     7.8070     7.0900     9.8470    23.2850     2.0990 
   58.7500    -2.9030    69.2840     7.7730     7.0460     9.4530    23.3090     2.1080 
   58.8750    -2.9410    72.5720     7.7300     7.0290     9.1410    23.3090     2.1280 
   59.0000    -2.8960    72.6560     7.7220     7.0760     9.1090    23.3070     2.1490 
   59.1250    -2.8300    72.6590     7.7830     7.1950     9.0380    23.3390     2.1650 
   59.2500    -2.7350    75.6630     7.9200     7.3640     9.2870    23.4060     2.1700 
   59.3750    -2.7080    77.0570     8.0990     7.5090    10.5920    23.4660     2.1680 
   59.5000    -2.6680    75.1690     8.2360     7.5540    11.0470    23.5260     2.1750 
   59.6250    -2.6580    75.5210     8.2590     7.4520    10.3560    23.6420     2.2020 
   59.7500    -2.6940    82.0450     8.1250     7.2050     9.0510    23.8910     2.2500 
   59.8750    -2.6990    90.2050     7.8310     6.8700     7.7710    24.2260     2.3000 
   60.0000    -2.7920    94.3510     7.4820     6.5540     7.2010    24.4390     2.3280 
   60.1250    -2.9600    94.9770     7.1630     6.3210     6.7720    24.4250     2.3250 
   60.2500    -3.1850    92.7010     6.9390     6.1960     6.6910    24.2000     2.2980 
   60.3750    -3.4450    90.4850     6.8420     6.1600     7.2250    23.8360     2.2700 
   60.5000    -3.7420    92.8720     6.8090     6.1420     7.6610    23.6180     2.2550 
   60.6250    -4.0290    97.5620     6.7890     6.1120     7.6740    23.6060     2.2540 
   60.7500    -4.2990    99.1710     6.7560     6.0820     6.8100    23.7140     2.2600 
   60.8750    -4.6060    96.5740     6.7340     6.1120     6.3640    23.7900     2.2610 
   61.0000    -4.9370    93.6870     6.7820     6.2500     6.7160    23.7600     2.2530 
   61.1250    -5.2520    91.4830     6.9480     6.5070     8.1960    23.6130     2.2330 
