~V
VERS. 2.00: Ver 2.00
~W
STRT.M 52.0000:
STOP.M 216.0000:
STEP.M 0.1250:
NULL. -999.2500:
UWI. F10126:
~C
DEPT.M :
DEN.GM/CC :
GR.API :
RML.OHMM :
RI. :
RXO.OHMM :
CALI.CM :
SP.MV :
~A
# ...
  209.5000     2.4890    80.8890    16.2620    14.5380    18.4810    24.5420     8.6240 
  209.6250     2.4640    80.8890    16.6680    14.8590    25.3360    24.5480     8.6630 
  209.7500     2.4510    80.8890    17.1130    15.1890    29.7090    24.6240     8.7110 
  209.8750     2.4520    80.8890    17.6390    15.5720    25.6560    24.6680     8.6720 
  210.0000     2.4640    80.8890    18.2730    16.0490    22.4170    24.7080     8.5660 
  210.1250     2.4800    80.8890    19.0350    16.6450    22.8350    24.7080     8.3860 
  210.2500     2.4960    80.8890    19.8820    17.3130    24.9360    24.7090     8.1450 
  210.3750     2.5120    80.8890    20.7730    18.0320    26.7910    24.2770     7.9380 
  210.5000     2.5240    80.8890    21.6560    18.7820    27.7450    24.4000     7.7570 
  210.6250     2.5280    80.8890    22.4360    19.4950    25.9500    24.4000     7.6150 
  210.7500     2.5240    80.8890    23.0550    20.0780    20.8070    24.4000     7.4370 
  210.8750     2.5170    80.8890    23.4910    20.4560    18.1290    24.5000     7.2490 
  211.0000     2.5160    80.8890    23.7630    20.6160    19.7670    24.5330     7.1100 
  211.1250     2.5290    80.8890    23.9110    20.6110    22.0060    24.5330     7.2460 
  211.2500     2.5460    80.8890    24.0020    20.5730    21.7220    24.5330     7.5950 
  211.3750     2.5530    80.8890    24.0580    20.5570    20.8760    24.7210     7.6730 
  211.5000     2.5380    80.8890    24.0900    20.5580    19.6730    24.7310     7.7250 
  211.6250     2.4980    80.8890    24.1010    20.5580    19.7350    24.6610     7.7910 
  211.7500     2.4510    80.8890    24.1040    20.5580    18.5210    24.5160     7.8990 
  211.8750     2.4150    80.8890    24.1040    20.5580    17.4530    24.3600     8.0900 
  212.0000     2.3970    80.8890    24.1030    20.5580    18.4780    24.3590     8.2940 
  212.1250     2.4020    80.8890    24.1030    20.5580    21.7000    24.5240     8.2210 
  212.2500     2.4200    80.8890    24.1030    20.5580    25.7250    24.6550     7.9190 
  212.3750     2.4470    80.8890    24.1030    20.5580    27.3010    24.7400     7.8780 
  212.5000     2.4780    80.8890    24.1030    20.5580    23.2480    24.7180     7.8540 
  212.6250     2.5070    80.8890    24.1030    20.5580    18.9600    24.6260     7.7550 
  212.7500     2.5310    80.8890    24.1030    20.5580    18.4400    24.5630     7.6150 
  212.8750     2.5440    80.8890    24.1030    20.5580    18.9600    24.5320     7.3820 
  213.0000     2.5450    80.8890    24.1030    20.5580    19.8700    24.5070     7.1100 
  213.1250     2.5330    80.8890    24.1030    20.5580    21.9750    24.4990     6.9400 
  213.2500     2.5120    80.8890    24.1030    20.5580    24.4340    24.4680     6.8350 
  213.3750     2.4870    80.8890    24.1030    20.5580    26.2480    24.4600     6.7400 
  213.5000     2.4620    80.8890    24.1030    20.5580    27.2150    24.4970     6.7280 
  213.6250     2.4440    80.8890    24.1030    20.5580    27.6150    24.5330     6.7990 
  213.7500     2.4370    80.8890    24.1030    20.5580    26.7700    24.6260     6.8710 
  213.8750     2.4440    80.8890    24.1030    20.5580    24.1980    24.7000     6.9740 
  214.0000     2.4660    80.8890    24.1030    20.5580    19.7300    24.5450     7.1200 
  214.1250     2.4960    80.8890    24.1030    20.5580    16.7440    24.4610     7.2700 
  214.2500     2.5190    80.8890    24.1030    20.5580    14.8310    24.5150     7.3690 
  214.3750     2.5290    80.8890    24.1030    20.5580    14.0100    24.5870     7.4270 
  214.5000     2.5250    80.8890    24.1030    20.5580    12.8380    24.5910     7.4500 
  214.6250     2.5170    80.8890    24.1030    20.5580    12.7430    24.6620     7.4670 
  214.7500     2.5200    80.8890    24.1030    20.5580    15.5310    24.9610     7.4980 
  214.8750     2.5370    80.8890    24.1030    20.5580    19.6770    25.4020     7.5480 
  215.0000     2.5620    80.8890    24.1030    20.5580    22.1040    24.8770     7.5470 
  215.1250     2.5830    80.8890    24.1030    20.5580    22.1010    24.4200     7.5310 
  215.2500     2.5860    80.8890    24.1030    20.5580    20.4170    24.1050     7.5310 
  215.3750     2.5600    80.8890    24.1030    20.5580    18.7120    23.9150  -999.2500 
  215.5000     2.5010    80.8890    24.1030    20.5580    18.4380    23.3070  -999.2500 
  215.6250     2.4120    80.8890    24.1030    20.5580    19.9770    22.0900  -999.2500 
  215.7500     2.3130    80.8890    24.1030    20.5580    20.5910    20.8230  -999.2500 
  215.8750     2.2260    80.8890    24.1030    20.5580    20.6510    20.3010  -999.2500 
  216.0000     2.1640    80.8890    24.1030    20.5580    20.6100    20.2290  -999.2500 
