~V
VERS. 2.00: Ver 2.00
~W
STRT.M 52.0000:
STOP.M 224.0000:
STEP.M 0.1250:
NULL. -999.2500:
UWI. F10155:
~C
DEPT.M :
SP.MV :
GR.API :
RML.OHMM :
RI. :
RXO.OHMM :
CALI.CM :
DEN.GM/CC :
~A
# ...
   97.0000    -5.7530   105.5520     6.9950     5.9630     5.0840    24.4870     2.2890 
   97.1250    -5.1510   104.3730     6.9890     6.0140     5.0030    24.4420     2.2880 
   97.2500    -4.6980   106.7780     7.0720     6.1320     5.0770    24.4120     2.2880 
   97.3750    -4.3930   112.3200     7.2030     6.2770     5.2080    24.3670     2.2910 
   97.5000    -4.2580   115.7640     7.3390     6.4100     5.4800    24.3060     2.2970 
   97.6250    -4.2280   113.5630     7.4530     6.5030     5.6800    24.2810     2.3030 
   97.7500    -4.2330   109.5540     7.5290     6.5410     5.4610    24.3150     2.3050 
   97.8750    -4.2810   108.2600     7.5520     6.5160     5.3330    24.4210     2.3020 
   98.0000    -4.4130   109.8170     7.4760     6.3990     5.4140    24.4680     2.2950 
   98.1250    -4.5840   111.3090     7.2800     6.1830     5.4160    24.4570     2.2850 
   98.2500    -4.7760   111.1560     6.9850     5.8790     5.3470    24.4370     2.2720 
   98.3750    -4.9730   111.6990     6.7050     5.5680     5.4170    24.5040     2.2610 
   98.5000    -5.1830   113.0640     6.7560     5.4620     5.5450    24.6490     2.2640 
   98.6250    -5.4880   113.0100     7.4380     5.7550     5.4010    24.7730     2.2990 
   98.7500    -5.9950   110.8680     9.0140     6.6480     5.7370    24.7950     2.3730 
   98.8750    -6.8120   105.0050    11.5480     8.3130     7.9180    24.7170     2.4760 
   99.0000    -8.0060    94.8630    14.6460    10.8310    16.0280    24.6480     2.5670 
   99.1250    -9.4760    84.5360    17.1440    13.4010    26.6390    24.6290     2.6030 
   99.2500   -11.1730    79.0610    18.0560    14.8470    26.3060    24.4650     2.5650 
   99.3750   -13.0090    79.7070    17.0770    14.4540    18.2810    24.1810     2.4680 
   99.5000   -14.8690    80.4630    14.8050    12.7220    12.7870    23.8510     2.3540 
   99.6250   -16.6540    80.6320    12.6150    10.9920    10.2720    23.5260     2.2630 
   99.7500   -18.2950    82.1100    11.1410     9.7620     9.2620    23.0420     2.2110 
   99.8750   -19.6930    84.4590    10.4750     9.0980     8.9700    22.6090     2.1960 
  100.0000   -20.8220    85.7220    10.4470     8.9260     8.7570    22.4020     2.2080 
  100.1250   -21.8120    86.3890    10.6680     8.9990     8.7260    22.3300     2.2270 
  100.2500   -22.7040    88.7340    10.9620     9.1900     8.8510    22.3820     2.2400 
  100.3750   -23.5620    89.7000    11.2250     9.4050     9.0010    22.5050     2.2390 
  100.5000   -24.4440    84.6430    11.3690     9.5590     9.3760    22.6860     2.2210 
  100.6250   -25.3060    77.8810    11.3470     9.5910    10.0050    22.9770     2.1980 
  100.7500   -26.0790    76.0290    11.1250     9.4460    10.5980    23.2500     2.1780 
  100.8750   -26.7530    78.7220    10.7250     9.1230    10.6270    23.5280     2.1660 
  101.0000   -27.3480    79.2680    10.2550     8.7000    10.4310    23.8110     2.1610 
  101.1250   -27.8530    77.6870     9.9030     8.3410    10.3760    23.9330     2.1550 
  101.2500   -28.2850    78.0630     9.7950     8.1600    10.2900    23.7140     2.1450 
  101.3750   -28.7040    80.5910     9.9730     8.2110     9.6560    23.3900     2.1300 
  101.5000   -29.2180    80.5480    10.3850     8.4960     9.5750    23.1500     2.1140 
  101.6250   -29.8540    79.1640    10.8100     8.8570    10.0990    23.0480     2.1050 
  101.7500   -30.6340    79.1490    11.0720     9.1380    10.9800    23.1720     2.1050 
  101.8750   -31.5710    78.0940    11.0650     9.2140    11.5930    23.4790     2.1170 
  102.0000   -32.5780    74.4670    10.7680     9.0230    11.2670    23.9350     2.1370 
  102.1250   -33.5360    71.3920    10.3550     8.6990    10.9760    24.3250     2.1580 
  102.2500   -34.3940    71.9530     9.9610     8.3540    10.9880    24.6410     2.1750 
  102.3750   -35.0710    73.8040     9.6780     8.0750    11.2740    24.6920     2.1850 
  102.5000   -35.4690    74.4430     9.5610     7.9210    11.2210    24.5940     2.1830 
  102.6250   -35.6380    76.4470     9.5550     7.8630    11.1250    24.5320     2.1740 
  102.7500   -35.5710    77.8190     9.6080     7.8630    11.0240    24.5110     2.1620 
  102.8750   -35.2100    75.1400     9.6630     7.8740    10.9560    24.4960     2.1540 
  103.0000   -34.6150    71.0070     9.6690     7.8540    10.8720    24.4170     2.1560 
  103.1250   -33.9280    72.1730     9.6180     7.7880    10.7250    24.2830     2.1630 
  103.2500   -33.2410    77.1960     9.5270     7.6870    10.5630    24.2300     2.1690 
  103.3750   -32.6850    79.3780     9.4280     7.5740    10.4320    24.2730     2.1680 
  103.5000   -32.3840    78.5810     9.3580     7.4840    10.1350    24.3840     2.1620 
  103.6250   -32.2730    78.1460     9.3140     7.4250     9.9770    24.4270     2.1540 
  103.7500   -32.2960    77.8140     9.2850     7.3880    10.0710    24.3610     2.1440 
  103.8750   -32.4480    76.7210     9.2830     7.3670    10.1820    24.1820     2.1250 
  104.0000   -32.6620    74.2850     9.4440     7.4400    10.2420    24.0810     2.0980 
  104.1250   -32.8630    71.6600     9.9270     7.7400    10.1890    24.1030     2.0900 
  104.2500   -33.0150    70.2520    10.8580     8.3950    10.2630    24.2160     2.1300 
  104.3750   -33.0810    69.9160    12.2010     9.4490    11.0140    24.3440     2.2270 
  104.5000   -33.0050    69.2320    13.6110    10.7630    15.0120    24.4350     2.3530 
  104.6250   -32.8960    68.2390    14.5010    11.8050    25.1220    24.5620     2.4430 
  104.7500   -32.8520    71.1030    14.4650    12.0360    31.3930    24.5300     2.4600 
  104.8750   -32.9550    77.6650    13.4770    11.2930    21.5580    24.2410     2.4050 
  105.0000   -33.2240    80.9160    11.9330     9.9600    13.3780    24.0100     2.3130 
  105.1250   -33.6180    77.7000    10.5330     8.7090    10.8620    23.7870     2.2330 
  105.2500   -34.0760    70.9540     9.6090     7.8080    10.3490    23.7560     2.1830 
  105.3750   -34.5180    66.5630     9.2150     7.3180    10.3420    23.8170     2.1610 
  105.5000   -34.9170    67.9990     9.2430     7.2160    10.2520    23.8480     2.1610 
  105.6250   -35.2530    72.9730     9.4120     7.2990    10.0140    23.7970     2.1700 
  105.7500   -35.5440    76.8920     9.5920     7.4560     9.6840    23.6560     2.1830 
  105.8750   -35.7240    76.6130     9.7380     7.6320    10.0380    23.5480     2.1920 
  106.0000   -35.8230    75.0110     9.8480     7.8080    10.0050    23.5100     2.1960 
  106.1250   -35.9220    75.1820     9.9340     7.9750     9.3820    23.4680     2.1940 
  106.2500   -36.0400    75.2010     9.9830     8.1210     8.4940    23.3460     2.1890 
  106.3750   -36.2120    74.5170     9.9870     8.2340     8.3950    23.1580     2.1820 
  106.5000   -36.4180    73.4750     9.9420     8.3040     9.6120    23.0400     2.1780 
  106.6250   -36.6170    70.4850     9.8760     8.3400    10.6770    23.0320     2.1810 
  106.7500   -36.8020    68.2660     9.8050     8.3470    10.7790    23.0890     2.1910 
  106.8750   -36.9900    69.7000     9.7340     8.3230    10.3110    23.0920     2.2020 
  107.0000   -37.2060    72.7740     9.6540     8.2560     9.9740    22.9920     2.2080 
  107.1250   -37.4350    73.8730     9.5600     8.1480     9.7660    22.9370     2.2030 
  107.2500   -37.7030    72.8870     9.4530     8.0090     9.3420    22.9700     2.1890 
  107.3750   -37.9920    70.7290     9.3430     7.8530     8.5810    22.9070     2.1690 
  107.5000   -38.1930    69.2540     9.2310     7.6980     7.9030    22.5480     2.1490 
  107.6250   -38.3010    70.9180     9.1010     7.5440     7.5590    22.0600     2.1270 
  107.7500   -38.2320    74.2670     8.9340     7.3830     7.4890    21.6130     2.1060 
  107.8750   -37.8860    74.6800     8.7420     7.2180     7.5980    21.2570     2.0910 
  108.0000   -37.0950    72.5460     8.6540     7.1240     7.6310    21.2650     2.0960 
  108.1250   -35.8530    72.0700     8.9020     7.2460     7.4240    21.5160     2.1290 
