~V
VERS. 2.00: Ver 2.00
~W
STRT.M 55.0000:
STOP.M 242.0000:
STEP.M 0.1250:
NULL. -999.2500:
UWI. F10187:
~C
DEPT.M :
GR.API :
RML.OHMM :
RI. :
RXO.OHMM :
CALI.CM :
DEN.GM/CC :
SP.MV :
~A
# ...
  201.2500    64.1960     5.8360     5.2120     6.2530    24.1730     2.4170    -4.3130 
  201.3750    67.1170     5.8210     5.1820     5.6490    24.0570     2.4310    -3.2780 
  201.5000    70.1970     5.8000     5.2330     5.2110    23.9990     2.4420    -2.3430 
  201.6250    74.0690     5.7510     5.3260     5.3120    24.0990     2.4450    -1.5770 
  201.7500    78.4860     5.6930     5.4200     5.6480    24.3410     2.4410    -1.0940 
  201.8750    82.6960     5.6440     5.4990     5.9520    24.5750     2.4320    -0.7770 
  202.0000    87.0620     5.6180     5.5600     6.1050    24.6800     2.4230    -0.5030 
  202.1250    90.8660     5.6260     5.6020     6.0270    24.6790     2.4190    -0.3540 
  202.2500    91.2290     5.6600     5.6290     5.9710    24.6540     2.4200    -0.2920 
  202.3750    88.1600     5.7080     5.6370     6.0810    24.6330     2.4210    -0.2650 
  202.5000    84.9730     5.7580     5.6250     6.2370    24.6250     2.4160    -0.3290 
  202.6250    84.0570     5.7950     5.6020     6.2210    24.6250     2.4050    -0.5740 
  202.7500    85.3030     5.8250     5.5840     6.2370    24.6230     2.3990    -0.9130 
  202.8750    87.7330     5.8620     5.5850     6.3070    24.6150     2.4030    -1.3170 
  203.0000    88.6310     5.9310     5.6150     6.2630    24.6100     2.4180    -1.7650 
  203.1250    87.8660     6.0790     5.6960     6.4260    24.6100     2.4390    -2.2070 
  203.2500    87.9400     6.3310     5.8470     6.7480    24.6440     2.4540    -2.6750 
  203.3750    88.7080     6.6960     6.0950     6.6580    24.6820     2.4590    -3.1690 
  203.5000    89.6960     7.1420     6.4570     6.7590    24.7140     2.4560    -3.6990 
  203.6250    89.3050     7.5840     6.9150     7.5400    24.7370     2.4470    -4.1790 
  203.7500    87.6490     7.9330     7.3630     8.7700    24.7430     2.4370    -4.5750 
  203.8750    85.9040     8.1590     7.7080     9.8870    24.7340     2.4270    -4.9360 
  204.0000    84.7220     8.3100     7.9110    10.6020    24.7160     2.4180    -5.3100 
  204.1250    85.7000     8.5660     8.0390    11.2090    24.7120     2.4120    -5.6930 
  204.2500    86.7920     9.1600     8.3070    10.9410    24.7130     2.4080    -5.9880 
  204.3750    85.9690    10.3950     8.9780    10.5730    24.7260     2.4060    -6.2540 
  204.5000    82.9750    12.9340    10.3900    11.2680    24.7790     2.4010    -6.5860 
  204.6250    80.2680    18.0290    13.3510    14.0320    24.8380     2.3860    -6.9100 
  204.7500    79.6080    25.9870    18.7560    24.8420    24.8970     2.3620    -7.3040 
  204.8750    77.6510    37.5660    28.2480    50.0600    24.9300     2.3390    -7.8200 
  205.0000    71.8840    54.0480    43.6250    86.5730    24.9400     2.3260    -8.3720 
  205.1250    65.7640    77.0450    66.3010   137.1970    24.9230     2.3330    -8.8900 
  205.2500    62.9170   102.8190    91.7870   159.5140    24.8720     2.3470    -9.4160 
  205.3750    63.0200   125.7660   113.9580   185.5230    24.8140     2.3580    -9.8810 
  205.5000    63.7630   140.7160   127.5600   201.0030    24.8100     2.3550   -10.1710 
  205.6250    64.1040   145.2710   131.0650   177.9450    24.8140     2.3350   -10.4090 
  205.7500    65.4170   144.6130   130.1810   156.3080    24.8760     2.3040   -10.5910 
  205.8750    67.7750   142.1850   128.0700   152.8760    25.0070     2.2680   -10.6610 
  206.0000    69.0940   139.0680   125.7290   160.6080    25.0920     2.2350   -10.6280 
  206.1250    69.0930   133.5610   122.1480   156.4970    25.0790     2.2150   -10.4930 
  206.2500    70.1380   124.1370   115.5690   145.1830    25.0530     2.2100   -10.3150 
  206.3750    71.6580   110.5080   104.7990   131.4220    25.0350     2.2150   -10.1220 
  206.5000    71.9060    94.2680    90.5590   117.2980    24.9920     2.2250    -9.9090 
  206.6250    70.5750    78.5910    75.6500    90.7270    24.9470     2.2320    -9.6160 
  206.7500    69.9620    65.8350    63.0040    62.5810    24.9020     2.2380    -9.2820 
  206.8750    70.0030    56.6970    53.7210    46.1110    24.8870     2.2450    -8.9170 
  207.0000    69.5420    50.8520    47.6990    41.0780    24.8950     2.2560    -8.5200 
  207.1250    68.2840    47.7630    44.5110    41.2330    24.9210     2.2700    -8.1820 
  207.2500    66.5360    46.0010    42.8010    43.9920    24.9500     2.2840    -7.9050 
  207.3750    64.9050    44.7440    41.7920    45.3670    24.9860     2.2960    -7.6030 
  207.5000    64.1800    43.3770    40.7890    42.9950    25.0090     2.3020    -7.3110 
  207.6250    65.1840    41.6240    39.2810    40.8270    24.9990     2.2990    -7.0810 
  207.7500    66.8140    39.8600    37.5320    38.9890    24.9330     2.2870    -6.7500 
  207.8750    67.4800    38.6350    36.1440    37.2180    24.8000     2.2720    -6.3090 
  208.0000    68.1240    38.4210    35.7090    34.5090    24.6500     2.2670    -5.8880 
  208.1250    69.7140    39.4910    36.6740    34.5160    24.5300     2.2990    -5.5100 
  208.2500    68.6350    41.1680    38.4940    44.5560    24.4970     2.3650    -5.1490 
  208.3750    64.0320    42.5920    40.3400    67.7060    24.4640     2.4440    -4.8440 
  208.5000    59.4120    42.8500    41.1230    78.9070    24.3730     2.5000    -4.5650 
  208.6250    59.4880    41.1990    39.7720    61.3510    24.3180     2.4940    -4.3270 
  208.7500    61.7160    38.3490    36.9540    41.1620    24.3860     2.4400    -4.2530 
  208.8750    63.4340    35.2170    33.6840    32.5910    24.5650     2.3650    -4.4010 
  209.0000    65.8970    32.6590    30.9080    32.3640    24.7360     2.2990    -4.6720 
  209.1250    69.1820    31.3030    29.3310    33.3770    24.8130     2.2590    -4.9090 
  209.2500    69.8020    30.8990    28.7800    33.3050    24.8220     2.2350    -5.0690 
  209.3750    66.8870    31.1260    28.9560    32.7480    24.8170     2.2210    -5.2230 
  209.5000    64.4090    31.6440    29.5040    33.6460    24.8180     2.2120    -5.4240 
  209.6250    65.1750    32.2010    30.1660    35.0130    24.7980     2.2120    -5.6310 
  209.7500    65.3300    32.6580    30.8060    35.0820    24.7670     2.2190    -5.8070 
  209.8750    63.5590    32.9360    31.3600    34.8320    24.7330     2.2270    -5.9130 
  210.0000    63.2040    32.9330    31.7220    35.6860    24.6880     2.2340    -5.9410 
  210.1250    65.4320    32.4520    31.6540    36.4230    24.6420     2.2390    -5.9350 
  210.2500    66.9360    31.5050    31.0720    37.0910    24.6090     2.2440    -5.9550 
  210.3750    67.0790    30.1570    29.9800    34.7110    24.5720     2.2510    -6.0300 
  210.5000    67.0070    28.5810    28.5270    30.4240    24.5350     2.2570    -6.1090 
  210.6250    68.2020    27.0420    26.9690    27.4370    24.5030     2.2570    -6.1010 
  210.7500    69.4120    25.7690    25.5860    26.0270    24.4920     2.2510    -6.0150 
  210.8750    69.8450    24.8950    24.5570    25.5090    24.4860     2.2440    -5.9400 
  211.0000    68.7330    24.4530    23.9800    25.3720    24.4680     2.2410    -5.9210 
  211.1250    67.2330    24.4120    23.8910    25.0030    24.4230     2.2440    -5.9460 
  211.2500    67.9010    24.5310    24.0560    24.6270    24.3860     2.2450    -5.9040 
  211.3750    69.1290    24.6320    24.2530    25.2550    24.3930     2.2430    -5.8070 
  211.5000    67.7730    24.6170    24.2890    26.6500    24.4520     2.2450    -5.7600 
  211.6250    64.6590    24.5540    24.1300    25.5480    24.4900     2.2650    -5.8460 
  211.7500    64.3040    24.7070    24.0590    21.9080    24.4620     2.3010    -6.0220 
  211.8750    66.6400    25.3660    24.4050    19.4060    24.3530     2.3390    -6.2130 
  212.0000    68.8070    26.7520    25.4640    19.6280    24.2750     2.3570    -6.3850 
  212.1250    68.9420    29.0080    27.5650    26.4460    24.3010     2.3430    -6.5890 
  212.2500    67.7500    31.7240    30.4310    35.8370    24.3410     2.3140    -6.9180 
  212.3750    66.8680    34.4410    33.6050    41.0200    24.3630     2.2850    -7.3230 
