~V
VERS. 2.00: Ver 2.00
~W
STRT.M 62.0000:
STOP.M 275.0000:
STEP.M 0.1250:
NULL. -999.2500:
UWI. F10141:
~C
DEPT.M :
GR.API :
RML.OHMM :
RI. :
RXO.OHMM :
CALI.CM :
DEN.GM/CC :
SP.MV :
~A
# ...
  152.0000    93.6930     6.0430     5.0810     5.4390    24.8970     2.3940    -1.4960 
  152.1250    93.9310     6.0200     5.0640     5.4810    24.9060     2.3890    -1.5610 
  152.2500    94.5010     6.0100     5.0530     5.5310    24.9250     2.3840    -1.6400 
  152.3750    92.5880     6.0100     5.0480     5.5880    24.9320     2.3790    -1.6980 
  152.5000    88.4920     6.0160     5.0450     5.6160    24.9120     2.3710    -1.7490 
  152.6250    85.9410     6.0370     5.0510     5.5520    24.9000     2.3620    -1.8430 
  152.7500    86.4160     6.0770     5.0700     5.4400    24.8980     2.3540    -1.9280 
  152.8750    89.5030     6.1340     5.0990     5.3740    24.8970     2.3470    -2.0170 
  153.0000    93.2950     6.1920     5.1290     5.5740    24.8950     2.3430    -2.1210 
  153.1250    95.3050     6.2160     5.1370     5.9410    24.8880     2.3420    -2.1910 
  153.2500    95.1060     6.1860     5.1110     6.0140    24.8730     2.3420    -2.2050 
  153.3750    92.9120     6.1000     5.0510     5.6240    24.8650     2.3420    -2.1610 
  153.5000    90.8860     5.9740     4.9680     5.2750    24.8480     2.3420    -2.0710 
  153.6250    89.4060     5.8420     4.8790     5.2210    24.8380     2.3400    -1.9750 
  153.7500    85.9160     5.7520     4.8100     5.2930    24.8300     2.3360    -1.9170 
  153.8750    81.5160     5.7360     4.7820     5.3780    24.8240     2.3330    -1.8590 
  154.0000    79.2000     5.7990     4.8040     5.3310    24.8080     2.3310    -1.8190 
  154.1250    80.6880     5.9250     4.8740     5.2690    24.7610     2.3300    -1.8540 
  154.2500    82.8610     6.0610     4.9620     5.4560    24.6920     2.3310    -1.9940 
  154.3750    85.2200     6.1810     5.0530     5.9790    24.6080     2.3340    -2.2190 
  154.5000    87.8550     6.2720     5.1350     6.4170    24.5540     2.3370    -2.4500 
  154.6250    89.1780     6.3520     5.2150     5.9240    24.5470     2.3380    -2.6140 
  154.7500    90.8450     6.4510     5.3050     5.5360    24.5110     2.3370    -2.7630 
  154.8750    94.7830     6.5690     5.4030     5.7520    24.4390     2.3350    -2.9010 
  155.0000    98.7160     6.6830     5.4970     6.1450    24.3530     2.3360    -2.9840 
  155.1250   100.0120     6.7410     5.5550     6.1530    24.2880     2.3440    -2.9490 
  155.2500   101.2100     6.7110     5.5560     5.9780    24.2260     2.3550    -2.8120 
  155.3750   103.8350     6.5830     5.4890     5.6720    24.1990     2.3670    -2.5960 
  155.5000   103.9140     6.3840     5.3630     5.2380    24.2010     2.3780    -2.3380 
  155.6250    99.5130     6.1600     5.2020     5.2140    24.1650     2.3860    -2.0700 
  155.7500    93.9390     5.9510     5.0360     5.1240    24.0520     2.3880    -1.7700 
  155.8750    88.4940     5.7680     4.8790     5.0280    23.9930     2.3820    -1.4540 
  156.0000    84.0810     5.6200     4.7420     4.9920    24.0620     2.3670    -1.1520 
  156.1250    83.1980     5.5200     4.6430     4.7270    24.3390     2.3470    -0.8760 
  156.2500    84.9510     5.4770     4.5890     4.5880    24.7280     2.3290    -0.6500 
  156.3750    87.2870     5.4960     4.5850     4.5560    24.9920     2.3200    -0.5080 
  156.5000    88.6520     5.5670     4.6250     4.6310    25.0230     2.3210    -0.4500 
  156.6250    89.4560     5.6570     4.6950     4.8090    24.9540     2.3330    -0.4590 
  156.7500    89.2780     5.7260     4.7620     4.9610    24.9080     2.3460    -0.4680 
  156.8750    88.0550     5.7510     4.8060     5.0150    24.8940     2.3570    -0.4870 
  157.0000    85.8140     5.7310     4.8200     5.0640    24.8930     2.3620    -0.5270 
  157.1250    83.8680     5.6820     4.8060     5.0540    24.8840     2.3620    -0.5800 
  157.2500    83.2170     5.6330     4.7840     4.9530    24.8630     2.3600    -0.6290 
  157.3750    83.3140     5.6020     4.7670     4.8620    24.8440     2.3590    -0.6680 
  157.5000    84.2540     5.6000     4.7660     4.8180    24.8440     2.3590    -0.7100 
  157.6250    84.8470     5.6260     4.7840     4.8960    24.8660     2.3580    -0.7660 
  157.7500    83.6230     5.6640     4.8160     4.9750    24.8850     2.3530    -0.8430 
  157.8750    83.1080     5.7010     4.8540     4.9900    24.8920     2.3460    -0.9200 
  158.0000    86.5910     5.7250     4.8910     4.9950    24.8930     2.3370    -0.9910 
  158.1250    91.3730     5.7200     4.9180     5.0460    24.8930     2.3310    -1.0840 
  158.2500    91.6470     5.6870     4.9260     5.1080    24.8930     2.3300    -1.1520 
  158.3750    91.4650     5.6250     4.9120     5.1600    24.8930     2.3390    -1.2100 
  158.5000    96.7860     5.5400     4.8750     5.1620    24.8930     2.3550    -1.2570 
  158.6250   104.5490     5.4380     4.8160     5.0410    24.8980     2.3780    -1.2700 
  158.7500   105.7500     5.3310     4.7480     4.8900    24.9080     2.4000    -1.2500 
  158.8750   100.0900     5.2310     4.6800     4.8160    24.9140     2.4180    -1.2260 
  159.0000    93.3670     5.1410     4.6180     4.7840    24.9230     2.4270    -1.2080 
  159.1250    90.7580     5.0640     4.5690     4.7680    24.9390     2.4260    -1.1850 
  159.2500    91.0370     4.9950     4.5340     4.7670    24.9410     2.4210    -1.1620 
  159.3750    91.5870     4.9340     4.5150     4.7500    24.9180     2.4170    -1.0870 
  159.5000    93.2330     4.8830     4.5120     4.6680    24.8650     2.4190    -0.9840 
  159.6250    96.1060     4.8550     4.5280     4.5880    24.8400     2.4260    -0.8990 
  159.7500    97.5520     4.8490     4.5580     4.5610    24.8440     2.4290    -0.8290 
  159.8750    95.3440     4.8580     4.5980     4.5890    24.8700     2.4230    -0.7380 
  160.0000    92.1600     4.8710     4.6400     4.6940    24.8960     2.4090    -0.6040 
  160.1250    93.4800     4.8660     4.6710     4.7680    24.9240     2.3950    -0.4480 
  160.2500    96.7730     4.8340     4.6800     4.8100    24.9430     2.3910    -0.3270 
  160.3750    97.3770     4.7730     4.6600     4.8160    24.9390     2.3950    -0.2750 
  160.5000    94.5780     4.6900     4.6130     4.7950    24.9090     2.4000    -0.2390 
  160.6250    91.8350     4.5980     4.5500     4.6520    24.8730     2.3990    -0.1830 
  160.7500    91.2700     4.5130     4.4880     4.5120    24.8350     2.3920    -0.1170 
  160.8750    91.6320     4.4470     4.4380     4.4340    24.8180     2.3840    -0.0820 
  161.0000    90.9420     4.4060     4.4090     4.4400    24.8180     2.3820    -0.0990 
  161.1250    88.2260     4.3950     4.4050     4.4500    24.8270     2.3860    -0.1640 
  161.2500    86.7990     4.4040     4.4180     4.4780    24.8570     2.3930    -0.2360 
  161.3750    88.1650     4.4260     4.4430     4.4950    24.8900     2.4000    -0.2970 
  161.5000    90.2270     4.4670     4.4810     4.5560    24.9120     2.4040    -0.3730 
  161.6250    89.8330     4.5480     4.5450     4.6140    24.9180     2.4040    -0.4890 
  161.7500    87.9060     4.6730     4.6380     4.6370    24.9040     2.3950    -0.6470 
  161.8750    86.8320     4.8290     4.7510     4.6960    24.8790     2.3780    -0.7780 
  162.0000    87.8550     5.0020     4.8750     4.9620    24.8050     2.3570    -0.8990 
  162.1250    86.6600     5.1800     5.0090     5.4550    24.7400     2.3370    -1.0260 
  162.2500    81.2580     5.3450     5.1450     5.8430    24.6950     2.3270    -1.1270 
  162.3750    75.5860     5.5040     5.2900     5.9880    24.7030     2.3260    -1.2290 
  162.5000    74.3140     5.7190     5.4830     6.7970    24.7400     2.3300    -1.3270 
  162.6250    77.0020     6.1790     5.8460     8.8650    24.7600     2.3370    -1.4050 
  162.7500    78.4350     7.0690     6.4990    10.2770    24.7650     2.3510    -1.4960 
  162.8750    77.3510     8.5980     7.6000     9.9610    24.7670     2.3760    -1.6610 
  163.0000    72.7880    10.8670     9.2760    11.7200    24.7780     2.4090    -1.8680 
  163.1250    66.8410    13.7070    11.5530    18.6480    24.8050     2.4350    -2.1170 
