~V
VERS. 2.00: Ver 2.00
~W
STRT.M 58.0000:
STOP.M 213.0000:
STEP.M 0.1250:
NULL. -999.2500:
UWI. F10138:
~C
DEPT.M :
GR.API :
RML.OHMM :
RI. :
RXO.OHMM :
CALI.CM :
DEN.GM/CC :
SP.MV :
~A
   58.0000    41.7750     0.0830     0.2720     1.3380    25.3310     2.0320    32.1010 
   58.1250    43.2870     0.0810     0.2400     1.2540    25.3310     2.0720    30.6110 
   58.2500    46.3970     0.0680     0.2000     1.3350    25.3290     2.0910    28.7910 
   58.3750    46.1970     0.0450     0.1650     1.6680    25.3190     2.0780    26.5870 
   58.5000    43.0030     0.0230     0.1490     2.0340    25.2570     2.0400    23.9920 
   58.6250    40.4450     0.0110     0.1580     2.0360    25.2880     2.0140    20.8990 
   58.7500    41.4600     0.0090     0.1770     2.4780    25.6080     2.0290    17.3770 
   58.8750    44.4600     0.0150     0.1960     3.4960    27.0980     2.0790    13.4700 
   59.0000    47.3390     0.0300     0.2250     4.6160    29.0050     2.1200     9.1990 
   59.1250    51.2420     0.0720     0.3280     5.6660    29.9020     2.0860     4.6640 
   59.2500    55.1980     0.2000     0.5750     6.1490    30.5760     1.9860     0.1490 
   59.3750    56.5350     0.5690     1.0420     6.3470    33.7960     1.8580    -4.1230 
   59.5000    54.6280     1.3480     1.7590     6.3110    37.0610     1.7520    -8.0460 
   59.6250    54.4040     2.2930     2.6300     6.1490    35.8920     1.7130   -11.4640 
   59.7500    57.8570     2.9150     3.4400     6.1320    30.5620     1.7420   -14.3620 
   59.8750    62.2260     3.3040     4.1390     6.5180    27.5150     1.8220   -16.7760 
   60.0000    65.8930     3.7350     4.8450     7.2570    26.6990     1.9270   -18.7130 
   60.1250    68.4460     4.5070     5.7950     9.4880    26.1890     2.0370   -20.1940 
   60.2500    67.8430     5.6760     7.0710    11.0040    25.8800     2.1520   -21.4270 
   60.3750    63.5400     7.0890     8.5950    10.3850    25.8500     2.2730   -22.5700 
   60.5000    59.4580     8.3520    10.0460    11.9740    25.9990     2.3850   -23.6970 
   60.6250    60.8700     8.8240    10.7300    18.9160    26.0140     2.4410   -24.8400 
   60.7500    64.5040     8.4630    10.4460    23.4200    25.9750     2.4250   -26.0360 
   60.8750    64.7360     7.6130     9.4680    17.9040    25.8960     2.3560   -27.2360 
   61.0000    60.5330     6.7540     8.3070    11.7610    25.7630     2.2730   -28.4180 
   61.1250    56.3830     6.2240     7.4000     9.6970    25.3350     2.2100   -29.5480 
   61.2500    56.3830     6.0120     6.8430     9.0750    24.9240     2.1760   -30.6110 
   61.3750    59.5040     6.0510     6.6080     8.7540    24.8550     2.1690   -31.5870 
   61.5000    63.5290     6.2380     6.5960     8.4020    24.8520     2.1760   -32.4500 
   61.6250    66.2730     6.4500     6.6730     8.1330    24.8960     2.1840   -33.1880 
   61.7500    68.0300     6.5990     6.7240     7.7990    25.0490     2.1800   -33.7910 
   61.8750    69.6890     6.6910     6.7490     7.8250    25.1920     2.1640   -34.2710 
   62.0000    71.6780     6.7700     6.8000     8.4270    25.1800     2.1430   -34.6810 
   62.1250    72.7320     6.8800     6.9350     9.3780    24.8510     2.1270   -35.0220 
   62.2500    70.7800     7.0230     7.1290     9.7460    24.2370     2.1230   -35.2750 
   62.3750    66.4340     7.1670     7.3220     9.7160    24.0320     2.1290   -35.4450 
   62.5000    65.4560     7.2720     7.4450     9.7740    24.0430     2.1420   -35.5760 
   62.6250    71.1700     7.3040     7.4420     9.9080    24.2090     2.1560   -35.5900 
   62.7500    75.3050     7.2860     7.3440     9.7280    24.5110     2.1660   -35.4620 
   62.8750    72.6150     7.2520     7.1940     9.3710    25.0980     2.1680   -35.2690 
   63.0000    66.2830     7.2280     7.0330     9.3070    25.4920     2.1620   -35.0420 
   63.1250    63.2110     7.2430     6.9090     9.3760    25.9280     2.1500   -34.7680 
   63.2500    63.0070     7.3090     6.8530     9.3590    26.3040     2.1400   -34.4950 
   63.3750    63.0460     7.4370     6.8800     9.4890    26.5280     2.1370   -34.2850 
   63.5000    62.2390     7.6350     6.9860     9.6680    26.8420     2.1410   -34.1550 
   63.6250    61.4460     7.9030     7.1540     9.7920    27.0970     2.1490   -34.1170 
   63.7500    61.2770     8.1990     7.3470     9.8140    27.3650     2.1560   -34.1960 
   63.8750    61.0460     8.4800     7.5420    10.0230    27.7150     2.1580   -34.3660 
   64.0000    60.3320     8.6980     7.7090    10.7770    27.8150     2.1560   -34.5910 
   64.1250    60.3280     8.8120     7.8000    11.8550    27.4140     2.1530   -34.8500 
   64.2500    62.0090     8.8480     7.8030    12.3280    26.5830     2.1530   -35.1060 
   64.3750    64.0220     8.8320     7.7240    11.7750    26.3440     2.1580   -35.2930 
   64.5000    64.9830     8.7820     7.5990    11.0440    26.7600     2.1660   -35.4070 
   64.6250    65.3380     8.7060     7.4740    10.7060    27.3950     2.1720   -35.4460 
   64.7500    65.1790     8.6200     7.3840    10.5630    27.6350     2.1740   -35.4180 
   64.8750    65.3380     8.5410     7.3390    10.5660    27.5730     2.1730   -35.3160 
   65.0000    66.2350     8.4800     7.3320    10.5670    27.5390     2.1710   -35.1420 
   65.1250    65.4160     8.4410     7.3450    10.6100    27.5110     2.1720   -34.8720 
   65.2500    62.2760     8.4110     7.3520    10.7370    27.2990     2.1760   -34.5420 
   65.3750    58.8440     8.3840     7.3410    10.5390    26.8720     2.1780   -34.2210 
   65.5000    59.3930     8.3750     7.3140    10.1940    26.4570     2.1750   -33.9180 
   65.6250    63.7100     8.4210     7.2960     9.7890    26.5390     2.1670   -33.6350 
   65.7500    67.1290     8.5400     7.3220     9.7130    26.7640     2.1600   -33.3770 
   65.8750    68.5030     8.7250     7.4100     9.9380    26.8720     2.1580   -33.1730 
   66.0000    68.4450     8.9410     7.5520    10.4930    26.6130     2.1650   -33.0550 
   66.1250    67.8880     9.1050     7.6960    11.1050    26.3980     2.1800   -33.0240 
   66.2500    65.3680     9.1510     7.7700    11.3380    26.4110     2.1970   -33.0510 
   66.3750    62.8550     9.0580     7.7290    11.1010    26.6400     2.2090   -33.0910 
   66.5000    62.9780     8.8630     7.5730    10.7190    26.9090     2.2090   -33.1140 
   66.6250    63.2660     8.6540     7.3500    10.3600    27.1150     2.1940   -33.1330 
   66.7500    60.6880     8.5210     7.1460     9.9850    27.2790     2.1720   -33.1310 
   66.8750    58.0470     8.5010     7.0030     9.5150    27.7060     2.1490   -33.0510 
   67.0000    58.5920     8.5890     6.9340     9.1160    28.4110     2.1330   -32.9160 
   67.1250    61.3950     8.7600     6.9350     8.9690    29.1640     2.1290   -32.7850 
   67.2500    62.1280     8.9440     6.9760     8.9740    29.3530     2.1310   -32.6730 
   67.3750    60.5300     9.0960     7.0290     8.9790    29.2350     2.1360   -32.6020 
   67.5000    58.2530     9.1910     7.0670     9.0930    29.0920     2.1420   -32.6140 
   67.6250    57.2470     9.2260     7.0760     9.6170    28.6910     2.1470   -32.6990 
   67.7500    59.0030     9.2370     7.0740    10.1770    28.4360     2.1530   -32.8290 
   67.8750    62.3470     9.2470     7.0840    10.4820    28.4020     2.1550   -33.0510 
   68.0000    65.3490     9.2640     7.1170    10.3700    28.4050     2.1530   -33.3130 
   68.1250    65.5380     9.2650     7.1570     9.5790    28.4300     2.1460   -33.5320 
   68.2500    62.1420     9.2290     7.1580     9.0390    28.4540     2.1360   -33.7240 
   68.3750    59.1280     9.1470     7.0940     8.6810    28.4200     2.1260   -33.8970 
   68.5000    59.6440     9.0320     6.9760     8.3930    28.4040     2.1180   -34.0250 
   68.6250    61.2950     8.9170     6.8400     8.1360    28.4010     2.1130   -34.0730 
   68.7500    59.9650     8.8270     6.7290     7.8900    28.4060     2.1120   -34.0840 
   68.8750    56.6650     8.7640     6.6620     7.6860    28.4330     2.1110   -34.0820 
   69.0000    55.3160     8.7120     6.6320     7.8430    28.5380     2.1070   -34.0280 
   69.1250    58.4400     8.6440     6.6120     8.3890    28.5810     2.0950   -33.9630 
