~V
VERS. 2.00: Ver 2.00
~W
STRT.M 50.0000:
STOP.M 294.0000:
STEP.M 0.1250:
NULL. -999.2500:
UWI. F10104:
~C
DEPT.M :
GR.API :
RML.OHMM :
RI. :
RXO.OHMM :
CALI.CM :
DEN.GM/CC :
SP.MV :
~A
# ...
  162.5000    99.3880     7.3950     6.1820     8.3400    25.2880     2.2410   -13.2480 
  162.6250    97.0080     7.2610     6.0540     8.4510    25.3190     2.2310   -13.3410 
  162.7500    98.6740     7.1830     6.0000     8.4360    25.6440     2.2210   -13.4200 
  162.8750   100.5020     7.2530     6.0540     8.6500    25.5110     2.2120   -13.5070 
  163.0000    99.5610     7.5510     6.2450     9.2240    25.0910     2.2040   -13.5850 
  163.1250    98.5310     8.2140     6.6580     9.4720    24.7710     2.2050   -13.6390 
  163.2500    97.2190     9.2670     7.3490    10.0570    24.8220     2.2140   -13.6840 
  163.3750    92.4800    10.7370     8.4100    11.4230    24.7780     2.2250   -13.6560 
  163.5000    86.5770    12.5330     9.8480    13.2700    25.0430     2.2360   -13.5510 
  163.6250    81.9390    14.1680    11.3740    14.9690    25.3830     2.2600   -13.3210 
  163.7500    76.7380    14.8250    12.2950    16.8940    25.5860     2.3070   -13.0120 
  163.8750    73.3850    13.9730    12.0620    17.6160    25.4510     2.3650   -12.6200 
  164.0000    75.5950    11.9870    10.7800    15.1460    25.2300     2.4010   -12.1980 
  164.1250    83.8160    10.0910     9.2630    11.1250    25.3160     2.3930   -11.7730 
  164.2500    91.4270     9.2000     8.3420     9.7590    25.6130     2.3720   -11.3600 
  164.3750    93.2000     9.6640     8.4200    10.8510    26.0440     2.3730   -11.0200 
  164.5000    86.7200    11.6050     9.7450    15.0910    26.2570     2.4090   -10.7590 
  164.6250    74.9450    15.0700    12.5950    22.0690    25.8860     2.4700   -10.6170 
  164.7500    65.1320    18.8190    16.1410    24.1700    25.4740     2.5240   -10.5500 
  164.8750    59.5650    20.9870    18.8810    22.4590    25.3930     2.5520   -10.5660 
  165.0000    58.1920    20.3040    19.3630    22.2050    25.4820     2.5580   -10.6210 
  165.1250    61.5300    17.5100    17.5450    21.6640    25.5210     2.5500   -10.7250 
  165.2500    64.8920    14.5930    15.1260    19.7980    25.1060     2.5310   -10.8660 
  165.3750    66.8320    12.0930    12.7860    17.1090    24.8450     2.5030   -11.0480 
  165.5000    71.4530     9.9850    10.6550    14.0790    24.7580     2.4680   -11.2640 
  165.6250    82.5030     8.2890     8.8220    10.7630    24.6680     2.4240   -11.5150 
  165.7500    91.0090     7.0840     7.4280     9.0680    24.5680     2.3750   -11.7930 
  165.8750    91.0830     6.5330     6.6400     8.7060    24.5350     2.3330   -12.0480 
  166.0000    86.1680     6.7460     6.5540     9.1430    24.5950     2.3130   -12.2970 
  166.1250    81.8740     7.9650     7.3690     9.9490    24.8960     2.3220   -12.5040 
  166.2500    77.5020    10.1650     9.0830    11.2820    25.3760     2.3520   -12.6770 
  166.3750    71.2080    13.3600    11.8270    14.4760    25.6330     2.4010   -12.7950 
  166.5000    64.6670    17.2160    15.4990    21.1150    25.4290     2.4620   -12.8850 
  166.6250    61.1470    20.3640    19.1140    24.6010    25.3680     2.5110   -12.9350 
  166.7500    60.8920    21.0160    20.7890    24.4550    25.6680     2.5250   -12.9470 
  166.8750    64.2410    18.6220    19.4750    21.9540    26.2350     2.5060   -12.9460 
  167.0000    70.1400    14.5990    16.0380    16.8500    26.8100     2.4620   -12.9240 
  167.1250    77.5800    11.1330    12.5140    11.8730    26.6230     2.3970   -12.9090 
  167.2500    84.5100     9.0640    10.0820     9.8730    26.3450     2.3330   -12.8760 
  167.3750    88.4120     8.4180     8.8910    10.0420    26.2320     2.2960   -12.8430 
  167.5000    89.3850     9.1160     8.8710    11.4230    26.4200     2.3020   -12.7730 
  167.6250    88.8910    11.3510    10.2240    13.2250    26.9080     2.3460   -12.6750 
  167.7500    87.3900    14.7970    12.7890    15.5320    27.1010     2.4010   -12.5490 
  167.8750    85.2860    19.0040    16.3620    18.7550    26.7150     2.4530   -12.4180 
  168.0000    82.4320    23.0040    20.2570    22.4660    26.2120     2.4930   -12.2930 
  168.1250    80.1640    25.2830    23.1690    26.5620    25.8100     2.5170   -12.1630 
  168.2500    78.9940    25.6340    24.4960    27.1990    25.9090     2.5260   -12.0380 
  168.3750    77.4030    24.5880    24.3620    25.6750    26.0530     2.5250   -11.9180 
  168.5000    75.8080    23.0980    23.4260    21.7510    26.4740     2.5150   -11.8070 
  168.6250    76.3770    22.1740    22.5800    21.7830    26.9470     2.4990   -11.7040 
  168.7500    79.9530    22.1620    22.3560    23.5470    26.7340     2.4890   -11.6250 
  168.8750    82.6480    23.0040    22.8460    24.6950    26.3050     2.4900   -11.5370 
  169.0000    81.0130    24.3200    23.8410    25.6340    26.0690     2.5000   -11.4490 
  169.1250    77.7130    25.3550    24.8110    26.7730    26.1230     2.5120   -11.3410 
  169.2500    74.2040    25.5380    25.2160    28.2130    26.0550     2.5200   -11.2480 
  169.3750    70.1290    24.7970    24.8830    28.4480    25.8580     2.5210   -11.1560 
  169.5000    66.8410    23.4490    23.9640    28.1020    25.9400     2.5170   -11.0720 
  169.6250    67.3530    21.8980    22.7110    24.9070    26.3520     2.5130   -11.0200 
  169.7500    69.7660    20.4560    21.4280    23.2970    26.6710     2.5100   -10.9540 
  169.8750    69.5430    19.2570    20.3020    22.8480    26.4120     2.5040   -10.9080 
  170.0000    67.1100    18.3730    19.4600    21.8090    26.1340     2.4940   -10.8610 
  170.1250    66.2450    17.9250    19.0230    20.8170    25.9650     2.4830   -10.8420 
  170.2500    67.5180    17.9160    18.9690    20.6390    25.6000     2.4810   -10.8130 
  170.3750    69.2680    18.3230    19.2750    21.9650    25.3260     2.4900   -10.7980 
  170.5000    71.1890    18.9770    19.8090    23.2180    24.9530     2.5000   -10.7900 
  170.6250    73.2190    19.5070    20.2760    23.3760    24.4540     2.5040   -10.7830 
  170.7500    72.8040    19.6230    20.3960    21.5160    24.2230     2.5040   -10.7850 
  170.8750    72.2130    19.3010    20.1050    19.3740    24.1740     2.5050   -10.8000 
  171.0000    75.1590    18.7680    19.5870    18.1320    24.1610     2.5030   -10.8470 
  171.1250    78.4070    18.3810    19.1930    17.9190    24.1220     2.4920   -10.8970 
  171.2500    77.0200    18.2820    19.1010    18.2410    24.0300     2.4790   -10.9820 
  171.3750    74.2610    18.4100    19.2810    18.7680    23.9500     2.4710   -11.0750 
  171.5000    75.3550    18.5950    19.5690    19.9000    23.8660     2.4630   -11.2090 
  171.6250    76.8170    18.5600    19.6850    20.8920    23.7580     2.4530   -11.3560 
  171.7500    75.0910    18.1800    19.4470    20.9340    23.6960     2.4430   -11.5330 
  171.8750    73.6740    17.4720    18.8140    20.4930    23.7930     2.4330   -11.7150 
  172.0000    74.3060    16.5630    17.8900    19.3820    23.9870     2.4190   -11.8940 
  172.1250    74.7950    15.6680    16.8920    17.4570    24.1190     2.3950   -12.0890 
  172.2500    75.3150    15.0100    16.0810    15.4530    23.8490     2.3690   -12.2860 
  172.3750    77.9120    14.7490    15.6270    14.1300    23.6800     2.3530   -12.4880 
  172.5000    79.8600    14.9580    15.6240    13.9210    23.6450     2.3560   -12.6470 
  172.6250    78.4560    15.6260    16.1150    15.0450    23.6450     2.3770   -12.7700 
  172.7500    76.8010    16.4330    16.8380    16.8540    23.6450     2.4010   -12.8190 
  172.8750    76.3880    17.0720    17.5130    17.9030    23.6450     2.4190   -12.8130 
  173.0000    74.8590    17.3270    17.8920    17.9150    23.6570     2.4360   -12.7340 
  173.1250    72.9560    17.1430    17.8270    17.7970    23.7540     2.4570   -12.5810 
  173.2500    72.2540    16.7700    17.4920    18.0130    23.9480     2.4750   -12.3750 
  173.3750    71.0690    16.3430    17.0040    18.0170    24.1320     2.4840   -12.1200 
  173.5000    68.9750    15.8740    16.3990    17.1980    24.2340     2.4830   -11.8580 
  173.6250    68.4750    15.3010    15.6650    15.5800    24.3550     2.4750   -11.5910 
