~V
VERS. 2.00: Ver 2.00
~W
STRT.M 55.0000:
STOP.M 251.0000:
STEP.M 0.1250:
NULL. -999.2500:
UWI. F10189:
~C
DEPT.M :
DEN.GM/CC :
SP.MV :
GR.API :
RML.OHMM :
RI. :
RXO.OHMM :
CALI.CM :
~A
# ...
  133.7500     2.4600   -10.1070    52.0470    23.5750    22.5990    25.0840    24.4730 
  133.8750     2.4650   -10.3000    50.2370    23.4370    22.3650    25.7580    24.3960 
  134.0000     2.4750   -10.5040    48.9280    23.8010    22.6060    26.8520    24.3760 
  134.1250     2.4830   -10.7020    47.2520    24.6150    23.3360    27.2410    24.4760 
  134.2500     2.4870   -10.8890    46.7160    25.5390    24.2690    27.5380    24.5690 
  134.3750     2.4840   -11.0290    47.9110    26.2100    25.0780    27.9670    24.5670 
  134.5000     2.4690   -11.1270    49.3120    26.2640    25.3920    28.2390    24.5420 
  134.6250     2.4440   -11.1790    49.1680    25.4560    24.8920    27.6660    24.5380 
  134.7500     2.4110   -11.1880    48.0500    24.2400    23.9130    25.7990    24.5490 
  134.8750     2.3790   -11.1880    48.2790    23.1340    22.8870    23.6800    24.5540 
  135.0000     2.3650   -11.1760    50.3440    22.5800    22.2200    21.7290    24.4220 
  135.1250     2.3840   -11.1400    52.5710    22.9190    22.2710    20.4310    23.9470 
  135.2500     2.4120   -11.0840    53.6600    23.8730    22.9230    20.1170    23.3830 
  135.3750     2.4260   -11.0230    54.9350    25.0350    23.9130    20.5730    23.0050 
  135.5000     2.4240   -10.9680    58.1330    25.9070    24.8320    20.8980    22.9390 
  135.6250     2.4130   -10.9240    60.7800    25.9780    25.1840    20.7730    23.1250 
  135.7500     2.3970   -10.8860    60.3440    25.3340    24.8920    21.1210    23.4070 
  135.8750     2.3750   -10.8470    56.0010    24.2290    24.0750    21.9290    23.7300 
  136.0000     2.3630   -10.8150    50.6720    22.9790    22.9800    22.8250    24.1120 
  136.1250     2.3750   -10.8220    49.4370    21.8260    21.8600    23.2010    24.5350 
  136.2500     2.3960   -10.8640    50.9920    20.8450    20.8560    23.1220    24.8170 
  136.3750     2.4090   -10.9530    52.3710    20.0940    20.0380    22.9860    24.7420 
  136.5000     2.4140   -11.0720    51.6410    19.6280    19.4580    22.8520    24.4640 
  136.6250     2.4330   -11.1920    49.5550    19.4920    19.1680    23.6750    24.3980 
  136.7500     2.4660   -11.3040    47.3170    19.5570    19.0780    24.9700    24.4820 
  136.8750     2.4970   -11.4060    44.7020    19.7120    19.1180    25.7730    24.4240 
  137.0000     2.5010   -11.4990    42.2550    19.8720    19.2130    25.0140    24.0920 
  137.1250     2.4700   -11.5680    42.8150    19.9910    19.2920    23.5250    23.6950 
  137.2500     2.4370   -11.5810    46.7480    20.0710    19.3170    22.2710    23.3790 
  137.3750     2.4210   -11.5220    49.6500    20.0990    19.2680    21.8680    23.3590 
  137.5000     2.4250   -11.4200    46.9590    20.0430    19.1250    21.9620    23.6240 
  137.6250     2.4250   -11.3160    42.2300    19.8210    18.8430    21.9480    24.0260 
  137.7500     2.4040   -11.2240    42.0540    19.4290    18.4320    20.7820    24.2150 
  137.8750     2.3820   -11.1280    43.9060    18.8870    17.9100    19.1160    24.2590 
  138.0000     2.3770   -11.0350    42.9440    18.2280    17.3020    17.9790    24.2610 
  138.1250     2.3940   -10.9470    41.8930    17.4660    16.6140    17.6930    24.2010 
  138.2500     2.4240   -10.8860    44.7510    16.6570    15.8800    17.3140    24.0490 
  138.3750     2.4610   -10.8660    49.4710    15.8730    15.1470    16.1610    23.8810 
  138.5000     2.4940   -10.8580    53.5330    15.2150    14.4940    15.0130    23.7630 
  138.6250     2.5100   -10.8410    58.7640    14.8470    14.0590    14.0350    23.6940 
  138.7500     2.4980   -10.8150    65.4260    14.8220    13.8960    14.1230    23.6660 
  138.8750     2.4610   -10.7850    69.2950    15.1310    14.0210    14.8550    23.6720 
  139.0000     2.4270   -10.7540    67.8560    15.6480    14.3640    15.4340    23.6970 
  139.1250     2.4210   -10.7250    65.3030    16.0910    14.7280    15.0010    23.7080 
  139.2500     2.4360   -10.7060    63.6690    16.1940    14.8610    13.9480    23.6980 
  139.3750     2.4490   -10.6900    60.9030    15.8800    14.6470    13.4130    23.6770 
  139.5000     2.4460   -10.6990    56.9420    15.2830    14.1460    13.5380    23.7130 
  139.6250     2.4320   -10.7470    53.6910    14.6850    13.5650    14.0670    23.8570 
  139.7500     2.4190   -10.8060    52.5330    14.2980    13.1140    14.6970    24.0770 
  139.8750     2.4180   -10.8930    51.5320    14.1640    12.8600    15.1930    24.3300 
  140.0000     2.4330   -11.0110    49.7400    14.2250    12.7840    15.9720    24.5660 
  140.1250     2.4490   -11.1510    48.6060    14.3860    12.8330    16.6830    24.6950 
  140.2500     2.4520   -11.3010    48.5430    14.5610    12.9360    17.4360    24.7620 
  140.3750     2.4530   -11.4460    50.6580    14.7470    13.0750    17.8040    24.7710 
  140.5000     2.4620   -11.5720    54.0880    14.9600    13.2420    17.3390    24.7140 
  140.6250     2.4610   -11.6620    58.4700    15.1420    13.3830    16.7580    24.6440 
  140.7500     2.4490   -11.7430    61.7750    15.1490    13.3940    15.7690    24.6530 
  140.8750     2.4380   -11.8060    62.5370    14.8490    13.1740    14.5400    24.7220 
  141.0000     2.4320   -11.8350    62.3820    14.1860    12.6700    13.3380    24.7560 
  141.1250     2.4220   -11.8320    63.9020    13.1430    11.8410    11.9920    24.7470 
  141.2500     2.4040   -11.8130    65.4630    11.5330    10.7750    10.3300    24.6980 
  141.3750     2.3850   -11.7770    64.9610    10.0080     9.5360     8.6340    24.5860 
  141.5000     2.3510   -11.7130    64.2790     8.6820     8.2190     7.3290    24.4570 
  141.6250     2.3010   -11.6350    68.2680     7.9300     6.9680     6.4670    24.4700 
  141.7500     2.2580   -11.5390    75.9880     7.2210     5.8990     5.8270    24.6240 
  141.8750     2.2350   -11.4060    82.2750     6.2150     5.0770     5.2800    24.7980 
  142.0000     2.2350   -11.2550    85.1250     5.5280     4.5160     4.7780    24.8640 
  142.1250     2.2530   -11.1020    88.2800     5.1700     4.2240     4.2570    24.8770 
  142.2500     2.2750   -10.9590    90.1020     5.0310     4.1100     4.1200    24.9280 
  142.3750     2.2870   -10.8470    87.3620     5.0420     4.1190     4.1350    25.0300 
  142.5000     2.2890   -10.7850    84.3100     5.1300     4.1910     4.2650    25.0060 
  142.6250     2.3010   -10.7800    87.6650     5.2340     4.2760     4.4640    25.0780 
  142.7500     2.3210   -10.8000    91.4390     5.3230     4.3490     4.5200    25.3660 
  142.8750     2.3290   -10.8570    90.2070     5.3950     4.4070     4.6720    25.7270 
  143.0000     2.3140   -10.9370    85.3800     5.4490     4.4520     4.9910    25.8800 
  143.1250     2.2930   -11.0210    80.8570     5.4780     4.4760     5.2490    25.7590 
  143.2500     2.2870   -11.0990    79.2780     5.4790     4.4760     5.3020    25.6240 
  143.3750     2.2930   -11.1400    81.6180     5.4420     4.4460     4.9170    25.5990 
  143.5000     2.3010   -11.1270    83.9390     5.3680     4.3860     4.3500    25.4340 
  143.6250     2.3010   -11.0790    82.4000     5.2640     4.3010     4.2310    25.2210 
  143.7500     2.2980   -11.0230    82.0880     5.1600     4.2160     4.3080    25.0370 
  143.8750     2.2990   -10.9620    85.7330     5.0780     4.1480     4.5000    24.9220 
  144.0000     2.3100   -10.8950    89.5810     5.0310     4.1100     4.6970    24.8810 
  144.1250     2.3190   -10.8340    88.3740     5.0230     4.1040     4.5420    24.9530 
  144.2500     2.3090   -10.7730    86.1240     5.0320     4.1110     4.3640    25.0200 
  144.3750     2.2920   -10.7350    84.4450     5.0360     4.1150     4.3360    25.0620 
  144.5000     2.2890   -10.7240    84.1640     5.0250     4.1050     4.3810    25.0160 
  144.6250     2.3050   -10.6990    86.4310     4.9900     4.0770     4.5160    24.9620 
  144.7500     2.3210   -10.6720    90.1250     4.9400     4.0360     4.6240    24.9370 
  144.8750     2.3280   -10.6490    92.4990     4.8820     3.9890     4.5110    24.9170 
