~V
VERS. 2.00: Ver 2.00
~W
STRT.M 56.0000:
STOP.M 352.0000:
STEP.M 0.1250:
NULL. -999.2500:
UWI. F10109:
~C
DEPT.M :
DEN.GM/CC :
SP.MV :
GR.API :
RML.OHMM :
RI. :
RXO.OHMM :
CALI.CM :
~A
# ...
  191.0000     2.3460    -0.6810    79.7230     3.2170     2.8060     3.3510    23.8690 
  191.1250     2.3450    -0.7400    78.7940     2.9600     2.5150     3.1890    23.9250 
  191.2500     2.3410    -0.7700    79.3550     2.7500     2.3120     3.0120    24.0550 
  191.3750     2.3370    -0.7740    80.8270     2.5990     2.2140     2.9040    24.1530 
  191.5000     2.3330    -0.7660    80.7900     2.5280     2.2250     3.1430    24.1700 
  191.6250     2.3300    -0.7710    79.7030     2.5960     2.3490     3.3830    24.1430 
  191.7500     2.3280    -0.7960    80.8290     2.8210     2.5430     3.5200    24.0880 
  191.8750     2.3300    -0.8500    84.8300     3.1060     2.7770     3.5760    24.0090 
  192.0000     2.3350    -0.9250    88.3700     3.3720     3.0140     3.7290    23.9640 
  192.1250     2.3430    -1.0690    88.4490     3.5760     3.2120     3.9220    23.9810 
  192.2500     2.3520    -1.2820    86.0020     3.7140     3.3560     4.1130    24.0130 
  192.3750     2.3620    -1.5190    81.9160     3.7930     3.4450     4.2740    24.0670 
  192.5000     2.3690    -1.7640    77.3600     3.8440     3.4940     4.3780    24.1170 
  192.6250     2.3740    -2.0320    74.9180     3.9220     3.5440     4.5000    23.9920 
  192.7500     2.3760    -2.3070    76.4060     4.0770     3.6440     4.5680    23.7170 
  192.8750     2.3770    -2.5650    80.8660     4.3280     3.8230     4.6320    23.5110 
  193.0000     2.3750    -2.8170    85.2430     4.6680     4.0870     4.7320    23.4320 
  193.1250     2.3700    -3.0090    89.1500     5.0560     4.4230     5.0610    23.4060 
  193.2500     2.3620    -3.1200    94.2030     5.4150     4.7650     5.5200    23.4050 
  193.3750     2.3510    -3.2060    98.2670     5.6850     5.0580     5.7550    23.3980 
  193.5000     2.3400    -3.2800    97.3020     5.8360     5.2550     5.6230    23.3600 
  193.6250     2.3300    -3.2980    92.3090     5.8600     5.3210     5.5180    23.3370 
  193.7500     2.3240    -3.2940    88.5030     5.8120     5.2940     5.4720    23.3270 
  193.8750     2.3210    -3.3070    83.5980     5.7260     5.2050     5.3580    23.3070 
  194.0000     2.3210    -3.3300    75.0910     5.6220     5.0850     5.1950    23.2990 
  194.1250     2.3220    -3.3800    70.5630     5.4980     4.9480     5.1040    23.3070 
  194.2500     2.3220    -3.4670    73.7370     5.3550     4.8030     5.0420    23.3030 
  194.3750     2.3210    -3.5810    77.9740     5.2030     4.6560     4.9700    23.2960 
  194.5000     2.3170    -3.7160    76.8920     5.0670     4.5230     4.8890    23.3030 
  194.6250     2.3110    -3.9100    73.8520     5.0090     4.4450     4.8520    23.3030 
  194.7500     2.3090    -4.1360    74.1170     5.1020     4.4710     4.9440    23.2850 
  194.8750     2.3150    -4.3670    76.5680     5.4460     4.6740     5.2060    23.2720 
  195.0000     2.3370    -4.5960    78.0370     6.1340     5.1290     5.6270    23.2480 
  195.1250     2.3790    -4.8110    77.6540     7.2350     5.9310     6.2890    23.2040 
  195.2500     2.4290    -5.0120    78.0810     8.5250     6.9530     7.1290    23.1890 
  195.3750     2.4710    -5.2100    78.1810     9.7000     7.9940     8.5370    23.1770 
  195.5000     2.4880    -5.3950    74.5980    10.3990     8.7650    10.7540    23.1160 
  195.6250     2.4670    -5.5000    69.8440    10.2200     8.8800    13.3870    23.0040 
  195.7500     2.4260    -5.5380    71.0280     9.3470     8.3720    13.2500    22.8180 
  195.8750     2.3840    -5.5030    77.0300     8.1390     7.4690     9.7840    22.5650 
  196.0000     2.3540    -5.3860    81.1130     7.0120     6.5090     7.1240    22.3900 
  196.1250     2.3410    -5.1610    82.4460     6.2640     5.7680     6.3230    22.4110 
  196.2500     2.3350    -4.8550    84.0920     5.8300     5.2650     6.0370    22.5170 
  196.3750     2.3310    -4.4800    85.0090     5.5940     4.9480     5.7970    22.6400 
  196.5000     2.3240    -4.0590    82.5260     5.4460     4.7520     5.5150    22.7960 
  196.6250     2.3160    -3.6360    77.0390     5.3230     4.6330     5.1860    22.9970 
  196.7500     2.3090    -3.2210    72.9050     5.2170     4.5580     4.9280    23.1990 
  196.8750     2.3020    -2.8600    73.6370     5.1440     4.5230     4.7540    23.4600 
  197.0000     2.2950    -2.5600    78.2210     5.1130     4.5260     4.7110    23.8020 
  197.1250     2.2870    -2.3360    79.6190     5.1210     4.5630     4.7770    24.1370 
  197.2500     2.2800    -2.2080    76.7310     5.1490     4.6150     4.8410    24.3250 
  197.3750     2.2760    -2.1690    76.0690     5.1870     4.6720     4.8770    24.3820 
  197.5000     2.2760    -2.1780    80.6940     5.2320     4.7250     4.8790    24.3490 
  197.6250     2.2780    -2.1970    84.0730     5.2790     4.7670     4.9300    24.2960 
  197.7500     2.2810    -2.2530    79.8280     5.3210     4.7920     4.9960    24.2510 
  197.8750     2.2800    -2.3340    71.1140     5.3510     4.7990     5.1220    24.1730 
  198.0000     2.2770    -2.4310    66.7060     5.3640     4.7870     5.2420    24.0340 
  198.1250     2.2730    -2.5550    71.8220     5.3610     4.7550     5.1220    23.8750 
  198.2500     2.2730    -2.6620    79.6320     5.3500     4.7150     5.0130    23.7200 
  198.3750     2.2790    -2.7360    83.8880     5.3290     4.6720     5.0090    23.6060 
  198.5000     2.2900    -2.8020    83.5120     5.2960     4.6290     5.0380    23.5670 
  198.6250     2.3020    -2.8990    83.1130     5.2450     4.5860     4.9300    23.5840 
  198.7500     2.3100    -2.9700    83.7810     5.1840     4.5460     4.8600    23.6100 
  198.8750     2.3120    -3.0050    83.3360     5.1250     4.5080     4.8100    23.6740 
  199.0000     2.3100    -3.0320    81.3410     5.0800     4.4760     4.7660    23.8120 
  199.1250     2.3070    -3.0450    79.4230     5.0570     4.4520     4.7260    24.0310 
  199.2500     2.3070    -3.0950    79.4340     5.0370     4.4300     4.7350    24.2740 
  199.3750     2.3090    -3.2100    80.6560     5.0000     4.3990     4.7530    24.4970 
  199.5000     2.3110    -3.3810    80.3640     4.9370     4.3530     4.7690    24.6200 
  199.6250     2.3120    -3.5860    75.4700     4.8630     4.3030     4.7830    24.6260 
  199.7500     2.3090    -3.8640    69.2930     4.8250     4.2760     4.7570    24.6150 
  199.8750     2.3020    -4.2290    69.0400     4.8670     4.3030     4.6980    24.5960 
  200.0000     2.2910    -4.6480    76.3380     5.0160     4.4070     4.7370    24.5260 
  200.1250     2.2820    -5.1050    83.1580     5.2660     4.5900     4.9930    24.3830 
  200.2500     2.2760    -5.5380    83.7560     5.5360     4.7990     5.4580    24.1860 
  200.3750     2.2750    -5.9030    81.8030     5.7430     4.9750     6.0350    23.9440 
  200.5000     2.2760    -6.1960    80.8140     5.8210     5.0630     6.4350    23.6900 
  200.6250     2.2770    -6.4130    79.4560     5.7250     5.0210     6.3330    23.5180 
  200.7500     2.2780    -6.5630    77.0390     5.5350     4.8950     5.8280    23.4340 
  200.8750     2.2790    -6.6740    75.2390     5.3420     4.7500     5.4000    23.3670 
  201.0000     2.2800    -6.7710    74.6950     5.2350     4.6540     5.2420    23.3480 
  201.1250     2.2810    -6.8880    72.2500     5.2860     4.6680     5.2090    23.3880 
  201.2500     2.2820    -7.0720    69.8930     5.4650     4.7840     5.3060    23.4330 
  201.3750     2.2820    -7.3340    70.2790     5.7250     4.9800     5.6070    23.4810 
  201.5000     2.2820    -7.6350    72.3170     6.0050     5.2130     6.0930    23.5230 
  201.6250     2.2800    -7.9610    72.4160     6.2320     5.4300     6.4000    23.5370 
  201.7500     2.2760    -8.2880    70.0530     6.3750     5.5950     6.3900    23.5170 
  201.8750     2.2720    -8.5710    69.0570     6.4310     5.6940     6.3200    23.4810 
  202.0000     2.2710    -8.7660    70.3150     6.4210     5.7350     6.4300    23.4280 
  202.1250     2.2730    -8.8210    72.5890     6.3870     5.7370     6.3770    23.3690 
