~V
VERS. 2.00: Ver 2.00
~W
STRT.M 50.0000:
STOP.M 205.0000:
STEP.M 0.1250:
NULL. -999.2500:
UWI. F10148:
~C
DEPT.M :
GR.API :
RML.OHMM :
RI. :
RXO.OHMM :
CALI.CM :
SP.MV :
DEN.GM/CC :
~A
# ...
   61.2500    50.1180     0.4020     0.2570     0.4170    25.2730    66.7930     1.9830 
   61.3750    51.9000     0.4560     0.2540     0.3420    25.2750    65.7520     1.9700 
   61.5000    53.7530     0.5520     0.2580     0.2950    25.2890    64.4220     1.9580 
   61.6250    52.7500     0.6490     0.2680     0.3050    25.3290    62.7640     1.9550 
   61.7500    50.5080     0.7040     0.2760     0.3150    25.3350    60.8080     1.9620 
   61.8750    48.9480     0.7140     0.2740     0.3100    25.3370    58.6320     1.9740 
   62.0000    49.6080     0.7040     0.2580     0.3020    25.3370    56.2860     1.9880 
   62.1250    51.8570     0.7050     0.2320     0.3250    25.3320    53.7050     2.0000 
   62.2500    52.5300     0.7320     0.2060     0.3850    25.3040    50.8900     2.0110 
   62.3750    50.3920     0.7600     0.1790     0.4860    25.2760    47.7950     2.0190 
   62.5000    46.0270     0.7350     0.1490     0.6000    25.2700    44.3710     2.0240 
   62.6250    43.2210     0.6150     0.1170     0.7090    25.2650    40.5440     2.0330 
   62.7500    43.0000     0.4460     0.0930     0.8320    25.2700    36.4000     2.0580 
   62.8750    43.9960     0.2800     0.0780     0.9800    25.2690    31.9260     2.1120 
   63.0000    45.8800     0.1590     0.0700     1.1320    25.2610    27.0860     2.1980 
   63.1250    48.2380     0.1240     0.0640     1.1740    25.2870    21.8310     2.2910 
   63.2500    50.4520     0.1770     0.0720     1.0280    25.6860    16.3260     2.3390 
   63.3750    54.3020     0.3430     0.1320     0.9650    26.8140    10.7150     2.3090 
   63.5000    59.6480     0.6930     0.3080     1.2530    27.0830     5.1740     2.2110 
   63.6250    61.2410     1.4970     0.7340     2.1050    26.7460    -0.0470     2.0820 
   63.7500    59.6290     3.0230     1.4770     3.2160    26.4990    -4.7860     1.9680 
   63.8750    60.2470     5.2740     2.5520     3.9400    26.3620    -8.9630     1.8870 
   64.0000    62.3680     7.2390     3.7980     4.2790    26.3240   -12.5070     1.8460 
   64.1250    61.0110     7.8150     4.8530     4.4910    26.1600   -15.2770     1.8410 
   64.2500    60.5820     7.7360     5.5650     4.5820    24.7220   -17.4060     1.8510 
   64.3750    64.1260     7.4560     5.9930     4.7200    21.9680   -18.9710     1.8650 
   64.5000    70.2220     7.1200     6.2340     5.0800    20.3200   -20.1250     1.8760 
   64.6250    78.3970     6.7980     6.3360     5.3760    20.2630   -21.0110     1.8810 
   64.7500    85.4480     6.5920     6.3830     5.2490    20.5190   -21.7790     1.8830 
   64.8750    87.1660     6.5310     6.4450     5.1370    20.3020   -22.4870     1.8840 
   65.0000    84.9390     6.5470     6.5600     5.2020    19.8770   -23.1770     1.8880 
   65.1250    85.5050     6.5180     6.7090     5.2600    19.6800   -23.8500     1.8960 
   65.2500    86.8090     6.3680     6.8260     5.2880    19.6460   -24.5190     1.9050 
   65.3750    84.3430     6.1340     6.8650     5.2620    19.6420   -25.1990     1.9090 
   65.5000    81.9760     5.9530     6.8150     5.1610    19.6420   -25.9050     1.9080 
   65.6250    85.0210     6.0040     6.7240     4.9840    19.6420   -26.5470     1.9050 
   65.7500    86.0040     6.2600     6.6700     4.9260    19.6420   -27.1260     1.9030 
   65.8750    80.4310     6.6080     6.6950     5.0460    19.6420   -27.6310     1.9020 
   66.0000    71.5840     6.9310     6.8060     5.1470    19.6420   -28.0600     1.9010 
   66.1250    67.4210     7.1710     6.9810     5.1640    19.6500   -28.4030     1.8980 
   66.2500    67.7890     7.3580     7.1480     5.1770    19.7050   -28.6790     1.8920 
   66.3750    67.3030     7.5050     7.2520     5.2110    19.8700   -28.8960     1.8840 
   66.5000    65.2660     7.5880     7.2680     5.2190    20.0980   -29.0300     1.8770 
   66.6250    65.0580     7.5570     7.1960     5.1880    20.1740   -29.1340     1.8720 
   66.7500    67.5370     7.4390     7.0800     5.1600    20.1880   -29.2070     1.8680 
   66.8750    69.4100     7.2800     6.9540     5.1610    20.1890   -29.2670     1.8650 
   67.0000    68.0900     7.1560     6.8490     5.1610    20.1850   -29.3290     1.8620 
   67.1250    64.6310     7.1900     6.8330     5.0890    20.1510   -29.4130     1.8580 
   67.2500    61.9960     7.4450     6.9520     5.0320    20.0430   -29.5190     1.8570 
   67.3750    61.5850     7.9300     7.2290     5.0580    19.9140   -29.6100     1.8580 
   67.5000    62.3310     8.5840     7.6320     5.1070    19.8680   -29.6770     1.8590 
   67.6250    63.5750     9.2190     8.0570     5.0210    19.8610   -29.7290     1.8550 
   67.7500    64.0250     9.5950     8.3570     4.8040    19.8510   -29.7970     1.8470 
   67.8750    64.7720     9.6010     8.4270     4.6670    19.8020   -29.8680     1.8380 
   68.0000    65.1490     9.3050     8.2420     4.6510    19.5610   -29.9280     1.8340 
   68.1250    63.1900     8.8870     7.8630     4.7430    19.3710   -29.9690     1.8400 
   68.2500    61.1160     8.5380     7.4540     4.8450    19.2390   -29.9800     1.8530 
   68.3750    60.6430     8.3410     7.1140     4.9490    19.4380   -29.9950     1.8700 
   68.5000    61.6160     8.3210     6.8940     5.1230    19.8190   -30.0380     1.8850 
   68.6250    63.0810     8.4080     6.8050     5.3250    19.9170   -30.0850     1.8940 
   68.7500    65.6330     8.4550     6.7790     5.3450    19.9370   -30.1230     1.8980 
   68.8750    69.9470     8.3770     6.7710     5.1700    19.9380   -30.1610     1.8990 
   69.0000    72.0270     8.1570     6.7540     4.9720    19.9380   -30.2090     1.9000 
   69.1250    68.1190     7.8850     6.7200     5.0200    19.9480   -30.2520     1.9060 
   69.2500    63.3540     7.7010     6.6780     5.2160    19.9940   -30.2850     1.9150 
   69.3750    62.5240     7.6690     6.6340     5.4190    20.0710   -30.2870     1.9260 
   69.5000    65.3610     7.7740     6.5970     5.6270    20.1010   -30.2330     1.9350 
   69.6250    67.1250     7.9740     6.5810     5.9660    20.1750   -30.1170     1.9450 
   69.7500    68.2950     8.2120     6.5920     6.4070    20.5290   -29.9770     1.9570 
   69.8750    70.0430     8.4460     6.6400     6.8280    21.3390   -29.8180     1.9760 
   70.0000    69.9350     8.6310     6.7230     7.2470    22.1200   -29.6230     2.0000 
   70.1250    66.9990     8.7240     6.8150     7.6520    22.7730   -29.4100     2.0240 
   70.2500    65.6980     8.7270     6.8730     7.9300    23.0540   -29.2260     2.0450 
   70.3750    67.3040     8.6440     6.8670     8.0760    23.1360   -29.0750     2.0590 
   70.5000    68.4860     8.5070     6.7940     8.2230    23.1420   -28.9640     2.0710 
   70.6250    68.7280     8.3560     6.6750     8.1300    23.0990   -28.9370     2.0830 
   70.7500    71.2760     8.2270     6.5540     7.6960    22.9550   -28.9460     2.0950 
   70.8750    74.3910     8.1390     6.4520     7.0510    22.7880   -28.9640     2.1050 
   71.0000    74.1660     8.1140     6.3640     6.6460    22.6470   -29.0130     2.1060 
   71.1250    69.3820     8.1510     6.2830     6.9490    22.5110   -29.0690     2.0970 
   71.2500    65.5850     8.1940     6.2040     7.5320    22.3110   -29.0710     2.0870 
   71.3750    66.4560     8.2020     6.1320     7.9330    21.8480   -28.9900     2.0810 
   71.5000    71.2140     8.1700     6.0830     8.2580    21.6450   -28.8300     2.0830 
   71.6250    76.3800     8.1440     6.0730     8.5580    21.6440   -28.5630     2.0900 
   71.7500    79.2570     8.1750     6.1000     8.8740    21.6550   -28.2410     2.0970 
   71.8750    78.1020     8.2660     6.1570     9.0150    21.9280   -27.8780     2.1000 
   72.0000    73.7390     8.3750     6.2310     8.9510    22.7020   -27.4570     2.0990 
   72.1250    70.7430     8.4210     6.2950     8.8360    22.8750   -26.9730     2.0990 
   72.2500    72.0480     8.3780     6.3260     8.7190    22.9230   -26.4740     2.1020 
   72.3750    73.1610     8.2730     6.3170     8.6280    22.9680   -25.9840     2.1100 
