~V
VERS. 2.00: Ver 2.00
~W
STRT.M 50.0000:
STOP.M 230.0000:
STEP.M 0.1250:
NULL. -999.2500:
UWI. F10167:
~C
DEPT.M :
DEN.GM/CC :
GR.API :
RML.OHMM :
RI. :
RXO.OHMM :
CALI.CM :
SP.MV :
~A
# ...
  207.5000     2.2500    52.3460    67.9020    57.7790    66.2390    24.8800   -13.5100 
  207.6250     2.2330    52.9490    69.3260    59.8030    61.4870    24.8760   -13.8110 
  207.7500     2.2210    54.1650    69.1320    60.4000    54.5080    24.8570   -14.1570 
  207.8750     2.2150    55.9800    68.0680    60.1130    51.3800    24.7920   -14.4790 
  208.0000     2.2140    58.0590    66.6200    59.4010    54.4830    24.6930   -14.6900 
  208.1250     2.2160    59.8900    64.7370    58.3330    60.1620    24.6700   -14.8480 
  208.2500     2.2190    60.1180    62.2510    56.7920    58.3370    24.7290   -14.9870 
  208.3750     2.2240    57.9810    59.1100    54.6660    52.2800    24.8220   -15.0360 
  208.5000     2.2310    55.9670    55.5240    52.0430    48.1630    24.8910   -14.9990 
  208.6250     2.2370    57.6360    51.9300    49.2210    44.9770    24.8960   -14.9770 
  208.7500     2.2400    60.4050    48.7450    46.6120    42.9790    24.9070   -14.8840 
  208.8750     2.2400    62.2170    46.1920    44.4690    40.7820    24.9370   -14.6970 
  209.0000     2.2380    63.4650    44.3210    42.8980    38.2070    24.9620   -14.5280 
  209.1250     2.2340    65.4770    43.0260    41.8590    36.1540    24.9300   -14.4110 
  209.2500     2.2300    67.3510    41.8100    40.9190    35.4290    24.9070   -14.2480 
  209.3750     2.2280    67.7050    40.2440    39.6640    37.1640    24.9290   -14.0770 
  209.5000     2.2310    66.9130    38.0550    37.7870    39.8270    24.9920   -13.9880 
  209.6250     2.2400    66.4230    35.2570    35.2060    39.1830    24.9840   -13.9400 
  209.7500     2.2500    65.9200    32.4340    32.4400    33.6400    24.9030   -13.9170 
  209.8750     2.2580    64.1510    30.1710    30.0310    27.5750    24.8720   -13.9520 
  210.0000     2.2590    61.3430    28.9770    28.4870    27.0650    24.9090   -13.9930 
  210.1250     2.2550    61.9530    29.4570    28.4340    27.7780    24.9390   -14.0750 
  210.2500     2.2480    64.2540    31.5410    29.9090    28.5570    24.9320   -14.2710 
  210.3750     2.2390    64.0100    35.2760    33.0500    30.5350    24.8890   -14.5150 
  210.5000     2.2280    61.0360    40.6660    37.9610    35.0690    24.8040   -14.6640 
  210.6250     2.2100    59.8370    47.6320    44.8370    44.9100    24.6650   -14.6990 
  210.7500     2.1930    61.2090    54.8330    52.4380    54.3490    24.6080   -14.7020 
  210.8750     2.1950    61.3510    60.5170    58.4600    55.7260    24.7020   -14.6620 
  211.0000     2.2330    59.8180    61.4040    59.7390    59.3660    24.8310   -14.5490 
  211.1250     2.3100    57.6430    53.5480    53.2120    72.7180    24.7800   -14.2600 
  211.2500     2.3910    56.7150    40.4580    41.8630    88.5980    24.6040   -13.8280 
  211.3750     2.4440    57.0790    27.3540    29.5950    60.5780    24.5320   -13.3240 
  211.5000     2.4500    57.7610    17.9080    19.6190    24.8280    24.6240   -12.8210 
  211.6250     2.4160    58.1230    12.5870    13.5020    12.2190    24.6180   -12.3020 
  211.7500     2.3780    57.0510     9.3540     9.9270     9.0690    24.5800   -11.7320 
  211.8750     2.3550    55.8430     7.5030     7.9720     7.7420    24.5470   -11.1950 
  212.0000     2.3520    55.9420     6.5870     7.0110     7.3410    24.5470   -10.7820 
  212.1250     2.3610    56.0560     6.4380     6.7500     7.4770    24.5640   -10.5650 
  212.2500     2.3710    53.7660     6.6210     6.8440     7.4320    24.5430   -10.5020 
  212.3750     2.3820    50.0600     6.8950     7.1310     7.3910    24.4860   -10.5500 
  212.5000     2.3930    48.4930     7.1590     7.4740     8.1280    24.4110   -10.6730 
  212.6250     2.4030    49.7300     7.3310     7.7420     9.5380    24.3550   -10.8620 
  212.7500     2.4070    50.8810     7.3960     7.8810     9.8870    24.3430   -11.1330 
  212.8750     2.4040    52.0610     7.3790     7.8960     9.0050    24.4020   -11.4180 
  213.0000     2.3950    52.9220     7.3340     7.8320     8.2080    24.5240   -11.6180 
  213.1250     2.3870    51.2640     7.3230     7.7510     8.2310    24.6470   -11.7190 
  213.2500     2.3860    48.1340     7.3660     7.6990     8.6610    24.7170   -11.7880 
  213.3750     2.3940    45.6730     7.4440     7.6750     8.9660    24.7030   -11.7770 
  213.5000     2.4080    45.0730     7.5120     7.6510     8.9990    24.5910   -11.7120 
  213.6250     2.4230    45.0410     7.5200     7.5810     8.8040    24.4530   -11.5890 
  213.7500     2.4310    44.4260     7.4760     7.4640     8.6680    24.5450   -11.3940 
  213.8750     2.4300    43.7270     7.4160     7.3260     8.7360    24.6820   -11.1920 
  214.0000     2.4210    44.2600     7.3810     7.2060     8.8480    24.8430   -11.0720 
  214.1250     2.4110    45.6930     7.4110     7.1420     8.8340    24.8680   -11.0150 
  214.2500     2.4070    45.2460     7.4880     7.1310     9.4150    24.7640   -10.9670 
  214.3750     2.4090    44.5690     7.5830     7.1520    10.6700    24.6570   -10.9380 
  214.5000     2.4150    45.6510     7.6680     7.1790    10.6670    24.6070   -10.9980 
  214.6250     2.4180    47.2040     7.7220     7.1900     9.0650    24.6420   -11.1720 
  214.7500     2.4140    47.0790     7.7580     7.1880     8.4160    24.6850   -11.4160 
  214.8750     2.4070    45.6270     7.7930     7.1840     8.3760    24.7100   -11.7290 
  215.0000     2.4010    44.1480     7.8500     7.1960     8.6870    24.7620   -12.0030 
  215.1250     2.4020    42.1120     7.9560     7.2500     9.0840    24.8110   -12.2300 
  215.2500     2.4100    40.5320     8.1230     7.3560     9.2870    24.8020   -12.3930 
  215.3750     2.4230    40.3290     8.3590     7.5280     9.2430    24.7430   -12.5190 
  215.5000     2.4390    41.2270     8.6620     7.7670     9.3460    24.7100   -12.5920 
  215.6250     2.4530    43.5360     9.0030     8.0630     9.8940    24.7240   -12.6220 
  215.7500     2.4630    45.8490     9.3060     8.3530    10.9510    24.6910   -12.6200 
  215.8750     2.4620    48.4460     9.4780     8.5620    12.0130    24.7090   -12.5500 
  216.0000     2.4500    51.4290     9.4380     8.6100    12.3730    24.8560   -12.4320 
  216.1250     2.4280    51.8970     9.1160     8.4120    11.2280    25.0170   -12.2430 
  216.2500     2.4070    48.7190     8.6140     8.0290    10.7590    24.9150   -12.0160 
  216.3750     2.3940    44.9050     8.0430     7.5440    10.3750    24.7250   -11.7220 
  216.5000     2.3920    43.8760     7.5230     7.0610     9.8970    24.7160   -11.4220 
  216.6250     2.3960    44.4130     7.1680     6.6910     8.1530    24.9040   -11.1170 
  216.7500     2.3970    44.1010     6.9780     6.4590     7.6860    25.0380   -10.8400 
  216.8750     2.3950    44.8480     6.9190     6.3570     8.0130    25.0290   -10.5500 
  217.0000     2.3940    46.8780     6.9310     6.3460     8.5830    24.9540   -10.2650 
  217.1250     2.3970    47.9130     6.9370     6.3630     9.0550    24.8770    -9.9710 
  217.2500     2.4010    47.8020     6.8830     6.3430     8.6280    24.8000    -9.7030 
  217.3750     2.4010    47.5770     6.7530     6.2570     7.9650    24.7820    -9.4850 
  217.5000     2.3890    47.3070     6.5650     6.1040     7.3380    24.8230    -9.2770 
  217.6250     2.3600    46.4030     6.3510     5.9020     7.0650    24.8830    -9.0310 
  217.7500     2.3170    47.2370     6.1490     5.6900     6.8560    24.9440    -8.7750 
  217.8750     2.2720    50.5950     5.9810     5.4930     6.6230    25.0010    -8.5810 
  218.0000     2.2360    54.1830     5.8660     5.3350     6.7210    25.0600    -8.4410 
  218.1250     2.2270    54.1400     5.8410     5.2550     6.7540    25.1320    -8.4200 
  218.2500     2.2450    51.8850     5.9110     5.2590     6.8230    25.1500    -8.4370 
  218.3750     2.2810    49.9470     6.0820     5.3510     6.8220    25.0980    -8.5210 
  218.5000     2.3220    49.1910     6.3340     5.5210     7.2520    25.0570    -8.6620 
  218.6250     2.3550    48.8020     6.6290     5.7480     7.8600    24.9690    -8.8310 
