~V
VERS. 2.00: Ver 2.00
~W
STRT.M 59.0000:
STOP.M 216.0000:
STEP.M 0.1250:
NULL. -999.2500:
UWI. F10129:
~C
DEPT.M :
GR.API :
RML.OHMM :
RI. :
RXO.OHMM :
CALI.CM :
DEN.GM/CC :
SP.MV :
~A
# ...
  137.7500    56.3000    17.1970    16.6080    13.7240    24.7490     2.5320    -7.4170 
  137.8750    60.4370    17.1150    16.4250    14.4110    24.8250     2.5320    -7.3810 
  138.0000    65.0670    17.4330    16.5610    14.5420    24.8430     2.5220    -7.4600 
  138.1250    67.8010    18.4880    17.3350    15.8750    24.8400     2.4920    -7.7360 
  138.2500    69.3650    20.3880    18.8570    20.3990    24.9290     2.4450    -8.2170 
  138.3750    70.6710    23.2280    21.2170    26.0170    25.0110     2.3870    -8.8070 
  138.5000    71.4120    26.8510    24.3730    30.3560    24.9800     2.3310    -9.4780 
  138.6250    71.2200    30.8260    28.1320    32.4440    24.8490     2.2890   -10.1600 
  138.7500    72.6670    34.5940    31.9570    35.9650    24.7720     2.2610   -10.7680 
  138.8750    75.6030    37.8630    35.4290    40.3380    24.7470     2.2450   -11.3020 
  139.0000    78.9780    40.4460    38.2540    43.5850    24.8260     2.2380   -11.8350 
  139.1250    82.0640    42.0780    40.1550    45.4710    25.0330     2.2390   -12.4330 
  139.2500    82.6220    42.8980    41.2380    46.6870    25.1930     2.2450   -13.0340 
  139.3750    80.5110    42.9860    41.5450    47.2980    25.1790     2.2530   -13.6590 
  139.5000    78.3870    42.5010    41.1990    46.5110    25.0570     2.2590   -14.3430 
  139.6250    79.0430    41.6720    40.4100    44.4100    24.8380     2.2630   -15.0520 
  139.7500    80.5990    40.8940    39.6030    40.9410    24.6150     2.2670   -15.8130 
  139.8750    82.3900    40.4530    39.0850    36.5610    24.5300     2.2720   -16.6420 
  140.0000    84.8740    40.5680    39.0820    30.5250    24.6280     2.2760   -17.4980 
  140.1250    85.7950    41.5400    39.8660    26.9210    24.8950     2.2740   -18.2160 
  140.2500    84.1820    43.4320    41.4880    27.0690    25.1350     2.2690   -18.7420 
  140.3750    81.5000    46.4880    44.1710    29.0800    25.2400     2.2620   -19.1890 
  140.5000    79.4550    51.0800    48.2420    30.9560    25.2420     2.2560   -19.5480 
  140.6250    78.7740    58.1210    54.5740    32.7090    25.2560     2.2510   -20.0230 
  140.7500    79.0990    67.6220    63.4870    35.0780    25.2810     2.2460   -20.6000 
  140.8750    79.9130    80.9150    75.3030    43.2420    25.3040     2.2370   -21.1560 
  141.0000    80.3260    98.8900    89.6120    61.7580    25.3120     2.2250   -21.8140 
  141.1250    80.4680   118.8310   104.6290    78.0830    25.3030     2.2150   -22.7780 
  141.2500    78.4920   134.7530   117.3080    78.7760    25.2990     2.2090   -23.8980 
  141.3750    73.8150   143.8330   125.4600    84.1570    25.3240     2.2080   -24.9390 
  141.5000    68.0020   146.7910   128.5620    95.5160    25.3610     2.2110   -25.8110 
  141.6250    65.4690   145.1740   127.3950    98.5610    25.3270     2.2150   -26.1740 
  141.7500    66.7620   141.4760   124.4660    86.8310    25.1550     2.2170   -26.0330 
  141.8750    70.5140   137.3380   121.1070    74.8940    24.8910     2.2170   -25.5940 
  142.0000    75.0940   133.8980   118.3520    68.1810    24.7660     2.2150   -24.8450 
  142.1250    76.7670   131.9770   117.0950    78.5370    24.9620     2.2140   -23.6450 
  142.2500    74.6530   131.2270   117.0340    95.0140    25.2940     2.2150   -22.3860 
  142.3750    72.7160   131.0600   117.5900   111.7930    25.4950     2.2170   -21.2100 
  142.5000    74.1060   130.8360   118.1110   130.2090    25.5760     2.2190   -20.0710 
  142.6250    75.4530   130.1820   118.0970   144.6530    25.5700     2.2220   -19.2410 
  142.7500    73.8640   129.4910   117.8390   135.8160    25.5300     2.2290   -19.0320 
  142.8750    72.7690   129.4600   118.0340   113.9210    25.4890     2.2390   -19.6170 
  143.0000    72.6700   130.7930   119.4300    97.8130    25.4340     2.2500   -20.9850 
  143.1250    70.8240   134.1970   122.7400   115.0790    25.3630     2.2560   -23.1030 
  143.2500    69.6970   139.2710   127.6300   131.1610    25.3670     2.2560   -25.2560 
  143.3750    71.6630   145.5790   133.6700   130.4690    25.4350     2.2480   -26.9740 
  143.5000    73.1960   152.6250   140.2910   143.0550    25.4890     2.2350   -28.3910 
  143.6250    71.6200   160.1360   147.1620   163.7000    25.4620     2.2240   -29.4440 
  143.7500    70.6670   167.9890   154.2900   156.5530    25.3390     2.2170   -30.1280 
  143.8750    71.7660   176.1900   161.7380   140.4190    25.1530     2.2130   -30.3570 
  144.0000    73.6510   184.5910   169.3610   139.9620    24.9880     2.2110   -29.7750 
  144.1250    74.7110   192.5980   176.7020   152.9110    24.9040     2.2070   -28.4550 
  144.2500    74.5360   199.3570   183.0390   165.0470    24.8210     2.2010   -27.1400 
  144.3750    72.0780   203.9920   187.4210   174.3130    24.6930     2.1950   -26.3940 
  144.5000    70.3330   206.0650   189.2150   179.0430    24.5390     2.1880   -26.1310 
  144.6250    74.4200   205.8630   188.5570   183.8630    24.4050     2.1840   -26.0580 
  144.7500    79.3250   205.3170   187.4280   182.6960    24.2930     2.1830   -26.0820 
  144.8750    79.5760   206.0390   187.5290   171.5860    24.1120     2.1870   -26.1950 
  145.0000    74.8940   209.1120   190.0420   158.7260    23.9550     2.1940   -26.7910 
  145.1250    70.3850   214.9980   195.5180   159.2440    23.9710     2.2010   -28.0220 
  145.2500    68.9680   222.2040   202.4850   177.1510    24.1460     2.2060   -29.4980 
  145.3750    68.5690   229.1810   209.4170   183.9850    24.3830     2.2100   -30.9400 
  145.5000    68.2680   234.4380   214.7340   179.3310    24.5630     2.2150   -31.9570 
  145.6250    67.8960   236.6680   216.8980   173.0860    24.6400     2.2210   -32.3240 
  145.7500    68.4790   236.5370   216.5530   165.7740    24.6900     2.2240   -32.2280 
  145.8750    68.0730   234.8950   214.6570   170.5390    24.7740     2.2210   -31.6860 
  146.0000    65.9310   232.6840   212.1750   192.2220    24.8830     2.2120   -30.7090 
  146.1250    66.9260   230.9270   209.9830   205.3110    24.9900     2.2010   -29.2450 
  146.2500    69.9930   230.5630   208.8810   203.9890    25.1150     2.1930   -27.5160 
  146.3750    70.5990   232.5950   209.7960   203.0250    25.1960     2.1910   -25.8500 
  146.5000    69.2020   237.8620   213.6810   210.1480    25.2270     2.1930   -24.5250 
  146.6250    71.0970   246.8010   221.3970   215.4550    25.1890     2.1980   -23.9080 
  146.7500    74.5560   256.9870   230.9380   230.5160    25.2010     2.2030   -23.6530 
  146.8750    73.6740   265.2830   239.3110   247.4890    25.2280     2.2060   -23.5010 
  147.0000    68.1860   268.3730   243.0630   274.4960    25.2430     2.2040   -23.4210 
  147.1250    63.4250   263.1630   238.9100   302.3500    25.2380     2.2000   -23.0980 
  147.2500    62.8940   251.8810   228.9170   305.8530    25.2180     2.2050   -22.4900 
  147.3750    67.2900   237.3340   215.8860   268.3530    25.1550     2.2300   -21.4230 
  147.5000    73.1450   222.4940   202.7590   224.6640    25.0240     2.2810   -20.1230 
  147.6250    74.2780   209.6610   191.7990   201.7870    24.8030     2.3400   -18.9470 
  147.7500    71.4510   198.7820   182.8460   197.8770    24.6390     2.3770   -17.8930 
  147.8750    69.9930   189.0700   174.9870   203.5710    24.6350     2.3750   -17.1510 
  148.0000    74.5030   179.6770   167.2130   186.0190    24.7010     2.3400   -16.8310 
  148.1250    81.4630   170.3980   159.0230   167.5690    24.7100     2.2950   -17.3570 
  148.2500    83.5360   161.8940   151.0960   157.3510    24.7520     2.2660   -18.7350 
  148.3750    80.4290   155.0840   144.5030   147.2460    24.8540     2.2590   -20.7650 
  148.5000    76.6590   150.5880   140.0110   132.6600    24.9180     2.2620   -23.2050 
  148.6250    74.7160   148.6990   137.9190   123.2740    24.9110     2.2610   -25.4680 
  148.7500    72.2850   148.3000   137.1630   124.2240    24.9050     2.2520   -27.2810 
  148.8750    69.2640   148.4600   136.9150   136.1880    24.9020     2.2380   -28.3880 
