~V
VERS. 2.00: Ver 2.00
~W
STRT.M 50.0000:
STOP.M 205.0000:
STEP.M 0.1250:
NULL. -999.2500:
UWI. F10148:
~C
DEPT.M :
GR.API :
RML.OHMM :
RI. :
RXO.OHMM :
CALI.CM :
SP.MV :
DEN.GM/CC :
~A
# ...
   83.7500    60.0510     9.3970     6.9100     8.4040    19.7730   -25.3450     2.1770 
   83.8750    60.1830     9.2940     6.8100     7.6910    19.6430   -25.2750     2.1600 
   84.0000    61.6320     9.2150     6.7040     7.0680    19.4340   -25.1950     2.1360 
   84.1250    64.2800     9.2600     6.6510     6.7600    19.1940   -25.1220     2.1090 
   84.2500    66.0520     9.4710     6.7020     6.6830    19.0910   -25.0950     2.0820 
   84.3750    66.3750     9.8320     6.8760     6.7740    19.0750   -25.1040     2.0570 
   84.5000    65.5280    10.2500     7.1420     6.9700    19.0880   -25.1100     2.0350 
   84.6250    64.2730    10.5680     7.4160     7.2340    19.1590   -25.0690     2.0170 
   84.7500    64.6150    10.7030     7.5960     7.3990    19.2050   -24.9910     2.0000 
   84.8750    66.5850    10.6680     7.6390     6.9980    18.8900   -24.8810     1.9860 
   85.0000    68.1280    10.5630     7.5740     6.1870    18.6120   -24.7500     1.9770 
   85.1250    69.9020    10.5110     7.4800     6.0270    18.6610   -24.5880     1.9810 
   85.2500    75.0950    10.5130     7.4030     6.6370    18.8160   -24.3560     2.0010 
   85.3750    79.8130    10.4580     7.3120     7.8780    19.0900   -24.0560     2.0350 
   85.5000    78.2710    10.1960     7.1290     8.5920    19.7420   -23.7060     2.0750 
   85.6250    71.8150     9.6260     6.7800     7.5330    19.9790   -23.3510     2.1120 
   85.7500    68.8970     8.9540     6.3520     6.4320    20.0660   -22.9950     2.1380 
   85.8750    70.4810     8.4210     5.9700     5.9720    20.1310   -22.6310     2.1500 
   86.0000    72.8620     8.1950     5.7470     5.9700    20.0800   -22.2720     2.1480 
   86.1250    71.5880     8.3420     5.7610     5.8350    19.5830   -21.9660     2.1290 
   86.2500    68.3590     8.6870     5.9380     5.4660    18.6200   -21.7170     2.0990 
   86.3750    67.7860     9.0760     6.2030     5.0900    17.9610   -21.5000     2.0650 
   86.5000    70.8410     9.3620     6.4700     4.8640    17.8030   -21.2840     2.0360 
   86.6250    71.3070     9.4130     6.6290     4.8300    17.8840   -21.0410     2.0190 
   86.7500    66.2080     9.2490     6.6430     4.9730    18.0430   -20.7920     2.0130 
   86.8750    62.3860     8.9100     6.5070     5.2980    18.4930   -20.5480     2.0150 
   87.0000    66.2070     8.4630     6.2520     5.7440    19.3080   -20.2890     2.0210 
   87.1250    75.2660     7.9800     5.9210     6.0850    20.5660   -19.9840     2.0290 
   87.2500    81.7140     7.5280     5.5800     6.2690    22.2990   -19.6540     2.0420 
   87.3750    82.8880     7.1480     5.2600     6.3660    23.8100   -19.3250     2.0620 
   87.5000    82.3660     6.8610     4.9840     6.1230    24.5400   -19.0320     2.0920 
   87.6250    84.6270     6.6850     4.7900     5.8500    24.7550   -18.8130     2.1280 
   87.7500    89.5380     6.5990     4.6860     5.6950    24.8250   -18.6380     2.1560 
   87.8750    92.4420     6.6050     4.6740     5.6180    24.7610   -18.5040     2.1670 
   88.0000    90.1610     6.6970     4.7430     5.5830    24.5720   -18.4090     2.1590 
   88.1250    86.8840     6.8580     4.8660     5.6800    23.8400   -18.3680     2.1400 
   88.2500    87.7410     7.0230     4.9940     5.9750    22.6020   -18.3820     2.1210 
   88.3750    90.7300     7.1390     5.0970     6.2960    22.2720   -18.4180     2.1010 
   88.5000    92.6950     7.1950     5.1730     6.3620    23.0580   -18.4460     2.0750 
   88.6250    94.2430     7.2670     5.2550     5.9130    23.4800   -18.4800     2.0380 
   88.7500    93.9220     7.4740     5.4080     5.5920    23.2160   -18.5040     2.0020 
   88.8750    88.3830     7.8920     5.6850     5.4750    21.4180   -18.4960     1.9830 
   89.0000    80.5840     8.5170     6.0940     5.7160    18.9120   -18.4400     1.9920 
   89.1250    77.7180     9.1950     6.5540     6.6240    19.3920   -18.3090     2.0330 
   89.2500    78.8990     9.6250     6.8810     8.3400    20.2630   -18.1100     2.0860 
   89.3750    80.0080     9.5740     6.9200    10.4540    21.1560   -17.8710     2.1360 
   89.5000    79.9910     8.9930     6.6240    10.8000    21.8870   -17.6160     2.1720 
   89.6250    83.8080     8.0570     6.0830     8.4170    23.0570   -17.3440     2.1940 
   89.7500    90.6970     7.1690     5.5310     6.3490    24.0010   -17.0790     2.2120 
   89.8750    95.8060     6.5530     5.0910     5.7730    24.7620   -16.8410     2.2290 
   90.0000    96.2590     6.2910     4.8170     5.8350    24.9730   -16.6580     2.2420 
   90.1250    93.6150     6.3870     4.7350     6.0200    24.8880   -16.5480     2.2460 
   90.2500    92.2620     6.6630     4.7730     6.1970    24.9020   -16.4900     2.2430 
   90.3750    90.6430     6.9850     4.8820     6.1900    24.9260   -16.4730     2.2380 
   90.5000    87.5680     7.2550     5.0210     6.1790    24.9320   -16.5120     2.2340 
   90.6250    85.7120     7.4330     5.1650     6.2340    24.9320   -16.5760     2.2340 
   90.7500    86.0860     7.5700     5.2970     6.3650    24.9340   -16.6790     2.2340 
   90.8750    87.2170     7.7010     5.4090     6.4180    24.9280   -16.8060     2.2320 
   91.0000    87.5940     7.8370     5.4950     6.4180    24.8870   -16.9510     2.2280 
   91.1250    88.5520     7.9640     5.5590     6.5850    24.9180   -17.1100     2.2270 
   91.2500    90.9810     8.0570     5.6130     6.8690    24.8770   -17.2930     2.2270 
   91.3750    92.5520     8.0870     5.6560     7.0530    24.7650   -17.5080     2.2260 
   91.5000    92.3120     8.0380     5.6730     7.1450    24.5800   -17.7080     2.2210 
   91.6250    91.0200     7.9320     5.6470     7.1450    24.3530   -17.9250     2.2110 
   91.7500    90.9400     7.8560     5.6200     6.8880    24.2510   -18.1510     2.1980 
   91.8750    93.5490     7.9060     5.6590     6.3730    24.2470   -18.4040     2.1850 
   92.0000    95.5420     8.1730     5.8240     5.9810    24.0400   -18.6850     2.1740 
   92.1250    92.1130     8.7360     6.1600     6.2330    23.0670   -18.9850     2.1720 
   92.2500    86.1950     9.4600     6.5860     6.9280    21.5110   -19.2830     2.1770 
   92.3750    80.8540    10.1440     6.9890     7.3640    20.6140   -19.5670     2.1830 
   92.5000    76.5610    10.5570     7.2430     7.0230    20.5310   -19.8260     2.1850 
   92.6250    72.3170    10.4890     7.2480     6.5650    20.5510   -20.0380     2.1760 
   92.7500    69.6370    10.0850     7.0910     6.3510    20.5550   -20.1830     2.1620 
   92.8750    70.7090     9.5440     6.8700     6.3170    20.5150   -20.2640     2.1520 
   93.0000    74.2320     9.0520     6.6720     6.3020    20.3440   -20.2720     2.1480 
   93.1250    76.5900     8.7340     6.5530     6.1430    20.0680   -20.2140     2.1480 
   93.2500    75.4240     8.5760     6.4910     5.8690    19.7950   -20.1190     2.1470 
   93.3750    74.3020     8.5560     6.4650     5.6050    19.5490   -20.0160     2.1450 
   93.5000    75.1650     8.6380     6.4630     5.5050    19.2850   -19.9550     2.1430 
   93.6250    75.4070     8.7660     6.4840     5.7360    19.2020   -19.9380     2.1450 
   93.7500    74.4690     8.8760     6.5200     6.0620    19.2850   -19.9760     2.1480 
   93.8750    73.8260     8.9540     6.5640     6.1380    19.3170   -20.0600     2.1510 
   94.0000    73.6180     9.0100     6.6090     5.9690    19.0580   -20.2050     2.1510 
   94.1250    73.7390     9.0660     6.6390     5.7100    18.7670   -20.4050     2.1440 
   94.2500    73.9710     9.1280     6.6440     5.5000    18.6430   -20.6450     2.1340 
   94.3750    72.9590     9.1630     6.6160     5.3720    18.6620   -20.9300     2.1250 
   94.5000    70.5760     9.1270     6.5610     5.2370    18.6950   -21.2310     2.1220 
   94.6250    69.6840     9.0110     6.4930     5.0710    18.6930   -21.5240     2.1240 
   94.7500    70.4730     8.9150     6.4510     4.9430    18.6110   -21.8070     2.1290 
   94.8750    69.8090     9.0010     6.5050     4.9290    18.5470   -22.0450     2.1320 
