~V
VERS. 2.00: Ver 2.00
~W
STRT.M 54.0000:
STOP.M 236.0000:
STEP.M 0.1250:
NULL. -999.2500:
UWI. F10195:
~C
DEPT.M :
GR.API :
RML.OHMM :
RI. :
RXO.OHMM :
CALI.CM :
SP.MV :
DEN.GM/CC :
~A
# ...
  166.5000    76.4190    30.7470    29.3240    30.1390    23.1440   -12.2250     2.2520 
  166.6250    75.7940    31.3490    30.6840    31.8510    23.1630   -12.3550     2.2550 
  166.7500    74.3980    29.7060    29.7760    31.7010    23.1690   -12.5520     2.2590 
  166.8750    73.1710    26.9530    27.4970    29.1560    23.1630   -12.7400     2.2650 
  167.0000    71.1750    24.2200    24.9420    24.1670    23.1550   -12.9370     2.2730 
  167.1250    69.2020    22.4240    23.0180    20.8790    23.1500   -13.1970     2.2820 
  167.2500    70.0860    22.4740    22.5310    20.9990    23.1860   -13.5880     2.2850 
  167.3750    72.7040    24.5000    23.6630    23.3280    23.2570   -14.0580     2.2820 
  167.5000    73.0480    28.6740    26.7280    26.2100    23.3610   -14.5510     2.2720 
  167.6250    70.8630    34.8660    31.9780    29.1100    23.4770   -15.0530     2.2590 
  167.7500    68.4130    42.1470    39.2650    42.1170    23.6040   -15.5750     2.2450 
  167.8750    66.1690    47.9150    46.1870    58.5790    23.6750   -16.1120     2.2320 
  168.0000    61.4800    49.7000    49.7900    66.1630    23.7020   -16.6440     2.2240 
  168.1250    57.0000    46.9130    48.6120    55.5870    23.6650   -17.1280     2.2220 
  168.2500    58.3990    41.8620    44.2820    42.8850    23.5440   -17.5690     2.2320 
  168.3750    64.0370    38.3010    40.5880    33.4970    23.3810   -18.0620     2.2500 
  168.5000    68.9970    38.1370    39.4700    30.4940    23.2610   -18.6190     2.2710 
  168.6250    69.6920    42.4590    42.2240    33.4050    23.2260   -19.1970     2.2840 
  168.7500    66.6190    53.3320    51.5630    47.2130    23.2850   -19.7560     2.2770 
  168.8750    64.4360    71.3420    68.9620    70.6250    23.3440   -20.2930     2.2570 
  169.0000    64.4510   113.4330    96.1630    87.9650    23.2240   -20.8800     2.2350 
  169.1250    63.0400   159.2800   132.2910    91.2480    22.9930   -21.5590     2.2230 
  169.2500    58.7130   204.5420   170.6670    91.4060    22.7860   -22.2000     2.2210 
  169.3750    55.8780   239.1890   200.6330    92.3420    22.6830   -22.7100     2.2210 
  169.5000    56.1690   255.1410   216.5790    92.0140    22.6400   -23.1280     2.2230 
  169.6250    57.2170   254.9380   219.3940    92.0230    22.6620   -23.5000     2.2290 
  169.7500    58.3420   247.8300   214.5900    92.4870    22.6860   -23.8710     2.2330 
  169.8750    60.4950   243.7410   210.6850    85.9630    22.6220   -24.3030     2.2310 
  170.0000    61.7820   246.5760   211.9600    75.0320    22.4270   -24.7070     2.2240 
  170.1250    61.8550   256.5550   219.5050    67.1560    22.2180   -25.0140     2.2140 
  170.2500    60.1550   269.3300   230.6730    68.6860    22.0900   -25.2870     2.2040 
  170.3750    57.6420   275.0740   237.9440    70.5610    21.9430   -25.6030     2.1950 
  170.5000    55.7250   266.0850   234.9600    62.8640    21.7210   -25.9690     2.1870 
  170.6250    55.1060   242.0620   219.7450    59.2150    21.5930   -26.3510     2.1860 
  170.7500    56.2240   210.6820   195.7860    62.1620    21.7410   -26.6600     2.1970 
  170.8750    58.9400   182.0880   171.5600    65.3010    21.8660   -26.8780     2.2140 
  171.0000    63.1220   159.8040   151.3700    63.6240    21.7540   -27.0970     2.2320 
  171.1250    65.8120   143.7930   136.5340    59.1860    21.4800   -27.3820     2.2440 
  171.2500    64.3780   132.4820   126.3880    54.2540    21.2890   -27.6780     2.2540 
  171.3750    63.0490   122.8390   118.0680    53.1260    21.2090   -27.9190     2.2620 
  171.5000    64.5340   113.8510   110.3740    54.3470    21.1750   -28.1330     2.2650 
  171.6250    68.1670   105.6460   103.1910    54.3370    21.1480   -28.3650     2.2650 
  171.7500    70.5780    99.3980    97.4950    49.7880    21.1010   -28.6160     2.2660 
  171.8750    70.1800    95.6350    93.9490    45.3160    21.0310   -28.8590     2.2650 
  172.0000    69.0770    94.5860    92.9380    43.2850    20.9510   -29.0700     2.2620 
  172.1250    68.4660    95.9350    94.3100    42.2560    20.8760   -29.2500     2.2550 
  172.2500    67.3140    98.9470    97.4920    41.0850    20.7920   -29.4570     2.2480 
  172.3750    64.4590   102.0450   100.9610    40.2140    20.7380   -29.6950     2.2400 
  172.5000    61.7270   104.0550   103.5360    39.6580    20.6950   -29.8690     2.2310 
  172.6250    60.8830   104.1140   104.2640    39.1150    20.6670   -29.9270     2.2260 
  172.7500    61.3390   101.7270   102.4320    38.1480    20.6770   -29.9200     2.2290 
  172.8750    62.9410    97.9610    98.9500    36.9300    20.6870   -29.9240     2.2360 
  173.0000    65.6330    93.7650    94.7200    35.0130    20.6930   -29.9610     2.2440 
  173.1250    68.5320    89.9390    90.5790    32.8740    20.6960   -30.0060     2.2520 
  173.2500    68.7860    87.1400    87.2380    31.9240    20.7000   -29.9960     2.2580 
  173.3750    68.1070    85.3350    84.7860    32.9910    20.7200   -29.9610     2.2610 
  173.5000    68.9930    84.4710    83.2270    34.4680    20.7810   -30.0080     2.2620 
  173.6250    70.2950    84.6540    82.6600    35.0560    20.8810   -30.1650     2.2620 
  173.7500    69.2530    86.8360    83.8910    34.3040    20.9950   -30.4030     2.2650 
  173.8750    66.8910    92.0670    87.8260    34.1070    21.0540   -30.6470     2.2670 
  174.0000    66.5960   101.9220    95.9920    35.2740    21.0660   -30.8870     2.2670 
  174.1250    68.0300   117.9690   110.0800    36.6200    21.0200   -31.1420     2.2630 
  174.2500    68.1310   142.4580   132.4630    37.2790    20.9100   -31.4670     2.2520 
  174.3750    67.4900   172.9090   160.6880    39.3310    20.8530   -31.7950     2.2370 
  174.5000    67.7070   204.0100   189.7950    46.0330    20.9880   -32.0590     2.2220 
  174.6250    66.5190   226.2650   211.5830    56.2080    21.3250   -32.2530     2.2100 
  174.7500    63.1440   228.3300   216.0340    75.3110    21.9130   -32.4430     2.1990 
  174.8750    61.6130   216.3950   206.9380   102.7730    22.6830   -32.6650     2.1890 
  175.0000    63.2730   200.5230   192.1870   126.5090    23.2620   -32.8400     2.1860 
  175.1250    64.8580   188.7500   179.6120   121.1050    23.4170   -32.9120     2.1910 
  175.2500    63.5340   185.1740   174.3170   124.4260    23.4420   -32.9220     2.2010 
  175.3750    62.0630   186.9330   174.5660   145.5060    23.5120   -32.9610     2.2050 
  175.5000    61.7610   190.4750   177.3050   190.1970    23.5950   -33.0260     2.2020 
  175.6250    61.7760   192.3480   179.2880   218.9200    23.6240   -33.0520     2.1960 
  175.7500    61.1860   191.1110   178.8460   220.0820    23.4910   -32.9740     2.1920 
  175.8750    60.3730   189.7870   178.2470   185.9810    23.3110   -32.8600     2.1910 
  176.0000    61.0160   191.6640   180.4930   175.9650    23.1260   -32.7730     2.1910 
  176.1250    62.3350   198.5450   187.5800   159.8050    22.8550   -32.7350     2.1880 
  176.2500    62.6900   209.2250   198.9820   126.1760    22.5600   -32.7100     2.1850 
  176.3750    61.9580   216.7610   208.5890   107.5040    22.2980   -32.6620     2.1860 
  176.5000    61.9970   213.5400   209.3640   107.4810    22.3560   -32.5620     2.1960 
  176.6250    62.9370   196.1430   196.9990   120.1480    22.7980   -32.4540     2.2150 
  176.7500    62.8880   168.8210   172.9300   121.2810    23.3970   -32.3980     2.2360 
  176.8750    61.4590   142.0080   146.7400   108.1650    23.7900   -32.3650     2.2500 
  177.0000    60.3150   120.2810   123.9750    87.8520    23.9100   -32.3520     2.2570 
  177.1250    60.5710   104.6450   106.8840    72.2210    23.8730   -32.3140     2.2630 
  177.2500    60.3540    95.0270    96.0750    61.9420    23.9810   -32.2450     2.2680 
  177.3750    59.8780    89.4780    89.5420    53.8650    24.3140   -32.2340     2.2660 
  177.5000    59.8780    87.5510    86.6890    46.7120    24.6190   -32.2970     2.2560 
  177.6250    60.0310    89.1110    87.3180    43.1440    24.6700   -32.3930     2.2460 
