~V
VERS. 2.00: Ver 2.00
~W
STRT.M 53.0000:
STOP.M 242.0000:
STEP.M 0.1250:
NULL. -999.2500:
UWI. F10177:
~C
DEPT.M :
SP.MV :
GR.API :
RML.OHMM :
RI. :
RXO.OHMM :
CALI.CM :
DEN.GM/CC :
~A
# ...
  199.2500   -17.7570    73.0280   107.0390   104.8850   105.0660    24.9870     2.1910 
  199.3750   -17.6630    72.7640   107.5840   105.1660   107.6990    24.9860     2.1900 
  199.5000   -17.6400    70.2640   108.6330   106.0660   115.3400    24.9850     2.1940 
  199.6250   -17.7050    66.5710   109.9760   107.4450   118.6480    24.9870     2.2010 
  199.7500   -17.8420    65.0780   111.0320   108.7760   117.1640    24.9860     2.2090 
  199.8750   -17.9940    68.9780   110.6580   108.8610   118.8780    24.9610     2.2170 
  200.0000   -18.2050    72.5580   108.3870   107.0240   127.0520    24.9780     2.2270 
  200.1250   -18.4350    72.3010   104.3240   103.2540   129.6030    25.1170     2.2370 
  200.2500   -18.6980    70.1790    99.2370    98.2730   114.8930    25.4800     2.2420 
  200.3750   -18.9960    68.5250    94.3880    93.3260    90.1790    25.1900     2.2400 
  200.5000   -19.2760    66.6790    90.7240    89.4410    81.5700    25.0100     2.2330 
  200.6250   -19.5160    65.0600    88.5520    87.0090    82.7450    24.9430     2.2260 
  200.7500   -19.7360    66.0040    87.6070    85.8710    83.9350    24.9430     2.2220 
  200.8750   -19.9370    69.5780    87.1050    85.3080    81.8470    24.9590     2.2220 
  201.0000   -20.1340    71.8130    86.0660    84.1790    84.1580    24.9630     2.2230 
  201.1250   -20.3520    71.2670    84.2060    82.0470    85.7700    24.9450     2.2260 
  201.2500   -20.5720    68.2640    82.0440    79.4350    85.0810    24.9210     2.2330 
  201.3750   -20.7710    65.8850    81.2480    78.0230    74.0710    24.9070     2.2450 
  201.5000   -21.0260    65.0250    83.4320    79.5600    62.5000    24.8650     2.2580 
  201.6250   -21.3050    67.3260    89.9700    85.6430    59.7370    24.8260     2.2660 
  201.7500   -21.5520    71.9290   101.6300    97.0200    77.6140    24.8010     2.2650 
  201.8750   -21.6840    73.2980   118.3770   113.0870   121.8080    24.8030     2.2540 
  202.0000   -21.7610    69.8450   136.0820   129.6650   166.8650    24.8460     2.2380 
  202.1250   -21.7740    65.8870   149.7360   142.4400   193.5610    24.9150     2.2230 
  202.2500   -21.7280    65.7680   154.7000   147.2840   181.1560    24.9040     2.2100 
  202.3750   -21.5910    68.0760   147.9070   140.7590   156.2850    24.8650     2.2030 
  202.5000   -21.3230    69.2840   134.1740   127.3590   142.4510    24.8330     2.2010 
  202.6250   -20.9720    69.3620   117.9990   111.5640   127.9440    24.7860     2.2060 
  202.7500   -20.6240    69.6610   103.1540    97.0610   106.8450    24.6780     2.2140 
  202.8750   -20.4040    71.5970    92.7960    86.8970    91.6730    24.4610     2.2180 
  203.0000   -20.2550    73.3990    87.5490    81.6670    84.0860    24.1960     2.2110 
  203.1250   -20.1850    72.4400    88.0110    82.0740    79.4790    23.9940     2.2030 
  203.2500   -20.1740    68.2950    94.4630    88.6010    88.5840    23.8930     2.2160 
  203.3750   -20.2340    64.7340   106.7800   101.7550   136.0790    24.0100     2.2840 
  203.5000   -20.3600    62.7660   119.7120   117.7150   163.4640    24.3010     2.4010 
  203.6250   -20.5250    60.1840   125.6480   129.2320   183.6880    24.5130     2.5420 
  203.7500   -20.7220    57.5200   117.5160   125.2910   191.9640    24.5330     2.6670 
  203.8750   -20.9410    58.3050    93.4810    98.9300   177.0100    24.4590     2.7320 
  204.0000   -21.1210    60.6420    64.6690    66.4040   122.2470    24.3230     2.7320 
  204.1250   -21.2270    61.8450    40.2730    40.0800    61.7590    24.1690     2.6780 
  204.2500   -21.2970    61.6800    24.1490    23.4040    26.1430    24.2350     2.5920 
  204.3750   -21.3390    61.0680    15.6100    15.1130    12.4660    24.3660     2.5000 
  204.5000   -21.3230    60.8970    11.0180    10.7720     9.1220    24.3620     2.4280 
  204.6250   -21.3210    62.0810     8.7040     8.5150     7.6180    24.2160     2.3860 
  204.7500   -21.3490    63.5860     7.6580     7.3980     6.6910    24.1700     2.3720 
  204.8750   -21.4750    60.9420     7.3830     7.0620     6.5810    24.3020     2.3780 
  205.0000   -21.6790    57.0320     7.4410     7.1160     6.4710    24.3340     2.3930 
  205.1250   -21.9860    56.6880     7.6550     7.3780     6.5760    24.3440     2.4070 
  205.2500   -22.4140    60.6750     7.9050     7.7080     6.8960    24.4420     2.4190 
  205.3750   -22.9540    61.8610     8.1110     7.9930     7.2150    24.4250     2.4260 
  205.5000   -23.4910    59.4280     8.2590     8.1990     7.8220    24.2290     2.4290 
  205.6250   -23.8320    60.2810     8.3790     8.3490     8.4020    23.9700     2.4280 
  205.7500   -23.8310    68.5240     8.5210     8.4970     7.6290    23.8580     2.4220 
  205.8750   -23.2580    81.1530     8.7470     8.7040     8.2150    24.0230     2.4120 
  206.0000   -22.3320    92.4470     9.0490     8.9650     9.1610    24.2730     2.4060 
  206.1250   -21.2010   101.4900     9.3870     9.2380     9.4600    24.4330     2.4060 
  206.2500   -19.9190   105.7180     9.7040     9.4600     9.3100    24.4620     2.4160 
  206.3750   -18.5130   103.4460     9.9400     9.5610     9.3080    24.4180     2.4310 
  206.5000   -17.1370   102.2930    10.0970     9.5520     9.4780    24.3690     2.4450 
  206.6250   -15.9220   104.6100    10.1930     9.4660     9.5810    24.3470     2.4530 
  206.7500   -14.9820   107.5460    10.2500     9.3370     9.5600    24.3580     2.4540 
  206.8750   -14.4800   107.5600    10.2690     9.1750     9.3630    24.3790     2.4480 
  207.0000   -14.2570   106.4660    10.2460     8.9800     9.2640    24.3800     2.4380 
  207.1250   -14.1600   104.5900    10.1740     8.7480     9.1760    24.3730     2.4270 
  207.2500   -14.0610   102.2700    10.0650     8.4900     9.0690    24.3500     2.4180 
  207.3750   -13.9680   106.0310     9.9910     8.2610     9.0000    24.3270     2.4140 
  207.5000   -13.8620   114.6640    10.1070     8.1550     9.1270    24.3180     2.4160 
  207.6250   -13.7950   119.4410    10.3900     8.2920     9.2380    24.2620     2.4190 
  207.7500   -13.7870   115.6030    10.7840     8.8000     9.7340    24.1960     2.4190 
  207.8750   -13.8580   109.6230    11.6280     9.8900    11.4420    24.2490     2.4080 
  208.0000   -14.0220   107.5500    13.2420    11.5400    14.5050    24.3900     2.3890 
  208.1250   -14.2830   104.9480    15.5180    13.6690    19.1240    24.5140     2.3670 
  208.2500   -14.6620    99.5960    17.9170    16.0070    23.5710    24.6330     2.3490 
  208.3750   -15.0550    94.7990    19.8520    18.0410    25.3800    24.6650     2.3410 
  208.5000   -15.4550    92.7980    21.2490    19.4810    24.4550    24.6270     2.3390 
  208.6250   -15.8210    92.1710    22.2090    20.3730    23.2520    24.6120     2.3410 
  208.7500   -16.1310    90.4760    22.9800    20.9800    24.0310    24.6880     2.3430 
  208.8750   -16.2930    85.4810    23.8080    21.5950    26.2200    24.7290     2.3420 
  209.0000   -16.2980    79.4600    24.7310    22.3310    28.1710    24.7340     2.3400 
  209.1250   -16.1460    77.4090    25.6640    23.1350    29.2490    24.7410     2.3370 
  209.2500   -15.8570    79.9670    26.5420    23.9270    29.8600    24.7630     2.3310 
  209.3750   -15.5200    82.2520    27.4770    24.7740    30.6870    24.7570     2.3240 
  209.5000   -15.1610    82.0740    28.7120    25.8930    31.4770    24.7360     2.3240 
  209.6250   -14.7380    81.1530    30.4350    27.4880    32.1660    24.7200     2.3350 
  209.7500   -14.2240    79.9160    32.6250    29.6230    33.8070    24.6970     2.3600 
  209.8750   -13.6050    77.5340    34.8530    32.0710    38.6640    24.6360     2.3960 
  210.0000   -12.8920    76.0750    36.3320    34.0790    46.6880    24.5570     2.4350 
  210.1250   -12.0760    76.3760    36.3810    34.8120    48.4180    24.4740     2.4710 
  210.2500   -11.1680    76.3140    34.7130    33.7530    42.0020    24.4440     2.5020 
  210.3750   -10.2400    73.3930    31.4880    30.9210    35.2610    24.4700     2.5220 
