~V
VERS. 2.00: Ver 2.00
~W
STRT.M 51.0000:
STOP.M 246.0000:
STEP.M 0.1250:
NULL. -999.2500:
UWI. F10182:
~C
DEPT.M :
SP.MV :
GR.API :
RML.OHMM :
RI. :
RXO.OHMM :
DEN.GM/CC :
CALI.CM :
~A
# ...
   62.2500   -16.8460    68.0150     8.3930     7.3820     8.9570     2.2050    23.1950 
   62.3750   -16.4350    71.3440     8.0880     7.1170     8.7570     2.2170    23.4710 
   62.5000   -16.0140    76.4760     7.7220     6.7870     8.0040     2.2270    23.8210 
   62.6250   -15.6690    81.2840     7.3700     6.4520     7.2200     2.2360    24.2630 
   62.7500   -15.3780    81.6460     7.1160     6.1840     7.1440     2.2450    24.5500 
   62.8750   -15.1880    78.5310     6.9890     6.0180     7.4510     2.2480    24.6510 
   63.0000   -15.0840    76.5670     7.0180     5.9800     7.8340     2.2410    24.6550 
   63.1250   -15.0930    77.7330     7.2330     6.0920     7.5530     2.2250    24.5810 
   63.2500   -15.1960    76.9190     7.6530     6.3720     7.0350     2.2120    24.2990 
   63.3750   -15.3860    72.7840     8.1440     6.7260     7.1190     2.2160    23.8440 
   63.5000   -15.6490    68.5950     8.5220     7.0230     7.6680     2.2390    23.3620 
   63.6250   -15.9220    67.9150     8.5810     7.1070     8.3340     2.2750    23.0010 
   63.7500   -16.1790    71.8160     8.1490     6.8240     8.5550     2.3090    22.9880 
   63.8750   -16.4040    77.5180     7.4380     6.2950     7.9060     2.3260    23.2750 
   64.0000   -16.6170    82.1680     6.7230     5.6990     6.5220     2.3200    23.7200 
   64.1250   -16.8260    83.8400     6.2520     5.2190     5.9440     2.2930    24.1260 
   64.2500   -17.0740    83.6340     6.2480     5.0330     6.3560     2.2540    24.2430 
   64.3750   -17.3810    82.2080     6.6770     5.1540     6.7560     2.2200    24.1590 
   64.5000   -17.7560    78.2730     7.4880     5.5780     8.1410     2.2020    23.8970 
   64.6250   -18.2390    72.0650     8.5490     6.2480    10.4380     2.2020    23.4770 
   64.7500   -18.7920    67.6530     9.6070     7.0310    13.5100     2.2110    23.0070 
   64.8750   -19.3870    68.1750    10.4090     7.7210    11.5850     2.2090    22.7210 
   65.0000   -19.9810    70.9350    10.8660     8.2050     9.6190     2.1890    22.6570 
   65.1250   -20.5510    72.0680    11.0420     8.4660     8.8110     2.1700    22.7340 
   65.2500   -21.0630    69.9510    11.0560     8.5420     8.5610     2.1950    22.8860 
   65.3750   -21.4930    67.0300    11.0360     8.5280     8.7210     2.2710    22.9760 
   65.5000   -21.8280    66.0170    10.9880     8.4430     8.9520     2.3630    23.0450 
   65.6250   -22.0350    67.3630    10.8570     8.2700     8.8170     2.4080    23.1080 
   65.7500   -22.1600    68.8520    10.5640     7.9710     8.6110     2.3630    23.1940 
   65.8750   -22.2060    68.0260    10.1620     7.5930     8.7080     2.2790    23.1960 
   66.0000   -22.2220    64.6360     9.7420     7.1980     8.9370     2.2020    23.1170 
   66.1250   -22.1620    60.6760     9.4070     6.8520     9.2030     2.1550    23.0260 
   66.2500   -22.0690    59.8360     9.2600     6.6260     9.0950     2.1420    22.9930 
   66.3750   -21.9150    61.7440     9.2700     6.5140     8.9550     2.1470    22.9870 
   66.5000   -21.7320    63.7870     9.3540     6.4800     8.8520     2.1580    22.9740 
   66.6250   -21.5020    63.7480     9.3990     6.4640     8.7930     2.1720    22.9660 
   66.7500   -21.2450    62.4570     9.2820     6.3980     8.7770     2.1840    22.9760 
   66.8750   -20.9650    62.8940     8.9980     6.2620     8.7110     2.1930    22.9950 
   67.0000   -20.6550    65.0980     8.6160     6.0740     8.7970     2.1990    22.9750 
   67.1250   -20.3420    67.2670     8.3090     5.9110     8.8750     2.2060    22.9280 
   67.2500   -19.9980    68.2520     8.4040     5.9520     8.7260     2.2260    22.9510 
   67.3750   -19.6540    69.5080     9.0400     6.3100     8.4980     2.2550    23.0750 
   67.5000   -19.2790    71.3780    10.2140     7.0360     8.4470     2.2830    23.2900 
   67.6250   -18.8800    72.1030    11.6990     8.0480    10.1650     2.3020    23.5910 
   67.7500   -18.4780    71.7790    12.8640     8.9970    16.4130     2.3100    23.8400 
   67.8750   -18.0810    74.3930    13.0830     9.3920    24.9060     2.3120    24.0270 
   68.0000   -17.7200    78.8080    12.2020     9.0210    22.5620     2.3070    24.1500 
   68.1250   -17.4040    81.0370    10.6780     8.1100    10.7010     2.2900    24.0990 
   68.2500   -17.1820    82.3090     9.2790     7.1310     7.4540     2.2580    23.8340 
   68.3750   -17.0520    84.6310     8.4110     6.4140     6.6850     2.2240    23.5340 
   68.5000   -17.0460    85.1990     8.0980     6.0410     7.3110     2.2050    23.2400 
   68.6250   -17.1660    80.9020     8.1850     5.9710     7.8180     2.2070    22.9950 
   68.7500   -17.3530    75.6640     8.4480     6.1110     8.0630     2.2190    22.9480 
   68.8750   -17.6090    73.7610     8.6810     6.3060     8.0240     2.2190    23.0270 
   69.0000   -17.8740    74.0470     8.8430     6.4910     7.9550     2.2040    23.1330 
   69.1250   -18.1130    73.1500     8.9670     6.6520     7.8240     2.1800    23.2200 
   69.2500   -18.2420    69.8590     9.1200     6.8090     7.7720     2.1610    23.3240 
   69.3750   -18.2570    65.6930     9.2990     6.9670     7.7810     2.1540    23.3940 
   69.5000   -18.1340    62.9600     9.4150     7.0810     7.9070     2.1600    23.4390 
   69.6250   -17.8630    62.2530     9.3380     7.0710     7.9440     2.1750    23.5030 
   69.7500   -17.4860    64.5260     8.9360     6.8370     8.0590     2.1930    23.6130 
   69.8750   -16.9980    68.8420     8.3100     6.4200     7.8250     2.2060    23.7270 
   70.0000   -16.4290    74.0780     7.6110     5.9060     6.9670     2.2150    23.9440 
   70.1250   -15.8080    80.7580     6.9930     5.4060     5.6650     2.2240    24.3010 
   70.2500   -15.2310    87.5400     6.5900     5.0300     5.2590     2.2420    24.6450 
   70.3750   -14.7130    91.7960     6.3820     4.7910     5.2630     2.2610    24.7740 
   70.5000   -14.3080    91.5850     6.3580     4.6870     5.3720     2.2680    24.7780 
   70.6250   -14.0310    88.4890     6.5100     4.7190     5.4180     2.2570    24.7440 
   70.7500   -13.8950    87.3940     6.8350     4.8970     5.4330     2.2340    24.6940 
   70.8750   -13.9050    87.9960     7.2310     5.1620     5.5790     2.2160    24.6360 
   71.0000   -14.0680    87.9050     7.5710     5.4430     6.4340     2.2120    24.4510 
   71.1250   -14.3740    84.4210     7.7060     5.6370     7.9080     2.2170    24.0390 
   71.2500   -14.7350    78.6950     7.5250     5.6340     8.4080     2.2150    23.6040 
   71.3750   -15.1140    76.1190     7.2550     5.5330     7.1020     2.1990    23.4920 
   71.5000   -15.4870    76.7790     7.2700     5.5400     6.3010     2.1880    23.6770 
   71.6250   -15.8800    77.3130     8.0200     5.9240     5.8910     2.2100    23.8830 
   71.7500   -16.2610    73.5940    10.1800     7.1530     6.3590     2.2930    23.8760 
   71.8750   -16.6190    67.2830    13.7860     9.4210     8.2960     2.4160    23.8540 
   72.0000   -16.9370    60.9740    18.5050    12.7640    13.1940     2.5190    23.9340 
   72.1250   -17.2130    55.8110    23.0530    16.5490    23.9870     2.5390    24.0750 
   72.2500   -17.4700    53.8680    24.6020    18.7090    37.8580     2.4620    24.1400 
   72.3750   -17.7270    55.0480    22.6930    18.2410    31.6920     2.3630    23.9190 
   72.5000   -17.9790    56.5530    19.2010    16.1400    16.0940     2.3020    23.4490 
   72.6250   -18.2010    56.1070    16.4180    14.0700     9.0470     2.3250    22.9550 
   72.7500   -18.3830    54.3170    15.6200    13.1260     7.8860     2.4520    22.8180 
   72.8750   -18.5250    53.7620    16.2020    13.1590     8.8530     2.5810    23.0410 
   73.0000   -18.6410    53.1030    17.3620    13.7470    12.7170     2.6130    23.4050 
   73.1250   -18.7400    51.1090    18.0570    14.2010    24.4340     2.5330    23.7380 
   73.2500   -18.8260    50.3370    17.1850    13.6490    42.8020     2.3970    23.8020 
   73.3750   -18.8900    52.4760    15.2320    12.2850    37.8900     2.2720    23.6610 
