~V
VERS. 2.00: Ver 2.00
~W
STRT.M 50.0000:
STOP.M 236.0000:
STEP.M 0.1250:
NULL. -999.2500:
UWI. F10144:
~C
DEPT.M :
DEN.GM/CC :
GR.API :
RML.OHMM :
RI. :
RXO.OHMM :
CALI.CM :
SP.MV :
~A
# ...
   61.2500     2.4850    64.7400     0.6090     0.1480     2.3420    24.6430     0.9200 
   61.3750     2.4250    64.6730     1.1900     0.4070     4.4190    24.3770    -2.9740 
   61.5000     2.3630    61.9710     2.3070     0.9820     8.6960    24.4150    -6.7210 
   61.6250     2.3340    59.3750     4.4710     2.2780    20.4200    24.5830   -10.1660 
   61.7500     2.3650    58.1870     7.4470     4.3900    35.6320    24.6200   -13.2740 
   61.8750     2.4140    58.3100     9.7560     6.9430    37.1970    24.4860   -16.0230 
   62.0000     2.4270    58.9960    10.0540     9.0990    23.6370    24.2350   -18.4080 
   62.1250     2.3880    60.5160     9.2250    10.2340    12.5980    23.9860   -20.3910 
   62.2500     2.3400    64.5710     8.6760    10.6880     9.3290    23.8590   -22.0630 
   62.3750     2.3320    69.2470     8.6120    10.6920    11.2390    23.8250   -23.4530 
   62.5000     2.3650    71.2240     8.8220    10.3360    17.5440    23.7020   -24.6100 
   62.6250     2.3980    69.3270     8.8590     9.6020    18.8610    23.3130   -25.5550 
   62.7500     2.3720    66.7730     8.5100     8.6620    13.1970    22.8040   -26.3640 
   62.8750     2.2970    65.0170     7.9560     7.7150     9.7110    22.3860   -27.0490 
   63.0000     2.2120    64.7910     7.5250     6.9550     8.3250    22.1760   -27.6230 
   63.1250     2.1450    65.7700     7.4260     6.5480     8.0060    22.1340   -28.0960 
   63.2500     2.1110    66.2970     7.5730     6.4370     7.9470    22.1320   -28.5060 
   63.3750     2.0990    65.9470     7.8720     6.5280     8.0580    22.1320   -28.8760 
   63.5000     2.0960    66.3110     8.2210     6.7050     8.2530    22.1300   -29.2250 
   63.6250     2.0950    67.5460     8.5390     6.8670     8.2650    22.1320   -29.5710 
   63.7500     2.0950    68.6220     8.7560     6.9700     8.1880    22.1440   -29.9410 
   63.8750     2.0980    70.2990     8.8330     7.0070     7.9560    22.1630   -30.3410 
   64.0000     2.1060    70.5690     8.7850     6.9880     7.7440    22.1750   -30.7670 
   64.1250     2.1160    66.5950     8.6650     6.9230     7.7240    22.1850   -31.2080 
   64.2500     2.1160    62.6460     8.5320     6.8390     7.7920    22.1830   -31.6640 
   64.3750     2.1040    63.6080     8.4100     6.7490     7.9370    22.1220   -32.1380 
   64.5000     2.0880    67.4970     8.3150     6.6620     8.1880    21.9880   -32.6160 
   64.6250     2.0770    68.0740     8.2510     6.5840     8.5950    21.9560   -33.0650 
   64.7500     2.0840    65.7240     8.2050     6.5190     8.7790    22.1590   -33.4510 
   64.8750     2.1010    62.3630     8.1750     6.4710     8.4640    22.4840   -33.7340 
   65.0000     2.1140    60.3590     8.1670     6.4500     8.0020    22.7090   -33.8910 
   65.1250     2.1150    61.5820     8.2120     6.4780     7.7730    22.7450   -33.8870 
   65.2500     2.1000    63.5000     8.3220     6.5550     7.5880    22.7510   -33.7500 
   65.3750     2.0830    63.5000     8.4800     6.6760     7.5390    22.8220   -33.4950 
   65.5000     2.0710    61.6150     8.6300     6.8200     7.7080    22.9460   -33.1550 
   65.6250     2.0680    61.7110     8.6670     6.9310     8.0250    23.0610   -32.7700 
   65.7500     2.0740    64.5880     8.5430     6.9520     8.2670    23.1400   -32.3880 
   65.8750     2.0850    71.0230     8.2630     6.8420     8.3190    23.1990   -32.0460 
   66.0000     2.0970    80.6170     7.8730     6.5950     8.1220    23.2440   -31.7710 
   66.1250     2.1080    87.6960     7.4550     6.2430     7.5790    23.2590   -31.5920 
   66.2500     2.1190    89.8770     7.0970     5.8850     6.7920    23.2570   -31.5100 
   66.3750     2.1310    88.8110     6.8450     5.5930     6.2790    23.2520   -31.5440 
   66.5000     2.1480    87.1460     6.7170     5.4090     6.4790    23.2470   -31.7120 
   66.6250     2.1690    86.1270     6.7430     5.3700     6.6790    23.2530   -32.0260 
   66.7500     2.1900    83.9030     6.8890     5.4430     6.4780    23.2510   -32.4740 
   66.8750     2.2040    79.9840     7.1210     5.6040     5.9700    23.1990   -33.0330 
   67.0000     2.2080    74.7630     7.4030     5.8140     5.9440    23.0450   -33.6620 
   67.1250     2.1990    71.7780     7.7090     6.0430     6.5120    22.7640   -34.3270 
   67.2500     2.1750    70.5960     8.0220     6.2560     7.1020    22.4560   -34.9880 
   67.3750     2.1420    68.1200     8.3290     6.4350     7.5690    22.2190   -35.6140 
   67.5000     2.1070    64.5720     8.6070     6.5720     7.5450    22.0980   -36.1770 
   67.6250     2.0770    62.8050     8.7910     6.6450     7.1810    22.0700   -36.6220 
   67.7500     2.0570    63.1330     8.8350     6.6450     6.9590    22.0630   -36.9550 
   67.8750     2.0490    65.1120     8.7330     6.5650     6.8860    22.0600   -37.1910 
   68.0000     2.0510    66.9100     8.5290     6.4160     6.8990    22.0540   -37.3710 
   68.1250     2.0620    67.0920     8.2900     6.2280     6.9850    22.0640   -37.5140 
   68.2500     2.0720    66.9350     8.0880     6.0550     7.0240    22.1350   -37.6230 
   68.3750     2.0710    66.4520     7.9670     5.9360     6.9360    22.3000   -37.6870 
   68.5000     2.0540    64.6560     7.9450     5.8870     6.9510    22.5180   -37.6910 
   68.6250     2.0240    62.8220     8.0200     5.9100     7.4530    22.6730   -37.6100 
   68.7500     1.9950    63.2770     8.1360     5.9670     7.9320    22.7310   -37.4380 
   68.8750     1.9800    64.2970     8.2430     6.0260     8.1100    22.7510   -37.1580 
   69.0000     1.9830    63.3110     8.3010     6.0600     8.2080    22.8030   -36.7780 
   69.1250     1.9940    61.5680     8.2870     6.0500     8.3300    22.8870   -36.3140 
   69.2500     2.0030    62.0930     8.2330     6.0100     8.4020    22.9490   -35.8400 
   69.3750     2.0040    63.9070     8.1700     5.9560     8.3480    22.9700   -35.4090 
   69.5000     2.0000    64.9220     8.1230     5.9010     8.2110    22.9430   -35.0700 
   69.6250     1.9950    64.6550     8.1090     5.8630     8.1120    22.8670   -34.8670 
   69.7500     1.9920    64.4110     8.1260     5.8460     7.9950    22.7850   -34.7950 
   69.8750     1.9910    64.5110     8.1680     5.8490     7.8300    22.7400   -34.8490 
   70.0000     1.9940    64.8880     8.2240     5.8660     7.7190    22.7270   -35.0160 
   70.1250     2.0040    65.6120     8.2820     5.8900     7.8530    22.7010   -35.2970 
   70.2500     2.0200    66.0470     8.3340     5.9110     7.8570    22.6530   -35.6440 
   70.3750     2.0360    65.6740     8.3790     5.9280     7.8080    22.6070   -35.9990 
   70.5000     2.0460    66.6640     8.4250     5.9450     7.8790    22.5810   -36.3210 
   70.6250     2.0480    69.3790     8.4830     5.9660     8.0610    22.5780   -36.5650 
   70.7500     2.0410    71.1390     8.5590     5.9900     8.2280    22.5800   -36.7060 
   70.8750     2.0310    72.3880     8.6470     6.0060     8.2120    22.5740   -36.7420 
   71.0000     2.0260    73.9150     8.7070     5.9900     8.1700    22.5710   -36.6700 
   71.1250     2.0300    73.9890     8.6570     5.9020     8.2710    22.6640   -36.4920 
   71.2500     2.0450    71.9740     8.4780     5.7470     8.2120    22.8560   -36.2480 
   71.3750     2.0590    69.9590     8.2070     5.5580     8.0260    23.0450   -35.9800 
   71.5000     2.0660    70.8940     7.9420     5.3870     7.7120    23.1230   -35.7220 
   71.6250     2.0660    75.2420     7.8370     5.3060     7.3720    23.1500   -35.5190 
   71.7500     2.0720    78.4570     7.9450     5.3400     7.4360    23.3000   -35.3970 
   71.8750     2.0910    77.5410     8.2520     5.4920     7.9850    23.5530   -35.3530 
   72.0000     2.1160    75.2150     8.6780     5.7300     8.4080    23.7740   -35.3800 
   72.1250     2.1330    76.1430     9.0890     5.9990     8.4790    23.8490   -35.4570 
   72.2500     2.1290    76.6260     9.3700     6.2230     8.5220    23.8360   -35.5460 
   72.3750     2.1120    73.5320     9.4740     6.3560     8.6800    23.8040   -35.6070 
