~V
VERS. 2.00: Ver 2.00
~W
STRT.M 58.0000:
STOP.M 228.0000:
STEP.M 0.1250:
NULL. -999.2500:
UWI. F10151:
~C
DEPT.M :
SP.MV :
GR.API :
RML.OHMM :
RI. :
RXO.OHMM :
CALI.CM :
DEN.GM/CC :
~A
# ...
   91.7500   -24.1630    75.6660     8.4450     6.1490     8.4860    24.6010     2.2310 
   91.8750   -23.7740    75.5690     8.5760     6.2050     8.8080    24.6760     2.2290 
   92.0000   -23.8070    74.6550     8.8000     6.3370     9.4010    24.9910     2.2180 
   92.1250   -24.2780    71.1620     9.0380     6.5030    10.2500    25.5140     2.2040 
   92.2500   -25.1020    68.3530     9.2030     6.6400    10.6740    25.9160     2.1920 
   92.3750   -26.1660    68.0250     9.2680     6.7210    10.7760    26.0460     2.1870 
   92.5000   -27.3580    68.0010     9.2580     6.7560    11.0540    26.0450     2.1900 
   92.6250   -28.5530    66.9910     9.2410     6.7840    10.9580    26.1110     2.1980 
   92.7500   -29.5460    66.8570     9.2700     6.8430    10.7490    26.2650     2.2010 
   92.8750   -30.2510    66.6080     9.3500     6.9360    11.0780    26.4910     2.1930 
   93.0000   -30.5940    64.4390     9.4520     7.0460    12.0990    26.6840     2.1740 
   93.1250   -30.5650    63.1020     9.5310     7.1430    12.0220    26.6490     2.1530 
   93.2500   -30.1810    65.7930     9.5730     7.2140    11.5620    26.2100     2.1410 
   93.3750   -29.4600    71.2440     9.5890     7.2620    11.5630    25.1510     2.1410 
   93.5000   -28.3830    74.9950     9.6010     7.2990    11.3240    24.2090     2.1500 
   93.6250   -26.8470    75.1350     9.6140     7.3330    11.1560    23.7250     2.1600 
   93.7500   -24.9100    74.7160     9.5860     7.3490    10.9510    23.5450     2.1710 
   93.8750   -22.6460    75.0930     9.4560     7.3030    10.8240    23.4740     2.1900 
   94.0000   -20.1410    75.3140     9.1800     7.1480    10.3380    23.4700     2.2210 
   94.1250   -17.5030    76.2530     8.7560     6.8720     8.9770    23.5190     2.2570 
   94.2500   -14.9700    80.9970     8.2960     6.5520     7.5200    23.5960     2.2830 
   94.3750   -12.6240    90.0090     7.9000     6.2590     6.5310    23.6560     2.2930 
   94.5000   -10.4710    98.2480     7.6380     6.0460     6.1420    23.7030     2.2910 
   94.6250    -8.5110   103.4300     7.5280     5.9390     6.5940    23.8260     2.2890 
   94.7500    -6.8050   106.9750     7.4730     5.8840     7.1630    24.1040     2.2970 
   94.8750    -5.3920   106.7110     7.3900     5.8260     6.6630    24.4510     2.3110 
   95.0000    -4.3570   102.4200     7.2250     5.7260     6.0770    24.6820     2.3240 
   95.1250    -3.6710   101.8650     6.9680     5.5660     5.7700    24.7430     2.3260 
   95.2500    -3.1780   107.5250     6.6880     5.3740     5.7590    24.7500     2.3160 
   95.3750    -2.8140   113.2100     6.4710     5.2010     5.4920    24.7380     2.2990 
   95.5000    -2.5750   113.2540     6.4360     5.1350     5.3830    24.7050     2.2820 
   95.6250    -2.5750   108.4740     6.7750     5.3330     5.4940    24.6490     2.2800 
   95.7500    -2.7710   102.9420     7.4950     5.8390     5.7470    24.6200     2.2990 
   95.8750    -3.1340    99.3310     8.4920     6.6340     6.7630    24.5630     2.3390 
   96.0000    -3.5750    99.0570     9.4820     7.5600     9.2070    24.3960     2.3860 
   96.1250    -4.0320    99.5040     9.9620     8.1850    12.8960    24.1430     2.4150 
   96.2500    -4.3700    99.2380     9.7530     8.1970    11.2850    24.0370     2.4160 
   96.3750    -4.5540    99.9560     8.9740     7.6400     8.5550    24.1490     2.3920 
   96.5000    -4.6200   102.5860     7.9830     6.8450     6.4160    24.1970     2.3590 
   96.6250    -4.5910   106.6150     7.2290     6.1950     5.7150    24.1530     2.3340 
   96.7500    -4.4910   109.8880     6.8720     5.8350     5.7870    24.0720     2.3180 
   96.8750    -4.3590   110.8870     6.8800     5.7690     6.0500    24.0260     2.3080 
   97.0000    -4.2420   110.1540     7.1250     5.9250     6.1160    23.9890     2.2970 
   97.1250    -4.2290   105.7210     7.4680     6.1970     5.9770    23.8960     2.2820 
   97.2500    -4.3730    99.7840     7.7940     6.4690     6.0580    23.7630     2.2660 
   97.3750    -4.6420    96.1930     8.0500     6.6860     6.4560    23.6400     2.2510 
   97.5000    -4.9590    96.2720     8.1960     6.8040     6.8620    23.5660     2.2410 
   97.6250    -5.1740    97.9980     8.1700     6.7600     7.0950    23.5350     2.2430 
   97.7500    -5.3250    99.7610     7.9900     6.5710     7.2570    23.5500     2.2550 
   97.8750    -5.4030   102.1630     7.6920     6.2670     6.9710    23.6030     2.2720 
   98.0000    -5.4340   102.9700     7.3500     5.9100     6.3560    23.6520     2.2870 
   98.1250    -5.4080   101.1490     7.1010     5.6090     6.2290    23.6890     2.2970 
   98.2500    -5.3660    98.5390     7.0820     5.4740     6.1910    23.6870     2.3050 
   98.3750    -5.2960    93.6320     7.4450     5.6070     6.6330    23.6220     2.3190 
   98.5000    -5.1900    86.7980     8.3670     6.1180     7.7680    23.4560     2.3480 
   98.6250    -5.0920    81.4050    10.2060     7.2640    10.5510    23.3840     2.3960 
   98.7500    -5.0010    79.0040    12.9990     9.1590    15.6680    23.5660     2.4570 
   98.8750    -4.9580    77.8110    16.6450    11.9200    20.6860    23.9380     2.5200 
   99.0000    -4.9980    76.4070    20.5540    15.3470    23.6360    24.1440     2.5770 
   99.1250    -5.2280    75.4900    23.2330    18.3120    28.0320    24.1340     2.6070 
   99.2500    -5.6350    75.4070    23.6040    19.2890    34.6200    24.0730     2.5990 
   99.3750    -6.2970    76.2360    21.5230    17.7840    33.9670    24.0270     2.5460 
   99.5000    -7.2280    77.4860    17.9080    14.7630    22.8800    23.9550     2.4560 
   99.6250    -8.4600    80.0360    14.2760    11.7490    12.8860    23.8880     2.3510 
   99.7500    -9.8720    83.0080    11.6210     9.4960     9.5060    23.9210     2.2590 
   99.8750   -11.3980    83.8360    10.1170     8.0760     8.6940    24.1090     2.1950 
  100.0000   -12.9320    82.2500     9.5700     7.3660     8.7290    24.3560     2.1570 
  100.1250   -14.3690    79.4190     9.7010     7.2500     9.0690    24.5050     2.1400 
  100.2500   -15.6520    76.2200    10.0450     7.4170     9.7070    24.5550     2.1340 
  100.3750   -16.7240    73.6830    10.3650     7.6720    10.2190    24.5090     2.1360 
  100.5000   -17.6100    74.6150    10.5440     7.8820    10.1660    24.4430     2.1450 
  100.6250   -18.3470    78.6540    10.5600     7.9840     9.7780    24.4130     2.1570 
  100.7500   -19.0140    79.1980    10.5040     8.0140     9.7720    24.3890     2.1690 
  100.8750   -19.5940    75.7540    10.4330     8.0050    10.1170    24.2980     2.1790 
  101.0000   -20.1160    73.0680    10.3790     7.9830    10.3940    24.1210     2.1880 
  101.1250   -20.5470    74.9030    10.3490     7.9640    10.5210    24.0760     2.1940 
  101.2500   -20.9490    76.7370    10.3200     7.9480    10.6800    24.2600     2.1940 
  101.3750   -21.3030    76.5100    10.2690     7.9200    10.8720    24.4770     2.1860 
  101.5000   -21.6220    74.9900    10.1760     7.8690    11.1100    24.6020     2.1730 
  101.6250   -21.8880    74.0870    10.0320     7.7860    11.1400    24.6270     2.1620 
  101.7500   -22.1380    74.1810     9.8670     7.6900    10.8740    24.6270     2.1630 
  101.8750   -22.4210    74.9170     9.7290     7.6090    10.5810    24.6920     2.1760 
  102.0000   -22.7370    74.5660     9.6770     7.5850    10.1500    24.7950     2.1930 
  102.1250   -23.0540    71.9030     9.7890     7.6770    10.1410    24.9470     2.2000 
  102.2500   -23.1380    70.7300    10.0210     7.8710    10.6220    25.1990     2.1910 
  102.3750   -22.8800    71.8200    10.2610     8.0970    11.0350    25.4110     2.1650 
  102.5000   -22.1470    72.4650    10.3340     8.2170    11.2320    25.4540     2.1360 
  102.6250   -20.7500    71.6380    10.0180     8.0280    11.0900    25.5640     2.1230 
  102.7500   -18.7890    72.6750     9.3490     7.5360    10.0430    25.5760     2.1350 
  102.8750   -16.3760    79.7850     8.4700     6.8510     7.9960    25.5380     2.1720 
