~V
VERS. 2.00: Ver 2.00
~W
STRT.M 52.0000:
STOP.M 233.0000:
STEP.M 0.1250:
NULL. -999.2500:
UWI. F10175:
~C
DEPT.M :
GR.API :
RML.OHMM :
RI. :
RXO.OHMM :
CALI.CM :
DEN.GM/CC :
SP.MV :
~A
# ...
  187.0000    87.7500    10.9950     8.9940     9.6300    24.9780     2.3900    -7.9030 
  187.1250    81.3790    13.2350    10.7590    12.9650    24.9780     2.3690    -8.2150 
  187.2500    77.3930    15.8910    13.2830    18.9650    24.9760     2.3380    -8.3940 
  187.3750    77.3030    18.3380    16.1210    25.6550    24.9940     2.3050    -8.4330 
  187.5000    79.1040    19.8860    18.2950    30.2360    25.0020     2.2810    -8.3620 
  187.6250    78.4610    19.9780    18.6300    31.9040    25.0240     2.2740    -8.2490 
  187.7500    78.4010    19.2020    17.7230    27.6160    25.0190     2.2800    -8.0800 
  187.8750    80.1990    18.3140    16.6220    19.2690    25.0020     2.2870    -7.8780 
  188.0000    81.1980    17.9840    16.1620    15.3350    24.9490     2.2860    -7.7080 
  188.1250    78.6770    18.5710    16.7660    20.5320    24.8430     2.2730    -7.6600 
  188.2500    76.0530    19.6290    18.0190    29.1190    24.7530     2.2560    -7.7960 
  188.3750    76.3010    20.7070    19.4380    35.1180    24.7890     2.2450    -8.0580 
  188.5000    78.3400    21.5300    20.5640    37.0290    24.9180     2.2430    -8.4140 
  188.6250    77.4690    22.1820    21.2440    30.8150    24.9920     2.2470    -8.7660 
  188.7500    74.7230    23.0700    22.0030    23.0930    25.0040     2.2480    -9.1090 
  188.8750    72.7800    24.3620    23.3450    23.3750    25.0110     2.2400    -9.4280 
  189.0000    71.6430    25.7430    25.2880    34.4230    25.0470     2.2280    -9.6880 
  189.1250    69.6930    26.2500    26.7070    48.6720    25.0860     2.2230    -9.8860 
  189.2500    68.0880    25.3550    26.0620    45.4850    25.0810     2.2320   -10.0020 
  189.3750    70.3350    23.1250    22.9830    33.4220    25.0310     2.2590   -10.0600 
  189.5000    74.5010    20.1410    18.7250    23.1510    24.9600     2.2980   -10.0960 
  189.6250    76.3440    17.3290    15.1910    15.5030    24.9090     2.3350   -10.1690 
  189.7500    78.0280    15.5070    13.1040    11.4880    24.9040     2.3580   -10.2960 
  189.8750    82.2390    15.2120    12.5380    11.0290    24.9500     2.3600   -10.5020 
  190.0000    86.2610    16.6910    13.4790    13.9600    25.0390     2.3450   -10.7560 
  190.1250    85.1340    20.0840    16.2570    21.0940    25.1000     2.3230   -11.0740 
  190.2500    81.2930    24.6260    20.5760    29.1910    25.1140     2.3050   -11.3990 
  190.3750    76.2780    29.6180    25.9550    38.6480    25.1250     2.2950   -11.6950 
  190.5000    70.7660    34.2430    31.3090    48.7680    25.1230     2.2870   -11.9330 
  190.6250    68.0420    37.5980    35.0580    47.2090    25.0880     2.2750   -12.1140 
  190.7500    69.3860    39.6740    37.0230    44.5390    25.0640     2.2620   -12.2500 
  190.8750    71.3180    40.7750    37.7570    44.3870    25.0980     2.2500   -12.3040 
  191.0000    72.4540    41.3730    37.9760    45.5360    25.1500     2.2430   -12.3600 
  191.1250    73.6850    41.8670    38.1700    47.4820    25.1730     2.2390   -12.4300 
  191.2500    73.5490    42.4230    38.4760    47.1840    25.1740     2.2330   -12.5740 
  191.3750    71.6180    43.0240    38.8210    47.9120    25.1590     2.2270   -12.8630 
  191.5000    70.7830    43.6660    39.1530    51.3740    25.0920     2.2210   -13.3050 
  191.6250    72.5770    44.4940    39.6270    52.9120    24.9910     2.2180   -13.8340 
  191.7500    73.1780    45.7060    40.4990    48.5060    24.9150     2.2160   -14.3400 
  191.8750    71.1510    47.4890    42.0160    43.4110    24.8910     2.2130   -14.8220 
  192.0000    68.6320    49.8860    44.3150    43.1220    24.7950     2.2090   -15.1940 
  192.1250    67.3770    52.7120    47.3440    52.6000    24.6730     2.2040   -15.4110 
  192.2500    68.2100    55.3750    50.4740    59.5070    24.5710     2.1990   -15.5470 
  192.3750    69.6240    57.3080    53.0240    61.8630    24.5360     2.1980   -15.5950 
  192.5000    70.1760    58.0710    54.3410    60.7240    24.5560     2.2010   -15.6270 
  192.6250    68.4680    57.3820    53.8600    60.2570    24.6370     2.2070   -15.7070 
  192.7500    65.3810    55.8730    52.2540    59.2160    24.7320     2.2120   -15.8280 
  192.8750    63.8460    54.2090    50.3580    58.1290    24.8260     2.2160   -16.0460 
  193.0000    65.5970    53.0720    48.9800    55.8340    24.8980     2.2220   -16.3910 
  193.1250    67.4110    53.1740    48.8740    52.1160    24.9340     2.2370   -16.8180 
  193.2500    66.2740    54.4800    50.0730    51.6800    24.9300     2.2590   -17.1770 
  193.3750    64.4800    56.7390    52.4210    59.5590    24.9400     2.2750   -17.4390 
  193.5000    64.8740    59.4290    55.4090    72.6850    24.9870     2.2760   -17.4910 
  193.6250    64.9280    61.7660    58.1470    69.3770    25.0380     2.2550   -17.2210 
  193.7500    62.4580    63.2430    59.9180    66.9620    24.7820     2.2250   -16.7890 
  193.8750    60.5490    63.7350    60.4870    64.6310    24.5780     2.1980   -16.1870 
  194.0000    61.5990    63.4620    60.1100    62.9850    24.4720     2.1810   -15.5500 
  194.1250    65.5100    62.8310    59.3850    62.1250    24.4240     2.1750   -15.0290 
  194.2500    69.1720    62.2510    58.8550    62.0190    24.4090     2.1730   -14.6470 
  194.3750    69.5330    61.7990    58.5670    62.4700    24.4240     2.1740   -14.3970 
  194.5000    67.9270    61.3720    58.3380    62.1800    24.4490     2.1770   -14.2950 
  194.6250    67.9030    60.7660    57.8950    60.6390    24.4730     2.1840   -14.3750 
  194.7500    69.9890    59.9260    57.1470    57.7810    24.5090     2.1930   -14.6210 
  194.8750    72.1730    58.9230    56.1480    54.2060    24.5650     2.2010   -15.0560 
  195.0000    71.6810    57.9280    55.0900    49.8990    24.6020     2.2040   -15.5690 
  195.1250    67.3130    57.1930    54.2950    48.1070    24.7110     2.2010   -16.1480 
  195.2500    62.8140    56.7940    53.9120    48.4690    24.8330     2.1960   -16.8790 
  195.3750    61.4770    56.6760    53.9090    50.5160    24.9690     2.1960   -17.6880 
  195.5000    63.5930    56.6730    54.0860    53.3410    25.0930     2.2040   -18.5000 
  195.6250    63.9530    56.5550    54.1470    54.2210    25.0790     2.2190   -19.3020 
  195.7500    62.1760    56.2350    53.9510    55.3450    24.9990     2.2300   -20.0360 
  195.8750    61.4750    55.7680    53.5530    55.1310    25.0460     2.2330   -20.6490 
  196.0000    61.9880    55.2920    53.1380    52.6730    25.1640     2.2260   -21.1200 
  196.1250    61.6700    54.9620    52.9120    54.3980    25.2180     2.2110   -21.3140 
  196.2500    61.0270    54.7540    52.8540    56.0550    25.2170     2.1960   -21.1330 
  196.3750    63.3190    54.5310    52.8070    57.5400    25.2170     2.1850   -20.7000 
  196.5000    68.7010    54.1110    52.5260    60.5460    25.2200     2.1810   -20.1560 
  196.6250    71.6540    53.3150    51.7400    63.7630    25.2290     2.1850   -19.6030 
  196.7500    71.8750    52.2460    50.5670    65.9900    25.2210     2.1940   -19.1860 
  196.8750    71.7910    51.0920    49.2410    65.4060    25.2060     2.2050   -18.8850 
  197.0000    72.4420    50.1010    48.0370    60.6420    25.2010     2.2140   -18.6550 
  197.1250    70.9260    49.6230    47.2870    55.6860    25.2300     2.2210   -18.5180 
  197.2500    67.9130    49.8030    47.1690    55.5600    25.2660     2.2260   -18.5360 
  197.3750    67.4420    50.7370    47.8450    55.9160    25.2860     2.2300   -18.6940 
  197.5000    68.9400    52.3720    49.3570    51.9770    25.2670     2.2330   -18.9330 
  197.6250    68.2440    54.4490    51.5500    51.6760    25.2560     2.2350   -19.1810 
  197.7500    66.2880    56.3380    53.7020    58.2890    25.2460     2.2350   -19.2760 
  197.8750    65.6640    57.4760    55.0810    66.1240    25.2220     2.2330   -19.2890 
  198.0000    65.9900    57.4630    55.1220    64.9690    25.1470     2.2280   -19.2890 
  198.1250    65.5810    56.0560    53.5260    49.7840    25.1910     2.2230   -19.3220 
