~V
VERS. 2.00: Ver 2.00
~W
STRT.M 60.0000:
STOP.M 245.0000:
STEP.M 0.1250:
NULL. -999.2500:
UWI. F10162:
~C
DEPT.M :
SP.MV :
DEN.GM/CC :
GR.API :
RML.OHMM :
RI. :
RXO.OHMM :
CALI.CM :
~A
# ...
  105.0000   -16.1280     2.4340    72.4540    10.6720     9.4310    11.2000    24.7240 
  105.1250   -16.4250     2.3560    73.0010     9.6790     8.5590    10.4020    24.6050 
  105.2500   -16.7800     2.2930    70.7080     8.8040     7.7250     9.7280    24.4670 
  105.3750   -17.1160     2.2470    67.2490     8.1970     7.0800     9.4110    24.3460 
  105.5000   -17.4060     2.2140    66.5830     7.8790     6.6690     9.3290    24.2350 
  105.6250   -17.6890     2.1880    68.5500     7.7930     6.4950     9.3480    24.1360 
  105.7500   -17.9750     2.1650    69.2770     7.7840     6.4520     9.3850    24.0600 
  105.8750   -18.2410     2.1470    68.6780     7.7710     6.4690     9.4120    24.0350 
  106.0000   -18.3840     2.1340    66.9060     7.7250     6.4980     9.3880    24.0890 
  106.1250   -18.3690     2.1300    64.5190     7.6720     6.5330     9.3690    24.2760 
  106.2500   -18.3570     2.1330    64.1500     7.6630     6.5920     9.4000    24.4050 
  106.3750   -18.4300     2.1390    64.7350     7.7300     6.6920     9.4540    24.4520 
  106.5000   -18.4970     2.1450    63.6500     7.8730     6.8400     9.5040    24.4560 
  106.6250   -18.4150     2.1480    61.7900     8.0370     7.0170     9.5230    24.4560 
  106.7500   -18.0640     2.1480    62.1280     8.0970     7.1380     9.5370    24.4560 
  106.8750   -17.4340     2.1530    63.8210     7.9260     7.0800     9.5050    24.4620 
  107.0000   -16.6270     2.1670    64.6570     7.4380     6.7260     9.4060    24.4950 
  107.1250   -15.5360     2.1930    67.6870     6.6330     6.0310     9.2770    24.6660 
  107.2500   -14.0930     2.2240    74.7230     5.7450     5.2070     8.2360    24.9940 
  107.3750   -12.4440     2.2520    87.5120     4.9810     4.4510     6.1090    25.3670 
  107.5000   -10.8790     2.2700   103.5480     4.5040     3.9030     4.5250    25.6280 
  107.6250    -9.4760     2.2740   115.9120     4.4500     3.6760     4.2370    25.7020 
  107.7500    -8.3550     2.2690   117.8250     4.7460     3.7390     4.9870    25.6370 
  107.8750    -7.6680     2.2590   111.4180     5.3370     4.0850     6.4000    25.4690 
  108.0000    -7.3600     2.2480   104.3660     6.1430     4.6940     7.2760    25.3130 
  108.1250    -7.4780     2.2380   100.1170     7.0590     5.5340     7.6910    25.1810 
  108.2500    -7.9850     2.2280    95.8420     7.9180     6.4510     8.3500    25.0600 
  108.3750    -8.6970     2.2170    88.0960     8.5710     7.2880     9.6200    24.9540 
  108.5000    -9.2760     2.2110    77.2930     8.8760     7.8590    10.8030    24.8400 
  108.6250    -9.5970     2.2180    69.7090     8.6830     7.9240    10.8690    24.7650 
  108.7500    -9.6450     2.2380    70.5730     8.1230     7.5500    10.4870    24.7500 
  108.8750    -9.2840     2.2660    78.1830     7.3660     6.8900     9.9910    24.7770 
  109.0000    -8.5780     2.2890    87.2810     6.6150     6.1550     8.8130    24.8440 
  109.1250    -7.7190     2.2970    93.6860     6.0640     5.5470     6.5530    24.9970 
  109.2500    -6.7950     2.2940    98.6850     5.7280     5.1210     5.6380    25.1180 
  109.3750    -5.8100     2.2900   101.9820     5.5680     4.8650     5.4970    25.2590 
  109.5000    -4.8920     2.2900   103.3160     5.5300     4.7450     5.5400    25.4070 
  109.6250    -4.2520     2.2930   102.7380     5.5960     4.7500     5.5650    25.4460 
  109.7500    -3.8510     2.2910    99.7820     5.7470     4.8530     5.4940    25.4120 
  109.8750    -3.7040     2.2800    96.0750     5.9740     5.0510     5.5100    25.3230 
  110.0000    -3.8410     2.2590    93.1520     6.2350     5.3190     5.8030    25.1870 
  110.1250    -4.0590     2.2400    90.9250     6.4260     5.5810     6.4540    25.0070 
  110.2500    -4.1700     2.2320    89.7720     6.4580     5.7250     7.4090    24.8480 
  110.3750    -4.1970     2.2390    91.7960     6.3020     5.6770     7.6590    24.7420 
  110.5000    -4.1930     2.2590    97.2550     6.0070     5.4510     6.7760    24.6810 
  110.6250    -3.9470     2.2870   103.5460     5.7030     5.1490     5.8400    24.6870 
  110.7500    -3.5910     2.3150   108.4190     5.5180     4.9070     5.2350    24.8460 
  110.8750    -3.2650     2.3380   112.3490     5.5020     4.7950     5.0720    25.0360 
  111.0000    -2.9030     2.3520   113.9160     5.6350     4.8240     5.4470    25.1230 
  111.1250    -2.5350     2.3530   110.7300     5.8450     4.9560     5.9520    25.0250 
  111.2500    -2.2870     2.3460   102.9480     6.0270     5.0940     6.0060    24.9440 
  111.3750    -2.1590     2.3360    94.5940     6.1270     5.1770     5.8120    24.9180 
  111.5000    -2.0580     2.3300    92.5130     6.1290     5.1830     5.5830    24.8910 
  111.6250    -2.1340     2.3280    96.8660     6.0470     5.1150     5.3720    24.7320 
  111.7500    -2.2870     2.3260    98.7930     5.9750     5.0280     5.5030    24.4890 
  111.8750    -2.4950     2.3210    97.6650     6.0460     4.9950     5.7790    24.2160 
  112.0000    -2.8430     2.3200    97.1230     6.4420     5.1360     6.1840    24.0020 
  112.1250    -3.2690     2.3450    97.6950     7.4530     5.6860     6.6930    24.0290 
  112.2500    -3.7310     2.4050    95.5830     9.0740     6.7510     7.4230    24.2610 
  112.3750    -4.3330     2.4910    90.4560    11.1330     8.3700     9.7220    24.4680 
  112.5000    -5.0980     2.5710    83.2030    13.1470    10.3330    17.3900    24.4580 
  112.6250    -6.0180     2.5930    75.1760    14.2060    11.8580    24.0990    24.2750 
  112.7500    -7.0770     2.5460    70.1210    13.9320    12.1740    21.7560    24.0750 
  112.8750    -8.0920     2.4470    68.0530    12.4840    11.2080    14.1550    23.9810 
  113.0000    -8.9370     2.3360    67.8770    10.4820     9.5710    10.2440    24.2320 
  113.1250    -9.5940     2.2580    68.0900     8.6920     8.0130     9.2360    24.7030 
  113.2500    -9.9750     2.2240    68.9510     7.4400     6.8510     8.8650    24.9660 
  113.3750   -10.0660     2.2190    73.6990     6.7150     6.1010     8.0500    25.0700 
  113.5000    -9.9350     2.2260    84.1960     6.3770     5.6810     6.9080    25.1080 
  113.6250    -9.5320     2.2320    95.0320     6.2970     5.5160     6.8070    25.1270 
  113.7500    -8.9400     2.2360    97.7940     6.3200     5.4830     6.9160    25.0920 
  113.8750    -8.2330     2.2430    93.6150     6.3850     5.5340     6.8980    24.9410 
  114.0000    -7.4000     2.2540    89.2510     6.4570     5.6340     6.9830    24.7690 
  114.1250    -6.5680     2.2680    87.7470     6.5130     5.7430     6.8340    24.7650 
  114.2500    -5.9200     2.2790    87.2710     6.5410     5.8250     6.4790    24.8490 
  114.3750    -5.3610     2.2850    87.5790     6.5210     5.8520     6.1270    24.9160 
  114.5000    -4.8790     2.2910    87.7940     6.4270     5.8030     5.9780    24.8880 
  114.6250    -4.3900     2.3020    88.1080     6.2230     5.6420     6.0920    24.7310 
  114.7500    -3.7780     2.3200    91.4800     5.9380     5.3940     5.9130    24.5870 
  114.8750    -3.1550     2.3420    97.7120     5.6180     5.1020     5.4800    24.5720 
  115.0000    -2.6500     2.3590   103.6660     5.3280     4.8180     5.0180    24.7010 
  115.1250    -2.2010     2.3620   105.9840     5.1340     4.6040     4.9120    24.7760 
  115.2500    -1.8350     2.3530   107.5850     5.0320     4.4670     4.9790    24.7870 
  115.3750    -1.5790     2.3350   107.0760     5.0020     4.3920     5.1280    24.8020 
  115.5000    -1.3260     2.3150   101.3930     5.0320     4.3610     5.3940    24.8460 
  115.6250    -1.1630     2.3070    93.6460     5.1870     4.3990     5.5920    24.8530 
  115.7500    -1.1560     2.3220    89.4150     5.5490     4.5700     5.5810    24.7900 
  115.8750    -1.2690     2.3710    88.5050     6.1980     4.9620     5.3790    24.7550 
  116.0000    -1.5460     2.4510    86.7090     7.1240     5.6290     5.6030    24.7530 
  116.1250    -1.9850     2.5380    79.3380     8.1470     6.5280     7.4370    24.8260 
