~V
VERS. 2.00: Ver 2.00
~W
STRT.M 50.0000:
STOP.M 205.0000:
STEP.M 0.1250:
NULL. -999.2500:
UWI. F10148:
~C
DEPT.M :
GR.API :
RML.OHMM :
RI. :
RXO.OHMM :
CALI.CM :
SP.MV :
DEN.GM/CC :
~A
# ...
  173.7500    92.0210    18.0830    17.1440    20.7300    24.1170   -22.4760     2.2330 
  173.8750    91.6380    17.8450    17.0070    19.8900    24.1160   -22.5160     2.2480 
  174.0000    91.9040    17.0760    16.4680    15.8340    24.1730   -22.5370     2.2730 
  174.1250    90.2040    16.0140    15.6280    13.5900    24.1590   -22.5480     2.3040 
  174.2500    90.3760    15.1790    14.8870    13.1390    23.9900   -22.5460     2.3350 
  174.3750    94.5110    14.8670    14.5080    13.3930    23.8970   -22.5040     2.3610 
  174.5000    99.0510    15.1830    14.6190    14.0950    23.8800   -22.4640     2.3760 
  174.6250    98.0100    16.1430    15.2850    15.1880    23.8810   -22.4200     2.3750 
  174.7500    94.6350    17.4470    16.2780    17.1410    23.8920   -22.4000     2.3620 
  174.8750    92.1590    18.8830    17.3960    19.4100    23.9520   -22.3850     2.3460 
  175.0000    89.9300    20.3590    18.4850    20.7860    24.0120   -22.3970     2.3330 
  175.1250    86.9020    22.1330    19.6330    21.9640    24.0310   -22.4290     2.3290 
  175.2500    83.9960    24.7190    21.2230    22.2010    24.0520   -22.4580     2.3290 
  175.3750    83.4080    28.8450    23.8510    21.5040    23.9740   -22.5190     2.3260 
  175.5000    83.0960    35.2210    28.2670    23.8440    23.8350   -22.5800     2.3130 
  175.6250    77.4230    44.4660    35.4680    38.4070    23.7160   -22.6580     2.2860 
  175.7500    69.8040    55.0780    44.5850    70.3380    23.9120   -22.7300     2.2560 
  175.8750    65.0860    64.5640    53.6320    82.3800    24.0760   -22.7920     2.2310 
  176.0000    63.8410    70.0110    59.7990    61.3070    24.0510   -22.8250     2.2190 
  176.1250    65.1200    69.9640    60.9170    48.9370    24.0300   -22.8290     2.2260 
  176.2500    68.3690    68.1560    59.5370    44.1610    24.0230   -22.8400     2.2420 
  176.3750    72.9200    67.9980    58.6300    42.3130    24.0230   -22.8320     2.2530 
  176.5000    75.3350    71.7100    60.5420    45.7160    24.0240   -22.8190     2.2460 
  176.6250    72.2980    81.4130    67.5260    54.0790    24.0320   -22.7680     2.2060 
  176.7500    67.4240    97.4450    80.1330    61.4470    24.0480   -22.7180     2.1480 
  176.8750    63.3570   121.4900   100.1000    67.9390    23.9600   -22.6720     2.1010 
  177.0000    60.5410   155.9970   129.9660    85.6910    23.6810   -22.6170     2.0990 
  177.1250    56.1600   206.2390   174.7130   137.0950    23.5570   -22.5490     2.1780 
  177.2500    53.0910   270.0080   231.9150   221.7370    23.5020   -22.4740     2.3150 
  177.3750    53.6190   337.5550   293.4620   267.6530    23.4760   -22.4170     2.4730 
  177.5000    56.5780   384.3590   340.9570   239.0760    23.3960   -22.3610     2.6020 
  177.6250    58.0700   375.7930   346.4270   222.3160    23.2950   -22.3380     2.6620 
  177.7500    57.8850   325.9350   314.2250   250.3680    23.1880   -22.3370     2.6790 
  177.8750    56.9660   260.0530   260.8100   243.6530    23.1070   -22.3400     2.6780 
  178.0000    54.6950   197.9090   203.7800   179.4370    23.1850   -22.3670     2.6740 
  178.1250    52.1180   149.7020   155.2020   128.5750    23.4640   -22.4310     2.6710 
  178.2500    52.5390   112.7290   116.3190    97.1150    23.5370   -22.5230     2.6720 
  178.3750    56.1400    84.1220    85.9200    69.6710    23.5510   -22.6050     2.6760 
  178.5000    59.2810    61.5510    62.3080    54.7340    23.5520   -22.6730     2.6790 
  178.6250    58.2980    44.5080    44.9190    49.4290    23.5540   -22.7080     2.6710 
  178.7500    55.6560    31.7800    32.0850    42.4910    23.5680   -22.7150     2.6400 
  178.8750    52.4450    22.9790    23.2570    30.3070    23.6060   -22.7140     2.5860 
  179.0000    49.4360    17.3880    17.6410    21.7820    23.6170   -22.6970     2.5150 
  179.1250    49.3390    14.4270    14.5720    16.4040    23.5860   -22.6570     2.4460 
  179.2500    51.4160    12.9440    12.8950    14.9810    23.6130   -22.6000     2.3930 
  179.3750    53.3800    12.4470    12.1750    14.9310    23.5710   -22.5420     2.3580 
  179.5000    53.5340    12.4980    12.0700    14.9020    23.5270   -22.4960     2.3400 
  179.6250    52.7910    12.6370    12.2300    15.1150    23.5190   -22.4470     2.3320 
  179.7500    53.3460    12.5000    12.2520    15.1300    23.5450   -22.3920     2.3310 
  179.8750    55.0310    11.9700    11.9320    14.1880    23.5490   -22.3140     2.3350 
  180.0000    57.0360    11.1130    11.2460    12.8820    23.5370   -22.2270     2.3440 
  180.1250    56.8220    10.1010    10.3110    11.7120    23.6880   -22.1450     2.3580 
  180.2500    55.1960     9.1450     9.3740     9.9290    23.8470   -22.0500     2.3730 
  180.3750    54.6590     8.3660     8.5760     8.9420    23.8160   -21.9420     2.3880 
  180.5000    55.0240     7.8430     7.9880     8.6750    23.6560   -21.8310     2.4000 
  180.6250    54.2050     7.6590     7.6510     8.4880    23.5830   -21.7530     2.4060 
  180.7500    52.2680     7.7410     7.5050     8.2070    23.4620   -21.7120     2.4030 
  180.8750    52.0050     8.0110     7.5210     8.2690    23.3400   -21.7160     2.3870 
  181.0000    54.4980     8.3680     7.6620     8.4500    23.2680   -21.7580     2.3580 
  181.1250    55.9010     8.6930     7.8700     8.5290    23.2440   -21.8260     2.3220 
  181.2500    54.5460     8.9120     8.0430     9.0150    23.1980   -21.9190     2.2920 
  181.3750    51.8930     8.9940     8.1050     9.9290    23.1490   -22.0260     2.2780 
  181.5000    51.3000     8.9560     8.0280    10.6420    23.2360   -22.1540     2.2840 
  181.6250    51.8130     8.9000     7.8640     9.8240    23.5010   -22.3130     2.3100 
  181.7500    51.2480     8.9940     7.7650     8.9280    23.5480   -22.4750     2.3380 
  181.8750    50.3940     9.3840     7.8500     8.9640    23.5660   -22.6320     2.3590 
  182.0000    48.9580    10.1580     8.2070    10.2980    23.6050   -22.7710     2.3650 
  182.1250    46.8940    11.3460     8.9090    12.4270    23.7630   -22.8950     2.3590 
  182.2500    43.9990    12.3180     9.8200    13.7050    23.7870   -23.0120     2.3500 
  182.3750    42.7680    12.6960    10.7470    14.3590    23.7930   -23.1250     2.3460 
  182.5000    44.7300    13.1840    11.4450    14.9350    23.7930   -23.2050     2.3500 
  182.6250    48.6560    13.1450    11.6540    15.6700    23.7930   -23.2080     2.3580 
  182.7500    50.6900    12.6790    11.4400    15.9660    23.7920   -23.1680     2.3610 
  182.8750    48.7910    12.0090    10.9410    14.9010    23.7850   -23.0830     2.3540 
  183.0000    46.8060    11.3610    10.3550    12.9210    23.7600   -22.9480     2.3350 
  183.1250    49.3200    10.9920     9.9220    11.9640    23.6630   -22.7640     2.3110 
  183.2500    52.4420    11.0010     9.7700    11.9900    23.7090   -22.5490     2.2970 
  183.3750    52.0570    11.3910     9.9450    12.0510    23.7940   -22.2830     2.2990 
  183.5000    46.8370    11.9980    10.3800    12.3890    23.6800   -21.9540     2.3190 
  183.6250    42.2570    12.3950    10.8180    13.5760    23.5880   -21.5750     2.3410 
  183.7500    42.5140    12.1990    10.9050    15.1550    23.6030   -21.1510     2.3410 
  183.8750    45.0500    11.3020    10.4460    14.0840    23.6730   -20.6810     2.3070 
  184.0000    45.6140     9.9470     9.5140    10.2640    23.7260   -20.1960     2.2470 
  184.1250    45.0890     8.7900     8.3940     8.0730    23.6470   -19.7110     2.1850 
  184.2500    45.7280     8.1670     7.4010     7.0570    23.7050   -19.2290     2.1430 
  184.3750    45.7800     7.3630     6.6500     6.6480    23.3960   -18.7740     2.1270 
  184.5000    45.7270     6.8750     6.1380     6.9690    23.0910   -18.3590     2.1310 
  184.6250    48.0720     6.5320     5.8320     7.4730    23.4840   -17.9940     2.1420 
  184.7500    50.7660     6.3230     5.6460     6.8850    23.0280   -17.6660     2.1490 
  184.8750    53.9590     6.2220     5.5550     5.9180    22.6690   -17.3840     2.1530 
