~V
VERS. 2.00: Ver 2.00
~W
STRT.M 52.0000:
STOP.M 224.0000:
STEP.M 0.1250:
NULL. -999.2500:
UWI. F10155:
~C
DEPT.M :
SP.MV :
GR.API :
RML.OHMM :
RI. :
RXO.OHMM :
CALI.CM :
DEN.GM/CC :
~A
# ...
  153.2500   -29.1950    80.8720   277.5100   253.8210   194.5380    24.0460     2.3390 
  153.3750   -28.8620    83.1620   279.2650   259.3630   161.8530    24.2490     2.3410 
  153.5000   -28.5590    80.2180   283.9240   267.3140   142.0200    24.4040     2.3110 
  153.6250   -28.2590    72.7180   286.9770   270.7410   151.0150    24.6300     2.2710 
  153.7500   -27.9140    65.4640   283.7130   264.3630   180.9140    24.8090     2.2420 
  153.8750   -27.4780    63.4540   271.0030   246.6650   215.2890    24.8770     2.2360 
  154.0000   -26.9140    66.0380   248.1390   220.8160   198.6390    24.9150     2.2510 
  154.1250   -26.3080    65.8730   221.1950   195.0520   169.0870    24.9340     2.2680 
  154.2500   -25.6860    62.9220   195.2730   174.0020   153.4260    24.9960     2.2770 
  154.3750   -24.9990    61.0930   174.2440   159.5940   175.6040    25.0090     2.2770 
  154.5000   -24.2740    63.2750   161.0080   152.9220   161.5720    24.9770     2.2750 
  154.6250   -23.6050    67.8750   153.8900   151.5740   146.9060    24.9050     2.2780 
  154.7500   -23.0150    70.9370   150.8230   152.7520   152.7570    24.8270     2.2870 
  154.8750   -22.5470    70.9760   148.7430   152.0940   159.3190    24.7810     2.2980 
  155.0000   -22.2780    69.2890   143.5650   144.1420   167.3840    24.7980     2.3050 
  155.1250   -22.0990    69.3280   133.5950   129.3480   180.1630    24.8860     2.3040 
  155.2500   -21.9790    71.6960   119.2170   111.1550   161.4380    24.9860     2.2970 
  155.3750   -21.9600    72.3950   102.7060    94.2230    91.1250    25.0480     2.2880 
  155.5000   -21.9460    69.6530    88.1590    82.8650    42.7680    25.0620     2.2810 
  155.6250   -21.8580    64.5580    78.6220    77.0670    42.1130    25.0410     2.2780 
  155.7500   -21.7560    60.0730    75.1900    76.1380    61.0650    25.0140     2.2770 
  155.8750   -21.6240    59.8880    77.0470    79.2430    87.1660    25.0090     2.2740 
  156.0000   -21.4380    64.8550    82.5230    85.8950   110.6360    25.0930     2.2640 
  156.1250   -21.2880    69.4080    88.8450    93.9800   128.5560    25.2850     2.2480 
  156.2500   -21.1830    70.0740    94.2230   101.3060   131.3740    25.4730     2.2300 
  156.3750   -21.0640    66.8780    97.0410   105.4120   133.0130    25.6020     2.2140 
  156.5000   -20.9650    63.6100    95.6730   103.6320   145.6260    25.6210     2.2080 
  156.6250   -20.9160    65.0960    91.1380    97.2420   109.6630    25.5950     2.2140 
  156.7500   -20.9010    71.3880    84.9650    88.6280    63.1170    25.5390     2.2270 
  156.8750   -20.8990    77.3700    79.0550    80.5970    56.3560    25.5050     2.2420 
  157.0000   -20.8990    76.0750    75.4390    75.6020    61.0290    25.5410     2.2520 
  157.1250   -20.8500    71.8600    74.5610    73.8120    68.9290    25.5780     2.2570 
  157.2500   -20.7460    71.0570    76.3530    75.0000    75.6700    25.5960     2.2590 
  157.3750   -20.5760    72.5620    80.3570    78.6410    79.5260    25.6010     2.2590 
  157.5000   -20.3870    71.1250    86.1200    84.2250    86.5020    25.6120     2.2560 
  157.6250   -20.2500    67.0740    92.7080    90.6820    98.1880    25.6340     2.2520 
  157.7500   -20.1480    64.5350    99.5670    97.4770   106.6650    25.6570     2.2470 
  157.8750   -20.0490    66.2440   106.0690   104.1530   112.9430    25.6680     2.2420 
  158.0000   -19.9610    69.6570   110.9540   109.6490   118.7650    25.6600     2.2400 
  158.1250   -19.8910    72.2510   113.2000   112.5820   129.5370    25.6410     2.2400 
  158.2500   -19.8490    72.9130   111.9640   111.5380   137.9690    25.6190     2.2430 
  158.3750   -19.8640    71.5710   107.1730   106.1130   121.4470    25.6020     2.2490 
  158.5000   -19.9020    70.8370    99.5510    97.2930    85.9580    25.5910     2.2570 
  158.6250   -19.9070    71.3780    91.3750    88.0610    62.3750    25.5900     2.2630 
  158.7500   -19.8820    73.3270    84.1870    80.2760    57.9170    25.6010     2.2660 
  158.8750   -19.8910    75.7470    78.9390    74.9070    66.0460    25.6090     2.2640 
  159.0000   -19.9350    75.9360    76.2160    72.3970    70.2240    25.6090     2.2590 
  159.1250   -19.9960    74.3330    75.3140    71.7950    66.0320    25.6090     2.2550 
  159.2500   -20.0470    71.9470    75.7530    72.5690    61.6770    25.6090     2.2530 
  159.3750   -20.0690    69.9660    77.0520    74.2920    62.1910    25.6090     2.2550 
  159.5000   -20.0730    69.2930    78.7320    76.5500    64.5750    25.6070     2.2560 
  159.6250   -20.0720    69.7550    80.1600    78.6330    69.4480    25.5900     2.2470 
  159.7500   -20.1200    69.9470    80.7990    79.8990    76.8720    25.5260     2.2240 
  159.8750   -20.2140    69.7960    80.2040    79.7470    75.7400    25.3850     2.1890 
  160.0000   -20.3040    71.5490    77.9910    77.5290    62.1470    25.0860     2.1560 
  160.1250   -20.3950    75.2400    74.7530    73.8500    52.4500    24.6270     2.1420 
  160.2500   -20.5000    79.4320    71.2160    69.5750    52.5240    24.0560     2.1560 
  160.3750   -20.6490    83.4240    68.2510    65.7580    55.0480    23.4400     2.1910 
  160.5000   -20.8230    84.5750    66.9260    63.6150    49.4830    22.9880     2.2280 
  160.6250   -21.0010    80.8050    67.4510    63.3890    47.1620    22.8100     2.2440 
  160.7500   -21.1350    75.7020    69.8400    65.0570    56.1210    23.0150     2.2310 
  160.8750   -21.2160    73.2760    73.8580    68.3300    75.6030    23.5870     2.1990 
  161.0000   -21.2680    72.9070    79.3230    72.9500    93.6460    24.2860     2.1680 
  161.1250   -21.2950    72.1520    85.7010    78.3220    80.0900    24.9560     2.1510 
  161.2500   -21.3110    72.4640    92.8560    84.2600    67.8610    25.3690     2.1510 
  161.3750   -21.3340    75.3140   100.7400    90.7890    89.7350    25.5240     2.1600 
  161.5000   -21.3490    77.5760   109.2220    98.0770   111.9510    25.5580     2.1710 
  161.6250   -21.3610    74.9560   117.4880   105.6080   120.0020    25.6250     2.1820 
  161.7500   -21.4170    68.2540   124.3650   112.2760   114.5500    25.7290     2.1920 
  161.8750   -21.5390    63.5820   128.5440   116.4620   111.4660    25.8240     2.2040 
  162.0000   -21.6920    66.9670   128.6060   116.2600   105.0020    25.7200     2.2140 
  162.1250   -21.8710    72.7350   125.5370   112.7550    95.0140    25.5830     2.2210 
  162.2500   -22.0360    75.2750   120.5980   107.5900    86.7730    25.5370     2.2240 
  162.3750   -22.1320    75.4510   115.2540   102.4170    81.8920    25.5130     2.2240 
  162.5000   -22.1830    76.7410   110.8300    98.4900    81.6230    25.5390     2.2210 
  162.6250   -22.1980    76.5350   107.6300    95.9740    81.8420    25.5440     2.2190 
  162.7500   -22.1730    73.1930   105.4600    94.6740    81.9500    25.5590     2.2170 
  162.8750   -22.0720    68.9680   103.8140    94.0370    81.1040    25.5820     2.2160 
  163.0000   -21.9110    66.5130   101.9380    93.2320    78.9450    25.5760     2.2190 
  163.1250   -21.7160    65.8730    99.2060    91.6060    76.0420    25.5540     2.2220 
  163.2500   -21.5070    67.3950    95.2340    88.7290    73.4290    25.5330     2.2260 
  163.3750   -21.3080    70.9370    89.9260    84.3390    67.3260    25.4970     2.2270 
  163.5000   -21.1070    72.7290    83.4800    78.4300    62.3860    25.4280     2.2260 
  163.6250   -20.9250    72.3570    76.8620    72.0440    59.2100    25.3790     2.2250 
  163.7500   -20.7440    71.9120    70.9940    66.1660    49.8660    25.3280     2.2280 
  163.8750   -20.5960    72.8070    66.7710    61.7230    41.3690    25.2400     2.2350 
  164.0000   -20.4480    76.5010    65.3610    59.8960    41.3100    25.1370     2.2410 
  164.1250   -20.2760    79.0380    66.7460    60.7380    50.0850    25.0340     2.2440 
  164.2500   -20.1440    76.4870    70.8720    64.2820    56.8790    25.0020     2.2410 
  164.3750   -20.0360    70.0860    77.2710    70.2800    64.9300    25.0690     2.2350 
