~V
VERS. 2.00: Ver 2.00
~W
STRT.M 50.0000:
STOP.M 251.0000:
STEP.M 0.1250:
NULL. -999.2500:
UWI. F10193:
~C
DEPT.M :
DEN.GM/CC :
GR.API :
RML.OHMM :
RI. :
RXO.OHMM :
CALI.CM :
SP.MV :
~A
# ...
   61.2500     2.1820    43.1910     4.0280     2.1860     1.2460    25.6010    90.0070 
   61.3750     2.1760    42.4340     3.9620     2.1820     1.2550    25.5950    90.4060 
   61.5000     2.1540    41.7500     3.9360     2.1810     1.2540    25.5850    90.8480 
   61.6250     2.1230    41.9970     3.9270     2.1840     1.2590    25.5780    91.2710 
   61.7500     2.0930    43.0420     3.8830     2.1870     1.2740    25.5730    91.6070 
   61.8750     2.0730    44.0230     3.7940     2.1860     1.3310    25.5710    91.7900 
   62.0000     2.0630    44.3250     3.6780     2.1790     1.3700    25.5700    91.7660 
   62.1250     2.0630    44.0350     3.5790     2.1640     1.3900    25.5700    91.4590 
   62.2500     2.0680    42.5510     3.5470     2.1410     1.3820    25.5710    90.8870 
   62.3750     2.0770    40.5280     3.6030     2.1080     1.4200    25.6060    90.0230 
   62.5000     2.0860    40.6660     3.7170     2.0580     1.4870    25.9090    88.8260 
   62.6250     2.0890    45.3900     3.7830     1.9770     1.5280    26.3910    87.1490 
   62.7500     2.0860    51.5170     3.6730     1.8490     1.6030    26.7970    84.9520 
   62.8750     2.0760    53.9030     3.2620     1.6270     1.7430    27.0530    82.1300 
   63.0000     2.0720    51.8060     2.4910     1.2580     2.0070    27.2480    78.5890 
   63.1250     2.1320    50.5930     1.5840     0.8030     2.3620    27.4750    74.1220 
   63.2500     2.2870    52.4640     0.8960     0.4360     2.6580    27.6500    68.8180 
   63.3750     2.4820    53.6450     0.4990     0.2100     2.5900    27.6520    62.6560 
   63.5000     2.5730    51.2120     0.3330     0.1020     1.9140    27.4520    55.6300 
   63.6250     2.4890    50.7440     0.3620     0.0990     1.7940    27.0640    47.6600 
   63.7500     2.3110    57.2090     0.5580     0.2020     2.4030    26.5780    39.1030 
   63.8750     2.1070    66.8820     0.9710     0.4750     3.8880    26.1020    30.3900 
   64.0000     1.9300    72.7430     1.6770     1.0200     5.0300    25.7430    22.1520 
   64.1250     1.8330    74.3440     2.7170     1.9810     4.8510    25.4430    15.3370 
   64.2500     1.8290    79.5790     3.7740     3.1760     4.5420    25.1840    10.1760 
   64.3750     1.9130    88.8110     4.5420     4.3110     5.1900    25.4280     6.5850 
   64.5000     2.0380    95.3580     5.0160     5.2050     6.2520    25.5270     4.1330 
   64.6250     2.1360    94.5640     5.4100     5.8800     6.9710    25.5000     2.2920 
   64.7500     2.1860    90.2480     5.8270     6.4500     7.8360    25.4390     0.5490 
   64.8750     2.2100    86.2650     6.1730     6.8760     9.7270    25.3370    -1.2030 
   65.0000     2.2290    85.8920     6.3390     7.0890    11.4860    25.2700    -2.9130 
   65.1250     2.2420    89.9490     6.3400     7.1070     9.1600    25.2670    -4.4590 
   65.2500     2.2470    93.7010     6.3980     7.1440     7.7360    25.3380    -5.8340 
   65.3750     2.2470    93.7830     6.7160     7.3930     6.8090    25.4540    -7.0830 
   65.5000     2.2520    91.1620     7.4210     7.9880     6.7950    25.5590    -8.2910 
   65.6250     2.2630    85.9150     8.5610     8.9860     8.1130    25.4230    -9.5530 
   65.7500     2.2670    78.2780     9.7880    10.0820     9.8670    25.3210   -10.8900 
   65.8750     2.2530    71.3010    10.5980    10.8530    10.6340    25.2720   -12.2560 
   66.0000     2.2210    68.7300    10.5660    10.9250    10.1890    25.2500   -13.5750 
   66.1250     2.1870    70.7830     9.7150    10.2250     9.6320    25.2300   -14.7440 
   66.2500     2.1680    72.4240     8.7440     9.3000     9.2170    25.2250   -15.7380 
   66.3750     2.1660    72.5440     8.0470     8.5290     8.7130    25.2280   -16.5570 
   66.5000     2.1740    72.2640     7.7490     8.0960     8.4290    25.2450   -17.2320 
   66.6250     2.1760    72.0980     7.8180     8.0320     8.4610    25.2600   -17.8060 
   66.7500     2.1690    71.2590     8.0250     8.1430     8.4880    25.2620   -18.3550 
   66.8750     2.1570    70.4050     8.2160     8.2870     8.4730    25.2340   -18.9090 
   67.0000     2.1440    71.0800     8.2990     8.3610     8.6990    25.2010   -19.4670 
   67.1250     2.1340    74.5360     8.2520     8.3120     9.0020    25.1870   -20.0100 
   67.2500     2.1250    77.9800     8.1640     8.2030     8.9680    25.1850   -20.5260 
   67.3750     2.1180    77.7350     8.0990     8.0960     9.1560    25.1860   -21.0110 
   67.5000     2.1120    72.7000     8.0870     8.0330     9.4170    25.1850   -21.4420 
   67.6250     2.1120    68.2500     8.1150     8.0200     9.7210    25.1860   -21.7530 
   67.7500     2.1180    68.5180     8.1360     8.0120     9.9710    25.1880   -21.9080 
   67.8750     2.1270    71.6300     8.1260     7.9720     9.8410    25.1880   -21.8860 
   68.0000     2.1400    75.7020     8.0950     7.8910     8.9450    25.1880   -21.7050 
   68.1250     2.1520    79.7160     8.0790     7.7900     8.4650    25.1000   -21.4040 
   68.2500     2.1610    81.6240     8.1170     7.7150     8.3530    25.0680   -21.0710 
   68.3750     2.1660    80.5320     8.2250     7.6960     8.3080    25.0720   -20.7630 
   68.5000     2.1680    77.4330     8.4040     7.7430     8.3220    25.1120   -20.5300 
   68.6250     2.1680    74.6410     8.6280     7.8520     8.7390    25.1640   -20.4150 
   68.7500     2.1660    74.1330     8.8410     7.9780     9.0010    25.1960   -20.3860 
   68.8750     2.1600    75.4700     9.0000     8.0790     9.0570    25.2010   -20.3960 
   69.0000     2.1500    75.6320     9.0740     8.1230     9.1760    25.1950   -20.3950 
   69.1250     2.1390    73.2780     9.0550     8.0860     9.3800    25.2200   -20.3470 
   69.2500     2.1350    71.6110     8.9980     8.0000     9.3270    25.2960   -20.2740 
   69.3750     2.1390    72.6620     8.9490     7.9000     9.1090    25.3980   -20.2020 
   69.5000     2.1480    74.9080     8.9400     7.8170     8.8090    25.4400   -20.1490 
   69.6250     2.1580    76.7960     8.9930     7.7830     8.7100    25.3400   -20.1150 
   69.7500     2.1660    77.4210     9.0930     7.7950     8.5980    25.1850   -20.0900 
   69.8750     2.1710    78.6680     9.2300     7.8480     8.6340    25.1020   -20.0770 
   70.0000     2.1740    81.2490     9.3980     7.9310     8.8550    25.1500   -20.0910 
   70.1250     2.1790    81.4550     9.5720     8.0290     9.2590    25.2580   -20.1490 
   70.2500     2.1840    77.7800     9.7130     8.1170     9.5990    25.3300   -20.2410 
   70.3750     2.1860    73.2630     9.7880     8.1690     9.9010    25.3740   -20.3410 
   70.5000     2.1830    70.7940     9.7880     8.1660    10.0720    25.4210   -20.4240 
   70.6250     2.1750    71.0230     9.7220     8.0880     9.7580    25.4610   -20.4510 
   70.7500     2.1690    72.8480     9.6320     7.9550     9.3900    25.4650   -20.4190 
   70.8750     2.1700    76.3660     9.5410     7.7920     9.2130    25.4310   -20.3330 
   71.0000     2.1810    79.9710     9.4570     7.6290     9.1180    25.3780   -20.2220 
   71.1250     2.1940    82.0840     9.3850     7.4900     8.5120    25.3410   -20.1330 
   71.2500     2.2010    83.1750     9.3100     7.3690     8.1940    25.3270   -20.0910 
   71.3750     2.2050    82.9490     9.2150     7.2480     8.2190    25.3480   -20.0960 
   71.5000     2.2130    82.3420     9.0790     7.1090     8.2690    25.4220   -20.1410 
   71.6250     2.2360    82.7640     8.8960     6.9450     7.9100    25.5310   -20.2410 
   71.7500     2.2650    85.8840     8.7280     6.7910     7.3770    25.6080   -20.4240 
   71.8750     2.2880    90.6040     8.6590     6.7010     7.1710    25.6410   -20.7360 
   72.0000     2.2920    92.3100     8.7720     6.7260     7.4710    25.6650   -21.2190 
   72.1250     2.2700    87.4290     9.1260     6.9190     8.0920    25.7200   -21.9100 
   72.2500     2.2360    79.7060     9.6130     7.2200     8.6910    25.7910   -22.7350 
   72.3750     2.1990    72.9720    10.0990     7.5480     8.5030    25.8470   -23.6340 
