~V
VERS. 2.00: Ver 2.00
~W
STRT.M 55.0000:
STOP.M 242.0000:
STEP.M 0.1250:
NULL. -999.2500:
UWI. F10187:
~C
DEPT.M :
GR.API :
RML.OHMM :
RI. :
RXO.OHMM :
CALI.CM :
DEN.GM/CC :
SP.MV :
~A
# ...
  100.0000    64.1220     8.0190     7.0950     8.4910    24.4970     2.1540   -27.6610 
  100.1250    66.3900     8.0030     7.0760     8.6190    24.4810     2.1470   -27.4010 
  100.2500    66.2690     8.0000     7.0570     8.7660    24.5180     2.1330   -27.0870 
  100.3750    65.1580     8.0140     7.0440     8.7670    24.6530     2.1220   -26.6070 
  100.5000    64.7690     8.0690     7.0610     8.6030    24.7540     2.1200   -26.0630 
  100.6250    65.5530     8.2120     7.1520     8.4500    24.7260     2.1330   -25.4970 
  100.7500    65.8760     8.4350     7.3200     8.3690    24.6290     2.1530   -24.7670 
  100.8750    67.6550     8.6900     7.5390     8.4090    24.4290     2.1720   -23.9870 
  101.0000    70.2790     8.8940     7.7530     8.5140    24.0030     2.1810   -23.2360 
  101.1250    70.2580     8.9440     7.8730     8.4280    23.4100     2.1760   -22.4610 
  101.2500    69.3700     8.8420     7.8660     8.0730    23.0110     2.1640   -21.7790 
  101.3750    70.0940     8.6320     7.7470     7.7580    22.8550     2.1540   -21.3350 
  101.5000    71.5300     8.3870     7.5700     7.4760    22.7890     2.1520   -21.0140 
  101.6250    71.7630     8.1870     7.4050     7.3790    22.7520     2.1550   -20.7370 
  101.7500    71.9630     8.0560     7.2930     7.3880    22.7740     2.1580   -20.6280 
  101.8750    72.6040     7.9840     7.2360     7.5910    22.8130     2.1580   -20.6500 
  102.0000    71.7820     7.9390     7.2150     7.9340    22.8130     2.1580   -20.6650 
  102.1250    70.1170     7.8670     7.1840     8.1780    22.7520     2.1660   -20.5990 
  102.2500    69.4370     7.7400     7.1080     8.4290    22.6630     2.1850   -20.4300 
  102.3750    69.9800     7.5590     6.9720     8.5730    22.6100     2.2100   -20.1090 
  102.5000    72.6930     7.3480     6.7870     8.4020    22.6510     2.2340   -19.6580 
  102.6250    77.3880     7.1530     6.5850     7.7230    22.9280     2.2470   -19.2200 
  102.7500    80.9110     7.0210     6.4180     7.1120    23.2960     2.2500   -18.8590 
  102.8750    82.0530     6.9820     6.3260     6.9110    23.5950     2.2450   -18.5530 
  103.0000    79.6840     7.0540     6.3320     7.3270    23.6600     2.2390   -18.4090 
  103.1250    73.0380     7.2340     6.4500     7.6690    23.5100     2.2360   -18.5840 
  103.2500    67.9530     7.4600     6.6270     7.9170    23.2420     2.2340   -18.9630 
  103.3750    67.0690     7.6750     6.8140     8.2440    23.2520     2.2280   -19.4980 
  103.5000    67.6100     7.8480     6.9600     8.7210    23.6270     2.2150   -20.2690 
  103.6250    67.9810     8.0020     7.0470     8.9590    23.8460     2.1960   -21.1350 
  103.7500    70.6310     8.2230     7.1410     9.1260    23.8530     2.1770   -21.8630 
  103.8750    73.1600     8.5950     7.3260     9.1580    23.9200     2.1660   -22.5210 
  104.0000    71.1160     9.1660     7.6660     9.0280    24.1370     2.1720   -23.0750 
  104.1250    66.6480     9.9650     8.2150     8.9620    24.3670     2.2080   -23.2980 
  104.2500    65.9330    10.9310     8.9270     9.2530    24.4050     2.2670   -23.2800 
  104.3750    68.1780    12.0790     9.7990     9.4730    24.2780     2.3320   -23.0350 
  104.5000    70.7040    13.5060    10.8800     9.5100    24.1200     2.3840   -22.4570 
  104.6250    72.0880    15.5060    12.3960    10.1860    23.9550     2.4110   -21.6270 
  104.7500    71.6360    18.2380    14.5480    13.2470    23.7960     2.4290   -20.7490 
  104.8750    68.4190    21.8210    17.5640    23.5300    23.8030     2.4560   -19.8000 
  105.0000    65.5940    26.1590    21.5310    41.1940    23.9770     2.5030   -18.8050 
  105.1250    65.8030    30.7660    26.2510    55.9900    24.1380     2.5560   -17.9540 
  105.2500    65.8960    34.6470    30.7860    56.1510    24.2600     2.5930   -17.2710 
  105.3750    64.1000    36.7650    34.0320    52.2390    24.3730     2.6090   -16.7640 
  105.5000    62.4480    36.2870    34.8660    48.8270    24.5000     2.6110   -16.5220 
  105.6250    63.4770    32.6420    32.1980    46.0300    24.5900     2.6100   -16.6280 
  105.7500    64.9900    27.1900    27.2250    42.2900    24.5520     2.6010   -16.9860 
  105.8750    64.7570    21.2460    21.4130    33.0150    24.3710     2.5700   -17.4940 
  106.0000    64.1590    15.9750    16.1370    20.3320    24.0670     2.5090   -18.1400 
  106.1250    65.7470    12.2290    12.3220    12.7110    23.7650     2.4220   -18.8550 
  106.2500    69.2610     9.7530     9.7150    10.0630    23.6670     2.3360   -19.3860 
  106.3750    72.5220     8.2120     8.0040     9.1690    23.7620     2.2690   -19.6440 
  106.5000    75.7670     7.2470     6.8810     8.5940    23.8460     2.2300   -19.6510 
  106.6250    78.3000     6.6200     6.1520     7.9590    23.7320     2.2190   -19.2970 
  106.7500    81.7320     6.1660     5.6260     6.9690    23.6460     2.2250   -18.7110 
  106.8750    86.7730     5.9050     5.2860     5.8250    23.7120     2.2370   -18.1560 
  107.0000    90.5880     5.8880     5.1670     5.2410    23.8710     2.2450   -17.7170 
  107.1250    87.5960     6.1690     5.3440     5.6720    23.9530     2.2360   -17.4000 
  107.2500    79.0570     6.6210     5.7430     7.0000    23.9270     2.2120   -17.3110 
  107.3750    70.5630     7.0940     6.2610     8.3930    23.9190     2.1820   -17.3680 
  107.5000    65.6900     7.4260     6.7280     9.0000    24.0500     2.1590   -17.3890 
  107.6250    66.9360     7.4520     6.9180     8.5100    24.2670     2.1550   -17.4300 
  107.7500    72.9430     7.2200     6.8110     7.6280    24.2400     2.1650   -17.3520 
  107.8750    79.1260     6.8310     6.4940     6.8500    23.8160     2.1800   -16.9400 
  108.0000    82.0380     6.4240     6.1040     6.2700    23.3860     2.1940   -16.1460 
  108.1250    81.6410     6.1280     5.7700     5.8500    23.3000     2.2050   -15.1070 
  108.2500    82.3950     5.9630     5.5350     5.7220    23.5180     2.2120   -13.9850 
  108.3750    86.1890     5.8930     5.3930     5.7750    23.7930     2.2130   -12.8770 
  108.5000    91.1180     5.8620     5.3160     5.8680    23.9390     2.2060   -11.9500 
  108.6250    92.9760     5.8080     5.2680     5.7360    23.9980     2.1950   -11.2370 
  108.7500    93.2730     5.7170     5.2130     5.6960    24.0550     2.1890   -10.6650 
  108.8750    95.6110     5.6090     5.1410     5.6400    24.0550     2.1930   -10.2430 
  109.0000    99.2370     5.5250     5.0680     5.5030    24.0030     2.2050   -10.0300 
  109.1250   100.5160     5.5240     5.0380     5.4100    23.9420     2.2190    -9.9680 
  109.2500    99.7940     5.6190     5.0790     5.4080    23.9180     2.2290    -9.9030 
  109.3750    98.9090     5.8060     5.2070     5.6350    23.9000     2.2350    -9.9280 
  109.5000    98.6430     6.0570     5.4140     6.1510    23.8860     2.2400   -10.0170 
  109.6250    97.1260     6.3070     5.6700     6.5170    23.8910     2.2460   -10.0180 
  109.7500    93.3190     6.4700     5.8950     6.5910    23.9540     2.2500   -10.0670 
  109.8750    89.3420     6.4720     6.0130     6.4730    24.1230     2.2500   -10.1910 
  110.0000    87.6210     6.2810     5.9650     6.7280    24.3930     2.2500   -10.2250 
  110.1250    90.7030     5.9150     5.7200     6.9280    24.5840     2.2530   -10.0320 
  110.2500    96.3120     5.5150     5.3750     6.3980    24.7100     2.2600    -9.8020 
  110.3750   103.1310     5.2030     5.0340     5.3930    24.8500     2.2650    -9.5320 
  110.5000   108.4490     5.0680     4.7900     4.6890    24.9630     2.2650    -9.3050 
  110.6250   108.9330     5.1600     4.7260     4.6270    24.8590     2.2590    -9.2350 
  110.7500   105.0480     5.3760     4.8060     5.1540    24.5020     2.2510    -9.1810 
  110.8750    98.6070     5.6030     4.9640     5.7680    24.2180     2.2500    -9.1520 
  111.0000    94.8840     5.7160     5.0940     6.1380    24.3220     2.2590    -9.2180 
  111.1250    96.5430     5.5900     5.0540     5.9960    24.3660     2.2790    -9.3350 
