~V
VERS. 2.00: Ver 2.00
~W
STRT.M 57.0000:
STOP.M 281.0000:
STEP.M 0.1250:
NULL. -999.2500:
UWI. F10139:
~C
DEPT.M :
SP.MV :
GR.API :
RML.OHMM :
RI. :
RXO.OHMM :
CALI.CM :
DEN.GM/CC :
~A
# ...
  180.7500   -27.6920    59.1700   139.0190   137.7200    80.1480    23.2160     2.1560 
  180.8750   -27.5910    63.2750   126.9370   125.1400    79.5200    23.4620     2.1590 
  181.0000   -27.5630    65.5490   119.7570   117.2150    85.4190    23.7620     2.1610 
  181.1250   -27.6240    62.2950   118.4360   115.0760   105.7190    24.0330     2.1670 
  181.2500   -27.7180    59.2590   121.5570   117.4140   120.2270    24.1670     2.1760 
  181.3750   -27.8770    59.5340   127.9080   123.0940   122.6540    24.2210     2.1870 
  181.5000   -28.0780    60.8750   135.4450   130.1720   124.8660    24.2370     2.1960 
  181.6250   -28.2510    61.4430   140.6430   135.3240   132.5860    24.2260     2.1970 
  181.7500   -28.3810    61.0500   141.0360   136.1180   164.7680    24.2000     2.1900 
  181.8750   -28.4760    61.2310   136.1080   131.9160   167.1710    24.1930     2.1760 
  182.0000   -28.5320    62.3700   127.6230   124.1300   120.3180    24.2070     2.1590 
  182.1250   -28.5550    64.2600   119.2010   115.8670   102.9310    24.2340     2.1470 
  182.2500   -28.4730    65.6240   114.3350   110.4810    96.1980    24.2290     2.1430 
  182.3750   -28.3510    66.0580   115.2080   110.2040    94.7050    24.1940     2.1460 
  182.5000   -28.2620    65.5620   122.9110   116.2980    98.3360    24.2070     2.1540 
  182.6250   -28.2370    62.8740   137.7310   129.2250   110.3790    24.3360     2.1630 
  182.7500   -28.2590    59.6640   155.2040   144.8650   133.6830    24.5650     2.1680 
  182.8750   -28.3400    58.4050   169.8110   158.3170   176.2950    24.8110     2.1640 
  183.0000   -28.4400    58.3800   175.6350   164.4630   214.0160    25.0660     2.1530 
  183.1250   -28.5010    58.8330   168.4230   159.3230   171.6530    25.3140     2.1380 
  183.2500   -28.6280    59.5350   153.9270   147.2250   121.2400    25.4360     2.1270 
  183.3750   -28.7550    59.6940   137.7900   132.8430   107.8960    25.4710     2.1240 
  183.5000   -28.8030    59.6200   124.0990   120.0380   111.1040    25.4730     2.1310 
  183.6250   -28.8160    60.4570   115.4530   111.6210   106.0600    25.4690     2.1480 
  183.7500   -28.7960    61.5220   111.2480   107.4480    90.8350    25.4480     2.1720 
  183.8750   -28.7270    61.0070   110.7850   107.0510    84.8650    25.4000     2.2010 
  184.0000   -28.6440    58.8360   112.8800   109.4050    94.7980    25.3440     2.2260 
  184.1250   -28.5670    57.5010   115.5850   112.7410   109.0540    25.3310     2.2380 
  184.2500   -28.4660    57.8240   116.3250   114.4700   120.8540    25.3250     2.2370 
  184.3750   -28.3510    59.0850   113.4730   112.8150   127.2670    25.3010     2.2270 
  184.5000   -28.3150    59.3820   107.1020   107.4880   126.1610    25.2770     2.2160 
  184.6250   -28.3860    57.8950    99.2590   100.0420   112.6610    25.2700     2.2100 
  184.7500   -28.4960    57.1690    92.6860    93.2520    92.1770    25.2720     2.2050 
  184.8750   -28.6310    58.1180    88.5160    88.4310    74.6860    25.2800     2.1990 
  185.0000   -28.7240    60.2820    86.9230    85.9540    71.3790    25.2950     2.1900 
  185.1250   -28.7850    61.1320    87.8260    85.9170    93.1610    25.3130     2.1790 
  185.2500   -28.8220    59.3980    90.2820    87.4810    97.2000    25.3090     2.1740 
  185.3750   -28.8600    57.0500    94.1060    90.4150    77.3420    25.3040     2.1810 
  185.5000   -28.8950    55.7140    99.7760    95.0530    67.8480    25.3180     2.1980 
  185.6250   -28.9380    54.7880   109.0020   102.9170    80.1050    25.3580     2.2180 
  185.7500   -28.9870    53.3870   122.5640   114.7230   105.4920    25.3910     2.2310 
  185.8750   -29.0420    53.7940   141.2910   131.1830   114.7530    25.4090     2.2300 
  186.0000   -29.1450    56.4280   165.5390   152.5890   118.2940    25.4240     2.2190 
  186.1250   -29.3420    57.6210   195.3880   178.9650   173.4170    25.4220     2.2020 
  186.2500   -29.5640    56.2210   227.0120   206.6980   226.0800    25.3680     2.1890 
  186.3750   -29.7860    53.8140   253.6680   229.5760   237.4480    25.2840     2.1820 
  186.5000   -29.9960    52.8260   264.8590   238.5830   218.0350    25.1990     2.1810 
  186.6250   -30.1160    53.4940   250.2920   225.1530   227.4670    25.1670     2.1820 
  186.7500   -30.2000    53.7480   222.3890   199.4970   226.3460    25.1430     2.1830 
  186.8750   -30.3480    53.3050   194.9130   173.2440   172.9430    25.1520     2.1860 
  187.0000   -30.5430    53.1950   176.0940   154.1970   116.4490    25.1740     2.1960 
  187.1250   -30.6730    53.3180   168.7580   145.7700    91.8580    25.1640     2.2130 
  187.2500   -30.7570    53.3770   167.7790   143.8620   116.5080    25.1660     2.2280 
  187.3750   -30.8310    53.1970   168.1690   144.3790   180.6280    25.1850     2.2330 
  187.5000   -30.8720    52.0890   165.2490   143.3370   220.1790    25.1940     2.2250 
  187.6250   -30.8860    51.7040   156.2090   137.7780   163.3660    25.1640     2.2100 
  187.7500   -30.9020    52.5350   144.1680   129.1430   121.6910    25.1150     2.1990 
  187.8750   -30.8490    52.6310   132.6460   119.9270   102.3400    25.0930     2.1980 
  188.0000   -30.7600    51.0160   124.1330   112.4510    98.4020    25.0890     2.2070 
  188.1250   -30.6660    50.6250   119.6980   108.1120   106.8450    25.0950     2.2200 
  188.2500   -30.5590    52.5640   117.8720   105.9530   108.6620    25.1070     2.2300 
  188.3750   -30.4770    54.4300   118.1980   105.5400    92.1750    25.1240     2.2370 
  188.5000   -30.4510    55.9200   121.1870   107.2420    77.7450    25.1400     2.2420 
  188.6250   -30.3930    57.1060   128.9100   112.8120    81.0680    25.1670     2.2480 
  188.7500   -30.2430    57.1160   142.2310   123.0460    93.3670    25.1920     2.2550 
  188.8750   -30.0090    56.1870   162.0690   138.7140   113.3660    25.2190     2.2590 
  189.0000   -29.6660    55.3430   188.1450   159.4710   153.0230    25.2460     2.2560 
  189.1250   -29.2590    56.1220   217.8850   183.0120   203.0270    25.2960     2.2430 
  189.2500   -28.8160    56.9120   245.5160   204.6990   234.4390    25.3420     2.2240 
  189.3750   -28.2980    56.1130   267.5860   221.8560   243.5210    25.3610     2.2050 
  189.5000   -27.7150    53.9490   284.1460   234.5330   232.9750    25.3350     2.1910 
  189.6250   -27.1420    52.2070   297.5930   244.6160   218.9580    25.2930     2.1870 
  189.7500   -26.6370    51.5120   308.2830   252.7200   227.2270    25.2680     2.1900 
  189.8750   -26.2070    50.7950   309.1840   254.1590   287.4160    25.2540     2.1950 
  190.0000   -25.8430    50.2160   290.2240   241.8220   360.0700    25.2340     2.1970 
  190.1250   -25.4710    50.1480   247.4960   211.3510   329.8710    25.2210     2.1900 
  190.2500   -25.1150    49.7540   198.6070   173.8840   230.2470    25.1910     2.1810 
  190.3750   -24.8180    49.8200   156.1310   139.2090   133.0610    25.1560     2.1750 
  190.5000   -24.5310    50.4830   124.4910   112.4590    87.8040    25.1020     2.1790 
  190.6250   -24.2070    50.8040   102.8360    94.4610    82.8230    25.0370     2.1930 
  190.7500   -23.8090    51.4430    85.9580    81.0410    83.5520    24.9670     2.2080 
  190.8750   -23.3380    53.5090    72.1630    70.3800    85.3990    24.9100     2.2200 
  191.0000   -22.8040    57.9000    61.5020    62.1680    82.8770    24.8580     2.2290 
  191.1250   -22.2390    61.6520    55.5060    57.5630    62.6120    24.7930     2.2400 
  191.2500   -21.6900    63.1450    53.8060    56.5090    45.7320    24.7700     2.2570 
  191.3750   -21.1460    63.5760    55.2560    58.2880    43.8620    24.8580     2.2740 
  191.5000   -20.5890    63.6240    56.9380    60.2520    55.6640    25.0940     2.2830 
  191.6250   -19.9580    63.8130    53.5840    56.5540    80.8290    25.2300     2.2760 
  191.7500   -19.2970    64.4280    44.0720    45.8870    74.0120    25.2240     2.2670 
  191.8750   -18.6320    68.5190    31.4850    32.3050    42.8290    25.1270     2.2720 
