~V
VERS. 2.00: Ver 2.00
~W
STRT.M 50.0000:
STOP.M 205.0000:
STEP.M 0.1250:
NULL. -999.2500:
UWI. F10148:
~C
DEPT.M :
GR.API :
RML.OHMM :
RI. :
RXO.OHMM :
CALI.CM :
SP.MV :
DEN.GM/CC :
~A
# ...
  106.2500    55.2710    13.4020    11.8890    11.8230    21.6030   -18.9810     2.1050 
  106.3750    56.0740    13.7540    12.0110    11.2150    21.1770   -19.0300     2.0750 
  106.5000    60.0420    14.2520    12.3160    12.0270    20.5530   -19.0670     2.0450 
  106.6250    63.2840    14.6290    12.6240    14.7210    20.4380   -19.0880     2.0220 
  106.7500    64.5250    14.7460    12.7900    16.7220    21.0880   -19.1250     2.0070 
  106.8750    64.2260    14.5830    12.7730    15.4840    21.8540   -19.1660     2.0000 
  107.0000    63.7140    14.1930    12.6020    13.8980    22.0570   -19.2190     1.9990 
  107.1250    64.8300    13.5940    12.2770    15.7390    21.5480   -19.2730     2.0050 
  107.2500    67.1500    12.8030    11.7860    16.4350    21.2220   -19.3050     2.0160 
  107.3750    68.1870    11.8340    11.1070    14.2370    21.0170   -19.3140     2.0340 
  107.5000    66.6270    10.7760    10.2780    11.3020    20.9070   -19.3290     2.0550 
  107.6250    64.0730     9.8140     9.4200     9.6110    20.9970   -19.3450     2.0760 
  107.7500    63.0350     9.1070     8.6930     8.8340    21.2790   -19.3420     2.0900 
  107.8750    63.3220     8.7360     8.1980     8.6940    21.4400   -19.3390     2.0970 
  108.0000    63.6740     8.6840     7.9650     8.8700    21.4140   -19.3290     2.1000 
  108.1250    63.2490     8.8610     7.9700     9.0790    21.3630   -19.3070     2.1040 
  108.2500    63.7160     9.0630     8.0760     9.2340    21.4060   -19.3080     2.1080 
  108.3750    65.4300     9.1640     8.1950     9.4770    21.4240   -19.3280     2.1120 
  108.5000    65.6220     9.1040     8.2720     9.6770    21.1990   -19.3600     2.1100 
  108.6250    62.2340     8.9310     8.3030     9.0470    20.8570   -19.3860     2.1030 
  108.7500    59.6900     8.8420     8.3420     8.3240    20.5490   -19.4090     2.0970 
  108.8750    60.1200     8.9640     8.4280     7.5790    19.9820   -19.4270     2.0950 
  109.0000    61.6900     9.2850     8.5700     7.1010    19.2260   -19.4330     2.1000 
  109.1250    63.5710     9.6230     8.7200     7.1070    18.7250   -19.4500     2.1110 
  109.2500    66.2730     9.7570     8.7920     7.3340    18.6930   -19.4580     2.1220 
  109.3750    69.0050     9.6070     8.7120     7.5620    18.9580   -19.4470     2.1290 
  109.5000    69.8590     9.2510     8.4600     7.5090    19.2960   -19.4210     2.1320 
  109.6250    69.1830     8.9120     8.0990     7.2840    19.5150   -19.3920     2.1320 
  109.7500    67.4540     8.7460     7.7680     7.1780    19.6020   -19.3570     2.1320 
  109.8750    65.2740     8.7450     7.5570     7.1710    19.6230   -19.3130     2.1340 
  110.0000    63.8140     8.8470     7.5080     7.1230    19.5830   -19.2810     2.1390 
  110.1250    63.8790     9.0380     7.6580     7.0880    19.4380   -19.2600     2.1470 
  110.2500    65.5460     9.3500     7.9740     7.3010    19.3490   -19.2350     2.1530 
  110.3750    68.2300     9.8560     8.4590     7.7360    19.4170   -19.2380     2.1570 
  110.5000    71.3200    10.6020     9.1200     8.0490    19.4440   -19.2630     2.1540 
  110.6250    71.7180    11.6050     9.9700     8.1730    19.3270   -19.3210     2.1430 
  110.7500    69.8720    12.6940    10.9140     7.9800    18.9470   -19.3880     2.1270 
  110.8750    68.1310    13.6550    11.8240     7.5710    18.4280   -19.4600     2.1110 
  111.0000    66.6660    14.2660    12.5220     7.2260    18.2840   -19.5440     2.0990 
  111.1250    63.3450    14.3340    12.7750     7.1840    18.4710   -19.6250     2.0940 
  111.2500    61.4850    14.0550    12.6480     7.3110    18.6720   -19.7150     2.0960 
  111.3750    64.1130    13.6840    12.3120     7.3680    18.7470   -19.8090     2.1010 
  111.5000    67.8440    13.4710    11.9970     7.0690    18.7260   -19.9160     2.1090 
  111.6250    65.0410    13.6210    11.9280     6.4960    18.5980   -20.0030     2.1180 
  111.7500    60.0040    14.1060    12.1520     6.0940    18.3710   -20.0900     2.1270 
  111.8750    58.9470    14.8900    12.6640     5.9550    18.2490   -20.1730     2.1350 
  112.0000    61.5190    15.8610    13.3940     6.0160    18.3010   -20.2340     2.1380 
  112.1250    62.3510    16.7060    14.1510     6.3790    18.6470   -20.2960     2.1310 
  112.2500    62.2720    17.0300    14.6020     7.4390    19.0070   -20.3500     2.1130 
  112.3750    63.6610    16.5590    14.4580    10.2970    19.4500   -20.3800     2.0840 
  112.5000    66.8280    15.2870    13.6090    15.9770    19.6650   -20.3800     2.0500 
  112.6250    69.7330    13.4740    12.1890    19.0760    20.2970   -20.3240     2.0180 
  112.7500    71.9860    11.6650    10.6740    15.0980    20.9460   -20.2400     1.9940 
  112.8750    72.6010    10.1670     9.3500    11.6950    21.0930   -20.1520     1.9780 
  113.0000    71.9640     9.1360     8.3650    10.4020    21.0210   -20.0690     1.9710 
  113.1250    72.0700     8.6680     7.7970    10.0890    20.9560   -19.9790     1.9690 
  113.2500    71.6200     8.5740     7.5230     9.7110    20.9320   -19.8800     1.9680 
  113.3750    69.9330     8.6980     7.4600     9.2780    20.8950   -19.7850     1.9670 
  113.5000    67.2090     8.8920     7.5310     8.9430    20.9240   -19.7030     1.9650 
  113.6250    64.9780     9.0680     7.6840     8.8010    20.8780   -19.6480     1.9640 
  113.7500    63.6460     9.2020     7.8540     8.7840    20.8950   -19.6020     1.9670 
  113.8750    61.8280     9.2880     7.9980     8.8390    21.0210   -19.5570     1.9770 
  114.0000    60.4460     9.3150     8.0870     8.9520    21.1490   -19.5200     1.9950 
  114.1250    60.3720     9.2610     8.0960     8.9960    21.1710   -19.4960     2.0200 
  114.2500    61.3440     9.1260     8.0430     9.0150    21.1750   -19.4840     2.0430 
  114.3750    62.0900     8.9110     7.9370     8.8830    21.1750   -19.4760     2.0620 
  114.5000    61.9190     8.6300     7.7960     8.6700    21.1630   -19.4710     2.0720 
  114.6250    61.2630     8.3040     7.6470     8.3340    21.0750   -19.4820     2.0720 
  114.7500    61.5660     7.9830     7.5270     7.8800    20.8190   -19.4990     2.0680 
  114.8750    63.2950     7.7340     7.4520     7.3730    20.4350   -19.5200     2.0630 
  115.0000    66.1690     7.6120     7.4190     7.0080    20.0540   -19.5260     2.0640 
  115.1250    66.8560     7.6430     7.4100     6.8030    19.8180   -19.4870     2.0750 
  115.2500    65.7460     7.7750     7.4080     6.7830    19.7820   -19.4200     2.0940 
  115.3750    65.8530     7.9880     7.4110     6.8730    19.7830   -19.3160     2.1170 
  115.5000    68.5560     8.2460     7.4230     6.9550    19.8420   -19.1660     2.1360 
  115.6250    70.3800     8.5020     7.4560     6.8830    19.8740   -18.9390     2.1450 
  115.7500    68.1460     8.7600     7.5280     6.7640    19.9370   -18.6510     2.1410 
  115.8750    64.1750     9.0770     7.6790     6.6290    20.0250   -18.2850     2.1240 
  116.0000    62.4340     9.5320     7.9730     6.6000    20.2540   -17.8300     2.0980 
  116.1250    62.4890    10.2680     8.5430     6.9870    20.7430   -17.3140     2.0740 
  116.2500    62.1890    11.2780     9.3970     8.1980    21.3350   -16.7130     2.0570 
  116.3750    62.5540    12.4400    10.4720    10.5210    21.6840   -16.0390     2.0470 
  116.5000    65.1610    13.4780    11.5580    14.0420    21.7270   -15.3210     2.0390 
  116.6250    68.6900    13.9400    12.2350    18.1700    21.6050   -14.6200     2.0200 
  116.7500    71.7130    13.6920    12.2740    20.1260    21.7660   -13.9570     1.9880 
  116.8750    76.2140    12.8300    11.6870    16.6160    22.2980   -13.3730     1.9520 
  117.0000    82.1670    11.6720    10.7260    11.4860    22.9390   -12.8860     1.9240 
  117.1250    86.0730    10.5890     9.7190    10.2730    22.8680   -12.4870     1.9180 
  117.2500    86.0140     9.7380     8.8710    10.3090    22.2030   -12.2180     1.9360 
  117.3750    82.4220     9.1480     8.2490    10.0090    21.4580   -12.0500     1.9680 
