~V
VERS. 2.00: Ver 2.00
~W
STRT.M 60.0000:
STOP.M 220.0000:
STEP.M 0.1250:
NULL. -999.2500:
UWI. F10154:
~C
DEPT.M :
GR.API :
RML.OHMM :
RI. :
RXO.OHMM :
CALI.CM :
DEN.GM/CC :
SP.MV :
~A
# ...
  183.7500    93.1530     8.7180     6.4310     7.0360    24.6770     2.3880   -16.0860 
  183.8750    93.7690     9.1430     6.7590     7.3810    24.7830     2.3850   -16.5780 
  184.0000    93.5980     9.5440     7.0920     7.7730    24.8300     2.3800   -16.9870 
  184.1250    93.1870     9.8460     7.3790     8.1820    24.8300     2.3790   -17.2500 
  184.2500    93.2210    10.0210     7.5830     8.2590    24.8300     2.3840   -17.3960 
  184.3750    92.3910    10.0600     7.6830     8.0940    24.8370     2.3920   -17.4820 
  184.5000    90.3540     9.9760     7.6800     8.2640    24.8450     2.4000   -17.4970 
  184.6250    87.4730     9.8030     7.5910     8.5640    24.8490     2.4040   -17.4090 
  184.7500    85.2730     9.6140     7.4730     8.2060    24.8490     2.4050   -17.2940 
  184.8750    85.2570     9.4610     7.3670     7.9040    24.8490     2.4030   -17.2050 
  185.0000    87.9960     9.3690     7.2990     7.7870    24.8490     2.4010   -17.1900 
  185.1250    89.6650     9.3370     7.2760     7.9080    24.8490     2.3980   -17.2500 
  185.2500    87.9500     9.3200     7.2770     7.9540    24.8500     2.3950   -17.3010 
  185.3750    85.6760     9.2810     7.2870     7.8120    24.8510     2.3910   -17.2730 
  185.5000    86.1870     9.1980     7.2880     7.7400    24.8530     2.3900   -17.2090 
  185.6250    87.6860     9.0630     7.2630     7.7570    24.8510     2.3920   -17.2090 
  185.7500    87.8160     8.9150     7.2150     7.7050    24.8500     2.3960   -17.2450 
  185.8750    88.9430     8.7990     7.1670     7.5890    24.8460     2.3990   -17.2760 
  186.0000    94.0740     8.7630     7.1500     7.4490    24.8330     2.3970   -17.2810 
  186.1250    97.8230     8.8500     7.2060     7.4030    24.8080     2.3940   -17.3110 
  186.2500    96.8350     9.0070     7.3260     7.5670    24.7940     2.3910   -17.3690 
  186.3750    93.8290     9.1550     7.4810     7.9460    24.7900     2.3920   -17.4630 
  186.5000    91.6890     9.2100     7.6250     8.3060    24.7900     2.3940   -17.5490 
  186.6250    89.3750     9.1180     7.7040     8.4010    24.7900     2.3960   -17.5870 
  186.7500    86.5620     8.9560     7.7270     7.9280    24.7900     2.3960   -17.5820 
  186.8750    86.4740     8.8190     7.7360     7.5080    24.7900     2.3940   -17.5030 
  187.0000    87.7200     8.7880     7.7820     7.3590    24.7840     2.3910   -17.4120 
  187.1250    88.2860     8.9140     7.9190     7.7130    24.7690     2.3890   -17.2490 
  187.2500    88.3030     9.1370     8.1320     8.4600    24.7500     2.3880   -17.0040 
  187.3750    87.5770     9.3930     8.3820     8.7530    24.7220     2.3860   -16.7540 
  187.5000    86.3230     9.6170     8.6040     8.8270    24.6440     2.3820   -16.5830 
  187.6250    85.2940     9.7420     8.7120     9.6360    24.5540     2.3750   -16.4570 
  187.7500    86.3990     9.7460     8.6840    11.8980    24.5170     2.3680   -16.3310 
  187.8750    87.5230     9.6080     8.5080    11.9640    24.5220     2.3620   -16.2300 
  188.0000    88.1170     9.3240     8.1940     9.5940    24.5320     2.3600   -16.0990 
  188.1250    90.8700     8.9240     7.7860     7.7050    24.5620     2.3640   -15.9740 
  188.2500    94.2550     8.5470     7.4020     7.2020    24.6290     2.3730   -15.8770 
  188.3750    95.9630     8.3770     7.1700     6.9020    24.7220     2.3850   -15.7960 
  188.5000    95.8560     8.6870     7.2510     6.6460    24.7780     2.3960   -15.6880 
  188.6250    93.3490    10.0100     8.0000     7.1420    24.7660     2.4010   -15.5310 
  188.7500    87.0600    12.9270     9.7300     8.9120    24.6630     2.4000   -15.3810 
  188.8750    78.0210    18.2790    13.0320    12.1360    24.4090     2.3900   -15.2700 
  189.0000    70.3530    26.3190    18.6190    20.9130    24.0360     2.3700   -15.2050 
  189.1250    65.7610    35.7980    26.9910    41.4840    23.8110     2.3390   -15.2080 
  189.2500    63.3550    43.4750    35.5760    73.5570    23.9670     2.3050   -15.2600 
  189.3750    66.1510    46.8970    40.6080    81.8520    24.3820     2.2780   -15.2880 
  189.5000    74.2540    45.5370    40.1730    69.4130    24.7980     2.2670   -15.2960 
  189.6250    81.6580    41.1220    36.1570    44.3040    24.9550     2.2720   -15.3290 
  189.7500    82.9080    37.1300    32.3920    28.4040    24.9910     2.2840   -15.3610 
  189.8750    78.8250    35.0380    30.2530    25.1550    25.0050     2.2930   -15.4040 
  190.0000    73.0170    35.0580    29.9500    34.6340    25.0590     2.2970   -15.4400 
  190.1250    69.4830    37.0530    31.4280    47.6620    25.1850     2.2900   -15.3910 
  190.2500    69.2880    40.4240    34.1720    44.6910    25.3120     2.2720   -15.3250 
  190.3750    70.6960    45.2290    38.2410    34.5530    25.3970     2.2420   -15.3040 
  190.5000    71.0660    51.7430    43.9490    45.4500    25.4710     2.2080   -15.2700 
  190.6250    69.0010    60.4100    51.9010    74.0750    25.5240     2.1830   -15.2670 
  190.7500    64.7680    70.2850    61.4020   105.4940    25.5740     2.1760   -15.3290 
  190.8750    60.4830    80.0100    71.1440   105.4220    25.6480     2.1860   -15.4200 
  191.0000    59.3370    88.1730    79.3220    91.1920    25.6980     2.2040   -15.5250 
  191.1250    62.8520    94.1310    84.7740    77.2570    25.6820     2.2170   -15.6910 
  191.2500    65.6160    99.3910    89.2760    81.4010    25.6100     2.2190   -15.8970 
  191.3750    63.8590   105.1080    94.4600   100.2130    25.4860     2.2120   -16.0830 
  191.5000    60.5840   111.2120   100.5360   118.5160    25.3480     2.2020   -16.3150 
  191.6250    60.3340   115.7820   105.6290   120.0620    25.3020     2.1970   -16.5810 
  191.7500    62.0110   117.2140   107.8640   116.1060    25.3390     2.1980   -16.7850 
  191.8750    63.8900   115.1530   106.6920   118.4180    25.3640     2.2020   -16.9650 
  192.0000    65.3330   110.5870   102.9460   118.8010    25.3670     2.2070   -17.1380 
  192.1250    66.3720   105.3260    98.3370   107.6920    25.3600     2.2100   -17.3160 
  192.2500    66.3190   101.1130    94.6530   100.3170    25.3520     2.2090   -17.5330 
  192.3750    65.0810    98.7660    92.7500    98.4060    25.3330     2.2070   -17.7740 
  192.5000    63.0470    98.6310    93.0090   100.9950    25.2590     2.2040   -18.0260 
  192.6250    61.4380   101.0130    95.8400    82.8000    25.0060     2.2000   -18.2670 
  192.7500    62.2760   105.0730   100.4710    65.6420    24.5590     2.1980   -18.4890 
  192.8750    66.0220   110.0110   106.0900    56.3290    23.9430     2.2010   -18.7120 
  193.0000    69.7420   114.7760   111.5970    50.2340    23.4900     2.2140   -18.9790 
  193.1250    69.5810   118.0190   115.4430    52.5340    23.4570     2.2330   -19.1780 
  193.2500    67.1990   119.4860   117.0730    62.3280    23.6610     2.2500   -19.3030 
  193.3750    64.3960   119.7530   116.9330    82.8540    23.9880     2.2560   -19.4950 
  193.5000    63.1330   120.2160   116.5590   108.8320    24.5180     2.2460   -19.7240 
  193.6250    63.9990   123.2600   118.5250   112.1300    24.9950     2.2250   -19.9200 
  193.7500    66.1230   130.3000   124.4730   104.1410    25.0510     2.2040   -20.1190 
  193.8750    67.2640   142.3020   135.5740   108.1890    24.7550     2.1910   -20.3330 
  194.0000    65.9600   159.3720   152.1120   142.9740    24.3440     2.1880   -20.5660 
  194.1250    64.7340   180.5780   173.2320   193.8620    24.1580     2.1920   -20.8110 
  194.2500    63.7240   202.0510   194.7470   210.3470    24.0790     2.1930   -21.0590 
  194.3750    62.6920   220.3710   212.7500   200.4260    24.0480     2.1880   -21.3120 
  194.5000    61.9920   233.2830   224.6250   201.5500    24.0310     2.1800   -21.5390 
  194.6250    61.6730   239.9900   229.9350   244.4390    24.0130     2.1760   -21.8100 
  194.7500    61.6710   243.0990   232.1140   275.7890    23.9960     2.1800   -22.0880 
  194.8750    62.6200   243.8410   232.5540   261.4300    23.9600     2.1870   -22.2530 
