~V
VERS. 2.00: Ver 2.00
~W
STRT.M 60.0000:
STOP.M 241.0000:
STEP.M 0.1250:
NULL. -999.2500:
UWI. F10158:
~C
DEPT.M :
SP.MV :
DEN.GM/CC :
GR.API :
RML.OHMM :
RI. :
RXO.OHMM :
CALI.CM :
~A
# ...
   71.2500    51.2560     2.1420    69.1790    10.0580     8.8010    10.4950    24.7970 
   71.3750    51.1030     2.1360    67.2540    10.2120     8.6710    10.6810    24.8000 
   71.5000    51.0250     2.1500    61.4760    10.5970     8.7930    10.9250    24.8000 
   71.6250    51.0550     2.1750    56.4130    10.8630     8.9640    11.2500    24.7990 
   71.7500    51.1820     2.1910    55.5230    10.9550     9.0860    11.4360    24.7990 
   71.8750    51.4190     2.1940    57.9540    11.1540     9.2890    11.4960    24.8080 
   72.0000    51.7680     2.1910    60.7170    11.9520     9.8450    11.5310    24.8390 
   72.1250    52.2290     2.2100    59.2780    14.1860    11.3140    11.9170    24.9630 
   72.2500    52.7720     2.2670    54.1320    18.0870    14.0100    14.0320    25.2410 
   72.3750    53.3660     2.3670    49.7390    23.4790    18.0590    20.1300    25.6060 
   72.5000    53.9760     2.4910    47.7940    29.0720    22.8040    32.8460    25.8950 
   72.6250    54.5430     2.5820    48.3680    31.3730    25.6850    48.1950    25.9730 
   72.7500    55.0250     2.5970    51.1690    28.8660    24.9120    47.7580    25.9070 
   72.8750    55.4090     2.5340    54.9120    23.2370    21.3440    32.5520    25.7720 
   73.0000    55.7020     2.4180    57.7510    17.5660    17.2420    19.5430    25.6690 
   73.1250    55.9560     2.2820    57.6720    14.0290    14.3640    14.4150    25.7860 
   73.2500    56.2270     2.1640    55.1500    12.4510    12.8460    12.7430    26.0550 
   73.3750    56.5430     2.0930    52.1550    12.3640    12.4750    12.1620    26.2920 
   73.5000    56.9160     2.1000    51.1050    13.1580    12.8680    11.9080    26.3890 
   73.6250    57.3390     2.2120    53.2410    13.9780    13.3510    12.5130    26.3860 
   73.7500    57.7740     2.3620    57.4560    13.9920    13.1830    14.2740    26.3840 
   73.8750    58.1590     2.4590    64.3300    12.9770    12.1910    16.2750    26.3820 
   74.0000    58.4390     2.4520    70.4680    11.3660    10.7510    15.5940    26.3750 
   74.1250    58.5200     2.3720    69.1960     9.9720     9.4660    11.6760    26.3680 
   74.2500    58.4050     2.2880    63.6960     9.2190     8.6250     8.8210    26.3740 
   74.3750    58.1210     2.2260    60.7940     9.1340     8.2670     8.4020    26.3980 
   74.5000    57.7190     2.1910    63.0940     9.5500     8.3150     9.5270    26.4410 
   74.6250    57.2670     2.1780    67.4850    10.1690     8.6200    10.1690    26.5240 
   74.7500    56.8460     2.1770    68.1400    10.6280     8.9190     9.9960    26.6340 
   74.8750    56.5160     2.1790    63.9780    10.7910     9.0830     9.8100    26.7290 
   75.0000    56.3130     2.1810    59.4890    10.7250     9.0970     9.6700    26.7740 
   75.1250    56.2410     2.1770    59.7240    10.5980     9.0270     9.5280    26.7790 
   75.2500    56.2390     2.1740    62.7990    10.5290     8.9640     9.4550    26.7810 
   75.3750    56.2530     2.1760    66.7580    10.5190     8.9270     9.6180    26.7780 
   75.5000    56.2520     2.1840    70.3140    10.5090     8.8870    10.1010    26.7790 
   75.6250    56.2300     2.1890    69.5330    10.4080     8.7770    10.6000    26.8330 
   75.7500    56.2240     2.1840    64.0020    10.2020     8.5920    10.6490    26.9250 
   75.8750    56.2590     2.1680    59.0090     9.9460     8.3670    10.1820    27.0010 
   76.0000    56.3450     2.1490    58.7600     9.7400     8.1690     9.3440    27.0300 
   76.1250    56.4810     2.1370    60.3620     9.6820     8.0670     8.6560    26.9750 
   76.2500    56.6340     2.1360    60.7510     9.7100     8.0450     8.6200    26.8310 
   76.3750    56.8000     2.1400    61.4100     9.7090     8.0610     9.1770    26.6400 
   76.5000    56.9990     2.1460    63.7540     9.5790     8.0730     9.6820    26.4970 
   76.6250    57.2580     2.1530    66.4280     9.2960     8.0520     9.6080    26.4640 
   76.7500    57.5530     2.1630    69.1820     8.9790     8.0080     9.3890    26.4640 
   76.8750    57.8660     2.1740    71.6010     8.7350     7.9610     9.2760    26.4080 
   77.0000    58.1900     2.1820    71.7040     8.6290     7.9390     9.4630    26.2200 
   77.1250    58.5080     2.1810    69.7890     8.7190     7.9940     9.9760    25.9130 
   77.2500    58.8030     2.1710    68.4220     9.0500     8.1810    10.1930    25.6570 
   77.3750    59.0750     2.1570    66.3560     9.7300     8.5750     9.8970    25.5410 
   77.5000    59.3320     2.1510    62.0570    10.8220     9.2340     9.6630    25.5220 
   77.6250    59.6050     2.1680    59.4990    12.2690    10.1630    10.2820    25.4750 
   77.7500    59.9370     2.2040    60.3690    13.6370    11.1260    11.5460    25.3760 
   77.8750    60.3500     2.2410    63.1500    14.3780    11.7890    13.0870    25.2750 
   78.0000    60.8540     2.2590    65.5930    14.0320    11.7810    14.0860    25.2190 
   78.1250    61.4750     2.2470    65.7790    12.4950    10.8230    13.3300    25.2210 
   78.2500    62.2380     2.2280    66.5440    10.5530     9.3470    11.6920    25.2620 
   78.3750    63.1450     2.2210    72.6110     8.7400     7.7720     9.8150    25.3540 
   78.5000    64.1570     2.2300    83.8270     7.3310     6.4150     7.7360    25.5020 
   78.6250    65.2050     2.2480    91.8860     6.4540     5.4980     5.9060    25.6690 
   78.7500    66.1850     2.2560    92.7270     5.9890     4.9750     4.9060    25.7820 
   78.8750    67.0030     2.2480    91.4330     5.9180     4.8170     4.8030    25.8140 
   79.0000    67.5780     2.2260    91.8750     6.2570     5.0010     5.1140    25.8000 
   79.1250    67.8350     2.2060    90.1260     7.0820     5.5680     5.5570    25.7650 
   79.2500    67.8670     2.2000    83.4440     8.2280     6.4080     6.4200    25.6800 
   79.3750    67.7620     2.2150    76.5310     9.4490     7.3680     7.6450    25.5470 
   79.5000    67.6330     2.2490    74.6420    10.3520     8.1790     8.7700    25.4290 
   79.6250    67.5840     2.2850    78.4030    10.3900     8.3980     9.4760    25.3840 
   79.7500    67.6570     2.3060    84.4570     9.6000     7.9490    10.0440    25.3860 
   79.8750    67.8680     2.3050    91.4150     8.3010     7.0090     9.7340    25.4190 
   80.0000    68.1960     2.2900    96.9020     6.9630     5.9300     7.7460    25.4750 
   80.1250    68.5590     2.2760    97.5980     6.0480     5.0860     5.4440    25.5140 
   80.2500    68.8350     2.2760    97.2230     5.6600     4.6130     4.2410    25.4950 
   80.3750    68.9420     2.2960    98.9800     5.8150     4.5500     4.0180    25.4360 
   80.5000    68.8240     2.3250   101.1000     6.4730     4.8780     4.1990    25.3860 
   80.6250    68.4000     2.3340    98.4790     7.5530     5.5590     5.3340    25.3780 
   80.7500    67.7290     2.3140    89.6720     8.7220     6.3670     8.0120    25.3860 
   80.8750    66.8850     2.2740    79.0610     9.6760     7.0970    10.9850    25.3890 
   81.0000    65.9880     2.2300    71.1310    10.1880     7.5850    11.6990    25.3910 
   81.1250    65.1720     2.2000    69.5950    10.1770     7.7430    10.3430    25.3920 
   81.2500    64.5310     2.1840    72.6900     9.9430     7.7160     9.8600    25.4070 
   81.3750    64.0960     2.1760    75.5250     9.7260     7.6400    10.3500    25.4750 
   81.5000    63.8510     2.1710    74.5160     9.6650     7.6160    10.6660    25.5940 
   81.6250    63.8070     2.1710    70.9540     9.8100     7.7000    10.4270    25.6950 
   81.7500    63.8990     2.1760    70.9770    10.0530     7.8530    10.1280    25.7350 
   81.8750    64.1000     2.1810    74.9990    10.2530     8.0040    10.0890    25.7360 
   82.0000    64.3750     2.1810    76.8850    10.2540     8.0530    10.1470    25.7340 
   82.1250    64.7240     2.1810    73.6230     9.9390     7.8960     9.9520    25.7350 
   82.2500    65.1370     2.1890    69.8840     9.4330     7.5850     9.6760    25.7330 
   82.3750    65.6070     2.2040    69.0440     8.8680     7.2010     9.4220    25.7400 
