~V
VERS. 2.00: Ver 2.00
~W
STRT.M 52.0000:
STOP.M 326.0000:
STEP.M 0.1250:
NULL. -999.2500:
UWI. F10108:
~C
DEPT.M :
DEN.GM/CC :
SP.MV :
GR.API :
RML.OHMM :
RI. :
RXO.OHMM :
CALI.CM :
~A
   52.0000     0.0000     0.0000  -999.2500  -999.2500  -999.2500  -999.2500  -999.2500 
   52.1250     0.0000    47.4750     0.0000     0.0000     0.0000     0.0000     0.0000 
   52.2500     0.0000    47.0940     0.0000     0.0000     0.0000     0.0000     0.0000 
   52.3750     0.0000    46.5900     0.0000     0.0000     0.0000     0.0000     0.0000 
   52.5000     2.0870    45.9920     0.0000     0.0000     0.0000     0.0000     0.0000 
   52.6250     2.1150    45.3410    41.5490     2.3800     0.3340     1.2130    25.1520 
   52.7500     2.1540    44.6920    36.1640     2.4410     0.3350     1.1180    25.2230 
   52.8750     2.1860    44.0780    33.8060     2.5290     0.3380     1.0550    25.2460 
   53.0000     2.1970    43.5000    37.0380     2.6000     0.3420     1.0610    25.2430 
   53.1250     2.1790    42.9410    40.9380     2.5960     0.3470     1.0900    25.2420 
   53.2500     2.1470    42.3550    40.5390     2.5040     0.3540     1.1160    25.2450 
   53.3750     2.1180    41.7630    37.8280     2.3300     0.3610     1.1040    25.2450 
   53.5000     2.1080    41.1930    36.8080     2.1100     0.3670     1.0760    25.2500 
   53.6250     2.1280    40.7100    37.2240     1.9130     0.3710     1.0560    25.2480 
   53.7500     2.1670    40.3400    36.2300     1.7940     0.3730     1.0550    25.2510 
   53.8750     2.2120    40.0990    33.7950     1.7660     0.3740     1.0640    25.2510 
   54.0000     2.2500    39.9980    31.2810     1.8010     0.3750     1.0800    25.2470 
   54.1250     2.2750    40.0300    29.0570     1.8420     0.3770     1.1050    25.2520 
   54.2500     2.2890    40.1410    28.6130     1.8390     0.3800     1.1160    25.2490 
   54.3750     2.2990    40.3230    30.2310     1.7810     0.3830     1.1080    25.2450 
   54.5000     2.3060    40.5550    31.4480     1.6890     0.3840     1.0660    25.2460 
   54.6250     2.3140    40.7560    31.2200     1.5970     0.3820     1.0600    25.2360 
   54.7500     2.3220    40.9370    31.4880     1.5260     0.3760     1.0710    25.2350 
   54.8750     2.3280    41.1020    32.7860     1.4710     0.3690     1.0740    25.2310 
   55.0000     2.3320    41.2390    34.3970     1.4220     0.3630     1.0380    25.2260 
   55.1250     2.3340    41.3710    35.5910     1.3650     0.3610     0.9470    25.2110 
   55.2500     2.3350    41.5110    36.9400     1.3040     0.3630     0.9110    25.1940 
   55.3750     2.3370    41.5940    37.6080     1.2480     0.3700     0.9740    25.1700 
   55.5000     2.3440    41.5930    36.8380     1.2050     0.3810     1.0530    25.1390 
   55.6250     2.3580    41.5900    36.1600     1.1840     0.3940     1.1020    25.1240 
   55.7500     2.3760    41.5550    35.7700     1.1780     0.4070     1.1760    25.1120 
   55.8750     2.3900    41.4500    35.8390     1.1790     0.4170     1.2790    25.1020 
   56.0000     2.3910    41.2060    36.9290     1.1780     0.4210     1.3800    25.0980 
   56.1250     2.3670    40.7800    38.3040     1.1730     0.4170     1.3960    25.0990 
   56.2500     2.3180    40.2100    39.3410     1.1650     0.4070     1.4420    25.1130 
   56.3750     2.2520    39.5060    39.3230     1.1580     0.3950     1.4580    25.1390 
   56.5000     2.1830    38.7020    37.3870     1.1600     0.3830     1.5210    25.1770 
   56.6250     2.1290    37.7500    33.8330     1.1770     0.3720     1.5490    25.2120 
   56.7500     2.1010    36.6830    31.9300     1.2030     0.3650     1.4570    25.2280 
   56.8750     2.0970    35.5400    33.1310     1.2330     0.3620     1.2930    25.2380 
   57.0000     2.1070    34.3860    35.6660     1.2580     0.3660     1.1730    25.2390 
   57.1250     2.1180    33.2560    35.4710     1.2690     0.3750     1.1240    25.2470 
   57.2500     2.1250    32.1460    33.2370     1.2750     0.3850     1.1800    25.2450 
   57.3750     2.1290    31.0600    30.2220     1.2880     0.3920     1.3270    25.2460 
   57.5000     2.1290    29.9380    28.5490     1.3120     0.3920     1.4660    25.2540 
   57.6250     2.1210    28.7700    30.6170     1.3250     0.3810     1.4540    25.2500 
   57.7500     2.1100    27.5630    33.4860     1.2800     0.3560     1.2900    25.2440 
   57.8750     2.1080    26.2790    34.9520     1.1310     0.3180     1.0080    25.2240 
   58.0000     2.1370    24.8650    34.5710     0.8640     0.2700     0.4150    25.1870 
   58.1250     2.2250    23.1830    34.1510     0.5160     0.2180     0.0870    25.1300 
   58.2500     2.3540    21.1960    33.9990     0.2160     0.1760    -0.0610    25.0500 
   58.3750     2.4840    18.8610    33.0720     0.0450     0.1510    -0.0930    24.9460 
   58.5000     2.5620    16.1730    32.8650     0.0190     0.1570    -0.1040    24.8210 
   58.6250     2.5460    13.1420    36.8700     0.1770     0.2380    -0.0040    24.6800 
   58.7500     2.4760     9.9250    45.1800     0.5510     0.4520     0.4910    24.5290 
   58.8750     2.3870     6.6660    53.4270     1.2090     0.8850     1.3680    24.3850 
   59.0000     2.3060     3.4780    56.6550     2.1690     1.6100     2.6720    24.2790 
   59.1250     2.2520     0.5360    55.6340     3.3450     2.6740     7.8410    24.2190 
   59.2500     2.2210    -2.0750    55.7310     4.4530     3.8980     8.7500    24.1820 
   59.3750     2.2050    -4.2480    57.6900     5.2320     5.0710     8.6390    24.1550 
   59.5000     2.1970    -5.9140    58.1440     5.6040     6.0120     8.6120    24.1410 
   59.6250     2.1950    -7.0380    54.9860     5.8160     6.7160     8.6320    24.1350 
   59.7500     2.2090    -7.7830    52.5190     6.1920     7.4100     8.7720    24.1460 
   59.8750     2.2430    -8.2750    52.5260     6.7990     8.2150     8.9800    24.1740 
   60.0000     2.2970    -8.6120    53.8810     7.5580     9.1230     9.4080    24.2230 
   60.1250     2.3530    -8.8530    55.6950     8.2400     9.9530    10.1230    24.2890 
   60.2500     2.3830    -9.0730    57.3770     8.5990    10.4530    11.7520    24.3550 
   60.3750     2.3710    -9.3140    58.2830     8.4840    10.4380    14.0200    24.4130 
   60.5000     2.3270    -9.5960    57.1210     7.9330     9.8950    14.1580    24.4600 
   60.6250     2.2720    -9.9320    56.8140     7.2130     9.0370    10.8290    24.5130 
   60.7500     2.2280   -10.3190    59.5480     6.6800     8.2730     8.5680    24.5740 
   60.8750     2.2010   -10.7370    62.2890     6.4760     7.8160     7.6010    24.6220 
   61.0000     2.1870   -11.1460    62.3410     6.5930     7.7310     7.4950    24.6320 
   61.1250     2.1840   -11.5380    60.3810     6.9490     7.9880     8.2240    24.6180 
   61.2500     2.1870   -11.8660    58.3400     7.3640     8.3810     8.6710    24.6110 
   61.3750     2.1960   -12.1200    55.8730     7.7240     8.7670     8.9530    24.6220 
   61.5000     2.2090   -12.3200    53.5870     7.9630     9.0420     9.1210    24.6360 
   61.6250     2.2190   -12.4510    54.2260     8.0500     9.1430     9.3050    24.6280 
   61.7500     2.2220   -12.5210    55.5160     8.0510     9.1310     9.2790    24.6010 
   61.8750     2.2180   -12.5610    56.0400     8.0230     9.0690     9.1020    24.5760 
   62.0000     2.2100   -12.5920    57.6140     8.0190     9.0140     9.0710    24.5760 
   62.1250     2.2060   -12.6140    60.9460     8.0770     9.0050     9.4550    24.5990 
   62.2500     2.2060   -12.6570    62.4590     8.1810     9.0350     9.8570    24.6120 
   62.3750     2.2080   -12.7350    59.5130     8.3050     9.0840     9.7960    24.6040 
   62.5000     2.2080   -12.8310    54.8250     8.4150     9.1270     9.7810    24.5860 
   62.6250     2.2030   -12.9480    52.7030     8.4760     9.1370     9.8920    24.5820 
   62.7500     2.1990   -13.0730    53.0730     8.4870     9.1150     9.5870    24.5990 
   62.8750     2.1990   -13.1700    54.6100     8.4550     9.0700     9.1460    24.6150 
   63.0000     2.2030   -13.2270    57.0810     8.3950     9.0130     8.8860    24.6180 
   63.1250     2.2080   -13.2520    59.5880     8.3250     8.9540     8.8390    24.5970 
