~V
VERS. 2.00: Ver 2.00
~W
STRT.M 56.0000:
STOP.M 214.0000:
STEP.M 0.1250:
NULL. -999.2500:
UWI. F10128:
~C
DEPT.M :
SP.MV :
GR.API :
RML.OHMM :
RI. :
RXO.OHMM :
CALI.CM :
DEN.GM/CC :
~A
# ...
   89.7500   -11.1840    98.8940     6.6110     4.9420     5.1780    24.4310     2.2720 
   89.8750   -10.7200   102.7340     6.2680     4.6090     4.8550    24.4860     2.2970 
   90.0000   -10.5890   103.0640     6.2660     4.5170     4.6970    24.4860     2.3000 
   90.1250   -10.7920    99.2370     6.5570     4.6580     5.1690    24.4120     2.2800 
   90.2500   -11.2440    93.8820     7.0260     4.9830     6.5710    24.2840     2.2470 
   90.3750   -11.8880    89.4790     7.5330     5.4110     7.7350    24.1250     2.2190 
   90.5000   -12.5850    87.5960     7.9770     5.8290     7.7070    24.0330     2.2070 
   90.6250   -13.2870    88.2200     8.3440     6.1870     7.0620    23.9790     2.2110 
   90.7500   -13.9050    89.3500     8.6620     6.4830     6.7390    23.9070     2.2160 
   90.8750   -14.2450    84.2490     8.9330     6.7210     7.4580    23.8280     2.2060 
   91.0000   -14.2150    76.8080     9.1010     6.8840     8.0450    23.7350     2.1810 
   91.1250   -13.8000    74.0870     9.0660     6.9060     8.2570    23.6120     2.1520 
   91.2500   -13.0400    76.1970     8.7500     6.7230     8.2290    23.5740     2.1390 
   91.3750   -12.0240    80.6450     8.1380     6.2950     7.4960    23.6540     2.1590 
   91.5000   -10.8980    84.7870     7.4260     5.7590     6.2850    23.9040     2.2030 
   91.6250    -9.7070    89.8580     6.7980     5.2540     5.4270    24.2410     2.2550 
   91.7500    -8.5360    96.5380     6.3990     4.8970     5.1810    24.5000     2.2980 
   91.8750    -7.5450   101.9640     6.3420     4.7870     5.1010    24.5470     2.3180 
   92.0000    -6.8170   103.9760     6.5360     4.8840     5.0200    24.4060     2.3210 
   92.1250    -6.3230   101.3600     6.8790     5.1320     5.1790    24.1710     2.3140 
   92.2500    -6.0550    95.8430     7.2390     5.4370     5.7350    24.0160     2.3070 
   92.3750    -5.9970    93.2320     7.4670     5.6720     5.9460    24.1480     2.3010 
   92.5000    -6.0650    95.1390     7.5260     5.7770     5.5460    24.4480     2.2920 
   92.6250    -6.1830    98.5570     7.4380     5.7530     5.3450    24.6780     2.2770 
   92.7500    -6.2680    99.4310     7.2570     5.6350     5.5340    24.7490     2.2590 
   92.8750    -6.2810    99.6760     7.0320     5.4610     5.5260    24.7080     2.2450 
   93.0000    -6.1910   102.2580     6.8010     5.2780     5.2810    24.6830     2.2410 
   93.1250    -6.0820   104.7710     6.5840     5.1110     5.1520    24.6760     2.2460 
   93.2500    -6.0550   106.0220     6.4190     4.9830     5.0120    24.6760     2.2540 
   93.3750    -6.1700   108.0170     6.3970     4.9530     4.8040    24.6650     2.2570 
   93.5000    -6.3680   111.2190     6.5540     5.0450     4.7940    24.6300     2.2600 
   93.6250    -6.6300   111.7270     6.8820     5.2610     5.1400    24.5820     2.2680 
   93.7500    -6.9400   107.5150     7.3060     5.5650     5.6750    24.5400     2.2840 
   93.8750    -7.3010   101.9300     7.6840     5.8810     6.1260    24.4930     2.3050 
   94.0000    -7.7210    99.5270     7.8920     6.1090     6.5750    24.4310     2.3190 
   94.1250    -8.1520    99.6840     7.8800     6.1910     6.5450    24.3600     2.3190 
   94.2500    -8.5630    98.2950     7.6910     6.1280     6.2680    24.2580     2.3070 
   94.3750    -8.9470    96.7590     7.4690     6.0000     6.1450    24.2280     2.2890 
   94.5000    -9.3580    97.8030     7.3990     5.9390     5.9110    24.2480     2.2730 
   94.6250    -9.8090    98.4380     7.6060     6.0330     5.7040    24.1150     2.2610 
   94.7500   -10.3190    94.9570     8.1260     6.3260     5.9570    23.6890     2.2520 
   94.8750   -10.8150    88.5910     8.8920     6.8190     7.0100    23.0390     2.2430 
   95.0000   -11.2470    83.4400     9.6210     7.3510     9.0800    22.4100     2.2340 
   95.1250   -11.6000    80.4210    10.0340     7.7120    10.0700    21.9880     2.2260 
   95.2500   -11.8360    79.0610     9.9220     7.6890     9.2880    21.7790     2.2210 
   95.3750   -11.9180    81.7790     9.2250     7.1750     8.1010    21.9000     2.2190 
   95.5000   -11.8430    89.1820     8.3480     6.4840     7.1550    22.4050     2.2170 
   95.6250   -11.6980    99.0950     7.7110     5.9300     6.1450    23.2360     2.2180 
   95.7500   -11.5770   105.8260     7.7050     5.7610     5.5240    24.1310     2.2300 
   95.8750   -11.6020   103.1630     8.7450     6.2380     6.1040    24.5080     2.2680 
   96.0000   -11.8200    94.5690    10.6570     7.3460     8.8330    24.5450     2.3250 
   96.1250   -12.2670    84.3720    13.0580     9.0040    16.2610    24.3780     2.3810 
   96.2500   -12.9470    77.0580    15.2500    10.8520    19.9080    24.0390     2.4040 
   96.3750   -13.8070    76.1130    16.2540    12.0580    15.1930    23.5980     2.3700 
   96.5000   -14.7970    77.2600    15.9770    12.2310    11.3350    23.2930     2.3010 
   96.6250   -15.7760    76.9410    14.8310    11.6030    10.1300    23.1870     2.2280 
   96.7500   -16.6660    74.9530    13.4830    10.7100     9.5090    23.1600     2.1760 
   96.8750   -17.3960    76.7680    12.5090     9.9960     8.9960    23.1090     2.1550 
   97.0000   -17.9670    80.4510    11.9420     9.5320     8.8110    23.0580     2.1500 
   97.1250   -18.3930    80.5820    11.6170     9.2310     9.0610    23.0790     2.1510 
   97.2500   -18.7020    77.3350    11.3540     8.9840     9.3080    23.2660     2.1510 
   97.3750   -18.9110    75.7220    11.0360     8.7090     9.1740    23.4940     2.1470 
   97.5000   -19.0580    76.1280    10.6700     8.4010     8.6540    23.6080     2.1420 
   97.6250   -19.1840    76.5380    10.3050     8.0870     8.1360    23.6200     2.1370 
   97.7500   -19.2870    76.2620     9.9960     7.8130     7.8530    23.5790     2.1310 
   97.8750   -19.3590    75.9300     9.7890     7.6270     7.7790    23.4960     2.1270 
   98.0000   -19.4240    75.8580     9.6630     7.5220     7.8630    23.4340     2.1280 
   98.1250   -19.4590    75.4960     9.5970     7.4810     7.9040    23.4080     2.1330 
   98.2500   -19.4800    73.8820     9.5700     7.4790     8.1540    23.4080     2.1430 
   98.3750   -19.5400    71.7550     9.5780     7.4940     8.5940    23.4780     2.1550 
   98.5000   -19.6430    72.2690     9.6120     7.5110     8.5940    23.5810     2.1650 
   98.6250   -19.7510    75.6070     9.6690     7.5280     8.1290    23.7200     2.1690 
   98.7500   -19.8860    77.5360     9.7350     7.5430     7.8660    23.8770     2.1680 
   98.8750   -20.0940    76.1780     9.7840     7.5500     7.9370    23.9320     2.1670 
   99.0000   -20.3820    72.3530     9.7980     7.5410     8.1260    23.9190     2.1680 
   99.1250   -20.7090    66.3920     9.7730     7.5100     8.2440    23.8760     2.1720 
   99.2500   -21.0570    61.2740     9.7140     7.4580     8.2770    23.8440     2.1790 
   99.3750   -21.3830    60.9260     9.6250     7.3860     8.1800    23.8380     2.1850 
   99.5000   -21.6720    63.8600     9.5170     7.3070     8.1630    23.8480     2.1900 
   99.6250   -21.9220    64.8360     9.4000     7.2320     8.1980    23.8710     2.1960 
   99.7500   -22.1080    62.2150     9.2930     7.1750     8.3260    23.8750     2.2030 
   99.8750   -22.1500    61.5060     9.2490     7.1610     8.4710    23.8060     2.2120 
  100.0000   -22.0650    64.7210     9.3450     7.2270     8.5170    23.5640     2.2170 
  100.1250   -21.9050    67.0190     9.6770     7.4470     8.4020    23.1540     2.2120 
  100.2500   -21.6620    64.2410    10.3080     7.8900     8.4500    22.8630     2.1940 
  100.3750   -21.3630    61.2350    11.2170     8.5940     8.5400    22.9650     2.1680 
  100.5000   -21.0270    62.0360    12.1210     9.3860     8.7340    23.2100     2.1480 
  100.6250   -20.7010    63.5500    12.7080    10.0200    10.3000    23.4020     2.1410 
  100.7500   -20.3580    62.4990    12.7190    10.2250    13.5220    23.4240     2.1450 
  100.8750   -20.0240    61.9610    12.0160     9.8050    15.5160    23.2890     2.1490 
