~V
VERS. 2.00: Ver 2.00
~W
STRT.M 58.0000:
STOP.M 228.0000:
STEP.M 0.1250:
NULL. -999.2500:
UWI. F10151:
~C
DEPT.M :
SP.MV :
GR.API :
RML.OHMM :
RI. :
RXO.OHMM :
CALI.CM :
DEN.GM/CC :
~A
# ...
  215.5000     2.4490    69.7140    12.6600    11.0240     6.9840    23.8110     2.5110 
  215.6250     2.4520    71.6290    12.6790    11.1070     8.5360    23.7920     2.5170 
  215.7500     2.4620    73.1960    12.6660    11.1510     9.7020    23.8150     2.5120 
  215.8750     2.4810    73.2410    12.6370    11.1600     9.7210    23.9940     2.4980 
  216.0000     2.5520    71.9560    12.6050    11.1460     9.4090    24.2040     2.4810 
  216.1250     2.6050    70.6190    12.5830    11.1250     8.5570    24.2780     2.4690 
  216.2500     2.6700    70.3930    12.5700    11.1100     8.3170    24.2560     2.4660 
  216.3750     2.7020    70.4540    12.5570    11.0980     9.8330    24.1840     2.4670 
  216.5000     2.7440    70.4190    12.5290    11.0770    14.4010    24.1420     2.4670 
  216.6250     2.8260    70.0480    12.4630    11.0280    18.0810    24.2320     2.4600 
  216.7500     2.9170    70.3500    12.3710    10.9540    15.4940    24.3500     2.4530 
  216.8750     3.0030    71.2710    12.2850    10.8800    13.1310    24.3560     2.4550 
  217.0000     3.0840    71.6220    12.2570    10.8500    12.9770    24.3730     2.4650 
  217.1250     3.1430    71.7280    12.3700    10.9350    13.0460    24.4060     2.4710 
  217.2500     3.1380    72.3620    12.6400    11.1530    11.3290    24.4670     2.4610 
  217.3750     3.1140    72.3620    13.0580    11.5060    10.8760    24.4670     2.4400 
  217.5000     3.1030    72.3620    13.5750    11.9620    12.6630    24.4310     2.4230 
  217.6250     3.0850    72.3620    14.1030    12.4590    14.7190    24.3180     2.4310 
  217.7500     3.0770    72.3620    14.5500    12.9120    15.1810    24.1940     2.4600 
  217.8750     3.0980    72.3620    14.8740    13.2750    14.3060    24.2060     2.4930 
  218.0000     3.1220    72.3620    15.0860    13.5360    14.0790    24.2580     2.5150 
  218.1250     3.2170    72.3620    15.2500    13.7230    16.8550    24.2460     2.5190 
  218.2500     3.3530    72.3620    15.4500    13.9040    25.3670    24.2820     2.5120 
  218.3750     3.5420    72.3620    15.7090    14.1210    33.2290    24.3600     2.5010 
  218.5000     3.7120    72.3620    16.0020    14.3820    31.0780    24.4450     2.4860 
  218.6250     3.8460    72.3620    16.2740    14.6720    22.0610    24.4390     2.4720 
  218.7500     3.9490    72.3620    16.4900    14.9550    20.1260    24.4070     2.4720 
  218.8750     3.9940    72.3620    16.6420    15.2020    21.5330    24.3970     2.4930 
  219.0000     3.9870    72.3620    16.7280    15.3900    24.4930    24.3990     2.5320 
  219.1250     3.9230    72.3620    16.7150    15.4830    22.2240    24.3270     2.5690 
  219.2500     3.8490    72.3620    16.5920    15.4720    21.9030    24.2470     2.5830 
  219.3750     3.7320    72.3620    16.3510    15.3440    18.6610    24.2550     2.5640 
  219.5000     3.6350    72.3620    16.0110    15.1080    17.1020    24.2010     2.5190 
  219.6250     3.5850    72.3620    15.6150    14.7870    16.3520    24.1740     2.4670 
  219.7500     3.5390    72.3620    15.2400    14.4520    13.3120    24.1310     2.4280 
  219.8750     3.5110    72.3620    14.9530    14.1710    11.5240    24.0980     2.4110 
  220.0000     3.5070    72.3620    14.8030    14.0030    11.3490    24.1660     2.4130 
  220.1250     3.5160    72.3620    14.8210    14.0070    10.9330    24.2870     2.4320 
  220.2500     3.5290    72.3620    14.9370    14.1420    11.7410    24.3950     2.4580 
  220.3750     3.5270    72.3620    15.0830    14.3500    14.2150    24.4560     2.4860 
  220.5000     3.4940    72.3620    15.1900    14.5550    15.8690    24.4470     2.5130 
  220.6250     3.4250    72.3620    15.2060    14.6690    14.8110    24.4190     2.5330 
  220.7500     3.3720    72.3620    15.1520    14.6870    13.1300    24.3470     2.5420 
  220.8750     3.3330    72.3620    15.0770    14.6520    13.6080    24.2100     2.5380 
  221.0000     3.3140    72.3620    15.0410    14.6360    14.2890    24.1290     2.5200 
  221.1250     3.3110    72.3620    15.1090    14.7130    14.5350    24.2600     2.4920 
  221.2500     3.3240    72.3620    15.2640    14.8790    15.0850    24.4470     2.4620 
  221.3750     3.3170    72.3620    15.4670    15.0960    15.7500    24.5410     2.4390 
  221.5000     3.2950    72.3620    15.6670    15.3160    16.3660    24.5540     2.4310 
  221.6250     3.2600    72.3620    15.8300    15.5050    20.7240    24.4970     2.4470 
  221.7500     3.2150    72.3620    15.9840    15.6850    27.8910    24.4460     2.4790 
  221.8750     3.1990    72.3620    16.1770    15.9000    34.1310    24.4490     2.5170 
  222.0000     3.2250    72.3620    16.4450    16.1840    41.1850    24.5040     2.5560 
  222.1250     3.2500    72.3620    16.7890    16.5380    40.4810    24.5160     2.5910 
  222.2500     3.2730    72.3620    17.1380    16.8930    35.4510    24.4820     2.6190 
  222.3750     3.3670    72.3620    17.4270    17.1860    26.7540    24.4050     2.6320 
  222.5000     3.4940    72.3620    17.6130    17.3730    21.0760    24.2640     2.6230 
  222.6250     3.6270    72.3620    17.6830    17.4430    19.0850    24.0820     2.5890 
  222.7500     3.7400    72.3620    17.6910    17.4600    18.3280    24.1100     2.5490 
  222.8750     3.8350    72.3620    17.6760    17.4620    18.7860    24.3320     2.5200 
  223.0000     3.8780    72.3620    17.6610    17.4660    18.8220    24.4500     2.5100 
  223.1250     3.9210    72.3620    17.6550    17.4710    17.3110    24.4100     2.5240 
  223.2500     4.0000    72.3620    17.6540    17.4710    16.0170    24.3180     2.5440 
  223.3750     4.0450    72.3620    17.6540    17.4710    16.2380    24.2280     2.5570 
  223.5000     4.0830    72.3620    17.6540    17.4710    18.3060    24.1790     2.5480 
  223.6250     4.1490    72.3620    17.6540    17.4710    19.1500    24.1520     2.5160 
  223.7500     4.2210    72.3620    17.6540    17.4710    20.4440    24.1780     2.4810 
  223.8750     4.2930    72.3620    17.6540    17.4710    21.2930    24.2240     2.4630 
  224.0000     4.3780    72.3620    17.6540    17.4710    23.3690    24.3300     2.4690 
  224.1250     4.4150    72.3620    17.6540    17.4710    25.0620    24.3290     2.4940 
  224.2500     4.4170    72.3620    17.6540    17.4710    32.2270    24.2450     2.5180 
  224.3750     4.4330    72.3620    17.6540    17.4710    42.6190    24.2330     2.5340 
  224.5000     4.4290    72.3620    17.6540    17.4710    37.5910    24.3200     2.5400 
  224.6250     4.3880    72.3620    17.6540    17.4710    31.5850    24.4600     2.5370 
  224.7500     4.3300    72.3620    17.6540    17.4710    28.8470    24.4240     2.5240 
  224.8750     4.2290    72.3620    17.6540    17.4710    29.3590    24.1620     2.5020 
  225.0000     4.1090    72.3620    17.6540    17.4710    27.4620    24.0370     2.4760 
  225.1250     3.9920    72.3620    17.6540    17.4710    27.0690    24.1800     2.4620 
  225.2500     3.8560    72.3620    17.6540    17.4710    27.4040    24.3730     2.4600 
  225.3750     3.7200    72.3620    17.6540    17.4710    30.1920    24.4460     2.4610 
  225.5000     3.5580    72.3620    17.6540    17.4710    32.7410    24.3710     2.4490 
  225.6250     3.3960    72.3620    17.6540    17.4710    36.6080    24.2490     2.4240 
  225.7500     3.2790    72.3620    17.6540    17.4710    34.8380    24.1780     2.4050 
  225.8750     3.2050    72.3620    17.6540    17.4710    23.5480    24.1250     2.4100 
  226.0000     3.1540    72.3620    17.6540    17.4710    19.4510    24.1690     2.4390 
  226.1250     3.1650    72.3620    17.6540    17.4710    18.7470    24.2550     2.4700 
  226.2500     3.2150    72.3620    17.6540    17.4710    16.4720    24.2290     2.4790 
  226.3750     3.2550    72.3620    17.6540    17.4710    13.8040    24.0490     2.4670 
  226.5000     3.3400    72.3620    17.6540    17.4710    13.2250    23.8360     2.4510 
  226.6250     3.4280    72.3620    17.6540    17.4710    14.3630    23.7290     2.4420 
