~V
VERS. 2.00: Ver 2.00
~W
STRT.M 52.0000:
STOP.M 236.0000:
STEP.M 0.1250:
NULL. -999.2500:
UWI. F10181:
~C
DEPT.M :
GR.API :
RML.OHMM :
RI. :
RXO.OHMM :
CALI.CM :
DEN.GM/CC :
SP.MV :
~A
# ...
   85.7500    57.2110    23.8070    19.6060    46.0960    23.6020     2.5320   -13.4880 
   85.8750    60.6660    19.2090    16.3770    36.6040    23.4100     2.4660   -13.5720 
   86.0000    63.7710    14.6150    12.8920    21.5550    23.1220     2.3780   -13.6430 
   86.1250    63.4120    11.8050    10.5120    12.6100    22.8800     2.3020   -13.6830 
   86.2500    62.6850    10.7120     9.3030     9.3360    22.7270     2.2560   -13.6890 
   86.3750    63.7070    10.8460     9.0150     9.5180    22.6940     2.2450   -13.6860 
   86.5000    64.5510    11.5700     9.2780    11.3280    22.7930     2.2620   -13.6860 
   86.6250    63.6300    12.1910     9.6680    14.6970    22.9150     2.2870   -13.7010 
   86.7500    62.1240    12.2420     9.7810    19.6500    22.8490     2.2970   -13.7070 
   86.8750    61.4930    11.6100     9.4520    19.7250    22.6240     2.2830   -13.7170 
   87.0000    61.1430    10.5160     8.7600    12.1930    22.4620     2.2500   -13.7340 
   87.1250    61.2030     9.4220     7.9820     8.7630    22.4220     2.2140   -13.7800 
   87.2500    63.4500     8.6690     7.3820     7.6970    22.4220     2.1880   -13.8440 
   87.3750    65.6510     8.3320     7.0420     7.4610    22.4250     2.1720   -13.8990 
   87.5000    64.8060     8.3320     6.9430     7.4260    22.4340     2.1670   -13.9530 
   87.6250    60.5170     8.5270     7.0190     7.4440    22.4500     2.1760   -13.9730 
   87.7500    56.5560     8.7300     7.1410     7.5070    22.4520     2.1950   -13.9720 
   87.8750    56.4600     8.8560     7.2450     7.6070    22.4310     2.2200   -13.9470 
   88.0000    59.5200     8.8740     7.2910     7.6680    22.4020     2.2380   -13.9040 
   88.1250    60.4570     8.7790     7.2580     7.6920    22.3810     2.2370   -13.8490 
   88.2500    57.7770     8.6390     7.1790     7.6230    22.3930     2.2190   -13.7790 
   88.3750    55.0500     8.5120     7.0910     7.5280    22.4140     2.1950   -13.6760 
   88.5000    55.8120     8.4410     7.0240     7.4910    22.4170     2.1760   -13.5310 
   88.6250    57.8660     8.4400     6.9980     7.6220    22.3880     2.1690   -13.3890 
   88.7500    58.2610     8.4750     6.9960     7.7880    22.3160     2.1700   -13.2540 
   88.8750    57.5020     8.5090     6.9990     7.9320    22.2030     2.1730   -13.1270 
   89.0000    56.2120     8.5140     6.9860     7.9670    22.0970     2.1730   -13.0180 
   89.1250    54.7000     8.4730     6.9450     8.0360    22.1210     2.1690   -12.9140 
   89.2500    53.8490     8.4070     6.8850     8.1040    22.2810     2.1620   -12.8200 
   89.3750    53.3530     8.3320     6.8190     8.0640    22.5380     2.1560   -12.7480 
   89.5000    54.4000     8.2660     6.7610     7.9440    22.7750     2.1540   -12.7000 
   89.6250    56.9100     8.2250     6.7230     7.8380    22.9020     2.1580   -12.6680 
   89.7500    58.5470     8.2100     6.7060     7.7180    22.9140     2.1640   -12.6580 
   89.8750    57.5690     8.2140     6.7070     7.6200    22.9030     2.1710   -12.6560 
   90.0000    55.4410     8.2310     6.7180     7.5710    22.9480     2.1760   -12.6570 
   90.1250    56.7310     8.2530     6.7350     7.7240    23.0020     2.1760   -12.6560 
   90.2500    59.8950     8.2730     6.7530     7.6980    23.0270     2.1740   -12.6360 
   90.3750    62.5790     8.2890     6.7700     7.5910    23.0300     2.1700   -12.5880 
   90.5000    63.1330     8.2980     6.7860     7.5240    23.0100     2.1670   -12.5100 
   90.6250    63.1060     8.3010     6.8000     7.7780    22.9550     2.1650   -12.4080 
   90.7500    63.4400     8.2990     6.8120     8.3130    22.8750     2.1650   -12.2870 
   90.8750    62.2780     8.2960     6.8240     8.6570    22.8310     2.1670   -12.1670 
   91.0000    60.4570     8.2970     6.8400     7.6980    22.8200     2.1690   -12.0460 
   91.1250    60.6880     8.3090     6.8660     7.0810    22.8200     2.1700   -11.9210 
   91.2500    62.9140     8.3350     6.9060     6.8460    22.8190     2.1710   -11.8200 
   91.3750    63.6490     8.3750     6.9610     6.8820    22.8170     2.1710   -11.7420 
   91.5000    61.3260     8.4230     7.0290     6.9720    22.8180     2.1710   -11.6790 
   91.6250    59.4390     8.4710     7.0990     7.0900    22.8080     2.1740   -11.6140 
   91.7500    58.2460     8.5140     7.1620     7.1680    22.7710     2.1780   -11.5140 
   91.8750    57.0890     8.5490     7.2110     7.1760    22.7000     2.1820   -11.3970 
   92.0000    56.6700     8.5730     7.2450     7.0660    22.6120     2.1840   -11.2700 
   92.1250    58.2790     8.5770     7.2640     6.8920    22.5350     2.1810   -11.1400 
   92.2500    60.6880     8.5590     7.2690     6.6490    22.4990     2.1760   -10.9980 
   92.3750    62.4560     8.5060     7.2520     6.4450    22.4860     2.1720   -10.8420 
   92.5000    64.2480     8.3940     7.1910     6.3660    22.4830     2.1690   -10.6590 
   92.6250    65.8520     8.1680     7.0420     6.4480    22.4830     2.1690   -10.4470 
   92.7500    66.7790     7.8190     6.7950     6.5360    22.4780     2.1740   -10.2350 
   92.8750    65.7860     7.3670     6.4610     6.5220    22.4360     2.1840   -10.0090 
   93.0000    64.5380     6.8940     6.0970     6.4320    22.3540     2.2000    -9.7620 
   93.1250    67.6750     6.5710     5.8210     6.3080    22.4900     2.2210    -9.5310 
   93.2500    75.7260     6.5100     5.7230     6.1000    23.1100     2.2440    -9.3310 
   93.3750    81.9170     6.7560     5.8500     5.8780    23.8960     2.2680    -9.1680 
   93.5000    79.7450     7.2680     6.1930     6.0840    24.1030     2.2900    -9.0590 
   93.6250    71.6340     7.9150     6.6840     6.7250    23.4950     2.2990    -9.0030 
   93.7500    65.7460     8.4750     7.1540     7.4260    23.0200     2.2910    -8.9640 
   93.8750    63.8900     8.7830     7.4600     7.4910    22.7930     2.2650    -8.9490 
   94.0000    63.6470     8.7410     7.4930     7.1860    22.7480     2.2300    -8.9550 
   94.1250    62.3160     8.2950     7.1770     7.0800    22.8170     2.2010    -8.9520 
   94.2500    61.2990     7.6130     6.6390     7.0240    22.8910     2.1860    -8.9180 
   94.3750    63.3570     6.8610     6.0110     6.7880    22.9020     2.1840    -8.8750 
   94.5000    70.6000     6.2380     5.4480     6.3560    22.9030     2.1910    -8.8450 
   94.6250    79.1130     6.0650     5.1750     5.8330    22.9820     2.2000    -8.8390 
   94.7500    81.4820     6.5650     5.3460     5.5580    23.0750     2.2110    -8.8660 
   94.8750    75.9230     7.9580     6.1340     6.0720    23.1140     2.2270    -8.9070 
   95.0000    67.7580    10.3220     7.6610     7.9790    23.1910     2.2610    -8.9660 
   95.1250    64.0600    13.4770     9.9420    12.3280    23.3600     2.3240    -9.0240 
   95.2500    64.7860    16.5290    12.4080    18.8170    23.6140     2.4010    -9.1040 
   95.3750    65.7630    18.5270    14.3670    29.1010    23.8350     2.4630    -9.2010 
   95.5000    65.0300    18.6610    15.0790    39.5780    23.8910     2.4810    -9.3080 
   95.6250    64.5600    16.5590    13.9700    32.4920    23.5930     2.4360    -9.3870 
   95.7500    65.6840    13.6030    11.9510    17.9130    23.2440     2.3620    -9.4360 
   95.8750    66.0830    10.9630     9.9320    10.6860    23.1640     2.2880    -9.4570 
   96.0000    63.4200     9.2470     8.4430     8.4510    23.2620     2.2300    -9.4480 
   96.1250    59.4180     8.5700     7.6600     7.9880    23.3000     2.1960    -9.4340 
   96.2500    58.7800     8.4480     7.3280     7.8330    23.3000     2.1770    -9.4230 
   96.3750    61.5580     8.5870     7.2720     7.8240    23.2900     2.1680    -9.4080 
   96.5000    63.9280     8.7810     7.3500     7.8570    23.2590     2.1650    -9.3680 
   96.6250    63.3690     8.9140     7.4620     7.7650    23.1730     2.1650    -9.3420 
   96.7500    61.9610     8.9780     7.5560     7.6710    23.0670     2.1670    -9.3340 
   96.8750    62.1200     8.9970     7.6270     7.6910    22.9640     2.1700    -9.3540 
