~V
VERS. 2.00: Ver 2.00
~W
STRT.M 50.0000:
STOP.M 246.0000:
STEP.M 0.1250:
NULL. -999.2500:
UWI. F10164:
~C
DEPT.M :
GR.API :
RML.OHMM :
RI. :
RXO.OHMM :
CALI.CM :
SP.MV :
DEN.GM/CC :
~A
# ...
  151.2500    86.7040    20.0430    18.9300    13.5860    23.5600   -14.5320     2.3100 
  151.3750    83.6570    21.0070    19.9580    13.5010    23.6150   -14.4930     2.2940 
  151.5000    78.8560    22.0910    21.1130    14.3160    23.9240   -14.3800     2.2700 
  151.6250    73.9580    23.1080    22.2980    16.2640    24.5470   -14.2500     2.2450 
  151.7500    72.2790    23.6650    23.1580    18.5380    25.2300   -14.1420     2.2260 
  151.8750    73.7710    23.3940    23.2870    19.6980    25.8720   -13.9830     2.2180 
  152.0000    76.1430    22.1850    22.4660    17.8590    26.2620   -13.7940     2.2240 
  152.1250    77.4900    20.2940    20.7870    13.9890    26.1960   -13.6790     2.2400 
  152.2500    78.0410    18.4690    18.9520    11.4880    25.6580   -13.5770     2.2590 
  152.3750    78.7020    17.2300    17.4940    10.9010    25.7190   -13.4520     2.2730 
  152.5000    81.3770    16.8650    16.7620    11.3680    25.7330   -13.4030     2.2780 
  152.6250    84.9470    17.5310    17.0190    11.5470    25.7330   -13.4050     2.2720 
  152.7500    84.5760    18.8640    18.0250    11.8240    25.7300   -13.3850     2.2610 
  152.8750    82.4730    20.5610    19.5410    13.1920    25.7260   -13.4240     2.2480 
  153.0000    82.7690    22.2870    21.2390    15.3860    25.8770   -13.5310     2.2380 
  153.1250    85.1470    23.6930    22.7110    15.7320    25.7280   -13.6120     2.2330 
  153.2500    85.9140    24.7220    23.7670    14.1090    25.6520   -13.7330     2.2320 
  153.3750    84.0820    25.4940    24.4340    12.9150    25.6600   -13.8710     2.2340 
  153.5000    80.8540    26.2880    24.9250    13.2480    25.7040   -13.9520     2.2420 
  153.6250    75.1810    27.5590    25.6380    14.6010    25.7450   -14.0260     2.2560 
  153.7500    70.9780    29.5880    26.9060    15.0870    25.7780   -14.1050     2.2700 
  153.8750    72.6300    32.5900    28.9830    14.5770    25.7770   -14.1430     2.2770 
  154.0000    76.8510    36.6870    32.0460    14.4750    25.7380   -14.1660     2.2730 
  154.1250    79.1600    42.0110    36.3120    15.3160    25.6470   -14.1710     2.2570 
  154.2500    83.3730    48.0610    41.3930    16.1150    25.5560   -14.1200     2.2400 
  154.3750    86.3910    54.2400    46.7980    16.1100    25.4190   -14.1020     2.2270 
  154.5000    81.7180    59.7500    51.8280    15.6560    25.3450   -14.1720     2.2210 
  154.6250    71.1890    63.5310    55.5270    15.1810    25.4640   -14.1780     2.2180 
  154.7500    67.4320    65.4710    57.6760    14.3790    25.5010   -14.1600     2.2140 
  154.8750    71.0240    65.7010    58.3150    13.7560    25.3830   -14.1370     2.2090 
  155.0000    73.0200    64.5270    57.6760    13.9260    25.1970   -14.0500     2.2040 
  155.1250    69.2980    61.9890    55.8170    14.8260    25.0300   -13.9690     2.2080 
  155.2500    62.9650    58.2860    52.9550    15.7300    24.9560   -13.9400     2.2250 
  155.3750    59.6700    53.3450    49.0190    16.8060    25.1030   -13.8610     2.2540 
  155.5000    62.2830    47.2560    44.0150    18.6280    25.3290   -13.6530     2.2890 
  155.6250    67.1210    40.3980    38.1430    20.0910    25.4510   -13.4820     2.3130 
  155.7500    70.3290    33.6800    32.1910    19.1350    25.4520   -13.3510     2.3200 
  155.8750    72.2740    27.8060    26.8230    16.4810    25.3870   -13.2200     2.3100 
  156.0000    74.3010    23.2490    22.5370    13.8530    25.3410   -13.1590     2.2910 
  156.1250    76.7340    20.4270    19.7680    12.2250    25.4250   -13.1040     2.2730 
  156.2500    77.9630    18.9600    18.2380    11.8100    25.4840   -13.0150     2.2630 
  156.3750    77.1010    18.5440    17.7480    12.5380    25.5030   -12.9590     2.2600 
  156.5000    75.4070    18.7170    17.9740    13.8270    25.5040   -12.9450     2.2620 
  156.6250    76.3850    18.7730    18.3430    14.3980    25.4780   -12.9710     2.2700 
  156.7500    80.5270    18.0640    18.1130    14.0040    25.3870   -13.0550     2.2810 
  156.8750    84.9430    16.3160    16.8490    13.0130    25.2270   -13.1390     2.2950 
  157.0000    88.2970    13.7120    14.5850    11.1310    25.0370   -13.1710     2.3110 
  157.1250    90.2940    10.8550    11.8260     8.3690    24.8460   -13.1790     2.3270 
  157.2500    91.3390     8.4220     9.3200     6.0390    24.6590   -13.1340     2.3420 
  157.3750    92.0210     6.6770     7.3940     4.6700    24.5340   -13.0720     2.3520 
  157.5000    94.3350     5.6020     6.1070     4.2010    24.4210   -13.0610     2.3570 
  157.6250    98.0920     5.0900     5.4250     4.4130    24.3090   -12.9880     2.3530 
  157.7500    98.9780     4.8680     5.1040     4.8020    24.1640   -12.8320     2.3470 
  157.8750    97.6740     4.8160     5.0210     5.0190    23.9690   -12.6680     2.3420 
  158.0000    98.7210     4.8530     5.0800     4.9430    23.6850   -12.4510     2.3400 
  158.1250   102.8790     4.9370     5.2200     4.7890    23.3850   -12.2370     2.3390 
  158.2500   105.4980     5.0290     5.3780     4.8020    23.2420   -12.1090     2.3360 
  158.3750   105.4130     5.1010     5.5160     5.0510    23.2750   -12.0130     2.3280 
  158.5000   103.4840     5.1210     5.5910     5.4400    23.2670   -11.8710     2.3190 
  158.6250   101.2680     5.0560     5.5450     5.6190    23.1940   -11.7320     2.3110 
  158.7500   101.1660     4.9350     5.3990     5.5150    23.2140   -11.6150     2.3050 
  158.8750   102.7670     4.8210     5.2050     5.4140    23.3560   -11.5160     2.3020 
  159.0000   103.2540     4.7890     5.0480     5.5100    23.6860   -11.5110     2.3010 
  159.1250   100.2140     4.9280     5.0300     5.7420    24.1850   -11.6120     2.3040 
  159.2500    96.7980     5.2300     5.1670     6.0690    24.2600   -11.6600     2.3090 
  159.3750    95.2890     5.6660     5.4430     6.5860    23.8230   -11.6820     2.3130 
  159.5000    96.9500     6.1900     5.8160     7.1250    23.2260   -11.7430     2.3160 
  159.6250   102.2290     6.7540     6.2420     7.6210    22.9900   -11.8150     2.3140 
  159.7500   106.6830     7.3370     6.6810     8.8870    23.0700   -11.9230     2.3110 
  159.8750   106.7020     7.9850     7.1510    11.7530    23.2070   -12.0910     2.3050 
  160.0000   103.3060     8.7980     7.7140    16.5240    23.2980   -12.2490     2.2980 
  160.1250    99.1110    10.0070     8.5350    18.1140    23.4230   -12.3880     2.2900 
  160.2500    94.9300    11.7730     9.7490    14.2670    23.5930   -12.5790     2.2830 
  160.3750    89.4990    14.2800    11.5360    17.5440    23.7320   -12.7840     2.2740 
  160.5000    82.9240    17.6480    14.0720    24.1820    23.7880   -13.0190     2.2630 
  160.6250    78.7420    21.9380    17.5980    25.5040    23.7140   -13.3330     2.2480 
  160.7500    77.9640    26.6320    21.8110    26.0570    23.6130   -13.5980     2.2350 
  160.8750    78.4900    31.1280    26.2370    25.8240    23.6270   -13.8320     2.2290 
  161.0000    77.4440    34.7750    30.2070    23.9570    23.6590   -14.0740     2.2320 
  161.1250    75.9730    36.9760    32.9610    20.9830    23.4080   -14.2350     2.2430 
  161.2500    76.2240    38.1360    34.6430    18.9390    22.9300   -14.3860     2.2540 
  161.3750    77.6180    38.8060    35.6830    18.6990    22.6560   -14.6010     2.2610 
  161.5000    78.6170    39.5130    36.6080    20.2870    22.8660   -14.8130     2.2600 
  161.6250    78.4390    40.5070    37.7760    23.2770    23.3310   -14.9530     2.2500 
  161.7500    77.0350    41.4730    39.0430    27.0340    23.7300   -15.1000     2.2350 
  161.8750    77.0540    41.8620    39.9790    31.6930    23.7620   -15.2010     2.2200 
  162.0000    79.5900    41.0760    40.0060    36.9480    23.7420   -15.3010     2.2080 
  162.1250    81.7600    38.4810    38.3690    40.7560    24.1290   -15.5220     2.2040 
  162.2500    80.7870    34.4740    35.2740    41.6190    24.6730   -15.7410     2.2080 
  162.3750    77.6000    30.2240    31.2320    38.5680    24.9990   -15.8720     2.2160 
