~V
VERS. 2.00: Ver 2.00
~W
STRT.M 53.0000:
STOP.M 219.0000:
STEP.M 0.1250:
NULL. -999.2500:
UWI. F10171:
~C
DEPT.M :
SP.MV :
DEN.GM/CC :
GR.API :
RML.OHMM :
RI. :
RXO.OHMM :
CALI.CM :
~A
# ...
  131.7500   -25.2810     2.4590    75.2090    20.3390    20.5520    17.7740    24.3910 
  131.8750   -25.4470     2.4280    70.9150    20.1940    20.2380    16.6240    24.4820 
  132.0000   -25.6530     2.3780    68.4860    20.4050    20.2150    17.9020    24.6560 
  132.1250   -25.8090     2.3180    70.9770    20.7990    20.3870    20.9330    24.8310 
  132.2500   -25.9950     2.2690    73.4280    21.1600    20.5930    21.7720    24.9070 
  132.3750   -26.2560     2.2620    72.2020    21.3610    20.7230    19.2510    24.8040 
  132.5000   -26.4740     2.2970    73.1380    21.5300    20.8520    17.4670    24.6310 
  132.6250   -26.6690     2.3470    78.1460    21.8570    21.1240    17.9230    24.5200 
  132.7500   -26.8860     2.3820    81.7400    22.4830    21.6560    20.1810    24.4830 
  132.8750   -27.0800     2.3910    77.7790    23.4330    22.5040    24.0170    24.4540 
  133.0000   -27.2030     2.3940    71.4790    24.4770    23.4930    25.6010    24.4010 
  133.1250   -27.2810     2.4030    69.7780    25.4280    24.4590    26.7780    24.3690 
  133.2500   -27.3190     2.4170    73.0530    26.1830    25.2880    27.3610    24.4060 
  133.3750   -27.2400     2.4270    75.6460    26.7120    25.9140    27.1430    24.5320 
  133.5000   -27.0690     2.4330    76.1180    27.0810    26.3680    26.5930    24.6240 
  133.6250   -26.8520     2.4380    75.4640    27.2500    26.6060    27.5270    24.6140 
  133.7500   -26.5870     2.4410    73.6080    27.1040    26.5250    28.7360    24.5260 
  133.8750   -26.2310     2.4290    71.7160    26.4690    25.9620    27.4330    24.4980 
  134.0000   -25.8300     2.4040    71.4930    25.4570    25.0230    25.8600    24.5320 
  134.1250   -25.4560     2.3760    72.9670    24.2340    23.8510    23.9640    24.5660 
  134.2500   -25.0730     2.3620    75.0350    23.0050    22.6300    22.4370    24.6250 
  134.3750   -24.6440     2.3700    76.1430    21.9500    21.5280    20.8570    24.8160 
  134.5000   -24.2800     2.3840    75.4550    21.0440    20.5650    19.9290    24.9430 
  134.6250   -24.0070     2.3950    73.6910    20.2010    19.6870    19.1600    24.9840 
  134.7500   -23.7240     2.4070    73.2420    19.3550    18.8380    18.2330    24.9830 
  134.8750   -23.4910     2.4200    73.5960    18.5410    18.0360    18.1360    24.9880 
  135.0000   -23.3790     2.4250    73.8830    17.8780    17.3630    17.1380    24.9920 
  135.1250   -23.2820     2.4220    75.3650    17.4910    16.9190    16.1850    24.9930 
  135.2500   -23.2180     2.4160    76.5690    17.4560    16.7750    16.0210    24.9920 
  135.3750   -23.2860     2.4150    75.3440    17.8040    16.9780    16.9490    24.9900 
  135.5000   -23.4070     2.4100    74.1890    18.3560    17.3900    17.6760    24.9900 
  135.6250   -23.4950     2.3980    74.2900    18.9640    17.8890    18.3900    24.9890 
  135.7500   -23.6270     2.3770    73.6240    19.4940    18.3510    18.2940    24.9890 
  135.8750   -23.8110     2.3540    70.8340    19.8390    18.6580    18.8390    24.9790 
  136.0000   -23.9650     2.3400    69.5240    20.0070    18.8040    18.9840    24.9510 
  136.1250   -24.1060     2.3480    70.8390    19.9960    18.7840    20.2580    24.9130 
  136.2500   -24.2190     2.3760    72.8490    19.8040    18.6030    21.8180    24.8720 
  136.3750   -24.2980     2.4090    73.8520    19.4670    18.2910    21.2160    24.8540 
  136.5000   -24.3500     2.4250    73.3820    19.1440    17.9830    19.5090    24.8350 
  136.6250   -24.3700     2.4190    73.0660    18.9510    17.7770    18.3230    24.7880 
  136.7500   -24.3290     2.4050    74.6880    18.9350    17.7130    16.8980    24.7160 
  136.8750   -24.2160     2.4030    76.3170    19.0460    17.7580    18.0420    24.6240 
  137.0000   -24.0570     2.4040    74.9950    19.0490    17.7300    18.4970    24.6000 
  137.1250   -23.8430     2.3920    71.5070    18.6510    17.3750    18.0560    24.6430 
  137.2500   -23.6270     2.3680    67.6950    17.6110    16.4590    15.9630    24.6910 
  137.3750   -23.3840     2.3560    66.1520    15.8590    14.8910    14.3860    24.6470 
  137.5000   -23.0860     2.3600    68.7530    13.8580    13.0740    13.3520    24.5890 
  137.6250   -22.8350     2.3610    75.0210    12.0250    11.3680    11.8460    24.5630 
  137.7500   -22.6500     2.3460    80.5560    10.6820    10.0460     9.5310    24.5580 
  137.8750   -22.4500     2.3280    80.4130    10.0660     9.3210     7.9060    24.5570 
  138.0000   -22.2900     2.3170    78.4730     9.9830     9.0670     8.1630    24.5630 
  138.1250   -22.2630     2.3120    77.9920    10.2350     9.1540     8.9620    24.5930 
  138.2500   -22.2590     2.3130    76.8750    10.5860     9.4090     9.6420    24.6580 
  138.3750   -22.2670     2.3210    72.3430    10.7840     9.6250     9.9840    24.7260 
  138.5000   -22.3970     2.3260    67.7670    10.7610     9.6860     9.6930    24.7230 
  138.6250   -22.5490     2.3180    67.2240    10.6050     9.6110     8.7990    24.6800 
  138.7500   -22.6810     2.2940    69.1100    10.4690     9.4970     8.3900    24.6510 
  138.8750   -22.8850     2.2650    69.5330    10.4420     9.4220     8.8730    24.7380 
  139.0000   -23.0770     2.2380    68.6090    10.4260     9.3440     9.0820    24.8470 
  139.1250   -23.1730     2.2170    69.7230    10.2780     9.1640     9.0270    24.8910 
  139.2500   -23.2730     2.2030    72.9850     9.8910     8.7990     8.8220    24.8720 
  139.3750   -23.3750     2.1980    74.3660     9.2690     8.2390     8.2600    24.8560 
  139.5000   -23.3580     2.2010    73.0350     8.6570     7.6670     7.5070    24.8470 
  139.6250   -23.2820     2.2080    72.2690     8.2840     7.2610     6.7460    24.8280 
  139.7500   -23.2120     2.2170    73.8320     8.3140     7.1560     6.4540    24.7770 
  139.8750   -23.0830     2.2340    73.3720     8.8450     7.4610     7.0550    24.6990 
  140.0000   -22.8880     2.2550    70.0930     9.6490     8.0420     8.4550    24.5810 
  140.1250   -22.6650     2.2700    68.6910    10.4560     8.7180    10.0850    24.4090 
  140.2500   -22.4240     2.2760    70.5780    10.9590     9.2380    11.1160    24.2220 
  140.3750   -22.1570     2.2770    72.0950    10.8730     9.3180    11.0210    24.1340 
  140.5000   -21.8570     2.2740    71.6230    10.3870     9.0260     9.8880    24.2080 
  140.6250   -21.5700     2.2610    70.5740     9.7930     8.5610     8.5630    24.4120 
  140.7500   -21.2770     2.2470    69.5580     9.3540     8.1350     8.2860    24.6170 
  140.8750   -20.9430     2.2420    69.1430     9.2030     7.8800     8.3980    24.6610 
  141.0000   -20.6850     2.2390    70.3230     9.2030     7.7420     8.4280    24.5940 
  141.1250   -20.5000     2.2330    72.8600     9.2030     7.6320     8.8170    24.5660 
  141.2500   -20.2880     2.2280    75.5440     9.0600     7.4570     8.7770    24.6240 
  141.3750   -20.1020     2.2320    78.2420     8.6860     7.1450     7.7150    24.7200 
  141.5000   -20.0100     2.2430    79.2280     8.2120     6.7680     6.6810    24.8360 
  141.6250   -19.9190     2.2580    77.9870     7.8160     6.4380     6.4280    24.9570 
  141.7500   -19.8420     2.2810    76.5540     7.6710     6.2800     6.8200    25.0310 
  141.8750   -19.8790     2.3110    74.8970     7.9670     6.4420     7.4880    25.0300 
  142.0000   -19.9250     2.3220    71.5350     8.6330     6.9020     7.9820    25.0040 
  142.1250   -19.9520     2.2960    68.9040     9.5000     7.5660     8.9350    24.9900 
  142.2500   -20.0380     2.2450    70.0940    10.2660     8.2270    10.6790    24.9850 
  142.3750   -20.1600     2.2140    73.6990    10.4960     8.5420    11.2430    24.9720 
  142.5000   -20.2420     2.2120    75.7680    10.1270     8.3960    10.0390    24.9470 
  142.6250   -20.3200     2.2190    76.1430     9.3410     7.8740     8.0640    24.9270 
  142.7500   -20.4220     2.2180    75.3400     8.4730     7.2040     6.8290    24.9250 
  142.8750   -20.5110     2.2130    73.5720     7.8540     6.6400     6.8530    24.9310 
