~V
VERS. 2.00: Ver 2.00
~W
STRT.M 54.0000:
STOP.M 236.0000:
STEP.M 0.1250:
NULL. -999.2500:
UWI. F10195:
~C
DEPT.M :
GR.API :
RML.OHMM :
RI. :
RXO.OHMM :
CALI.CM :
SP.MV :
DEN.GM/CC :
~A
# ...
  132.7500    74.5690    16.3370    16.2520    17.0660    26.9390   -11.5420     2.4290 
  132.8750    75.4520    16.8650    16.6560    17.7410    26.9370   -11.5860     2.4250 
  133.0000    74.4050    17.3550    17.0230    19.0580    26.8800   -11.6990     2.4280 
  133.1250    69.3050    17.8040    17.3570    20.6680    27.0510   -11.8300     2.4340 
  133.2500    64.1540    18.3550    17.7680    19.8360    27.3650   -11.9070     2.4320 
  133.3750    64.0110    19.2200    18.4300    19.6680    27.5920   -11.9400     2.4250 
  133.5000    67.9350    20.5650    19.5050    20.9230    27.7940   -11.9510     2.4180 
  133.6250    71.4350    22.4140    21.0610    23.3250    28.1350   -11.9890     2.4140 
  133.7500    71.2700    24.5610    23.0300    26.9130    28.5370   -12.1190     2.4070 
  133.8750    69.9600    26.4420    24.9410    31.9370    28.7850   -12.2580     2.3890 
  134.0000    70.6920    27.5050    26.2490    34.8330    28.6140   -12.3190     2.3700 
  134.1250    73.2580    27.4020    26.5170    33.5210    28.0230   -12.3120     2.3700 
  134.2500    74.6690    26.1280    25.5990    28.2200    27.3650   -12.3140     2.3990 
  134.3750    75.7270    24.4580    24.1740    24.4800    27.1000   -12.3610     2.4370 
  134.5000    75.3230    22.9500    22.7720    23.7000    27.2720   -12.4180     2.4600 
  134.6250    73.3740    21.9180    21.7330    25.0240    27.6940   -12.4220     2.4560 
  134.7500    74.1830    21.4480    21.2100    24.1040    27.9230   -12.3250     2.4360 
  134.8750    78.1830    21.2510    20.9900    22.1170    27.7020   -12.2210     2.4250 
  135.0000    80.2890    21.0880    20.8670    20.6420    27.1370   -12.1900     2.4300 
  135.1250    77.4760    20.7680    20.6430    20.1910    26.7000   -12.2210     2.4470 
  135.2500    74.7550    20.1580    20.1410    19.5990    26.6000   -12.2120     2.4590 
  135.3750    73.9480    19.3320    19.3830    19.1560    26.6020   -12.1720     2.4600 
  135.5000    73.3550    18.3590    18.4220    18.7490    26.5260   -12.1550     2.4580 
  135.6250    73.4930    17.3110    17.3420    17.2710    26.3790   -12.1780     2.4570 
  135.7500    74.2200    16.2810    16.2610    15.8860    26.2370   -12.2360     2.4500 
  135.8750    74.8280    15.3790    15.3010    14.4230    26.1850   -12.2700     2.4290 
  136.0000    75.2250    14.7230    14.5550    13.3990    26.2660   -12.2900     2.3910 
  136.1250    76.8030    14.4390    14.1130    12.5660    26.3870   -12.3550     2.3440 
  136.2500    77.9960    14.6950    14.1330    12.5020    26.3380   -12.5200     2.2950 
  136.3750    78.2840    15.3660    14.5700    13.3310    25.7690   -12.7340     2.2630 
  136.5000    78.7760    16.2590    15.3160    14.3240    24.6070   -12.9380     2.2760 
  136.6250    80.1540    17.0930    16.1380    15.8100    23.2870   -13.1430     2.3360 
  136.7500    82.0500    17.5030    16.6620    16.8850    22.5900   -13.3420     2.4160 
  136.8750    82.4070    17.4200    16.7220    17.3760    22.3510   -13.5670     2.4660 
  137.0000    81.6080    16.9620    16.3630    16.0160    22.2280   -13.8230     2.4800 
  137.1250    81.5170    16.3780    15.7940    14.2030    22.0740   -14.0640     2.4820 
  137.2500    83.2170    15.9470    15.2870    13.8400    21.9360   -14.2590     2.4880 
  137.3750    84.4640    15.7880    15.0070    13.9800    21.8610   -14.3940     2.4960 
  137.5000    84.4970    15.9330    15.0190    14.5680    21.8380   -14.4960     2.5000 
  137.6250    83.9110    16.3620    15.3240    14.8440    21.8460   -14.6070     2.4970 
  137.7500    83.7130    17.0280    15.8890    15.2850    21.8650   -14.7320     2.4920 
  137.8750    84.8150    17.7160    16.5260    15.9060    21.8600   -14.8120     2.4940 
  138.0000    87.5980    18.1090    16.9670    15.8910    21.8120   -14.8090     2.5020 
  138.1250    89.3570    17.7990    16.8260    15.9110    21.7600   -14.7540     2.5060 
  138.2500    86.3990    16.3730    15.6550    15.5720    21.7170   -14.7110     2.4890 
  138.3750    82.4780    14.2290    13.7670    14.0370    21.6970   -14.6780     2.4530 
  138.5000    81.2800    11.8880    11.6380    11.3810    21.7600   -14.5980     2.4070 
  138.6250    83.3010     9.8500     9.7270     8.8950    21.8460   -14.4180     2.3590 
  138.7500    85.1400     8.4900     8.3730     7.3330    21.9310   -14.1850     2.3180 
  138.8750    86.2080     7.6890     7.5020     7.0440    22.1120   -13.9730     2.2870 
  139.0000    86.5670     7.2890     7.0070     7.0290    22.5110   -13.7600     2.2670 
  139.1250    85.6420     7.1360     6.7720     6.7120    23.0110   -13.4600     2.2580 
  139.2500    84.9540     7.1450     6.7400     6.4980    23.2500   -13.0280     2.2560 
  139.3750    86.6510     7.2570     6.8470     6.5960    23.3550   -12.5900     2.2550 
  139.5000    88.5100     7.4870     7.0800     6.4880    23.4550   -12.1980     2.2540 
  139.6250    87.4450     7.8160     7.4060     6.4730    23.5700   -11.8360     2.2550 
  139.7500    82.4380     8.0960     7.6820     6.9540    23.5900   -11.4840     2.2630 
  139.8750    77.4230     8.1070     7.7040     7.9550    23.5480   -11.1190     2.2840 
  140.0000    76.2250     7.7190     7.3420     8.5350    23.4870   -10.7870     2.3180 
  140.1250    80.1120     6.9900     6.6470     7.8490    23.4420   -10.5910     2.3470 
  140.2500    87.4230     6.2150     5.8730     6.1010    23.3900   -10.5580     2.3400 
  140.3750    93.1910     5.7470     5.3200     5.0470    23.3300   -10.5790     2.3100 
  140.5000    93.3110     5.7720     5.1360     4.9550    23.2870   -10.6140     2.2830 
  140.6250    87.3950     6.3180     5.3680     5.6910    23.2940   -10.6710     2.2660 
  140.7500    80.0950     7.2980     6.0140     7.3390    23.3740   -10.7550     2.2460 
  140.8750    76.0170     8.3350     6.8240     9.0120    23.4450   -10.8930     2.2230 
  141.0000    74.8040     9.0910     7.5260     9.2860    23.4450   -11.0600     2.2060 
  141.1250    76.0170     9.3480     7.8830     8.6650    23.4180   -11.1590     2.2030 
  141.2500    79.7510     9.1220     7.8140     8.1340    23.4060   -11.1940     2.2120 
  141.3750    81.1220     8.8000     7.5970     7.8110    23.4040   -11.2200     2.2260 
  141.5000    78.6940     8.6470     7.4470     7.6980    23.3990   -11.2780     2.2390 
  141.6250    76.4370     8.7860     7.4870     8.0700    23.3930   -11.3540     2.2520 
  141.7500    78.0730     9.2010     7.7420     8.7320    23.3910   -11.4080     2.2600 
  141.8750    80.7050     9.6800     8.0780     9.3250    23.4100   -11.4580     2.2570 
  142.0000    81.2290    10.0600     8.3810     9.5810    23.4310   -11.5080     2.2420 
  142.1250    78.9830    10.2210     8.5510     9.5130    23.4170   -11.5860     2.2280 
  142.2500    77.4360    10.0540     8.4770     9.2320    23.3890   -11.6440     2.2230 
  142.3750    78.6520     9.6330     8.1770     8.7150    23.3540   -11.6470     2.2260 
  142.5000    80.8420     9.0290     7.6980     8.1650    23.3160   -11.6090     2.2360 
  142.6250    81.3230     8.3320     7.1190     7.6050    23.2550   -11.5680     2.2530 
  142.7500    80.9420     7.6450     6.5300     6.9560    23.1540   -11.5750     2.2720 
  142.8750    81.1170     7.0580     6.0030     6.3140    23.0240   -11.5680     2.2870 
  143.0000    80.2520     6.6290     5.5780     5.8390    22.9030   -11.5140     2.2960 
  143.1250    78.2130     6.3880     5.2770     5.6080    22.8340   -11.4210     2.2980 
  143.2500    78.7660     6.3650     5.1430     5.4830    22.8220   -11.3300     2.2960 
  143.3750    82.5680     6.5040     5.1560     5.5530    22.8730   -11.2810     2.2910 
  143.5000    86.5330     6.7490     5.2960     5.8580    22.9240   -11.2690     2.2830 
  143.6250    88.1980     7.0170     5.5070     6.1790    22.9520   -11.2750     2.2730 
  143.7500    88.3140     7.1900     5.6980     6.2120    23.0290   -11.2530     2.2670 
  143.8750    86.6970     7.2070     5.7850     6.1510    23.0650   -11.2020     2.2650 
