~V
VERS. 2.00: Ver 2.00
~W
STRT.M 49.0000:
STOP.M 251.0000:
STEP.M 0.1250:
NULL. -999.2500:
UWI. F10165:
~C
DEPT.M :
GR.API :
RML.OHMM :
RI. :
RXO.OHMM :
CALI.CM :
SP.MV :
DEN.GM/CC :
~A
# ...
   82.7500    51.2120    11.5730     8.2370    12.3390    25.2730   -22.5430     2.1120 
   82.8750    50.2130    11.5650     8.1920    11.8480    25.2520   -22.5450     2.1110 
   83.0000    52.1150    11.5100     8.1000    11.7880    25.2820   -22.5330     2.1160 
   83.1250    54.6360    11.3680     7.9510    11.4980    25.3840   -22.4510     2.1240 
   83.2500    55.2090    11.1310     7.7560    11.0460    25.5470   -22.3450     2.1350 
   83.3750    55.3150    10.8080     7.5260    10.9250    25.7140   -22.2170     2.1500 
   83.5000    57.6800    10.4450     7.2880    10.9360    25.8180   -22.0400     2.1670 
   83.6250    62.1820    10.1340     7.0930    11.1410    25.8460   -21.8550     2.1770 
   83.7500    64.8700     9.9410     6.9780    10.8140    25.8410   -21.6500     2.1760 
   83.8750    64.7120     9.9200     6.9690    10.5280    25.8030   -21.4160     2.1690 
   84.0000    63.1800    10.1100     7.0850    10.6930    25.7180   -21.2030     2.1630 
   84.1250    61.5330    10.5570     7.3470    11.2650    25.6390   -21.0290     2.1550 
   84.2500    58.7550    11.1400     7.6920    11.4100    25.5880   -20.8680     2.1450 
   84.3750    55.8920    11.6540     8.0140    11.4880    25.5840   -20.7430     2.1380 
   84.5000    55.6210    11.8280     8.1610    11.8280    25.6540   -20.6430     2.1460 
   84.6250    59.4860    11.3670     7.9520    12.1970    25.8140   -20.5300     2.1710 
   84.7500    67.2550    10.4530     7.4660    11.3000    25.9390   -20.4310     2.1920 
   84.8750    76.2520     9.4090     6.8620     9.0410    25.9850   -20.3270     2.1910 
   85.0000    81.1030     8.5960     6.3360     7.4210    25.9870   -20.1930     2.1730 
   85.1250    79.0460     8.3550     6.0860     7.2700    25.9530   -20.0810     2.1550 
   85.2500    76.3130     8.6340     6.1280     7.9070    25.8700   -19.9840     2.1390 
   85.3750    74.9580     9.2800     6.4200     9.0420    25.7720   -19.8670     2.1270 
   85.5000    71.9430    10.0130     6.8430     9.9410    25.7320   -19.7610     2.1250 
   85.6250    68.0410    10.4290     7.1930    10.0930    25.7730   -19.7180     2.1310 
   85.7500    67.9660    10.4230     7.3470     9.6940    25.8350   -19.6980     2.1370 
   85.8750    71.0560    10.1600     7.3350     8.9680    25.8840   -19.6930     2.1420 
   86.0000    72.7680     9.9200     7.2770     8.3270    25.8850   -19.7200     2.1460 
   86.1250    73.4710     9.9160     7.2850     8.1270    25.8350   -19.7580     2.1440 
   86.2500    74.5130    10.0630     7.3480     8.6800    25.7930   -19.7880     2.1390 
   86.3750    75.3220    10.1680     7.3780     9.6080    25.7830   -19.8450     2.1440 
   86.5000    76.1280    10.0250     7.2720     9.9490    25.8280   -19.9090     2.1650 
   86.6250    79.7310     9.5040     6.9530     8.8240    25.9720   -19.9200     2.1980 
   86.7500    85.5430     8.8160     6.5240     7.1520    26.1450   -19.9230     2.2270 
   86.8750    88.9970     8.1850     6.1020     6.4130    26.2480   -19.9540     2.2380 
   87.0000    87.8860     7.7720     5.7840     6.3080    26.2780   -19.9770     2.2310 
   87.1250    85.0710     7.6750     5.6480     6.3430    26.2780   -19.9970     2.2160 
   87.2500    84.6140     7.8160     5.6700     6.4170    26.2780   -20.0380     2.2010 
   87.3750    85.6920     8.1410     5.8330     6.6990    26.2780   -20.0750     2.1850 
   87.5000    84.2510     8.5960     6.1030     7.2150    26.2780   -20.1390     2.1670 
   87.6250    79.4680     9.1030     6.4320     7.8370    26.2780   -20.2660     2.1500 
   87.7500    74.2150     9.5300     6.7320     8.5550    26.2780   -20.4050     2.1390 
   87.8750    70.5130     9.7610     6.9290     9.6180    26.2700   -20.5620     2.1350 
   88.0000    69.5840     9.7470     6.9810    10.6610    26.2460   -20.7640     2.1360 
   88.1250    73.3280     9.5570     6.9060    10.2680    26.1810   -20.9650     2.1360 
   88.2500    78.8880     9.4160     6.8230     9.4130    26.0850   -21.1390     2.1300 
   88.3750    81.7200     9.4750     6.8230     9.5020    25.9580   -21.3170     2.1190 
   88.5000    79.5020     9.7870     6.9540     9.8210    25.8210   -21.4710     2.1090 
   88.6250    75.8670    10.3120     7.2200    10.8940    25.6860   -21.5840     2.1060 
   88.7500    71.5600    10.8540     7.5260    11.6510    25.5960   -21.6950     2.1060 
   88.8750    66.3300    11.2560     7.7780    11.9980    25.5600   -21.7710     2.1020 
   89.0000    62.3150    11.4300     7.9060    12.0230    25.5530   -21.7870     2.0930 
   89.1250    61.3920    11.3670     7.8750    11.4450    25.5530   -21.7910     2.0820 
   89.2500    61.5640    11.1710     7.7390    10.9240    25.5530   -21.7920     2.0770 
   89.3750    62.3410    10.8750     7.5210    10.7650    25.5530   -21.7450     2.0820 
   89.5000    66.2560    10.4970     7.2470    10.9840    25.5530   -21.6600     2.0960 
   89.6250    73.3500    10.0890     6.9590    11.2570    25.5660   -21.5740     2.1160 
   89.7500    77.4790     9.7480     6.7120    10.8860    25.6010   -21.4500     2.1330 
   89.8750    78.3720     9.5580     6.5450     9.8610    25.6330   -21.3170     2.1440 
   90.0000    78.5590     9.5680     6.4810     8.9960    25.6050   -21.1950     2.1440 
   90.1250    77.2580     9.7740     6.5320     9.7290    25.5430   -21.0460     2.1340 
   90.2500    74.7050    10.0490     6.6490    10.0960    25.5190   -20.9120     2.1220 
   90.3750    73.4330    10.3010     6.7940     9.9950    25.5310   -20.8180     2.1140 
   90.5000    74.5120    10.4790     6.9380     9.8410    25.5280   -20.7420     2.1110 
   90.6250    74.5900    10.5870     7.0640    10.0410    25.4790   -20.6900     2.1100 
   90.7500    71.9440    10.6850     7.1740    10.2460    25.4130   -20.6750     2.1120 
   90.8750    68.4550    10.8010     7.2750    10.3690    25.3630   -20.6660     2.1170 
   91.0000    66.2000    10.9170     7.3600    10.3560    25.3480   -20.6720     2.1230 
   91.1250    67.6460    10.9640     7.4030    10.3550    25.3870   -20.6930     2.1200 
   91.2500    69.9870    10.9120     7.3960    10.1090    25.4680   -20.6780     2.1100 
   91.3750    69.7290    10.7680     7.3410     9.9060    25.5300   -20.6430     2.1000 
   91.5000    68.3680    10.5660     7.2500     9.8400    25.5600   -20.6190     2.0940 
   91.6250    69.9880    10.3440     7.1370     9.7300    25.5810   -20.5560     2.0920 
   91.7500    71.8560    10.1450     7.0250     9.4930    25.6090   -20.4460     2.0910 
   91.8750    70.5590     9.9920     6.9310     9.2540    25.6140   -20.3290     2.0960 
   92.0000    67.8830     9.9010     6.8640     9.1700    25.5950   -20.2100     2.1070 
   92.1250    68.0060     9.8990     6.8400     9.1620    25.5750   -20.0870     2.1200 
   92.2500    70.6320     9.9770     6.8580     9.2070    25.5830   -19.9960     2.1310 
   92.3750    73.5280    10.1060     6.9070     9.2120    25.6060   -19.9300     2.1440 
   92.5000    75.5630    10.2060     6.9510     9.2380    25.6160   -19.8520     2.1580 
   92.6250    75.9850    10.1220     6.9110     9.3760    25.6140   -19.7860     2.1760 
   92.7500    75.4420     9.8180     6.7570     9.5300    25.6090   -19.7660     2.1950 
   92.8750    75.5930     9.3550     6.5120     9.4120    25.6160   -19.7490     2.2110 
   93.0000    79.5360     8.8800     6.2440     8.9900    25.6430   -19.7100     2.2160 
   93.1250    85.8930     8.6000     6.0590     7.9080    25.7380   -19.6910     2.1930 
   93.2500    88.2200     8.5910     6.0090     7.5600    25.8250   -19.6690     2.1370 
   93.3750    85.0630     8.8430     6.1040     8.0580    25.9650   -19.6320     2.0510 
   93.5000    79.7420     9.2710     6.3190     8.3610    26.2130   -19.6210     1.9660 
   93.6250    75.4300     9.7360     6.5960     8.8220    26.4260   -19.6160     1.9390 
   93.7500    71.7910    10.0820     6.8430     9.0720    26.2650   -19.6020     1.9740 
   93.8750    68.8510    10.2180     6.9910     9.4080    26.0690   -19.6120     2.0420 
