~V
VERS. 2.00: Ver 2.00
~W
STRT.M 55.0000:
STOP.M 239.0000:
STEP.M 0.1250:
NULL. -999.2500:
UWI. F10186:
~C
DEPT.M :
GR.API :
RML.OHMM :
RI. :
RXO.OHMM :
CALI.CM :
DEN.GM/CC :
SP.MV :
~A
# ...
  201.2500    81.5730     6.4030     6.0480     6.3130    24.1600     2.3820    -8.5640 
  201.3750    83.8390     6.6280     6.1250     6.6910    24.1600     2.3950    -8.6090 
  201.5000    81.4510     6.8740     6.2490     7.1330    24.1600     2.4090    -8.6440 
  201.6250    77.2630     7.0850     6.3760     7.5130    24.1600     2.4170    -8.6650 
  201.7500    75.2020     7.2840     6.5030     7.9810    24.1600     2.4210    -8.6900 
  201.8750    75.3600     7.5940     6.7050     8.2480    24.1600     2.4200    -8.7690 
  202.0000    76.7290     8.2300     7.1300     8.5920    24.1600     2.4150    -8.9250 
  202.1250    75.6670     9.6240     8.1080     9.6250    24.1600     2.4030    -9.1640 
  202.2500    71.6090    12.2590     9.8770    11.9260    24.1570     2.3860    -9.4620 
  202.3750    69.2380    16.5970    12.7540    16.1320    24.1450     2.3730    -9.8000 
  202.5000    69.1920    23.0170    17.0480    22.7070    24.1190     2.3710   -10.1820 
  202.6250    65.5600    31.8710    23.2660    31.9320    24.1070     2.3800   -10.6430 
  202.7500    59.0380    42.5360    31.1630    41.6460    24.1160     2.3860   -11.1490 
  202.8750    56.1190    53.3550    40.5910    54.6670    24.1660     2.3770   -11.6600 
  203.0000    56.7700    65.4610    51.3480    64.7320    24.2650     2.3480   -12.1650 
  203.1250    56.1310    79.1900    63.4940    72.9390    24.3380     2.3080   -12.6130 
  203.2500    55.6920    94.1650    76.5960    85.8790    24.3650     2.2720   -12.9960 
  203.3750    56.7820   109.4000    89.8570   105.7740    24.3710     2.2470   -13.3100 
  203.5000    57.5730   122.9330   101.7220   125.4230    24.3720     2.2340   -13.5750 
  203.6250    56.9250   131.3290   109.4680   135.4050    24.3700     2.2320   -13.8230 
  203.7500    57.3890   133.6940   112.3630   137.7740    24.3630     2.2350   -14.0480 
  203.8750    58.4050   130.8280   110.8760   131.9650    24.3510     2.2390   -14.2610 
  204.0000    57.6470   125.3130   106.8650   118.2210    24.3400     2.2410   -14.4600 
  204.1250    57.2220   120.0250   102.6310   105.3730    24.3390     2.2380   -14.6530 
  204.2500    58.7150   116.1490    99.4840   100.7580    24.3450     2.2320   -14.7690 
  204.3750    60.4360   113.6020    97.5630   104.9040    24.3640     2.2260   -14.8660 
  204.5000    59.3050   111.9550    96.5730   114.9390    24.3920     2.2210   -14.9670 
  204.6250    55.7030   111.0230    96.2940   115.9960    24.4240     2.2180   -15.0220 
  204.7500    54.6940   110.8510    96.6370   108.8970    24.4500     2.2180   -15.0430 
  204.8750    56.0770   111.7770    97.8490   101.1080    24.4750     2.2220   -15.0510 
  205.0000    57.3500   114.0150   100.1460    98.0560    24.5010     2.2270   -15.0400 
  205.1250    57.9190   117.5030   103.5830   100.6300    24.5410     2.2320   -15.0100 
  205.2500    57.8560   121.2430   107.3720   111.3770    24.6050     2.2340   -15.0220 
  205.3750    58.1430   124.1930   110.6110   122.9660    24.6780     2.2340   -15.0570 
  205.5000    57.8140   125.4210   112.4180   127.6190    24.7210     2.2320   -15.1010 
  205.6250    57.7970   124.1890   111.9970   126.1980    24.7250     2.2270   -15.1390 
  205.7500    57.4430   121.3790   109.9790   125.5420    24.7000     2.2210   -15.1710 
  205.8750    56.0290   118.1220   107.2770   124.1800    24.6620     2.2160   -15.1760 
  206.0000    55.0130   115.7230   105.0610   119.7540    24.6390     2.2140   -15.1500 
  206.1250    56.1050   115.6050   104.7030   113.2220    24.6390     2.2130   -15.0600 
  206.2500    58.6040   117.8410   106.4510   110.5170    24.6580     2.2090   -14.9490 
  206.3750    60.3440   122.1470   110.1670   110.2910    24.6830     2.2020   -14.8510 
  206.5000    60.9410   127.7390   115.2480   114.5240    24.6970     2.1940   -14.7530 
  206.6250    60.4160   133.3500   120.6840   124.3720    24.6690     2.1920   -14.6680 
  206.7500    58.9610   137.7820   125.3800   130.6870    24.5670     2.1980   -14.6070 
  206.8750    57.1190   140.4000   128.7430   134.2180    24.4140     2.2110   -14.5460 
  207.0000    56.4800   141.0390   130.5540   132.8010    24.3180     2.2260   -14.4970 
  207.1250    56.4920   139.4840   130.5770   131.2290    24.2950     2.2380   -14.5050 
  207.2500    56.2380   135.9320   128.9370   132.8270    24.2950     2.2440   -14.5400 
  207.3750    57.5660   129.9010   125.1630   134.6010    24.2950     2.2440   -14.5430 
  207.5000    58.5490   120.9320   118.6860   130.1900    24.2950     2.2390   -14.5150 
  207.6250    56.8090   109.0100   108.9920   122.9170    24.2950     2.2300   -14.4770 
  207.7500    54.7800    96.2850    97.4900   116.6350    24.2950     2.2180   -14.3960 
  207.8750    55.9540    84.2680    85.6550   105.7070    24.2950     2.2070   -14.2880 
  208.0000    58.7190    74.2080    74.9720    87.5320    24.2950     2.1980   -14.1860 
  208.1250    57.4730    67.6890    66.8180    69.9920    24.2950     2.1930   -14.1610 
  208.2500    56.5210    61.6790    60.9850    61.9790    24.2950     2.1940   -14.2130 
  208.3750    59.5910    57.7610    57.1090    58.2170    24.2950     2.2020   -14.3290 
  208.5000    64.3340    55.3580    54.6900    56.8220    24.2950     2.2160   -14.5090 
  208.6250    64.2340    54.0810    53.3790    56.4480    24.2950     2.2310   -14.7470 
  208.7500    61.8630    53.4540    52.6970    55.8090    24.2950     2.2420   -15.0400 
  208.8750    61.4380    53.4630    52.5940    54.3830    24.2950     2.2450   -15.3880 
  209.0000    62.2850    54.3160    53.2270    53.1410    24.2950     2.2420   -15.7970 
  209.1250    61.9060    56.6700    55.1600    54.3380    24.2950     2.2350   -16.2090 
  209.2500    60.8160    60.8770    58.7190    56.6060    24.2950     2.2300   -16.5870 
  209.3750    60.1710    67.4400    64.3960    60.6570    24.2950     2.2280   -16.9660 
  209.5000    59.6570    76.7060    72.5720    66.1870    24.2950     2.2270   -17.3530 
  209.6250    58.4310    88.9960    83.6560    75.7550    24.2750     2.2240   -17.7300 
  209.7500    57.9520   102.9420    96.4550    88.3760    24.2280     2.2170   -18.0950 
  209.8750    58.5110   116.9000   109.4890   103.4710    24.1930     2.2080   -18.4780 
  210.0000    58.7630   128.7700   120.7990   120.8880    24.2080     2.2020   -18.8430 
  210.1250    56.2420   135.8520   127.8000   132.8470    24.2640     2.2000   -19.1480 
  210.2500    53.6750   138.3670   130.4810   134.7990    24.2890     2.2020   -19.4200 
  210.3750    53.6190   137.7420   129.9350   131.4650    24.2950     2.2050   -19.6770 
  210.5000    55.8170   136.4050   128.2740   128.3730    24.2950     2.2090   -19.8990 
  210.6250    56.5830   137.0920   128.0700   127.3670    24.2950     2.2150   -20.1200 
  210.7500    55.7040   140.6410   130.4270   127.4640    24.2950     2.2210   -20.3720 
  210.8750    55.5530   146.8180   135.3470   129.2120    24.2950     2.2220   -20.6010 
  211.0000    55.8560   154.5770   142.0110   133.6650    24.2950     2.2190   -20.7960 
  211.1250    52.4380   162.1300   148.9000   140.3040    24.2950     2.2130   -21.0260 
  211.2500    47.6920   167.7700   154.3670   146.7430    24.2950     2.2060   -21.2900 
  211.3750    46.0060   170.5700   157.4560   150.5170    24.2950     2.2010   -21.5400 
  211.5000    48.7330   170.5460   158.0100   148.5210    24.2950     2.1970   -21.7790 
  211.6250    50.7600   168.6850   156.6940   142.8240    24.2940     2.1950   -21.9940 
  211.7500    50.1380   167.0880   155.3570   140.0240    24.2920     2.1940   -22.1690 
  211.8750    48.4730   167.0770   155.2520   141.3660    24.2920     2.1920   -22.3080 
  212.0000    46.8650   169.2710   157.0500   143.1040    24.2940     2.1880   -22.4190 
  212.1250    46.3950   173.7540   160.9280   146.2610    24.2950     2.1810   -22.4640 
  212.2500    47.3130   179.2110   165.7210   156.4160    24.2950     2.1760   -22.4130 
  212.3750    49.7850   184.4990   170.3510   165.6960    24.2950     2.1770   -22.3080 
