~V
VERS. 2.00: Ver 2.00
~W
STRT.M 59.0000:
STOP.M 202.0000:
STEP.M 0.1250:
NULL. -999.2500:
UWI. F10133:
~C
DEPT.M :
GR.API :
RML.OHMM :
RI. :
RXO.OHMM :
CALI.CM :
SP.MV :
DEN.GM/CC :
~A
# ...
  137.7500    60.6060    20.7250    19.2380    18.2150    25.0390   -17.8920     2.4850 
  137.8750    59.2510    20.6670    19.1300    17.6100    24.8830   -17.7160     2.4860 
  138.0000    57.1420    20.7750    19.2490    17.5610    24.5880   -17.6000     2.4900 
  138.1250    55.0540    20.8520    19.4010    17.7340    24.3610   -17.4250     2.4850 
  138.2500    55.3210    20.7330    19.3560    18.7650    24.3480   -17.1980     2.4700 
  138.3750    57.8150    20.3740    19.0150    18.6140    24.4210   -17.0350     2.4520 
  138.5000    60.0620    19.8540    18.4480    16.1120    24.5220   -16.9000     2.4420 
  138.6250    61.0530    19.3490    17.8660    14.2880    24.7030   -16.7000     2.4520 
  138.7500    62.6440    19.0080    17.4460    14.6160    24.9150   -16.5530     2.4760 
  138.8750    64.9000    18.8770    17.2380    15.5650    24.9710   -16.4280     2.5030 
  139.0000    66.1400    18.9210    17.2120    16.3180    24.7820   -16.2180     2.5200 
  139.1250    64.7920    19.0690    17.3060    16.5280    24.7030   -16.0180     2.5150 
  139.2500    64.4950    19.2450    17.4370    16.4630    24.9100   -15.9230     2.4950 
  139.3750    66.8920    19.4440    17.6060    16.5250    25.1260   -15.8320     2.4700 
  139.5000    69.6220    19.6840    17.8460    17.3400    25.1470   -15.7440     2.4500 
  139.6250    68.9220    19.9490    18.1610    18.2300    25.0030   -15.7770     2.4390 
  139.7500    65.5920    20.1520    18.4510    18.2910    25.0090   -15.7900     2.4340 
  139.8750    63.0960    20.2020    18.6090    18.2150    25.2060   -15.7520     2.4300 
  140.0000    63.1200    20.0450    18.5530    18.3580    25.3250   -15.8060     2.4290 
  140.1250    65.6730    19.6700    18.2610    17.4280    25.2060   -15.8840     2.4380 
  140.2500    67.6140    19.1680    17.8490    16.4610    25.0660   -15.8500     2.4560 
  140.3750    67.1060    18.5660    17.3630    16.5520    25.0580   -15.7690     2.4770 
  140.5000    64.8240    17.8410    16.7640    16.2020    25.0890   -15.6610     2.4910 
  140.6250    61.5570    16.9310    15.9390    14.8490    25.2860   -15.4280     2.4850 
  140.7500    59.5300    15.9020    14.9290    14.9250    25.5220   -15.1070     2.4630 
  140.8750    61.2000    14.8810    13.8570    14.3860    25.6660   -14.7580     2.4360 
  141.0000    65.8780    14.0270    12.8990    12.1050    25.5700   -14.2960     2.4180 
  141.1250    68.6380    13.5240    12.2550    10.5680    25.2080   -13.6550     2.4210 
  141.2500    67.4260    13.3440    11.9290    10.0520    24.7730   -12.9350     2.4350 
  141.3750    64.7990    13.4170    11.8790    11.1150    24.5360   -12.1330     2.4490 
  141.5000    63.5580    13.6470    12.0220    12.5090    24.4460   -11.1600     2.4520 
  141.6250    64.3170    13.9500    12.2730    12.5880    24.7340   -10.0740     2.4410 
  141.7500    64.9710    14.2730    12.5590    11.5400    25.1560    -9.0580     2.4290 
  141.8750    64.1480    14.6020    12.8620    11.0570    25.4440    -8.0610     2.4230 
  142.0000    61.3240    14.9260    13.1790    11.5950    25.5980    -7.0970     2.4250 
  142.1250    59.7000    15.2140    13.4880    12.8000    25.6720    -6.3510     2.4340 
  142.2500    61.1740    15.4500    13.7520    14.3240    25.7250    -5.7490     2.4440 
  142.3750    63.3470    15.6470    13.9500    14.1620    25.7710    -5.1970     2.4490 
  142.5000    63.5610    15.8640    14.1140    12.9460    25.7600    -4.8030     2.4490 
  142.6250    62.7020    16.1820    14.3370    13.2960    25.5820    -4.5810     2.4420 
  142.7500    63.1850    16.5870    14.6580    13.8960    25.4590    -4.3560     2.4340 
  142.8750    64.5240    16.9780    15.0250    14.7130    25.5880    -4.2080     2.4290 
  143.0000    63.6810    17.1990    15.3010    16.2380    25.7290    -4.1700     2.4260 
  143.1250    59.7470    17.0530    15.2630    16.6890    25.8060    -4.0880     2.4250 
  143.2500    55.3750    16.5830    14.8880    15.6310    25.8700    -4.0090     2.4260 
  143.3750    52.9500    15.9100    14.2670    13.4540    25.9160    -4.0220     2.4290 
  143.5000    53.2820    15.2170    13.5840    12.1110    25.7770    -4.0620     2.4380 
  143.6250    55.9490    14.7040    13.0450    12.0310    25.3980    -4.0610     2.4500 
  143.7500    59.3680    14.4190    12.7140    12.4160    24.9780    -4.1020     2.4590 
  143.8750    62.2950    14.3480    12.5920    12.5370    24.6430    -4.1350     2.4630 
  144.0000    64.0100    14.4380    12.6470    12.7050    24.6960    -4.0760     2.4640 
  144.1250    64.7390    14.6150    12.8330    12.4650    24.9970    -3.9920     2.4680 
  144.2500    63.8500    14.7900    13.0500    11.7520    25.1720    -3.9610     2.4760 
  144.3750    61.6930    14.9120    13.2330    11.9060    24.9290    -3.9560     2.4840 
  144.5000    60.2330    14.9600    13.3420    12.5050    24.3720    -3.9740     2.4890 
  144.6250    60.4800    14.9380    13.3570    12.1950    24.0010    -4.1100     2.4900 
  144.7500    61.1670    14.8990    13.3290    11.0140    23.8180    -4.2490     2.4940 
  144.8750    60.4680    14.8850    13.3050    10.5830    23.7430    -4.3750     2.5060 
  145.0000    58.5840    14.9190    13.3190    11.4100    23.7380    -4.5610     2.5240 
  145.1250    58.7290    14.9890    13.3750    12.0550    23.8690    -4.7490     2.5410 
  145.2500    60.4950    15.0460    13.4400    11.7290    24.1800    -4.8700     2.5500 
  145.3750    61.9470    15.0510    13.4810    11.1330    24.5000    -4.9730     2.5470 
  145.5000    61.4920    14.9890    13.4690    10.7200    24.6980    -5.0750     2.5340 
  145.6250    60.4340    14.8780    13.4010    10.6230    24.8080    -5.0770     2.5200 
  145.7500    60.9130    14.7820    13.3340    11.1470    24.8820    -5.1190     2.5140 
  145.8750    63.8060    14.7460    13.3140    11.6520    24.6760    -5.1930     2.5200 
  146.0000    67.1770    14.7850    13.3630    11.1000    24.1720    -5.2050     2.5370 
  146.1250    66.5020    14.8920    13.4880    10.3480    23.6190    -5.2470     2.5560 
  146.2500    64.6260    15.0180    13.6530    10.0190    23.3040    -5.3340     2.5700 
  146.3750    64.6070    15.1310    13.8230    10.2000    23.2020    -5.3890     2.5760 
  146.5000    65.5560    15.2160    13.9670    10.2160    23.2870    -5.4020     2.5750 
  146.6250    65.2930    15.2700    14.0690    10.5420    23.5290    -5.4640     2.5710 
  146.7500    65.1830    15.3100    14.1330    11.1300    23.7730    -5.5040     2.5660 
  146.8750    66.8170    15.3440    14.1550    11.6660    24.0080    -5.5160     2.5610 
  147.0000    69.9500    15.3930    14.1520    11.6110    24.1980    -5.5930     2.5560 
  147.1250    73.9400    15.5260    14.1870    11.6590    24.2990    -5.7380     2.5490 
  147.2500    75.8970    15.8190    14.3460    11.8130    24.5890    -5.8780     2.5420 
  147.3750    76.2800    16.3670    14.7300    11.9250    25.1200    -6.0300     2.5280 
  147.5000    77.7490    17.2670    15.4410    13.6750    25.6860    -6.2780     2.5030 
  147.6250    79.4370    18.6960    16.6300    17.7490    26.0010    -6.5610     2.4600 
  147.7500    79.9600    20.6910    18.2970    23.3340    26.2340    -6.8280     2.4070 
  147.8750    79.3260    23.3780    20.5320    29.7520    26.4420    -7.1600     2.3550 
  148.0000    79.2660    26.9020    23.4850    33.2800    26.7030    -7.5000     2.3130 
  148.1250    79.7000    31.5420    27.5330    33.7420    26.9150    -7.7680     2.2890 
  148.2500    79.7690    37.0740    32.6620    39.8760    27.1780    -8.0630     2.2770 
  148.3750    79.2260    43.1410    38.7180    57.5550    27.4360    -8.4130     2.2720 
  148.5000    77.5380    49.0610    45.1020    83.3270    27.6470    -8.6980     2.2710 
  148.6250    77.1220    53.6790    50.4980    87.3750    27.7260    -8.9350     2.2710 
  148.7500    77.2160    56.4990    53.9910    80.7930    27.8730    -9.2420     2.2700 
  148.8750    76.3360    57.5540    55.3850    74.5620    27.9900    -9.5310     2.2680 
