~V
VERS. 2.00: Ver 2.00
~W
STRT.M 55.0000:
STOP.M 228.0000:
STEP.M 0.1250:
NULL. -999.2500:
UWI. F10142:
~C
DEPT.M :
DEN.GM/CC :
GR.API :
RML.OHMM :
RI. :
RXO.OHMM :
CALI.CM :
SP.MV :
~A
# ...
  201.2500     2.3270    69.2050     8.4490     6.9670     6.7320    25.1670    -5.5850 
  201.3750     2.3420    69.0250     8.5240     7.0330     6.9800    25.1260    -5.5500 
  201.5000     2.3430    69.9380     8.5890     7.1110     6.7090    25.1140    -5.5180 
  201.6250     2.3330    71.5360     8.6320     7.1860     6.6780    25.1890    -5.4930 
  201.7500     2.3230    71.9610     8.6670     7.2550     6.7720    25.2210    -5.4570 
  201.8750     2.3200    71.1610     8.7090     7.3160     6.6630    25.2030    -5.4200 
  202.0000     2.3250    70.9610     8.7620     7.3690     6.6140    25.1560    -5.4020 
  202.1250     2.3370    71.2680     8.8090     7.4060     6.6170    25.1340    -5.3770 
  202.2500     2.3490    69.2510     8.8340     7.4170     6.5970    25.1340    -5.3500 
  202.3750     2.3620    66.5200     8.8330     7.3970     6.6680    25.1410    -5.3270 
  202.5000     2.3730    66.1790     8.8250     7.3540     6.5690    25.1350    -5.2920 
  202.6250     2.3810    69.6530     8.8320     7.3080     6.6020    25.1210    -5.2400 
  202.7500     2.3820    74.1780     8.8560     7.2750     6.7160    25.1050    -5.2030 
  202.8750     2.3730    79.4030     8.8870     7.2560     7.5020    25.0860    -5.1760 
  203.0000     2.3540    85.5660     8.9070     7.2370     8.5060    25.0820    -5.1390 
  203.1250     2.3310    88.2060     8.9100     7.2080     7.4390    25.1220    -5.1300 
  203.2500     2.3130    86.9420     8.9160     7.1820     6.7240    25.1870    -5.1510 
  203.3750     2.3080    85.1570     8.9660     7.1940     7.1170    25.2380    -5.1820 
  203.5000     2.3160    85.1190     9.1110     7.2900     7.8220    25.2560    -5.2310 
  203.6250     2.3350    82.7690     9.4170     7.5220     8.7220    25.2530    -5.3040 
  203.7500     2.3580    76.2860     9.8500     7.8650     9.6170    25.2510    -5.3590 
  203.8750     2.3800    69.1170    10.3320     8.2600    10.6970    25.2520    -5.4140 
  204.0000     2.3960    65.0540    10.7320     8.6140    11.1260    25.2470    -5.4810 
  204.1250     2.4000    66.9640    10.8630     8.7900     9.9070    25.2040    -5.5130 
  204.2500     2.3920    71.9340    10.7070     8.7500     8.5290    25.1840    -5.5150 
  204.3750     2.3750    76.3540    10.3280     8.5190     8.1750    25.1820    -5.5110 
  204.5000     2.3540    78.5970     9.8610     8.1780     8.5000    25.1780    -5.5110 
  204.6250     2.3380    80.0210     9.4590     7.8400     8.0800    25.1660    -5.4890 
  204.7500     2.3310    80.2640     9.1820     7.5790     7.5290    25.1390    -5.4720 
  204.8750     2.3350    77.3320     9.0220     7.4130     7.3190    25.0830    -5.4690 
  205.0000     2.3500    72.5580     8.9410     7.3270     7.1630    25.0370    -5.4570 
  205.1250     2.3690    70.9640     8.9180     7.3070     7.0610    25.0530    -5.4470 
  205.2500     2.3820    73.3610     8.9500     7.3350     6.9010    25.1050    -5.4660 
  205.3750     2.3840    76.9880     9.0580     7.4140     6.7880    25.1270    -5.4750 
  205.5000     2.3760    79.1020     9.2380     7.5450     7.1620    25.1250    -5.4570 
  205.6250     2.3630    78.5890     9.4370     7.7050     8.6200    25.1200    -5.4440 
  205.7500     2.3520    77.0770     9.5590     7.8350     8.8630    25.1240    -5.4320 
  205.8750     2.3480    74.8130     9.5290     7.8820     8.1450    25.1240    -5.3790 
  206.0000     2.3490    71.2100     9.3270     7.8160     7.5760    25.1100    -5.3160 
  206.1250     2.3550    67.8470     8.9970     7.6390     7.3540    25.0640    -5.2640 
  206.2500     2.3610    66.3320     8.6660     7.4260     7.0810    24.9700    -5.1760 
  206.3750     2.3640    65.7790     8.4160     7.2400     7.0000    24.8720    -5.0780 
  206.5000     2.3650    66.3880     8.2900     7.1260     6.9780    24.8190    -4.9990 
  206.6250     2.3660    68.7200     8.3040     7.1130     6.9740    24.7640    -4.8930 
  206.7500     2.3690    71.0310     8.3970     7.1650     6.7650    24.7180    -4.7670 
  206.8750     2.3750    71.9590     8.5160     7.2500     6.7680    24.6430    -4.6580 
  207.0000     2.3820    72.7810     8.6110     7.3330     6.8910    24.5380    -4.5650 
  207.1250     2.3940    75.1780     8.6280     7.3750     6.9410    24.5310    -4.4660 
  207.2500     2.4090    78.7290     8.5630     7.3590     6.8250    24.6980    -4.3730 
  207.3750     2.4280    81.6480     8.4250     7.2780     6.7430    24.9270    -4.2890 
  207.5000     2.4430    81.8750     8.2310     7.1270     6.5470    25.0980    -4.1990 
  207.6250     2.4450    80.5040     7.9940     6.9010     5.7660    25.1250    -4.1370 
  207.7500     2.4340    81.3120     7.7420     6.6360     5.3750    25.1180    -4.0990 
  207.8750     2.4160    84.1780     7.4970     6.3640     5.2270    25.1050    -4.0560 
  208.0000     2.3990    86.0120     7.2890     6.1250     5.2730    25.0610    -4.0160 
  208.1250     2.3890    84.6970     7.1620     5.9710     5.4050    24.9990    -3.9980 
  208.2500     2.3860    82.8000     7.1200     5.9160     5.6290    24.9850    -4.0010 
  208.3750     2.3830    82.4540     7.1560     5.9580     5.8510    25.0920    -4.0040 
  208.5000     2.3770    84.0710     7.2480     6.0680     6.2800    25.1900    -4.0100 
  208.6250     2.3720    84.7680     7.3670     6.2060     7.0230    25.2390    -4.0070 
  208.7500     2.3710    83.5830     7.4740     6.3300     7.4060    25.2580    -3.9950 
  208.8750     2.3760    81.0260     7.5430     6.4190     7.1880    25.2650    -3.9960 
  209.0000     2.3830    78.1080     7.5630     6.4720     7.4420    25.2710    -4.0100 
  209.1250     2.3870    76.8840     7.5510     6.5090     7.7760    25.2720    -4.0050 
  209.2500     2.3830    78.8620     7.5650     6.5630     7.3150    25.2700    -3.9830 
  209.3750     2.3740    81.7620     7.6540     6.6550     6.6360    25.2700    -3.9640 
  209.5000     2.3670    82.3670     7.8480     6.7900     7.3000    25.2670    -3.9550 
  209.6250     2.3670    81.0990     8.1440     6.9670     7.9420    25.2670    -3.9460 
  209.7500     2.3750    79.6450     8.4660     7.1610     7.8270    25.2630    -3.9340 
  209.8750     2.3900    77.2580     8.7360     7.3420     7.4810    25.2610    -3.9210 
  210.0000     2.4040    75.6350     8.8900     7.4700     7.4480    25.2650    -3.8940 
  210.1250     2.4090    76.3530     8.8750     7.4900     7.4750    25.2590    -3.8740 
  210.2500     2.4050    77.1010     8.7500     7.4170     7.0690    25.2560    -3.8670 
  210.3750     2.3960    76.3800     8.5980     7.3020     6.8610    25.2380    -3.8540 
  210.5000     2.3900    75.3270     8.5290     7.2330     7.3570    25.1710    -3.8330 
  210.6250     2.3940    77.0270     8.7000     7.3410     8.3100    25.0710    -3.8130 
  210.7500     2.4050    80.4010     9.1670     7.6840     9.6420    25.0200    -3.8060 
  210.8750     2.4110    83.9720     9.9560     8.2950    10.7200    25.0740    -3.7930 
  211.0000     2.4060    86.1400    11.0280     9.1570    12.6630    25.2260    -3.7720 
  211.1250     2.3900    86.8130    12.2480    10.1870    14.0650    25.2980    -3.7480 
  211.2500     2.3760    86.8570    13.3290    11.1550    15.6820    25.2550    -3.7140 
  211.3750     2.3730    86.4810    13.9950    11.8320    14.9550    25.1220    -3.6710 
  211.5000     2.3820    86.2570    14.0360    12.0250    13.8100    25.1120    -3.6190 
  211.6250     2.3950    86.3800    13.3200    11.5860    11.8920    25.1310    -3.5800 
  211.7500     2.4010    84.3160    12.1720    10.7420    10.3520    25.1160    -3.5220 
  211.8750     2.3990    79.5220    10.8870     9.7080     7.8470    25.0090    -3.4500 
  212.0000     2.3900    73.9280     9.7290     8.6970     6.1350    24.8860    -3.3940 
  212.1250     2.3810    69.3210     8.9020     7.9000     5.8140    24.8380    -3.3360 
  212.2500     2.3780    66.5010     8.3810     7.3410     6.5470    24.9300    -3.2900 
  212.3750     2.3820    66.7940     8.1150     7.0060     8.2240    25.0560    -3.2580 
