~V
VERS. 2.00: Ver 2.00
~W
STRT.M 49.0000:
STOP.M 243.0000:
STEP.M 0.1250:
NULL. -999.2500:
UWI. F10196:
~C
DEPT.M :
SP.MV :
DEN.GM/CC :
GR.API :
RML.OHMM :
RI. :
RXO.OHMM :
CALI.CM :
~A
# ...
  161.5000   -12.3230     2.2360    84.0310    10.9760    10.8100    14.2630    24.7130 
  161.6250   -12.3650     2.2430    81.0790    10.6130    10.2500    13.2480    24.7170 
  161.7500   -12.4150     2.2520    82.1180    11.0580    10.3340    11.6230    24.7390 
  161.8750   -12.5720     2.2570    83.4630    12.3220    11.1170    11.5730    24.7640 
  162.0000   -12.7700     2.2500    81.5490    14.3670    12.6560    14.5470    24.8040 
  162.1250   -12.9190     2.2340    78.1320    16.9230    14.8660    19.1520    24.8370 
  162.2500   -13.0380     2.2180    77.6170    19.2210    17.2810    22.0420    24.8470 
  162.3750   -13.1810     2.2100    78.1710    20.2890    18.8990    23.1000    24.8080 
  162.5000   -13.3790     2.2070    76.4930    19.6160    18.9540    23.1450    24.6940 
  162.6250   -13.6380     2.2080    72.8600    17.6500    17.5590    22.1880    24.5450 
  162.7500   -13.8460     2.2140    72.5580    15.7300    15.7560    20.2330    24.4490 
  162.8750   -13.9940     2.2220    75.8030    15.0330    14.6570    17.6500    24.3910 
  163.0000   -14.1650     2.2290    79.2390    16.2620    14.8880    15.6210    24.3700 
  163.1250   -14.3990     2.2300    78.2360    20.0070    17.0930    17.8550    24.4160 
  163.2500   -14.6630     2.2200    69.0070    27.4900    22.7700    32.4300    24.5290 
  163.3750   -14.9260     2.2070    60.2720    38.5950    32.4470    60.8050    24.5970 
  163.5000   -15.1260     2.1980    58.6020    52.4220    45.9210    82.1990    24.6180 
  163.6250   -15.2580     2.1980    61.4910    65.5290    60.3360    85.7890    24.6200 
  163.7500   -15.4060     2.2030    60.8850    70.8060    68.7370    93.3340    24.6260 
  163.8750   -15.5500     2.2080    58.6170    67.3800    68.6140   101.6550    24.6320 
  164.0000   -15.6630     2.2110    60.3970    58.7910    62.1300    91.3700    24.6160 
  164.1250   -15.7140     2.2130    66.2220    48.9650    52.9280    66.8470    24.5610 
  164.2500   -15.6990     2.2160    72.2660    47.6140    43.9040    46.5140    24.4610 
  164.3750   -15.6950     2.2180    75.3100    39.7090    36.4840    36.6600    24.3970 
  164.5000   -15.7560     2.2180    75.1060    34.2250    31.0590    32.1340    24.3380 
  164.6250   -15.8720     2.2160    74.1550    30.9570    27.5580    28.5470    24.2650 
  164.7500   -15.9760     2.2120    74.1020    29.8120    25.9500    25.4510    24.1470 
  164.8750   -16.0690     2.2110    72.7380    30.0900    25.6620    24.1410    23.8050 
  165.0000   -16.1850     2.2100    67.6650    31.4470    26.4600    25.6060    23.1360 
  165.1250   -16.3830     2.2080    61.7510    33.5040    28.0910    26.5750    22.4000 
  165.2500   -16.6190     2.2030    62.0110    35.7540    30.2200    27.2600    22.0720 
  165.3750   -16.7940     2.2030    65.4520    37.5940    32.2610    27.6520    22.1160 
  165.5000   -16.9050     2.2080    66.8860    38.6110    33.7740    28.2400    22.3800 
  165.6250   -16.9790     2.2130    67.1240    38.5720    34.4420    29.6870    22.7120 
  165.7500   -17.0780     2.2140    69.4890    37.2630    33.9370    30.5240    22.9110 
  165.8750   -17.2040     2.2140    71.7860    35.1030    32.5130    30.5000    23.0340 
  166.0000   -17.3030     2.2160    70.7030    32.5520    30.5160    28.9380    23.2270 
  166.1250   -17.3200     2.2220    68.6520    30.1880    28.4540    26.5520    23.5190 
  166.2500   -17.3270     2.2300    67.1300    28.6910    26.9510    23.7770    23.8060 
  166.3750   -17.3740     2.2390    65.4550    28.2060    26.2640    22.7460    24.0020 
  166.5000   -17.4850     2.2460    66.6500    28.6410    26.4350    24.3630    24.1200 
  166.6250   -17.6900     2.2490    71.7540    29.6200    27.2570    26.9800    24.1790 
  166.7500   -17.9890     2.2500    75.5320    30.4300    28.2290    28.7050    24.2010 
  166.8750   -18.3360     2.2470    76.4440    30.3830    28.6310    30.7520    24.1880 
  167.0000   -18.7480     2.2410    76.4750    29.2010    28.0200    31.0660    24.1490 
  167.1250   -19.2450     2.2300    75.2410    27.2040    26.4840    26.5020    24.0660 
  167.2500   -19.8690     2.2220    71.8070    25.2390    24.6650    22.9450    23.8960 
  167.3750   -20.5960     2.2200    69.8780    24.0210    23.3060    20.8350    23.7250 
  167.5000   -21.3650     2.2220    71.9780    23.8120    22.7510    19.7530    23.5960 
  167.6250   -22.1060     2.2240    73.7260    24.5680    23.0910    20.5960    23.5180 
  167.7500   -22.7950     2.2200    73.5180    26.0940    24.2900    24.4480    23.4920 
  167.8750   -23.5090     2.2150    74.0350    27.9350    25.9210    27.6470    23.4850 
  168.0000   -24.2780     2.2150    74.3750    29.9580    27.7670    29.1720    23.4770 
  168.1250   -25.0460     2.2220    73.9180    32.2780    29.8100    29.4410    23.4520 
  168.2500   -25.7240     2.2320    72.9150    35.3500    32.3690    30.1350    23.3970 
  168.3750   -26.3520     2.2390    72.2570    39.4060    35.7460    34.3440    23.3620 
  168.5000   -26.9850     2.2460    70.5630    44.4740    40.1330    43.6080    23.3560 
  168.6250   -27.6450     2.2530    67.6680    50.1840    45.3550    54.6810    23.3850 
  168.7500   -28.2760     2.2600    65.2100    55.7190    50.7580    55.9930    23.5060 
  168.8750   -28.8310     2.2600    66.1190    60.3890    55.5410    53.9520    23.7170 
  169.0000   -29.2990     2.2500    70.0830    63.9510    59.3110    53.3220    23.9630 
  169.1250   -29.7740     2.2320    72.8790    66.5850    62.1030    55.7600    24.1060 
  169.2500   -30.2970     2.2170    70.6940    68.7220    64.2770    59.4430    24.1270 
  169.3750   -30.7800     2.2120    67.7270    70.8460    66.3960    64.9430    24.1240 
  169.5000   -31.1810     2.2140    66.5760    73.1160    68.6830    67.1810    24.1130 
  169.6250   -31.5110     2.2160    67.1010    75.6520    71.2790    63.5050    24.0940 
  169.7500   -31.8440     2.2140    68.6950    78.6460    74.4170    62.9240    24.0670 
  169.8750   -32.2030     2.2100    71.3390    81.9550    77.9990    71.3430    24.0350 
  170.0000   -32.6040     2.2070    73.0730    85.2890    81.7730    79.4670    24.0130 
  170.1250   -32.9990     2.2050    72.2250    88.2680    85.3620    83.5510    23.9920 
  170.2500   -33.3280     2.2050    70.0470    91.7230    88.1810    73.0450    23.9610 
  170.3750   -33.6300     2.2070    69.6890    96.9790    89.9880    70.1520    23.9720 
  170.5000   -33.9680     2.2110    71.4730    97.5270    90.9060    72.6370    24.0460 
  170.6250   -34.3710     2.2160    72.1970    98.2280    91.5590    77.7230    24.1810 
  170.7500   -34.7990     2.2170    70.4330   100.3980    93.0850    79.0950    24.2780 
  170.8750   -35.1730     2.2150    68.9430   104.9390    96.4220    78.5930    24.3560 
  171.0000   -35.4910     2.2100    67.7210   112.7610   102.4720    79.8550    24.4130 
  171.1250   -35.8040     2.2050    66.2270   124.5470   111.9620    84.8240    24.4630 
  171.2500   -36.1590     2.1980    65.7120   149.7820   126.0120    97.8410    24.4630 
  171.3750   -36.5050     2.1930    66.1490   171.5070   143.8230   108.2140    24.3910 
  171.5000   -36.7590     2.1910    65.2590   195.2560   164.0620   114.2530    24.2900 
  171.6250   -36.9010     2.1890    60.7320   217.1430   183.6860   113.6360    24.1920 
  171.7500   -37.0100     2.1830    54.7280   230.1440   196.9020   111.0370    24.0450 
  171.8750   -37.1620     2.1740    51.7700   232.2060   201.1570    99.1770    23.8720 
  172.0000   -37.2730     2.1700    53.4130   225.1060   196.9580    87.7820    23.7530 
  172.1250   -37.2530     2.1740    57.4510   213.9080   187.8960    79.0580    23.6970 
  172.2500   -37.1380     2.1840    59.9980   205.0680   179.4220    76.8230    23.7070 
  172.3750   -37.0300     2.1900    59.2940   201.8480   175.3080    81.6090    23.7460 
  172.5000   -36.9800     2.1860    55.8990   204.9240   176.7420    85.4300    23.7480 
  172.6250   -36.9950     2.1760    54.0320   213.5420   183.4130    83.3550    23.6920 
