~V
VERS. 2.00: Ver 2.00
~W
STRT.M 62.0000:
STOP.M 275.0000:
STEP.M 0.1250:
NULL. -999.2500:
UWI. F10141:
~C
DEPT.M :
GR.API :
RML.OHMM :
RI. :
RXO.OHMM :
CALI.CM :
DEN.GM/CC :
SP.MV :
~A
# ...
  140.7500    46.0220    17.9520    16.6290    15.8950    24.4150     2.5440    -2.1380 
  140.8750    44.6750    17.7660    16.4550    16.3920    24.3970     2.5360    -2.0010 
  141.0000    44.1170    17.4870    16.1960    17.2950    24.3950     2.5240    -1.8610 
  141.1250    45.9680    17.1240    15.8570    17.8790    24.3610     2.5140    -1.7290 
  141.2500    48.8730    16.7650    15.5120    16.9790    24.2720     2.5090    -1.6120 
  141.3750    49.9540    16.4970    15.2330    15.0070    24.1910     2.5080    -1.5420 
  141.5000    48.1840    16.3770    15.0710    14.7310    24.1700     2.5110    -1.5170 
  141.6250    47.5430    16.4270    15.0510    14.5680    24.1820     2.5200    -1.5350 
  141.7500    49.2930    16.5730    15.1140    15.0170    24.2000     2.5310    -1.5450 
  141.8750    50.4500    16.7540    15.2120    15.1800    24.2320     2.5420    -1.5450 
  142.0000    49.3440    16.9030    15.2900    14.1070    24.2790     2.5460    -1.5520 
  142.1250    48.9920    16.9580    15.2900    13.7050    24.3290     2.5360    -1.5780 
  142.2500    50.8120    16.9130    15.2030    13.7920    24.3520     2.5160    -1.6050 
  142.3750    51.4310    16.7880    15.0420    14.3740    24.3670     2.4940    -1.6420 
  142.5000    48.4750    16.6340    14.8440    14.0100    24.3810     2.4760    -1.6920 
  142.6250    46.1260    16.5750    14.7010    13.2470    24.4170     2.4660    -1.7700 
  142.7500    48.0820    16.7150    14.6980    13.3780    24.4680     2.4590    -1.8920 
  142.8750    51.0290    17.1110    14.8890    14.9000    24.5010     2.4540    -2.0680 
  143.0000    51.6810    17.7470    15.2780    15.8970    24.4500     2.4520    -2.2960 
  143.1250    51.1120    18.4990    15.8070    16.4620    24.3160     2.4570    -2.5720 
  143.2500    51.4840    19.1450    16.3100    17.4040    24.2130     2.4680    -2.8580 
  143.3750    52.8350    19.5500    16.6750    17.8300    24.1380     2.4820    -3.1170 
  143.5000    54.8160    19.7180    16.8790    17.5780    24.0570     2.4940    -3.3350 
  143.6250    56.1550    19.7730    16.9910    17.8410    23.9510     2.5040    -3.4860 
  143.7500    54.8930    19.8970    17.1320    17.7330    23.9010     2.5110    -3.5840 
  143.8750    51.6720    20.1720    17.3630    18.3100    23.9040     2.5180    -3.6030 
  144.0000    50.1020    20.5550    17.6680    19.4340    23.9340     2.5250    -3.5520 
  144.1250    51.3670    20.7450    17.8350    19.9110    24.0300     2.5310    -3.4380 
  144.2500    53.0960    20.3300    17.5290    18.8810    24.1530     2.5330    -3.3240 
  144.3750    53.7330    18.9910    16.4560    18.6100    24.2830     2.5260    -3.2100 
  144.5000    53.0750    16.7210    14.5850    17.6560    24.4330     2.5030    -3.0960 
  144.6250    55.3070    13.9100    12.2410    14.6310    24.5580     2.4610    -3.0210 
  144.7500    62.3980    11.2790    10.0300    11.3980    24.6120     2.4120    -3.0300 
  144.8750    72.9470     8.5520     8.2550     8.0370    24.5960     2.3650    -3.1490 
  145.0000    82.4990     7.0000     7.0120     6.1740    24.5250     2.3280    -3.3560 
  145.1250    86.4320     6.3920     6.3270     5.8880    24.3580     2.3040    -3.6100 
  145.2500    86.3800     6.1900     5.9950     6.1160    24.2000     2.2910    -3.8540 
  145.3750    82.9420     6.1890     5.8820     6.2410    24.2360     2.2840    -4.0460 
  145.5000    79.6330     6.2170     5.8630     6.1250    24.4430     2.2820    -4.1630 
  145.6250    80.6370     6.1750     5.8440     5.8270    24.6110     2.2850    -4.1950 
  145.7500    84.8370     6.0930     5.8040     5.5160    24.7150     2.2930    -4.1670 
  145.8750    88.5270     6.0340     5.7660     5.3760    24.7540     2.3060    -4.1020 
  146.0000    88.2770     6.0410     5.7570     5.5320    24.7570     2.3230    -3.9810 
  146.1250    86.4430     6.1110     5.7840     5.9690    24.7470     2.3380    -3.7930 
  146.2500    86.5080     6.1870     5.8180     5.9940    24.7590     2.3460    -3.6090 
  146.3750    88.4460     6.2300     5.8320     5.8170    24.7720     2.3460    -3.5030 
  146.5000    88.4320     6.2230     5.8130     5.7050    24.7850     2.3380    -3.5240 
  146.6250    83.7340     6.1800     5.7610     5.9690    24.7650     2.3310    -3.6510 
  146.7500    80.7040     6.1450     5.7060     6.0860    24.7370     2.3290    -3.8020 
  146.8750    81.4910     6.1510     5.6750     6.1240    24.7130     2.3340    -3.9790 
  147.0000    82.9630     6.2190     5.6870     6.1190    24.6890     2.3430    -4.1770 
  147.1250    83.0790     6.3530     5.7500     6.2120    24.6410     2.3480    -4.4020 
  147.2500    83.9480     6.5140     5.8420     6.2770    24.5760     2.3440    -4.5910 
  147.3750    85.1100     6.6590     5.9320     6.4230    24.5460     2.3310    -4.7180 
  147.5000    83.9590     6.7420     5.9830     6.4820    24.5350     2.3120    -4.7600 
  147.6250    80.5230     6.7110     5.9510     6.4500    24.5670     2.2900    -4.6840 
  147.7500    79.2800     6.5820     5.8420     6.1200    24.6330     2.2730    -4.5110 
  147.8750    81.4550     6.3850     5.6730     5.5470    24.6990     2.2640    -4.2260 
  148.0000    86.2990     6.1630     5.4730     5.0710    24.7490     2.2690    -3.8680 
  148.1250    91.7790     5.9590     5.2780     4.8860    24.7770     2.2880    -3.4770 
  148.2500    95.5410     5.7920     5.1060     4.9110    24.8100     2.3160    -3.1100 
  148.3750    97.5850     5.6600     4.9650     4.9860    24.8410     2.3470    -2.7700 
  148.5000    97.7310     5.5570     4.8550     5.0830    24.8720     2.3730    -2.4360 
  148.6250    94.2790     5.4800     4.7780     5.1670    24.8940     2.3890    -2.1190 
  148.7500    90.4470     5.4320     4.7320     5.2080    24.9120     2.3980    -1.8500 
  148.8750    89.9360     5.4280     4.7210     5.2030    24.9330     2.4030    -1.6400 
  149.0000    91.9020     5.4800     4.7500     5.1930    24.9370     2.4070    -1.4750 
  149.1250    91.5790     5.5950     4.8220     5.3240    24.9180     2.4140    -1.3310 
  149.2500    88.9730     5.7540     4.9300     5.4790    24.9090     2.4220    -1.1660 
  149.3750    87.9710     5.9400     5.0650     5.6180    24.9040     2.4240    -0.9910 
  149.5000    90.5160     6.1370     5.2150     5.7470    24.8920     2.4180    -0.8360 
  149.6250    94.6680     6.3040     5.3530     5.7850    24.8560     2.4050    -0.7290 
  149.7500    97.6610     6.3990     5.4410     5.8580    24.8120     2.3900    -0.6610 
  149.8750    99.9710     6.3840     5.4490     5.8860    24.8220     2.3800    -0.6080 
  150.0000   102.8340     6.2450     5.3650     5.8240    24.8790     2.3730    -0.5410 
  150.1250   105.4440     6.0130     5.2020     5.4370    24.9270     2.3720    -0.4500 
  150.2500   103.5490     5.7880     5.0270     5.0150    24.9410     2.3760    -0.4040 
  150.3750    96.7910     5.6460     4.8930     4.7100    24.9280     2.3830    -0.4170 
  150.5000    90.3850     5.6260     4.8330     4.7650    24.9150     2.3950    -0.4570 
  150.6250    88.7600     5.7250     4.8620     5.0650    24.9130     2.4070    -0.5100 
  150.7500    89.6800     5.8620     4.9370     5.3630    24.9030     2.4170    -0.5660 
  150.8750    90.2750     5.9770     5.0190     5.5160    24.8990     2.4230    -0.6380 
  151.0000    89.7120     6.0380     5.0790     5.5010    24.9000     2.4250    -0.7380 
  151.1250    88.9450     6.0490     5.1050     5.4150    24.8980     2.4240    -0.8760 
  151.2500    89.0760     6.0540     5.1150     5.3150    24.8960     2.4230    -0.9940 
  151.3750    89.4510     6.0690     5.1190     5.2280    24.8940     2.4220    -1.0910 
  151.5000    87.9780     6.0950     5.1240     5.2050    24.8880     2.4200    -1.1870 
  151.6250    87.4270     6.1100     5.1260     5.3460    24.8770     2.4160    -1.2750 
  151.7500    89.9530     6.1030     5.1190     5.4980    24.8860     2.4100    -1.3630 
  151.8750    92.7840     6.0760     5.1020     5.4890    24.8930     2.4020    -1.4400 
