~V
VERS. 2.00: Ver 2.00
~W
STRT.M 51.0000:
STOP.M 246.0000:
STEP.M 0.1250:
NULL. -999.2500:
UWI. F10182:
~C
DEPT.M :
SP.MV :
GR.API :
RML.OHMM :
RI. :
RXO.OHMM :
DEN.GM/CC :
CALI.CM :
~A
# ...
   73.5000   -18.9440    55.0470    13.2040    10.7650    17.8100     2.1950    23.4570 
   73.6250   -18.9660    55.6680    11.8800     9.6340     9.8390     2.1850    23.3640 
   73.7500   -19.0010    54.6670    11.5870     9.1680     8.9940     2.2390    23.3780 
   73.8750   -19.0440    53.9620    11.8880     9.1640    11.6960     2.3000    23.4140 
   74.0000   -19.0940    54.4130    12.3290     9.3800    17.4830     2.3210    23.4210 
   74.1250   -19.1270    55.4200    12.4650     9.5210    21.8360     2.2900    23.3590 
   74.2500   -19.1600    54.7040    12.0430     9.3410    13.1530     2.2270    23.2010 
   74.3750   -19.1930    52.6490    11.3700     8.9410     9.6920     2.1740    23.1230 
   74.5000   -19.2140    51.3160    10.7530     8.4830     8.6370     2.1440    23.1260 
   74.6250   -19.2510    50.9150    10.3760     8.1140     8.4940     2.1380    23.1480 
   74.7500   -19.2640    50.4790    10.2810     7.9280     8.4840     2.1520    23.1630 
   74.8750   -19.2640    51.8190    10.2940     7.8590     8.5180     2.1720    23.2110 
   75.0000   -19.2360    55.1030    10.2920     7.8230     8.5030     2.1890    23.3220 
   75.1250   -19.1980    57.2970    10.2230     7.7550     8.3550     2.1960    23.4060 
   75.2500   -19.1400    56.8650    10.1000     7.6390     8.0720     2.1900    23.3980 
   75.3750   -19.0810    56.1640     9.9660     7.5050     7.7160     2.1780    23.3160 
   75.5000   -19.0130    55.8800     9.8430     7.3770     7.5070     2.1660    23.2150 
   75.6250   -18.9210    55.9160     9.7470     7.2690     7.4200     2.1600    23.1600 
   75.7500   -18.8290    57.1780     9.7020     7.1930     7.3670     2.1620    23.1480 
   75.8750   -18.7370    58.4390     9.7100     7.1430     7.3500     2.1680    23.1360 
   76.0000   -18.6570    57.5920     9.7600     7.1210     7.4360     2.1730    23.0950 
   76.1250   -18.5650    54.5600     9.8320     7.1220     7.7990     2.1720    23.0490 
   76.2500   -18.4700    53.1800     9.9000     7.1330     8.0790     2.1590    22.9990 
   76.3750   -18.3560    54.8000     9.9410     7.1300     8.0410     2.1410    22.9760 
   76.5000   -18.2460    57.3300     9.9330     7.0960     7.9030     2.1240    22.9680 
   76.6250   -18.1370    59.0290     9.8660     7.0270     7.8410     2.1130    22.9760 
   76.7500   -18.0250    59.8180     9.7460     6.9290     8.0300     2.1100    23.0260 
   76.8750   -17.9030    60.4730     9.6080     6.8280     8.1770     2.1120    23.1400 
   77.0000   -17.7790    60.7100     9.4880     6.7420     8.3250     2.1170    23.2940 
   77.1250   -17.6670    60.2740     9.4200     6.6830     8.4900     2.1270    23.3890 
   77.2500   -17.5830    58.7510     9.4290     6.6570     8.2650     2.1420    23.4090 
   77.3750   -17.5210    56.6830     9.4860     6.6550     8.1010     2.1550    23.3730 
   77.5000   -17.4840    55.2700     9.5590     6.6670     8.0050     2.1610    23.2690 
   77.6250   -17.4660    57.0420     9.6270     6.6830     8.1830     2.1580    23.1360 
   77.7500   -17.4580    61.2790     9.6810     6.6950     8.2810     2.1490    23.1060 
   77.8750   -17.4640    64.2220     9.7290     6.7030     8.0050     2.1430    23.1690 
   78.0000   -17.4750    64.7580     9.7750     6.7100     7.7550     2.1420    23.2700 
   78.1250   -17.5000    63.5390     9.8120     6.7230     7.5340     2.1440    23.3270 
   78.2500   -17.5170    62.1180     9.8240     6.7420     7.5000     2.1450    23.3350 
   78.3750   -17.5420    61.2010     9.8210     6.7610     7.6110     2.1430    23.3210 
   78.5000   -17.5520    60.4580     9.8240     6.7800     7.7700     2.1410    23.2630 
   78.6250   -17.5700    59.6830     9.8580     6.8040     7.8670     2.1400    23.1640 
   78.7500   -17.6030    61.0570     9.9430     6.8490     7.8360     2.1440    22.9910 
   78.8750   -17.6450    63.8180    10.0620     6.9240     7.7200     2.1510    22.8620 
   79.0000   -17.6840    64.9170    10.1950     7.0290     7.5750     2.1590    22.7920 
   79.1250   -17.7120    64.1120    10.3140     7.1500     7.7230     2.1670    22.7720 
   79.2500   -17.7280    65.0170    10.3710     7.2530     8.0880     2.1730    22.7720 
   79.3750   -17.7260    66.0500    10.3480     7.3050     8.1720     2.1700    22.7890 
   79.5000   -17.7120    63.2600    10.2450     7.2870     7.9820     2.1600    22.8360 
   79.6250   -17.6620    58.4860    10.0820     7.2020     7.6890     2.1450    22.9200 
   79.7500   -17.6040    56.8120     9.8940     7.0750     7.5500     2.1320    22.9560 
   79.8750   -17.5270    58.8310     9.7260     6.9540     7.4180     2.1280    22.9280 
   80.0000   -17.4530    62.0460     9.6130     6.8710     7.3380     2.1340    22.8220 
   80.1250   -17.3650    64.9730     9.5890     6.8450     7.4280     2.1450    22.6990 
   80.2500   -17.2810    67.1350     9.6870     6.8850     7.5670     2.1520    22.6450 
   80.3750   -17.1870    68.3650     9.8650     6.9680     7.6870     2.1520    22.6630 
   80.5000   -17.0780    67.9010    10.0710     7.0670     7.8120     2.1440    22.6720 
   80.6250   -16.9690    65.4090    10.2390     7.1510     7.8970     2.1340    22.6650 
   80.7500   -16.8240    60.6850    10.2920     7.1830     7.8610     2.1270    22.6580 
   80.8750   -16.6640    56.5360    10.2270     7.1630     7.6800     2.1240    22.6540 
   81.0000   -16.4900    56.2990    10.0690     7.1020     7.5280     2.1260    22.6630 
   81.1250   -16.3110    59.8460     9.8600     7.0160     7.3010     2.1310    22.7100 
   81.2500   -16.1160    62.9700     9.6440     6.9120     7.1090     2.1390    22.7570 
   81.3750   -15.9220    63.3520     9.4560     6.8010     7.1450     2.1450    22.7820 
   81.5000   -15.7300    63.3740     9.3120     6.6960     7.1140     2.1410    22.7940 
   81.6250   -15.5500    66.0890     9.2280     6.6210     6.8970     2.1250    22.8380 
   81.7500   -15.3840    67.8780     9.2300     6.6160     6.6270     2.1040    22.9000 
   81.8750   -15.2330    66.2290     9.3040     6.6880     6.7640     2.0910    22.8670 
   82.0000   -15.0750    62.1340     9.4230     6.8320     7.0210     2.0920    22.7730 
   82.1250   -14.8870    58.1030     9.5600     7.0240     7.1880     2.1050    22.7120 
   82.2500   -14.6680    56.7470     9.7050     7.2290     7.2910     2.1230    22.7040 
   82.3750   -14.3990    56.1340     9.8620     7.4150     7.2320     2.1390    22.7160 
   82.5000   -14.0840    55.7620    10.0140     7.5560     7.1660     2.1490    22.7500 
   82.6250   -13.6980    56.0610    10.1140     7.6220     7.2040     2.1570    22.7970 
   82.7500   -13.2580    58.6320    10.0650     7.5500     7.2970     2.1680    22.8640 
   82.8750   -12.7500    63.8860     9.8320     7.3240     7.3540     2.1840    22.9610 
   83.0000   -12.1770    70.3370     9.4060     6.9380     7.1810     2.2040    23.1570 
   83.1250   -11.5730    76.8410     8.8090     6.4190     6.8940     2.2250    23.4920 
   83.2500   -10.9910    84.2740     8.0700     5.8160     6.3750     2.2370    23.9220 
   83.3750   -10.4690    90.2490     7.3100     5.2230     6.1030     2.2340    24.2430 
   83.5000   -10.0440    92.4100     6.7030     4.7460     5.9070     2.2200    24.3740 
   83.6250    -9.7430    91.4880     6.5050     4.5210     5.6720     2.2070    24.3930 
   83.7500    -9.5760    90.5400     7.2000     4.8100     5.5900     2.2240    24.3830 
   83.8750    -9.5510    89.9640     9.0880     5.7950     6.5190     2.2880    24.3630 
   84.0000    -9.6820    86.2220    12.5510     7.8030    10.1530     2.4020    24.3240 
   84.1250    -9.9860    76.4080    17.7790    11.1800    20.5780     2.5380    24.2520 
   84.2500   -10.3880    63.6440    24.3290    16.1320    35.7510     2.6320    24.1800 
   84.3750   -10.8680    54.3380    29.7840    21.1290    47.3730     2.6580    24.1450 
   84.5000   -11.3760    52.1890    31.4480    23.8340    46.5220     2.6200    24.1290 
   84.6250   -11.9380    53.4950    28.5100    22.8430    39.3710     2.5400    24.0510 
