~V
VERS. 2.00: Ver 2.00
~W
STRT.M 52.0000:
STOP.M 233.0000:
STEP.M 0.1250:
NULL. -999.2500:
UWI. F10175:
~C
DEPT.M :
GR.API :
RML.OHMM :
RI. :
RXO.OHMM :
CALI.CM :
DEN.GM/CC :
SP.MV :
~A
# ...
   85.7500    90.0970     7.0440     5.8240     7.1420    23.6990     2.2680   -13.4540 
   85.8750    89.4230     7.0560     5.8100     6.7820    23.6650     2.2690   -13.6230 
   86.0000    88.0960     7.1690     5.8810     6.1450    23.7270     2.2620   -13.9260 
   86.1250    82.0500     7.4170     6.0800     6.3960    23.7730     2.2440   -14.4270 
   86.2500    74.4340     7.7440     6.3710     7.3200    23.7410     2.2230   -14.9480 
   86.3750    70.0300     8.0880     6.7050     8.1160    23.6240     2.2040   -15.4640 
   86.5000    69.8270     8.3830     7.0130     8.3410    23.5220     2.1930   -15.9700 
   86.6250    70.2290     8.5760     7.2260     8.2280    23.4780     2.1850   -16.4070 
   86.7500    67.9050     8.6920     7.3540     8.1030    23.4450     2.1740   -16.7850 
   86.8750    65.2010     8.7650     7.4320     8.0940    23.4150     2.1550   -17.0520 
   87.0000    65.6920     8.8230     7.4980     8.1350    23.4050     2.1350   -17.1220 
   87.1250    69.3920     8.8570     7.5620     8.1530    23.4740     2.1260   -16.9160 
   87.2500    72.3570     8.8320     7.5920     8.3470    23.5170     2.1320   -16.6140 
   87.3750    74.0940     8.7140     7.5400     8.8250    23.4540     2.1510   -16.2000 
   87.5000    75.1280     8.4950     7.3810     8.4570    23.2880     2.1730   -15.6600 
   87.6250    74.5280     8.2210     7.1280     8.0330    23.1970     2.1910   -15.1030 
   87.7500    73.1600     7.9870     6.8680     7.3430    23.1950     2.2020   -14.5570 
   87.8750    73.2810     7.8560     6.6770     6.5590    23.2030     2.2080   -14.0050 
   88.0000    77.0840     7.8310     6.5940     6.0730    23.1540     2.2080   -13.4410 
   88.1250    82.7570     7.8220     6.5770     6.5730    23.1200     2.2050   -12.8730 
   88.2500    85.7760     7.7020     6.4880     7.1450    23.2410     2.2060   -12.2180 
   88.3750    85.0520     7.4160     6.2410     7.7920    23.3100     2.2180   -11.6260 
   88.5000    85.2490     7.0160     5.8620     7.7230    23.3280     2.2450   -11.2150 
   88.6250    92.0650     6.6960     5.5050     6.4100    23.5510     2.2800   -11.0890 
   88.7500   100.5130     6.6530     5.3420     5.0640    23.8520     2.3060   -11.1730 
   88.8750   100.9590     6.9930     5.4760     4.8760    23.9180     2.3110   -11.3930 
   89.0000    92.0500     7.6920     5.9380     5.9530    23.6830     2.2930   -11.7840 
   89.1250    82.7910     8.5930     6.6890     7.1180    23.3500     2.2570   -12.3000 
   89.2500    76.1070     9.4090     7.4940     7.6830    22.9900     2.2180   -12.9970 
   89.3750    70.2530     9.9690     8.1450     7.8620    22.6930     2.1870   -13.7720 
   89.5000    66.2830    10.2250     8.5150     7.9840    22.5730     2.1700   -14.4760 
   89.6250    67.5280    10.2450     8.6160     8.0090    22.6500     2.1700   -14.9880 
   89.7500    68.9870    10.2130     8.6390     8.2290    22.8260     2.1790   -15.2880 
   89.8750    67.1710    10.2170     8.6770     8.8580    23.0270     2.1900   -15.4270 
   90.0000    66.0320    10.2700     8.7470     9.3270    23.1610     2.1990   -15.5240 
   90.1250    69.8200    10.3300     8.8120     9.3860    23.1240     2.2050   -15.6470 
   90.2500    73.8900    10.3520     8.8320     9.5040    23.0740     2.2100   -15.7370 
   90.3750    73.5210    10.3230     8.7930     9.7240    23.1440     2.2140   -15.8180 
   90.5000    68.9360    10.2530     8.7030     9.6870    23.2540     2.2170   -15.8800 
   90.6250    66.9140    10.1610     8.5850     9.5570    23.2860     2.2160   -15.9170 
   90.7500    67.3090    10.0670     8.4670     9.3420    23.2670     2.2090   -15.9440 
   90.8750    67.9440     9.9780     8.3640     9.2000    23.2560     2.1960   -15.9720 
   91.0000    68.7240     9.8970     8.2860     9.2020    23.2360     2.1810   -15.9380 
   91.1250    68.9440     9.8290     8.2440     9.0750    23.2250     2.1670   -15.8680 
   91.2500    68.0190     9.7680     8.2290     8.8720    23.2430     2.1600   -15.8380 
   91.3750    65.9910     9.7040     8.2280     9.0050    23.3210     2.1620   -15.7880 
   91.5000    65.4530     9.6230     8.2180     9.2720    23.4200     2.1700   -15.7700 
   91.6250    67.3040     9.5110     8.1820     8.9930    23.5060     2.1800   -15.6950 
   91.7500    69.0520     9.3870     8.1220     8.3700    23.5250     2.1860   -15.5790 
   91.8750    70.4080     9.2770     8.0520     7.9310    23.4880     2.1860   -15.3850 
   92.0000    71.7260     9.2130     7.9930     7.7850    23.4020     2.1800   -15.0190 
   92.1250    72.3040     9.1990     7.9640     7.8870    23.2870     2.1730   -14.4110 
   92.2500    72.0790     9.1640     7.9240     7.8720    23.1970     2.1690   -13.5210 
   92.3750    71.7890     9.0140     7.7960     7.8360    23.1660     2.1740   -12.4520 
   92.5000    72.0540     8.6640     7.4860     7.7810    23.1720     2.1910   -11.2800 
   92.6250    72.7390     8.0750     6.9340     7.4990    23.2350     2.2160   -10.1070 
   92.7500    76.0020     7.3940     6.2800     6.7530    23.4030     2.2420    -9.0640 
   92.8750    83.5660     6.7880     5.6820     5.6210    23.6950     2.2590    -8.2970 
   93.0000    92.9630     6.4260     5.2790     4.9440    23.9770     2.2610    -7.9030 
   93.1250    96.3220     6.4940     5.2190     4.9290    23.8950     2.2440    -7.9460 
   93.2500    90.8070     6.9530     5.4910     5.9170    23.5730     2.2230    -8.3620 
   93.3750    81.2060     7.7200     6.0740     7.0870    23.2540     2.2120    -9.0150 
   93.5000    74.3020     8.6340     6.8760     7.7510    23.0550     2.2190    -9.8310 
   93.6250    73.1050     9.4510     7.7000     8.1380    23.0670     2.2440   -10.7460 
   93.7500    73.0330     9.9930     8.3130     9.1210    23.2580     2.2650   -11.6230 
   93.8750    72.4610    10.1960     8.5970    10.5290    23.4410     2.2660   -12.2860 
   94.0000    71.9270    10.1100     8.5730     9.7670    23.3760     2.2440   -12.6970 
   94.1250    71.3390     9.8570     8.3530     8.6360    23.1530     2.2070   -12.8750 
   94.2500    71.5730     9.6140     8.1150     7.8390    22.9790     2.1730   -12.9170 
   94.3750    72.6770     9.4640     7.9410     7.6340    22.9030     2.1510   -12.9540 
   94.5000    73.2960     9.4240     7.8590     7.7010    22.8770     2.1430   -12.9420 
   94.6250    72.5240     9.4480     7.8480     7.8380    22.8620     2.1470   -12.9070 
   94.7500    72.6280     9.4270     7.8240     7.8580    22.8720     2.1570   -12.7940 
   94.8750    74.1840     9.2840     7.7170     7.8020    22.8620     2.1710   -12.6510 
   95.0000    73.7500     8.9880     7.4900     7.2870    22.8440     2.1860   -12.5090 
   95.1250    71.4920     8.5970     7.1580     7.1180    22.9250     2.1980   -12.2630 
   95.2500    71.7700     8.3010     6.8610     7.0970    23.0380     2.2050   -11.9400 
   95.3750    74.8970     8.2980     6.7580     7.7860    23.0730     2.2110   -11.5050 
   95.5000    78.6560     8.7290     6.9920     9.2300    23.0100     2.2280   -10.9560 
   95.6250    81.3140     9.6140     7.6910     9.9320    23.0460     2.2680   -10.3190 
   95.7500    80.7930    10.5800     8.6470    10.7270    23.3500     2.3240    -9.6910 
   95.8750    75.2110    11.2080     9.4800    14.4820    23.8000     2.3770    -9.0590 
   96.0000    69.6870    11.1500     9.6950    17.5690    24.2530     2.4050    -8.4780 
   96.1250    73.4280    10.2360     8.9510    13.2850    24.8370     2.3900    -8.0170 
   96.2500    82.6140     8.9180     7.7660     8.0320    26.0490     2.3480    -7.6080 
   96.3750    91.3830     7.6210     6.6190     5.7690    27.7790     2.3020    -7.2570 
   96.5000    96.2430     6.6600     5.7870     5.2990    26.8480     2.2700    -6.9840 
   96.6250    97.8920     6.1950     5.3820     5.6850    25.2980     2.2580    -6.7930 
   96.7500    98.9050     6.0310     5.2460     5.8810    24.3080     2.2560    -6.5920 
   96.8750   101.1430     5.9980     5.2370     5.6760    24.1280     2.2610    -6.4400 
