~V
VERS. 2.00: Ver 2.00
~W
STRT.M 50.0000:
STOP.M 205.0000:
STEP.M 0.1250:
NULL. -999.2500:
UWI. F10148:
~C
DEPT.M :
GR.API :
RML.OHMM :
RI. :
RXO.OHMM :
CALI.CM :
SP.MV :
DEN.GM/CC :
~A
# ...
  117.5000    78.2720     8.8220     7.8860     9.7310    21.2310   -11.9530     2.0020 
  117.6250    79.8540     8.8080     7.8500     9.6550    21.3570   -11.8990     2.0250 
  117.7500    86.6990     9.0430     8.0870     9.8330    21.7370   -11.8550     2.0420 
  117.8750    91.1230     9.4610     8.5450    10.3520    22.1820   -11.7830     2.0640 
  118.0000    87.6210     9.9150     9.0940    10.8750    22.4650   -11.6780     2.1000 
  118.1250    79.1950    10.1250     9.4720    11.8600    22.5630   -11.5540     2.1460 
  118.2500    75.2640     9.9530     9.4840    12.0290    22.6100   -11.3730     2.1900 
  118.3750    77.6110     9.4230     9.0970    10.7190    22.7990   -11.1640     2.2200 
  118.5000    82.5700     8.7070     8.4540     9.0740    23.1560   -10.9400     2.2350 
  118.6250    84.5890     8.0680     7.8080     8.2300    23.4560   -10.7170     2.2410 
  118.7500    84.8850     7.6690     7.3530     7.6020    23.8050   -10.5150     2.2490 
  118.8750    85.6980     7.5580     7.1640     7.4160    23.9510   -10.3370     2.2600 
  119.0000    86.5030     7.7130     7.2340     7.7820    23.5130   -10.1830     2.2700 
  119.1250    85.9180     8.1050     7.5330     7.9180    23.7340   -10.0560     2.2750 
  119.2500    85.7460     8.6200     7.9530     8.1570    23.5930    -9.9690     2.2770 
  119.3750    85.6020     9.1770     8.4370     9.0370    23.5810    -9.9140     2.2800 
  119.5000    84.3470     9.7070     8.9300    10.3020    23.6280    -9.8780     2.2890 
  119.6250    81.5690    10.1290     9.3580    10.5400    23.6230    -9.8570     2.3050 
  119.7500    76.5480    10.4000     9.6700    10.3010    23.6400    -9.8350     2.3220 
  119.8750    71.1430    10.4960     9.8320    10.0160    23.3640    -9.8280     2.3360 
  120.0000    69.9500    10.4570     9.8550    10.0910    23.2350    -9.8170     2.3450 
  120.1250    75.2160    10.3950     9.7960    10.4050    23.2560    -9.7700     2.3490 
  120.2500    81.6840    10.4130     9.7280    10.2200    23.1540    -9.7070     2.3540 
  120.3750    85.4110    10.5270     9.6710    10.1030    23.1530    -9.6490     2.3620 
  120.5000    85.8230    10.6960     9.6330    10.5790    23.0850    -9.5970     2.3730 
  120.6250    83.1350    10.8970     9.6520    12.0800    23.1550    -9.5560     2.3850 
  120.7500    79.9030    11.2300     9.8050    12.4010    23.1070    -9.5150     2.3940 
  120.8750    78.4290    11.9280    10.2350    11.4070    23.0210    -9.4690     2.4020 
  121.0000    77.8360    13.2980    11.1380    11.6200    22.8830    -9.4270     2.4130 
  121.1250    74.7420    15.8300    12.8980    14.7670    22.9110    -9.4240     2.4360 
  121.2500    67.9520    19.4790    15.6180    19.7190    22.9110    -9.4270     2.4690 
  121.3750    59.8860    23.9870    19.2880    26.9910    22.8210    -9.4300     2.5060 
  121.5000    53.3870    28.6000    23.4590    31.9010    22.6830    -9.4390     2.5390 
  121.6250    48.8020    31.8520    26.9090    32.0840    22.6590    -9.4360     2.5610 
  121.7500    46.3600    33.2030    28.8060    30.9060    22.6570    -9.4110     2.5740 
  121.8750    47.3020    33.1210    29.2630    31.7510    22.6690    -9.3820     2.5820 
  122.0000    50.9320    32.6220    29.0270    31.7470    22.7190    -9.3410     2.5840 
  122.1250    51.5460    32.5900    28.8660    30.1850    22.6790    -9.2910     2.5790 
  122.2500    48.7980    33.0800    29.0360    29.4830    22.6100    -9.2280     2.5700 
  122.3750    46.9380    33.7890    29.4270    31.6340    22.5370    -9.1480     2.5580 
  122.5000    48.2440    34.2940    29.8090    33.4800    22.4820    -9.0610     2.5480 
  122.6250    47.6800    34.1040    29.8670    32.6470    22.4050    -8.9910     2.5470 
  122.7500    43.8960    33.1840    29.4560    30.0090    22.3560    -8.9330     2.5520 
  122.8750    42.7960    31.6850    28.5530    28.0650    22.3160    -8.8790     2.5600 
  123.0000    46.1780    29.9180    27.3030    28.1730    22.2530    -8.8410     2.5680 
  123.1250    49.4610    28.2230    25.9760    27.7760    22.1130    -8.8240     2.5690 
  123.2500    50.6710    26.7580    24.8060    25.3670    21.9850    -8.8380     2.5660 
  123.3750    52.8190    25.5590    23.8780    23.1300    21.9000    -8.8750     2.5620 
  123.5000    54.9440    24.6170    23.1750    22.2410    21.8780    -8.9330     2.5610 
  123.6250    52.6720    23.9150    22.6200    23.5030    21.8760    -8.9910     2.5630 
  123.7500    48.5620    23.2870    22.0510    23.9910    21.8760    -9.0520     2.5670 
  123.8750    45.9530    22.5670    21.3650    22.2630    21.8760    -9.1040     2.5710 
  124.0000    47.1130    21.6530    20.5410    19.8750    21.8760    -9.1530     2.5760 
  124.1250    50.7220    20.6380    19.7110    18.9600    21.8620    -9.1880     2.5800 
  124.2500    52.1710    19.8440    19.1030    18.6720    21.8030    -9.2200     2.5770 
  124.3750    50.6080    19.5700    18.9010    18.5310    21.8620    -9.2470     2.5640 
  124.5000    48.7680    20.0230    19.2280    18.2590    21.9370    -9.2560     2.5420 
  124.6250    49.3010    21.3350    20.2060    18.3620    21.9600    -9.2840     2.5210 
  124.7500    49.6110    23.0920    21.6130    19.8240    21.9940    -9.3210     2.5120 
  124.8750    48.6480    24.7970    23.1500    23.0130    22.0160    -9.3710     2.5200 
  125.0000    46.2920    25.8990    24.3760    26.9780    21.9800    -9.4460     2.5430 
  125.1250    42.9530    25.8940    24.7410    30.1660    21.9560    -9.5310     2.5690 
  125.2500    41.4430    25.1350    24.3460    28.4360    21.9330    -9.6230     2.5820 
  125.3750    42.8830    24.1850    23.5770    23.6820    21.8420    -9.7370     2.5720 
  125.5000    43.7290    23.6070    22.9160    20.4050    21.6340    -9.8790     2.5400 
  125.6250    41.6070    23.7580    22.7430    20.9790    21.8910    -9.9950     2.4930 
  125.7500    40.7070    24.3520    22.9760    23.2570    22.0890   -10.1080     2.4510 
  125.8750    43.0920    25.0160    23.3870    25.6400    22.2510   -10.2260     2.4280 
  126.0000    47.2090    25.3640    23.6770    26.3480    22.3040   -10.3250     2.4340 
  126.1250    50.5940    25.0840    23.5590    24.4980    22.8400   -10.4290     2.4650 
  126.2500    52.5200    24.4160    23.1280    22.6290    23.4220   -10.5450     2.5010 
  126.3750    53.8580    23.7060    22.6040    22.0750    23.7980   -10.6700     2.5200 
  126.5000    56.0020    23.2470    22.2200    22.5420    24.1750   -10.7890     2.5130 
  126.6250    58.8480    23.2300    22.1970    23.6900    24.8110   -10.9230     2.4870 
  126.7500    58.5660    23.5610    22.5130    24.0590    25.1210   -11.0670     2.4630 
  126.8750    56.1140    24.0990    23.0670    23.8710    24.8690   -11.2060     2.4570 
  127.0000    56.2970    24.6070    23.6620    25.0670    24.5760   -11.3510     2.4660 
  127.1250    57.2560    24.7570    23.9720    25.8270    24.5780   -11.4740     2.4750 
  127.2500    54.4750    24.4170    23.8060    25.1880    24.8400   -11.5700     2.4660 
  127.3750    50.3520    23.5910    23.1330    22.4070    25.0630   -11.6250     2.4380 
  127.5000    50.5240    22.4830    22.1350    19.6440    24.3600   -11.6620     2.4020 
  127.6250    53.8400    21.5300    21.1780    18.4860    23.1110   -11.6860     2.3770 
  127.7500    55.0460    21.1120    20.6010    17.9940    22.8670   -11.6890     2.3690 
  127.8750    55.6010    21.4160    20.6000    18.5810    23.3660   -11.6650     2.3720 
  128.0000    56.3490    22.4390    21.2360    21.1180    24.1140   -11.6190     2.3840 
  128.1250    55.1000    24.0150    22.4880    24.5750    24.4080   -11.5980     2.3990 
  128.2500    51.4510    25.5930    23.9580    26.3310    24.3400   -11.5770     2.4160 
  128.3750    45.9320    26.6800    25.2240    27.9360    24.1320   -11.5550     2.4340 
  128.5000    40.7700    26.9130    25.8870    27.1250    23.9640   -11.5220     2.4490 
  128.6250    40.5050    26.1610    25.6670    25.8150    24.0080   -11.4820     2.4570 
