~V
VERS. 2.00: Ver 2.00
~W
STRT.M 47.0000:
STOP.M 242.0000:
STEP.M 0.1250:
NULL. -999.2500:
UWI. F10188:
~C
DEPT.M :
SP.MV :
DEN.GM/CC :
GR.API :
RML.OHMM :
RI. :
RXO.OHMM :
CALI.CM :
~A
# ...
  103.2500   -35.5110     2.1080    62.6510     7.7230     7.4090    10.7850    24.8820 
  103.3750   -35.6480     2.0950    58.5740     7.5420     7.2390     8.8150    24.5940 
  103.5000   -35.7550     2.0980    57.0180     7.4500     7.1190     7.9160    24.3240 
  103.6250   -35.8950     2.1110    61.3600     7.4600     7.0850     7.9910    24.0880 
  103.7500   -36.0360     2.1270    66.0910     7.5500     7.1350     8.3490    23.8580 
  103.8750   -36.1850     2.1430    65.7640     7.6810     7.2410     8.4640    23.6230 
  104.0000   -36.3030     2.1550    62.0150     7.8140     7.3630     8.5080    23.4380 
  104.1250   -36.3960     2.1650    61.4550     7.9220     7.4630     8.4710    23.3630 
  104.2500   -36.4660     2.1710    62.9260     7.9950     7.5280     8.5660    23.3460 
  104.3750   -36.4900     2.1740    64.1430     8.0270     7.5530     8.8360    23.3190 
  104.5000   -36.4690     2.1750    66.1520     8.0140     7.5380     8.7020    23.2660 
  104.6250   -36.4050     2.1740    70.1190     7.9810     7.5020     8.3330    23.2290 
  104.7500   -36.2860     2.1720    72.2650     7.9440     7.4610     8.0150    23.2630 
  104.8750   -36.1240     2.1700    68.2050     7.9000     7.4240     8.0100    23.5040 
  105.0000   -35.9230     2.1650    63.3530     7.8200     7.3750     8.2710    23.9870 
  105.1250   -35.6510     2.1550    63.4780     7.6910     7.2930     8.2510    24.6620 
  105.2500   -35.3290     2.1390    64.0140     7.5190     7.1680     7.8260    25.4020 
  105.3750   -35.0190     2.1170    60.5950     7.3460     7.0150     7.2880    25.8400 
  105.5000   -34.6780     2.0970    56.5030     7.2730     6.9120     7.1790    25.7620 
  105.6250   -34.3180     2.0930    58.9680     7.3830     6.9460     7.3030    25.4540 
  105.7500   -34.0030     2.1060    64.9270     7.7070     7.1710     7.3360    25.2050 
  105.8750   -33.7800     2.1290    68.6720     8.1960     7.5750     7.0970    25.1140 
  106.0000   -33.7160     2.1740    67.1210     8.6870     8.0550     7.1210    24.9830 
  106.1250   -33.8290     2.2580    63.1590     8.9590     8.4080     7.3620    24.7710 
  106.2500   -34.1340     2.3730    62.6770     8.8770     8.4820     7.7890    24.7410 
  106.3750   -34.6170     2.4590    66.4040     8.4730     8.2460     8.1650    24.9600 
  106.5000   -35.3170     2.4280    66.9280     7.9450     7.8090     8.2760    25.1220 
  106.6250   -36.1790     2.3380    63.3910     7.5230     7.3870     8.1410    25.1410 
  106.7500   -37.1280     2.2580    60.9980     7.2970     7.0870     8.1060    25.1220 
  106.8750   -38.0590     2.2070    62.3250     7.2630     6.9510     8.3740    25.1380 
  107.0000   -38.8910     2.1800    62.9030     7.3510     6.9670     8.6490    25.0890 
  107.1250   -39.6120     2.1630    62.0710     7.4340     7.0350     8.7040    24.8760 
  107.2500   -40.1460     2.1540    62.4140     7.4570     7.0910     8.3770    24.6030 
  107.3750   -40.4210     2.1510    61.9440     7.4170     7.1110     7.9940    24.4350 
  107.5000   -40.4320     2.1510    58.7580     7.3500     7.0960     8.1480    24.3250 
  107.6250   -40.2320     2.1500    58.2830     7.2850     7.0600     8.4120    24.2000 
  107.7500   -39.8530     2.1480    61.6240     7.2180     7.0010     8.3840    24.0430 
  107.8750   -39.3220     2.1480    65.4510     7.1380     6.9120     8.0990    23.8690 
  108.0000   -38.6140     2.1510    66.3750     7.0440     6.7970     7.6670    23.7650 
  108.1250   -37.7970     2.1540    66.2750     6.9650     6.6820     7.4090    23.7070 
  108.2500   -36.9330     2.1560    65.0070     6.9320     6.6000     7.4040    23.6190 
  108.3750   -36.0690     2.1620    62.6040     6.9670     6.5770     7.4020    23.4730 
  108.5000   -35.2470     2.1740    62.8820     7.0780     6.6370     7.1350    23.3730 
  108.6250   -34.4790     2.1850    64.8890     7.2260     6.7570     7.0200    23.4080 
  108.7500   -33.7620     2.1890    66.0260     7.3940     6.9260     7.3970    23.6070 
  108.8750   -33.1030     2.1890    68.0240     7.5950     7.1480     7.9790    23.8490 
  109.0000   -32.5510     2.1930    71.3250     7.8660     7.4460     8.3290    23.9460 
  109.1250   -32.0560     2.2040    72.5490     8.1910     7.7930     8.2020    23.8770 
  109.2500   -31.5850     2.2190    70.4900     8.5010     8.1240     7.9450    23.7080 
  109.3750   -31.1010     2.2340    66.7030     8.6690     8.3320     7.8030    23.5430 
  109.5000   -30.5300     2.2440    63.5830     8.4820     8.2350     7.8230    23.3840 
  109.6250   -29.8860     2.2380    63.7560     7.9410     7.8110     7.5290    23.2620 
  109.7500   -29.2100     2.2160    69.2020     7.1720     7.1300     6.4840    23.2540 
  109.8750   -28.5380     2.1920    76.9300     6.3970     6.3580     5.3530    23.5200 
  110.0000   -27.8840     2.1880    80.8140     5.8740     5.7180     4.8690    23.9330 
  110.1250   -27.3200     2.2050    81.9640     5.6600     5.3200     4.9590    24.3540 
  110.2500   -26.8930     2.2280    84.2550     5.7260     5.1910     5.1960    24.6340 
  110.3750   -26.5540     2.2480    86.4820     5.9690     5.2900     5.4310    24.7740 
  110.5000   -26.2030     2.2620    83.9690     6.2110     5.5070     5.6490    24.8120 
  110.6250   -25.8180     2.2710    80.3010     6.2930     5.6760     6.3050    24.8240 
  110.7500   -25.4340     2.2700    79.6770     6.2220     5.7400     7.3760    24.9060 
  110.8750   -25.0460     2.2630    80.9050     6.1940     5.7840     8.6720    24.9570 
  111.0000   -24.5670     2.2660    81.8050     6.5710     6.0630    10.3670    24.8690 
  111.1250   -23.9630     2.2830    84.2220     7.5000     6.7660    12.3120    24.7190 
  111.2500   -23.2400     2.3110    85.7030     8.9860     8.0050    14.6640    24.7720 
  111.3750   -22.4650     2.3540    81.2880    11.2120     9.6930    17.1230    25.0460 
  111.5000   -21.7980     2.4110    73.1790    12.4380    11.1700    18.5110    25.1680 
  111.6250   -21.2260     2.4560    70.0410    12.0800    11.4680    17.4360    25.0500 
  111.7500   -20.6850     2.4690    73.5990    10.2310    10.3310    13.1910    24.7900 
  111.8750   -20.1940     2.4510    80.8640     7.9420     8.4360     9.8730    24.5430 
  112.0000   -19.8660     2.4140    88.3790     6.2260     6.7110     7.3820    24.4120 
  112.1250   -19.6390     2.3760    94.3910     5.1890     5.4950     6.5650    24.3750 
  112.2500   -19.4340     2.3490    99.4030     4.6790     4.7600     6.2560    24.4080 
  112.3750   -19.2660     2.3380   103.7940     4.5060     4.3890     5.8610    24.4880 
  112.5000   -19.1210     2.3400   108.0950     4.5200     4.2760     5.5050    24.5800 
  112.6250   -19.0440     2.3470   111.5070     4.5840     4.2760     5.4780    24.6840 
  112.7500   -19.0390     2.3540   113.2290     4.6570     4.3330     5.6780    24.7110 
  112.8750   -19.0400     2.3580   112.7110     4.7230     4.4130     6.0440    24.6460 
  113.0000   -19.0160     2.3560   111.8310     4.7690     4.4940     5.9390    24.5440 
  113.1250   -19.0010     2.3530   111.0940     4.7810     4.5510     5.7130    24.5550 
  113.2500   -19.0270     2.3510   108.9740     4.7520     4.5710     5.5250    24.6050 
  113.3750   -19.0770     2.3500   105.7370     4.7030     4.5560     5.5040    24.5960 
  113.5000   -19.1760     2.3500   102.7370     4.6780     4.5320     5.6610    24.4550 
  113.6250   -19.3180     2.3510   101.1460     4.7110     4.5330     5.6360    24.1860 
  113.7500   -19.5240     2.3490   101.5910     4.8100     4.5790     5.5330    23.8860 
  113.8750   -19.8030     2.3400   103.6210     4.9580     4.6640     5.4950    23.7100 
  114.0000   -20.1240     2.3220   104.3230     5.1270     4.7670     5.4790    23.7160 
  114.1250   -20.4990     2.3010   101.7120     5.2890     4.8570     5.5410    23.8180 
  114.2500   -20.9710     2.2820    98.9590     5.4390     4.9310     5.5120    23.9190 
  114.3750   -21.5370     2.2660    98.2950     5.5850     5.0030     5.3590    23.9490 
