~V
VERS. 2.00: Ver 2.00
~W
STRT.M 49.0000:
STOP.M 243.0000:
STEP.M 0.1250:
NULL. -999.2500:
UWI. F10196:
~C
DEPT.M :
SP.MV :
DEN.GM/CC :
GR.API :
RML.OHMM :
RI. :
RXO.OHMM :
CALI.CM :
~A
# ...
   60.2500   -20.7370     2.1680    89.5770     5.9570     6.9110     7.6500    23.8690 
   60.3750   -21.3240     2.1670    93.6820     5.7780     6.7210     7.5800    23.7070 
   60.5000   -21.8790     2.1700    97.3770     5.6050     6.4950     7.9950    23.4920 
   60.6250   -22.3970     2.1760    97.9670     5.5620     6.3530     8.2320    23.4630 
   60.7500   -22.8970     2.1880    99.3750     5.8120     6.4720     7.5370    23.6840 
   60.8750   -23.3670     2.2030   101.8470     6.3750     6.9090     7.5490    23.8270 
   61.0000   -23.8230     2.2150   100.3600     7.2270     7.6670     8.6930    23.7900 
   61.1250   -24.3000     2.2280    94.9630     8.2240     8.6270    11.8250    23.5950 
   61.2500   -24.8410     2.2530    94.8140     8.9500     9.4240    17.8710    23.2450 
   61.3750   -25.4650     2.2800    99.0290     9.0330     9.6610    19.3550    22.7810 
   61.5000   -26.1570     2.2820   100.7600     8.4620     9.2260    13.7420    22.2970 
   61.6250   -26.8860     2.2570    99.7490     7.6130     8.3710     9.7900    22.0010 
   61.7500   -27.6180     2.2330    98.0760     6.9460     7.5240     8.7330    21.9550 
   61.8750   -28.3320     2.2260    95.9460     6.5900     6.9260     8.6340    22.0150 
   62.0000   -29.0050     2.2270    95.5070     6.4900     6.6010     9.0060    22.1650 
   62.1250   -29.6680     2.2210    97.2550     6.5330     6.4810     8.8770    22.5380 
   62.2500   -30.3940     2.2030    98.3870     6.6290     6.4840     8.5770    23.1280 
   62.3750   -31.2170     2.1730    95.9570     6.7430     6.5410     8.6130    23.4880 
   62.5000   -32.1420     2.1360    90.5320     6.9000     6.6540     8.9810    23.4280 
   62.6250   -33.1150     2.1030    83.1150     7.1310     6.8360     8.9970    23.0950 
   62.7500   -34.0650     2.0820    75.8440     7.4450     7.0920     9.9220    22.6980 
   62.8750   -35.0030     2.0700    71.9100     7.7800     7.3720    11.3490    22.4780 
   63.0000   -35.9780     2.0650    72.1090     8.0800     7.6330    11.9720    22.4630 
   63.1250   -36.9830     2.0700    72.7510     8.3150     7.8430    12.1280    22.5600 
   63.2500   -37.8890     2.0810    71.4850     8.4680     7.9780    12.1880    22.6430 
   63.3750   -38.5690     2.0900    69.8090     8.5620     8.0460    12.4480    22.6580 
   63.5000   -38.9840     2.0970    69.1370     8.6040     8.0510    12.5980    22.6750 
   63.6250   -39.1910     2.1030    69.7410     8.5750     7.9850    12.6140    22.7230 
   63.7500   -39.2650     2.1100    70.9680     8.4320     7.8160    12.4460    22.7800 
   63.8750   -39.2850     2.1160    72.6980     8.2130     7.5650    12.0900    22.8720 
   64.0000   -39.2670     2.1220    76.1920     7.9990     7.2870    11.4080    22.9550 
   64.1250   -39.2080     2.1300    79.3040     7.8870     7.0590    10.7040    22.9740 
   64.2500   -39.1630     2.1380    77.6420     7.9910     6.9810    10.3190    22.9200 
   64.3750   -39.2340     2.1420    73.6710     8.2980     7.0680    10.5610    22.8490 
   64.5000   -39.4890     2.1460    71.4440     8.7640     7.3110    10.9040    22.7970 
   64.6250   -39.9200     2.1510    71.7040     9.3040     7.6690    11.3720    22.8400 
   64.7500   -40.4960     2.1510    69.5720     9.7780     8.0650    12.2490    23.0250 
   64.8750   -41.1580     2.1350    65.8600    10.0810     8.3970    12.8710    23.3670 
   65.0000   -41.8160     2.1040    65.4260    10.1750     8.6000    13.2510    23.7720 
   65.1250   -42.3970     2.0750    67.0680    10.0920     8.6540    13.6740    23.8460 
   65.2500   -42.8480     2.0670    67.2310     9.9050     8.5660    13.9320    23.3630 
   65.3750   -43.2040     2.0750    66.0460     9.7250     8.4200    13.7290    22.8260 
   65.5000   -43.4560     2.0860    66.7180     9.6120     8.2700    13.6580    22.4920 
   65.6250   -43.6160     2.0890    69.1810     9.5890     8.1520    13.8420    22.3020 
   65.7500   -43.6410     2.0820    68.8830     9.6560     8.0870    13.8770    22.2540 
   65.8750   -43.5020     2.0750    65.8190     9.7650     8.0620    13.6800    22.3580 
   66.0000   -43.2530     2.0730    62.5340     9.8590     8.0550    13.4150    22.5660 
   66.1250   -42.9920     2.0820    59.8310     9.8670     8.0210    13.2690    22.7180 
   66.2500   -42.8160     2.1090    57.5720     9.7410     7.9130    12.8040    22.6520 
   66.3750   -42.6580     2.1440    59.3340     9.5500     7.7510    12.2970    22.5190 
   66.5000   -42.4730     2.1680    66.6580     9.3710     7.5770    12.4370    22.4340 
   66.6250   -42.2510     2.1700    72.5730     9.2780     7.4410    12.4350    22.4360 
   66.7500   -42.0440     2.1510    70.6990     9.3410     7.4080    11.9660    22.6460 
   66.8750   -41.8540     2.1200    68.2920     9.5240     7.4750    11.9270    23.1250 
   67.0000   -41.6600     2.0800    69.4300     9.7620     7.6100    12.0740    23.5700 
   67.1250   -41.4320     2.0420    70.6270     9.9750     7.7610    11.8860    23.6030 
   67.2500   -41.0910     2.0220    69.2960    10.0700     7.8620    11.9330    23.2170 
   67.3750   -40.6230     2.0240    67.6780    10.0340     7.8880    12.1720    22.8000 
   67.5000   -40.0300     2.0400    65.2800     9.9010     7.8450    11.8600    22.4600 
   67.6250   -39.3190     2.0620    62.8760     9.7420     7.7710    11.5350    22.1530 
   67.7500   -38.4850     2.0820    64.1340     9.6360     7.7230    11.6860    21.8560 
   67.8750   -37.5970     2.1030    66.5530     9.6300     7.7410    11.8400    21.6570 
   68.0000   -36.6620     2.1230    68.5220     9.7520     7.8510    11.8640    21.5900 
   68.1250   -35.6610     2.1380    70.9230     9.9910     8.0640    12.0220    21.6080 
   68.2500   -34.5800     2.1460    74.7610    10.2620     8.3450    12.4600    21.6480 
   68.3750   -33.4020     2.1520    76.0860    10.4040     8.5750    12.8360    21.7300 
   68.5000   -32.1000     2.1610    74.3980    10.2840     8.6340    12.8350    21.9120 
   68.6250   -30.7220     2.1700    73.0850     9.8410     8.4390    12.2890    22.1990 
   68.7500   -29.3280     2.1720    77.2530     9.1140     7.9670    10.7990    22.5700 
   68.8750   -28.0200     2.1700    86.2780     8.3210     7.3740     9.0910    23.0060 
   69.0000   -26.8630     2.1730    92.9460     7.6130     6.7870     7.7140    23.3440 
   69.1250   -25.8560     2.1900    92.5860     7.0850     6.3010     7.1240    23.2920 
   69.2500   -24.9890     2.2220    90.9190     6.7980     5.9870     6.8450    22.9240 
   69.3750   -24.3050     2.2550    94.3730     6.6910     5.8180     6.3740    22.6590 
   69.5000   -23.8820     2.2800    97.4010     6.7150     5.7640     6.0280    22.6430 
   69.6250   -23.7180     2.2930    94.4900     6.8080     5.7820     6.0600    22.8090 
   69.7500   -23.8030     2.2960    91.8830     6.8710     5.8060     6.5200    23.0910 
   69.8750   -24.0040     2.2960    94.1970     6.8030     5.7560     7.0270    23.3240 
   70.0000   -24.2830     2.2980    98.2500     6.5620     5.5860     7.0490    23.4230 
   70.1250   -24.6930     2.3020   101.3320     6.2400     5.3320     6.8630    23.4790 
   70.2500   -25.4080     2.3070   102.4280     6.1340     5.1680     6.5950    23.7700 
   70.3750   -26.4680     2.3130   101.9160     6.4770     5.2740     6.4690    24.0990 
   70.5000   -27.8580     2.3210    97.5070     7.3800     5.7570     6.9730    24.2840 
   70.6250   -29.5130     2.3280    90.9310     8.7990     6.6470     9.4110    24.2880 
   70.7500   -31.3710     2.3290    83.3470    10.4350     7.8540    16.7220    24.1660 
   70.8750   -33.3090     2.3140    75.5350    11.6290     8.9500    24.6660    23.9350 
   71.0000   -35.2370     2.2690    69.1970    11.8860     9.5080    21.7030    23.5690 
   71.1250   -37.0860     2.1920    66.1710    11.2320     9.3820    15.9690    23.1210 
   71.2500   -38.7500     2.1180    67.6220    10.2300     8.8140    14.2420    22.6610 
   71.3750   -40.1740     2.0810    68.3230     9.4860     8.2710    14.4350    22.4710 
