~V
VERS. 2.00: Ver 2.00
~W
STRT.M 55.0000:
STOP.M 247.0000:
STEP.M 0.1250:
NULL. -999.2500:
UWI. F10183:
~C
DEPT.M :
SP.MV :
GR.API :
RML.OHMM :
RI. :
RXO.OHMM :
CALI.CM :
DEN.GM/CC :
~A
# ...
  167.5000    -9.8940    60.1380   104.6990    98.4740   100.4810    24.3570     2.2540 
  167.6250    -9.7930    58.6220   103.6360    98.9180    97.3530    24.3530     2.2490 
  167.7500    -9.7410    59.3290   103.8450   100.8760    96.3640    24.3230     2.2470 
  167.8750    -9.6760    60.9900   104.9130   104.0030    99.3600    24.2930     2.2480 
  168.0000    -9.6070    60.0620   105.5980   107.0670   106.1790    24.2560     2.2530 
  168.1250    -9.5090    57.8400   103.0530   106.9860   113.1610    24.1850     2.2590 
  168.2500    -9.4020    59.0670    95.3590   101.2740   114.6850    24.1160     2.2660 
  168.3750    -9.3000    61.5020    81.8760    88.6600   107.7160    24.0440     2.2750 
  168.5000    -9.1920    61.0020    64.3080    70.4810    93.2100    23.9370     2.2850 
  168.6250    -9.1050    60.4340    46.7960    51.2960    69.8840    23.8200     2.3000 
  168.7500    -8.9900    63.9790    32.7760    35.7820    42.9990    23.7340     2.3170 
  168.8750    -8.9130    69.8840    23.1530    25.1640    24.7330    23.6660     2.3380 
  169.0000    -8.8320    75.8660    17.3400    18.6810    15.0610    23.6260     2.3590 
  169.1250    -8.7620    80.6170    14.5890    15.3480    12.4010    23.6360     2.3820 
  169.2500    -8.7130    82.4320    13.5930    13.7180    11.4340    23.6420     2.4020 
  169.3750    -8.6820    79.8620    13.8470    13.4400    11.2870    23.6420     2.4170 
  169.5000    -8.6970    76.7010    15.1900    14.5170    11.9840    23.6780     2.4240 
  169.6250    -8.7160    76.9520    18.8580    17.6050    15.6410    23.7280     2.4160 
  169.7500    -8.7650    77.1560    25.2730    23.0280    23.8930    23.7640     2.3940 
  169.8750    -8.7950    73.8660    34.2480    31.2120    37.2650    23.8120     2.3630 
  170.0000    -8.8500    67.5590    45.2300    41.9770    54.7880    23.8630     2.3310 
  170.1250    -8.8930    62.1210    56.6190    54.0490    73.0780    23.8800     2.3060 
  170.2500    -8.9360    58.7070    66.1290    64.6970    84.3930    23.8900     2.2910 
  170.3750    -9.0010    58.1500    72.1920    71.7020    87.8580    23.9040     2.2850 
  170.5000    -9.0390    60.5920    74.4930    74.2560    87.8130    23.9040     2.2840 
  170.6250    -9.1020    64.8830    73.8730    73.1110    84.9750    23.9260     2.2840 
  170.7500    -9.1370    67.2010    72.2050    70.5540    82.4050    23.9850     2.2840 
  170.8750    -9.1720    64.6040    69.9010    67.2640    82.8830    24.0470     2.2860 
  171.0000    -9.1980    60.4310    66.8150    63.3000    83.1720    24.1160     2.2920 
  171.1250    -9.2740    58.8120    62.8180    58.6750    79.6600    24.2200     2.3050 
  171.2500    -9.3720    59.9670    58.6030    54.0130    70.8690    24.3260     2.3190 
  171.3750    -9.4380    62.0750    54.9610    49.9970    58.5460    24.4350     2.3280 
  171.5000    -9.5090    65.1130    52.5970    47.2220    49.0140    24.5590     2.3250 
  171.6250    -9.5520    66.7750    52.1240    46.2320    46.7620    24.6340     2.3080 
  171.7500    -9.5890    66.0260    53.1560    46.6790    48.5030    24.6470     2.2840 
  171.8750    -9.6160    67.7500    55.3950    48.3160    51.3080    24.6400     2.2630 
  172.0000    -9.6500    71.8840    58.5460    50.8800    53.8770    24.6170     2.2510 
  172.1250    -9.6860    72.2080    62.4750    54.2320    57.2000    24.5720     2.2500 
  172.2500    -9.6770    69.6330    66.8930    58.0610    59.7560    24.5520     2.2550 
  172.3750    -9.6450    68.4120    71.5850    62.1700    64.5780    24.5450     2.2610 
  172.5000    -9.5890    67.0690    76.1480    66.2300    72.8860    24.5230     2.2630 
  172.6250    -9.5030    61.7620    79.8250    69.6050    79.1760    24.5170     2.2620 
  172.7500    -9.4020    57.4390    82.2590    71.9360    80.5050    24.5190     2.2600 
  172.8750    -9.3020    57.5220    83.4040    73.1180    76.9420    24.4990     2.2600 
  173.0000    -9.2100    61.0080    83.5420    73.3350    73.1530    24.4870     2.2610 
  173.1250    -9.1000    64.8380    83.0210    72.8600    72.5750    24.5000     2.2630 
  173.2500    -9.0030    64.6090    82.1320    72.0310    74.2940    24.4910     2.2650 
  173.3750    -8.9190    60.2500    80.7260    70.8070    76.0070    24.4800     2.2670 
  173.5000    -8.8680    56.4550    78.5840    69.0460    76.0350    24.4900     2.2700 
  173.6250    -8.7980    58.1740    75.6510    66.7020    73.1840    24.4780     2.2740 
  173.7500    -8.7220    62.1780    72.5070    64.2100    68.7050    24.4550     2.2790 
  173.8750    -8.6320    64.8840    69.6910    62.0100    64.7620    24.4550     2.2830 
  174.0000    -8.5510    65.8010    67.5850    60.4500    62.2170    24.4500     2.2860 
  174.1250    -8.4760    66.7200    66.3990    59.7760    61.8060    24.4200     2.2860 
  174.2500    -8.3980    67.5680    65.7630    59.6910    62.7440    24.4110     2.2860 
  174.3750    -8.3300    67.2090    65.3010    59.8550    64.0080    24.4060     2.2850 
  174.5000    -8.2460    65.7910    64.5800    59.8420    63.5970    24.3730     2.2840 
  174.6250    -8.2050    63.0970    62.9990    59.0400    62.2230    24.3430     2.2820 
  174.7500    -8.1660    59.5500    60.3520    57.1940    61.3140    24.3070     2.2810 
  174.8750    -8.1920    57.6770    56.6570    54.2790    60.2250    24.2270     2.2830 
  175.0000    -8.2460    61.1470    52.2860    50.6170    57.7340    24.1280     2.2910 
  175.1250    -8.2700    67.6030    47.8980    46.8210    52.2350    24.0410     2.3070 
  175.2500    -8.2860    69.4450    44.0010    43.4050    44.0100    23.9300     2.3230 
  175.3750    -8.2920    67.0420    40.7050    40.4820    36.6140    23.8170     2.3340 
  175.5000    -8.3130    64.8690    37.9610    38.0080    33.4560    23.7510     2.3350 
  175.6250    -8.3070    64.4260    36.0120    36.1800    31.9950    23.7140     2.3260 
  175.7500    -8.3220    64.9060    35.2260    35.3280    30.2320    23.6970     2.3130 
  175.8750    -8.2870    67.5140    36.1440    35.9590    28.1260    23.7400     2.2990 
  176.0000    -8.2460    71.0200    39.0080    38.3790    29.9500    23.8210     2.2830 
  176.1250    -8.2460    69.5900    43.2940    42.2800    41.3200    23.8890     2.2640 
  176.2500    -8.2400    64.3310    46.9000    45.7940    56.5440    23.9500     2.2460 
  176.3750    -8.2060    60.9250    47.7710    46.9300    69.2370    23.9960     2.2370 
  176.5000    -8.1480    60.7120    44.5280    44.0970    68.2540    23.9820     2.2420 
  176.6250    -8.1510    62.2380    37.3680    37.1760    47.6860    23.9200     2.2660 
  176.7500    -8.1510    66.0390    30.0490    29.9330    31.9870    23.8650     2.2980 
  176.8750    -8.2020    72.4840    25.5220    25.1380    22.1790    23.8230     2.3270 
  177.0000    -8.2580    76.8870    25.2830    23.9770    17.8370    23.8340     2.3410 
  177.1250    -8.3100    72.7640    30.3020    27.4490    21.6030    23.9150     2.3330 
  177.2500    -8.4050    64.9910    39.2400    34.9510    32.2600    23.9930     2.3130 
  177.3750    -8.5540    58.7170    50.7790    45.8650    47.4670    24.0740     2.2920 
  177.5000    -8.7520    55.1010    62.7180    58.4430    61.8960    24.1580     2.2800 
  177.6250    -8.9130    53.2010    71.5210    69.1160    67.2060    24.1930     2.2780 
  177.7500    -9.1190    54.8720    75.4120    74.9010    67.4630    24.1520     2.2810 
  177.8750    -9.3290    59.6100    74.9780    75.4330    66.4380    24.0910     2.2830 
  178.0000    -9.5150    62.8060    73.2940    73.5630    64.8450    24.0290     2.2830 
  178.1250    -9.6850    62.6950    74.6230    73.7190    63.0760    23.9360     2.2790 
  178.2500    -9.8210    62.4810    80.7130    78.0730    60.0180    23.8430     2.2730 
  178.3750    -9.9610    62.6630    92.1680    87.3480    58.2850    23.7750     2.2640 
  178.5000   -10.1070    60.8260   108.5630   101.1680    66.9900    23.7030     2.2510 
  178.6250   -10.2630    55.9940   127.8970   117.6680    83.3940    23.6310     2.2360 
