~V
VERS. 2.00: Ver 2.00
~W
STRT.M 30.0000:
STOP.M 209.0000:
STEP.M 0.1250:
NULL. -999.2500:
UWI. F10150:
~C
DEPT.M :
SP.MV :
DEN.GM/CC :
GR.API :
RML.OHMM :
RI. :
RXO.OHMM :
CALI.CM :
~A
# ...
  176.2500   -37.1880     2.1550    65.4180   138.1240   123.3790    99.7210    24.5640 
  176.3750   -37.0720     2.1540    67.5970   129.5360   115.3930   101.1060    24.4240 
  176.5000   -36.8910     2.1650    66.7430   125.5670   110.9580    92.2030    24.3880 
  176.6250   -36.7030     2.1840    62.4830   128.3940   112.3220    80.1400    24.3640 
  176.7500   -36.4790     2.2040    58.6700   138.0240   120.0130    80.8000    24.3100 
  176.8750   -36.2220     2.2220    56.6540   154.7460   134.7190   103.2110    24.2390 
  177.0000   -35.9130     2.2360    56.3940   177.3880   155.6190   128.0890    24.1900 
  177.1250   -35.5820     2.2510    56.9430   200.6280   178.4480   116.0370    24.1730 
  177.2500   -35.2440     2.2720    57.4170   213.7920   194.0860   102.1690    24.1700 
  177.3750   -34.8700     2.2980    58.6100   208.2920   194.5430   105.5060    24.1850 
  177.5000   -34.5320     2.3220    61.3740   185.3180   178.3900   118.6020    24.2540 
  177.6250   -34.2020     2.3330    63.7770   156.0720   152.5660   115.5310    24.4300 
  177.7500   -33.8720     2.3260    64.1410   131.8910   128.5220    92.2830    24.6550 
  177.8750   -33.5460     2.3050    64.4580   116.2660   111.2140    72.3070    24.8490 
  178.0000   -33.1870     2.2790    65.6790   109.5150   102.2080    65.4560    24.9870 
  178.1250   -32.8120     2.2650    65.5420   111.9150   102.3680    67.0250    25.0000 
  178.2500   -32.3990     2.2740    65.4480   120.9260   109.1850    75.5100    24.9140 
  178.3750   -32.0190     2.3100    66.3540   135.2790   121.3600    84.8950    24.7720 
  178.5000   -31.6170     2.3730    66.4500   152.9750   137.0260    85.0720    24.6690 
  178.6250   -31.2580     2.4560    64.9630   169.9180   152.6900    80.0420    24.6240 
  178.7500   -30.9540     2.5360    64.9180   181.0880   163.8490    80.0500    24.6140 
  178.8750   -30.6860     2.5910    66.6060   183.3540   167.3710   101.7020    24.6030 
  179.0000   -30.4920     2.6090    65.5870   177.3740   163.0010   136.0970    24.5870 
  179.1250   -30.3680     2.5920    60.4030   167.9430   154.1090   114.3650    24.5860 
  179.2500   -30.3420     2.5650    54.9470   161.2960   146.8320    71.1220    24.5970 
  179.3750   -30.3520     2.5490    51.6380   159.9710   144.3790    48.4620    24.6060 
  179.5000   -30.4480     2.5590    49.3000   163.1370   146.8260    48.4360    24.6080 
  179.6250   -30.5950     2.6030    47.1200   163.4720   148.7260    75.7610    24.6090 
  179.7500   -30.7370     2.6640    46.1600   148.9420   139.4870   143.1800    24.6290 
  179.8750   -30.9240     2.7270    47.5430   114.5990   112.0680   185.5340    24.6720 
  180.0000   -31.1170     2.7750    50.4230    72.6160    73.8000   129.0280    24.6840 
  180.1250   -31.3460     2.7910    53.1370    41.8280    42.9090    74.4230    24.6380 
  180.2500   -31.5620     2.7710    55.7660    23.7480    24.1770    47.6250    24.5740 
  180.3750   -31.8100     2.7080    59.0530    14.4180    14.4090    31.5820    24.5480 
  180.5000   -32.1040     2.6070    61.9600    10.1760     9.8240    18.9970    24.6280 
  180.6250   -32.3860     2.4910    61.6600     8.9770     8.2350    11.3820    24.8630 
  180.7500   -32.6770     2.3930    58.1590     9.1200     7.9770    10.3070    25.0100 
  180.8750   -32.8900     2.3320    52.2450    10.0280     8.5630    10.4840    24.9750 
  181.0000   -33.0420     2.3120    46.1290    11.2490     9.6360    10.5750    24.8170 
  181.1250   -33.0790     2.3240    42.2490    12.2210    10.7250    10.9990    24.6840 
  181.2500   -33.0140     2.3380    41.9330    12.5950    11.3790    11.6050    24.6520 
  181.3750   -32.8260     2.3420    44.6550    12.3330    11.4330    11.4900    24.6690 
  181.5000   -32.5160     2.3340    48.3890    11.6250    10.9770    10.5860    24.6880 
  181.6250   -32.1350     2.3230    50.6270    10.7170    10.2000    10.2330    24.7050 
  181.7500   -31.7250     2.3130    49.4420     9.8550     9.3750    10.1640    24.7240 
  181.8750   -31.3180     2.3060    46.7290     9.1750     8.6510     9.3920    24.7150 
  182.0000   -30.9270     2.3020    45.1590     8.7520     8.1150     8.5630    24.6790 
  182.1250   -30.6290     2.3010    45.0410     8.6310     7.8230     8.1430    24.5930 
  182.2500   -30.0020     2.3050    46.0860     8.7040     7.7030     8.1930    24.5560 
  182.3750   -29.6310     2.3150    48.0470     8.8670     7.6900     8.5810    24.5990 
  182.5000   -29.1950     2.3290    50.8200     8.9870     7.6960     9.3900    24.6760 
  182.6250   -28.7330     2.3450    51.8420     8.8890     7.5910     9.1920    24.7040 
  182.7500   -28.1810     2.3590    51.1280     8.5390     7.3190     8.5820    24.6840 
  182.8750   -27.5630     2.3640    50.6490     7.9850     6.8870     7.5450    24.5950 
  183.0000   -26.9320     2.3480    50.8590     7.3370     6.3650     6.5640    24.4380 
  183.1250   -26.3060     2.3150    50.7290     6.1370     5.8630     6.0340    24.3630 
  183.2500   -25.7140     2.2690    50.9720     5.7460     5.4630     5.8840    24.4730 
  183.3750   -25.1410     2.2110    52.5510     5.5230     5.1970     5.6380    24.7060 
  183.5000   -24.6420     2.1740    54.3280     5.4490     5.0600     5.2690    24.8090 
  183.6250   -24.1700     2.1690    53.4120     5.4930     5.0440     4.9850    24.7910 
  183.7500   -23.7650     2.1940    50.8910     5.5860     5.0910     4.8040    24.7550 
  183.8750   -23.4670     2.2310    49.9480     5.6880     5.1680     4.7800    24.7630 
  184.0000   -23.1720     2.2550    53.6410     5.7730     5.2420     4.9320    24.7720 
  184.1250   -22.9000     2.2590    60.9000     5.8200     5.2850     5.1770    24.7830 
  184.2500   -22.5970     2.2530    66.3000     5.8380     5.2950     5.1650    24.7240 
  184.3750   -22.3220     2.2500    68.7360     5.8450     5.2850     4.9180    24.5990 
  184.5000   -22.0290     2.2570    70.2920     5.8660     5.2750     4.7720    24.4400 
  184.6250   -21.7580     2.2670    71.9440     5.9230     5.2820     4.8850    24.3700 
  184.7500   -21.5280     2.2750    72.0760     6.0010     5.3020     5.1940    24.4150 
  184.8750   -21.3170     2.2730    69.4260     6.0790     5.3210     5.4690    24.5370 
  185.0000   -21.1480     2.2670    66.3070     6.1480     5.3310     5.6120    24.6340 
  185.1250   -21.0390     2.2650    65.2490     6.2230     5.3470     5.5960    24.6480 
  185.2500   -21.0250     2.2710    65.9160     6.3320     5.3930     5.4990    24.6310 
  185.3750   -21.0290     2.2820    67.4850     6.4980     5.4850     5.7190    24.6380 
  185.5000   -21.0950     2.2900    69.8310     6.7330     5.6360     6.1110    24.6830 
  185.6250   -21.1870     2.2910    73.0140     7.0400     5.8510     6.4160    24.7310 
  185.7500   -21.3350     2.2880    74.2760     7.3660     6.0990     6.5150    24.7540 
  185.8750   -21.5080     2.2880    74.2650     7.6450     6.3320     6.5900    24.7470 
  186.0000   -21.6790     2.2950    75.9960     7.8050     6.4930     6.3320    24.6760 
  186.1250   -21.8260     2.3080    77.8790     7.7970     6.5240     6.4660    24.5730 
  186.2500   -21.9070     2.3190    73.9990     7.4880     6.3390     7.2620    24.3920 
  186.3750   -21.9840     2.3230    68.1980     7.2350     6.1330     6.1450    24.4590 
  186.5000   -22.0100     2.3190    65.8150     7.0440     5.9400     5.4680    24.5740 
  186.6250   -21.9940     2.3130    66.0210     6.9470     5.7960     5.2210    24.6710 
  186.7500   -21.9350     2.3070    66.2910     6.9270     5.7060     5.3330    24.7080 
  186.8750   -21.8450     2.3040    65.2620     6.9340     5.6560     5.7560    24.6740 
  187.0000   -21.7880     2.3050    63.1790     6.9190     5.6180     6.0770    24.6880 
  187.1250   -21.7400     2.3080    62.3800     6.8860     5.5840     5.9690    24.7350 
  187.2500   -21.7080     2.3140    64.6090     6.8720     5.5670     5.6940    24.7550 
  187.3750   -21.6340     2.3240    70.5970     6.9460     5.6090     5.7080    24.7370 
