~V
VERS. 2.00: Ver 2.00
~W
STRT.M 49.0000:
STOP.M 223.0000:
STEP.M 0.1250:
NULL. -999.2500:
UWI. F10156:
~C
DEPT.M :
SP.MV :
GR.API :
RML.OHMM :
RI. :
RXO.OHMM :
CALI.CM :
DEN.GM/CC :
~A
# ...
   60.2500   -26.5010    46.9190     3.1660     0.5100     2.1230    25.4870     2.0200 
   60.3750   -25.7810    43.9070     3.1090     0.4930    95.7280    25.7120     2.0230 
   60.5000   -24.7220    43.2190     3.0750     0.4720 750043.8750    25.7750     2.0360 
   60.6250   -23.3150    44.9020     3.1330     0.4470   467.2230    25.7810     2.0670 
   60.7500   -21.5000    44.9500     3.3560     0.4240    54.8910    25.7780     2.1190 
   60.8750   -19.3850    43.9200     3.7040     0.4080     8.6280    25.7460     2.1820 
   61.0000   -17.0640    42.7080     4.0200     0.4050     1.8190    25.6120     2.2530 
   61.1250   -14.6970    40.8710     4.0590     0.4200     0.3630    25.2730     2.3280 
   61.2500   -12.4730    39.6580     3.6600     0.4550     0.0010    24.7050     2.3890 
   61.3750   -10.4710    40.2290     3.0280     0.5000    -0.0760    23.9900     2.4310 
   61.5000    -8.7520    42.0070     2.3270     0.5440    -0.1250    23.2860     2.4560 
   61.6250    -7.3490    43.0730     1.6990     0.5750    -0.1460    22.7570     2.4610 
   61.7500    -6.3510    43.8450     1.2410     0.5820    -0.1720    22.6570     2.4350 
   61.8750    -5.7130    44.6060     0.9360     0.5720    -0.1700    23.0990     2.3820 
   62.0000    -5.3630    46.0020     0.7700     0.5520    -0.1740    23.9140     2.3070 
   62.1250    -5.1760    47.8880     0.7100     0.5330    -0.1980    24.5810     2.2240 
   62.2500    -5.0320    49.2580     0.7000     0.5220    -0.1570    24.5250     2.1660 
   62.3750    -4.8920    49.9810     0.6880     0.5190    -0.1280    24.3330     2.1480 
   62.5000    -4.7470    50.7130     0.6890     0.5260    -0.1880    24.2760     2.1590 
   62.6250    -4.6390    52.2500     0.7600     0.5360    -0.2510    24.3930     2.1730 
   62.7500    -4.6070    54.2640     0.9890     0.5420    -0.2570    24.5440     2.1800 
   62.8750    -4.6140    53.9880     1.3720     0.5390    -0.2600    24.6740     2.1890 
   63.0000    -4.6770    50.9490     1.8480     0.5290    -0.2310    24.7520     2.2030 
   63.1250    -4.8340    47.8800     2.2700     0.5150    -0.1320    24.7540     2.2110 
   63.2500    -5.1710    48.1960     2.4040     0.5060    -0.0970    24.6660     2.2050 
   63.3750    -5.6580    48.7610     2.1990     0.5050    -0.1050    24.5420     2.1880 
   63.5000    -6.2960    47.8880     1.7630     0.5150    -0.1110    24.4860     2.1660 
   63.6250    -7.0250    46.7180     1.2960     0.5320    -0.1270    24.6230     2.1390 
   63.7500    -7.7710    45.3030     0.9690     0.5490    -0.1940    24.7760     2.1150 
   63.8750    -8.5110    42.5480     0.8210     0.5590    -0.2740    24.9060     2.1000 
   64.0000    -9.2650    39.9180     0.8480     0.5590    -0.3600    24.9810     2.0950 
   64.1250   -10.0340    40.9020     1.0230     0.5500    -0.4330    24.9930     2.1010 
   64.2500   -10.7910    47.5500     1.3340     0.5390    -0.3920    24.9440     2.1200 
   64.3750   -11.5050    55.4210     1.7550     0.5320    -0.2390    24.8830     2.1480 
   64.5000   -12.1730    60.5090     2.2600     0.5300    -0.1140    24.8460     2.1750 
   64.6250   -12.8300    60.9670     2.6190     0.5210    -0.1770    24.8290     2.1960 
   64.7500   -13.5010    57.9840     2.1760     0.4680    -0.1690    24.8410     2.2120 
   64.8750   -14.1690    56.8660     1.0770     0.3660    -0.0150    24.8320     2.2380 
   65.0000   -14.8190    59.4530     0.0380     0.2510     0.0750    24.7190     2.2860 
   65.1250   -15.4540    61.7350    -0.5690     0.1640     0.0440    24.5120     2.3600 
   65.2500   -16.0600    59.5090    -0.7920     0.1260     0.1920    24.2480     2.4540 
   65.3750   -16.6500    55.6920    -0.8440     0.1250     0.4810    23.9590     2.5510 
   65.5000   -17.2230    54.6250    -0.7740     0.1650     1.1330    23.6970     2.6450 
   65.6250   -17.7120    55.5660    -0.5470     0.2820     2.6750    23.5950     2.7180 
   65.7500   -18.1170    56.3270     0.0210     0.5880     4.8810    23.9850     2.6800 
   65.8750   -18.4810    57.0910     1.0930     1.1940     6.1620    25.0540     2.5160 
   66.0000   -18.8230    57.6350     2.8190     2.2240     6.3340    26.4020     2.2950 
   66.1250   -19.1410    58.0120     5.0180     3.6470     6.0720    27.0230     2.1060 
   66.2500   -19.4320    58.9760     6.5840     5.0010     6.1920    25.7840     2.0160 
   66.3750   -19.6780    61.4640     6.8110     5.8310     6.4920    24.5260     2.0080 
   66.5000   -19.8910    65.6190     6.2800     6.2030     6.8640    23.7830     2.0570 
   66.6250   -20.1290    69.9110     5.7950     6.4010     7.2210    23.4840     2.1350 
   66.7500   -20.3540    73.0390     5.7210     6.6380     7.7120    23.1770     2.2020 
   66.8750   -20.5500    73.0660     5.9280     6.9530     8.5000    22.8590     2.2330 
   67.0000   -20.7200    69.9830     6.2610     7.3040     8.8070    22.6110     2.2350 
   67.1250   -20.8680    65.3070     6.5880     7.6200     8.7720    22.4710     2.2280 
   67.2500   -21.0160    62.7950     6.8100     7.8190     8.9260    22.4580     2.2260 
   67.3750   -21.1880    64.5640     6.9160     7.8830     9.2320    22.5120     2.2280 
   67.5000   -21.3880    67.1180     6.9430     7.8380     9.3260    22.5410     2.2290 
   67.6250   -21.5820    67.4940     6.9550     7.7400     9.2840    22.4560     2.2280 
   67.7500   -21.7670    69.6610     7.0150     7.6560     9.4460    22.3090     2.2290 
   67.8750   -21.9630    76.3510     7.1350     7.6180     9.7800    22.2430     2.2300 
   68.0000   -22.1740    80.7640     7.3040     7.6300     9.9470    22.2690     2.2270 
   68.1250   -22.4060    75.7510     7.4980     7.6780    10.0600    22.3160     2.2170 
   68.2500   -22.6710    65.3870     7.6800     7.7390    10.3630    22.3210     2.2050 
   68.3750   -22.9030    58.9050     7.8260     7.7850    10.8310    22.3060     2.1960 
   68.5000   -23.0570    55.5890     7.9410     7.8140    11.3840    22.3050     2.1910 
   68.6250   -23.1990    52.6430     8.0440     7.8340    11.6590    22.3250     2.1910 
   68.7500   -23.3660    50.6640     8.1510     7.8550    11.1260    22.3040     2.1960 
   68.8750   -23.5050    52.5450     8.2530     7.8710    10.9720    22.2500     2.2000 
   69.0000   -23.5840    56.3030     8.3220     7.8640    13.0530    22.2340     2.2020 
   69.1250   -23.6080    60.6950     8.3280     7.8170    17.5290    22.3100     2.2000 
   69.2500   -23.5700    66.9030     8.2410     7.7090    18.8540    22.4540     2.1950 
   69.3750   -23.5470    70.8310     8.1020     7.5660    13.3710    22.5490     2.1890 
   69.5000   -23.5610    67.3030     7.9640     7.4240    10.8360    22.5280     2.1870 
   69.6250   -23.5470    58.5100     7.8670     7.3070    10.4620    22.4520     2.1910 
   69.7500   -23.4590    52.8460     7.8300     7.2280    10.6360    22.4080     2.1980 
   69.8750   -23.3580    53.1600     7.8220     7.1700    10.5960    22.4050     2.2010 
   70.0000   -23.2760    56.0590     7.8200     7.1190    10.3480    22.4020     2.2010 
   70.1250   -23.2120    59.4570     7.8140     7.0710    10.1130    22.3640     2.2000 
   70.2500   -23.1810    63.4410     7.8190     7.0380     9.9030    22.3110     2.1990 
   70.3750   -23.1350    67.6110     7.8560     7.0360     9.9180    22.3530     2.2020 
   70.5000   -23.0710    68.8940     7.9250     7.0730    10.0740    22.5110     2.2080 
   70.6250   -23.0590    64.3920     8.0090     7.1400    10.1750    22.7070     2.2110 
   70.7500   -23.0820    58.1270     8.0780     7.2140    10.1360    22.8530     2.2090 
   70.8750   -23.1140    56.8800     8.1090     7.2640    10.2910    22.9490     2.2040 
   71.0000   -23.1550    59.6650     8.0930     7.2730    10.4550    23.0350     2.2030 
   71.1250   -23.1510    61.1520     8.0340     7.2340    10.4140    23.1380     2.2030 
   71.2500   -23.0710    59.2160     7.9660     7.1630    10.3050    23.2320     2.2040 
   71.3750   -23.0010    58.6510     7.9450     7.1060    10.2240    23.1430     2.2060 
