~V
VERS. 2.00: Ver 2.00
~W
STRT.M 50.0000:
STOP.M 230.0000:
STEP.M 0.1250:
NULL. -999.2500:
UWI. F10167:
~C
DEPT.M :
DEN.GM/CC :
GR.API :
RML.OHMM :
RI. :
RXO.OHMM :
CALI.CM :
SP.MV :
~A
# ...
   95.0000     2.3620    70.5530     8.6020     7.0200     8.1840    22.0120   -15.8880 
   95.1250     2.3030    69.7700     8.5240     7.0240     9.0300    21.9990   -15.8180 
   95.2500     2.2400    69.6800     8.3470     6.9320    10.6400    22.1930   -15.7990 
   95.3750     2.1950    68.7710     8.1150     6.7730    12.1200    22.4010   -15.8510 
   95.5000     2.1720    67.4750     7.8710     6.5820    10.9110    22.4810   -15.9890 
   95.6250     2.1600    66.3800     7.6500     6.3940     9.2110    22.4490   -16.0690 
   95.7500     2.1480    65.2540     7.4660     6.2300     8.4290    22.4150   -16.0960 
   95.8750     2.1360    63.7530     7.3270     6.1000     8.2440    22.4210   -16.1130 
   96.0000     2.1270    62.6620     7.2370     6.0120     8.1890    22.4700   -16.0060 
   96.1250     2.1230    63.5400     7.2040     5.9780     8.1760    22.5470   -15.7000 
   96.2500     2.1210    65.4450     7.2130     5.9870     8.2230    22.6180   -15.3520 
   96.3750     2.1220    65.5600     7.2520     6.0310     8.3230    22.6580   -15.0140 
   96.5000     2.1280    61.8290     7.3060     6.0990     8.3800    22.6700   -14.6090 
   96.6250     2.1390    59.3990     7.3600     6.1750     8.4130    22.6560   -14.1740 
   96.7500     2.1520    60.3930     7.3920     6.2350     8.4540    22.6140   -13.7860 
   96.8750     2.1630    62.0300     7.3840     6.2590     8.5360    22.5430   -13.3940 
   97.0000     2.1680    62.6860     7.3170     6.2230     8.6290    22.4430   -12.9510 
   97.1250     2.1670    66.1110     7.1650     6.0980     8.4500    22.3310   -12.4490 
   97.2500     2.1670    71.5050     6.9380     5.8930     8.1350    22.2760   -11.8010 
   97.3750     2.1720    74.8530     6.6490     5.6210     7.6540    22.4040   -10.9250 
   97.5000     2.1900    77.0950     6.3260     5.3040     7.0700    22.7100    -9.9340 
   97.6250     2.2220    82.0810     6.0190     4.9850     6.5580    23.1040    -9.0070 
   97.7500     2.2580    89.2400     5.7870     4.7130     6.1080    23.4970    -8.1310 
   97.8750     2.2850    95.4290     5.7000     4.5390     5.8840    23.7800    -7.3600 
   98.0000     2.2960    96.5640     5.8500     4.5250     5.8980    23.8190    -6.8550 
   98.1250     2.2950    89.2860     6.4630     4.8080     6.3180    23.5020    -6.5800 
   98.2500     2.3010    77.9670     7.6960     5.4860     7.3780    23.0230    -6.3970 
   98.3750     2.3290    70.1160     9.7700     6.7420     9.0080    22.7590    -6.4090 
   98.5000     2.3900    66.8000    12.8210     8.7860    11.4490    22.9150    -6.6310 
   98.6250     2.4800    63.5950    16.7020    11.8130    17.3430    23.4200    -6.8820 
   98.7500     2.5750    60.9850    20.2960    15.1330    27.4730    23.8310    -7.1570 
   98.8750     2.6480    62.4860    22.2570    17.6200    37.7230    23.9490    -7.5280 
   99.0000     2.6770    67.8140    21.6040    18.1490    39.5340    23.7580    -7.8800 
   99.1250     2.6370    70.8900    18.2940    16.1910    28.5940    23.3010    -8.2590 
   99.2500     2.5480    70.1860    14.2460    13.1590    17.3080    22.7360    -8.8220 
   99.3750     2.4360    69.2730    10.7830    10.2020    10.8040    22.2040    -9.4950 
   99.5000     2.3290    73.4030     8.4900     7.9540     8.4150    21.9180   -10.1330 
   99.6250     2.2540    79.2980     7.4300     6.6220     7.8770    21.8420   -10.7990 
   99.7500     2.2080    80.7480     7.0460     5.8900     7.8150    21.8320   -11.4490 
   99.8750     2.1810    77.9550     7.0360     5.5730     7.8350    21.8260   -11.9190 
  100.0000     2.1640    76.6180     7.1750     5.5100     7.8610    21.8300   -12.2390 
  100.1250     2.1540    77.1330     7.3100     5.5770     7.8200    21.8350   -12.4670 
  100.2500     2.1520    76.3360     7.3820     5.6620     7.8160    21.8410   -12.5810 
  100.3750     2.1560    75.7370     7.3940     5.7300     7.9090    21.8460   -12.6140 
  100.5000     2.1620    75.8540     7.3710     5.7710     8.0260    21.8600   -12.7140 
  100.6250     2.1660    76.3440     7.3370     5.7860     7.9910    21.8770   -12.8640 
  100.7500     2.1660    75.6640     7.3070     5.7870     7.9420    21.8680   -12.9320 
  100.8750     2.1640    72.7930     7.2810     5.7770     7.9480    21.8470   -13.0090 
  101.0000     2.1600    69.2630     7.2590     5.7620     7.9740    21.8320   -13.1690 
  101.1250     2.1560    67.0680     7.2430     5.7450     7.9320    21.8200   -13.3470 
  101.2500     2.1490    65.8460     7.2330     5.7300     7.8520    21.8260   -13.5240 
  101.3750     2.1420    64.5530     7.2340     5.7220     7.7960    21.8560   -13.7920 
  101.5000     2.1380    63.4910     7.2450     5.7230     7.7800    21.9150   -14.0950 
  101.6250     2.1380    64.4620     7.2610     5.7370     7.8620    21.9820   -14.3330 
  101.7500     2.1390    65.8780     7.2780     5.7570     7.8860    22.0290   -14.6280 
  101.8750     2.1370    67.2740     7.2900     5.7780     7.9540    22.0450   -14.9370 
  102.0000     2.1310    68.2580     7.2900     5.7930     8.1190    22.0500   -15.1540 
  102.1250     2.1240    66.6470     7.2590     5.7920     8.1200    22.0840   -15.2930 
  102.2500     2.1240    62.9330     7.1890     5.7670     8.0050    22.1670   -15.3820 
  102.3750     2.1330    59.5210     7.0780     5.7120     7.8570    22.2670   -15.2800 
  102.5000     2.1490    59.0100     6.9340     5.6300     7.7750    22.3210   -14.9560 
  102.6250     2.1600    61.8820     6.7810     5.5320     7.7770    22.3320   -14.5160 
  102.7500     2.1600    66.6670     6.6440     5.4410     7.6700    22.3410   -13.9520 
  102.8750     2.1510    71.3840     6.5250     5.3680     7.4290    22.3750   -13.2650 
  103.0000     2.1490    72.5640     6.4110     5.3080     7.2160    22.4520   -12.4920 
  103.1250     2.1760    69.5670     6.2710     5.2390     7.4600    22.6440   -11.5690 
  103.2500     2.2290    67.9720     6.0880     5.1380     7.7810    22.9010   -10.4530 
  103.3750     2.2930    72.0750     5.8660     5.0000     7.8530    23.1180    -9.2280 
  103.5000     2.3410    79.9030     5.6320     4.8400     7.3140    23.2960    -8.0470 
  103.6250     2.3500    84.5640     5.4400     4.6940     6.4720    23.5970    -6.9630 
  103.7500     2.3290    84.4860     5.3250     4.5990     5.8760    23.9650    -5.9580 
  103.8750     2.2950    82.2120     5.3050     4.5760     5.7080    24.1910    -5.0770 
  104.0000     2.2680    80.5610     5.3740     4.6290     5.8420    24.1660    -4.3580 
  104.1250     2.2570    77.8570     5.5060     4.7500     5.8940    24.0860    -3.8370 
  104.2500     2.2570    75.1270     5.6360     4.8900     5.9720    24.1170    -3.4970 
  104.3750     2.2590    77.3810     5.7060     5.0010     6.0020    24.2550    -3.3760 
  104.5000     2.2580    84.5500     5.6720     5.0300     6.0000    24.4570    -3.3410 
  104.6250     2.2560    91.7900     5.4950     4.9230     5.8370    24.6140    -3.1960 
  104.7500     2.2590    95.4600     5.2290     4.7100     5.6420    24.6120    -3.0170 
  104.8750     2.2740    96.3800     4.9360     4.4380     5.3260    24.5380    -2.8180 
  105.0000     2.3000    96.4930     4.6870     4.1730     4.8880    24.4650    -2.5530 
  105.1250     2.3330    96.5300     4.5720     3.9930     4.7630    24.3760    -2.3520 
  105.2500     2.3590    94.9500     4.6260     3.9350     5.1300    24.2540    -2.3170 
  105.3750     2.3750    92.3400     4.8850     4.0340     5.5440    24.1380    -2.3530 
  105.5000     2.3830    90.6300     5.3740     4.3170     5.7450    24.0400    -2.4630 
  105.6250     2.3970    91.1760     6.1270     4.8410     5.9230    23.9520    -2.8460 
  105.7500     2.4210    89.3050     7.0360     5.5500     6.5760    23.7780    -3.4010 
  105.8750     2.4420    85.8640     7.9650     6.3650     8.3100    23.4870    -4.0760 
  106.0000     2.4440    83.2870     8.7210     7.1400    11.0760    23.1410    -4.9500 
  106.1250     2.4100    80.1520     9.0480     7.6400    12.9220    22.8110    -5.9810 
