~V
VERS. 2.00: Ver 2.00
~W
STRT.M 63.0000:
STOP.M 800.0000:
STEP.M 0.1250:
NULL. -999.2500:
UWI. F10168:
~C
DEPT.M :
SP.MV :
GR.API :
RML.OHMM :
RI. :
RXO.OHMM :
CALI.CM :
DEN.GM/CC :
~A
# ...
  254.2500   -39.4560    74.7430    11.8550    12.7180    15.4570    22.4710     2.3090 
  254.3750   -39.6240    71.7380    13.1500    14.1440    15.8840    22.5120     2.3590 
  254.5000   -39.6640    66.7210    15.7700    17.0320    19.9080    22.5580     2.4250 
  254.6250   -39.6270    61.0710    19.4920    21.0570    37.1680    22.6140     2.4720 
  254.7500   -39.5350    58.2820    22.4760    24.4470    76.4400    22.6580     2.4760 
  254.8750   -39.4100    60.6300    22.8380    25.4310    88.0480    22.6220     2.4360 
  255.0000   -39.2960    66.2930    20.2950    23.4000    49.9690    22.4620     2.3700 
  255.1250   -39.2240    69.0000    16.5610    19.4640    23.7000    22.2680     2.3060 
  255.2500   -39.1800    67.4440    13.5590    15.7530    16.2520    22.1340     2.2620 
  255.3750   -39.1540    64.9760    11.7110    13.0650    14.3630    22.0620     2.2340 
  255.5000   -39.1200    65.2080    10.8480    11.4670    14.1940    22.0210     2.2160 
  255.6250   -39.0780    68.1380    10.7470    10.8280    14.0980    21.9990     2.2030 
  255.7500   -39.0350    70.7190    11.0140    10.7220    13.9660    21.9910     2.1980 
  255.8750   -38.9590    71.1030    11.4510    10.9310    14.1090    21.9900     2.2030 
  256.0000   -38.7980    70.6600    11.8980    11.2600    14.4050    21.9920     2.2180 
  256.1250   -38.5530    70.2700    12.1940    11.5060    15.1010    22.0040     2.2390 
  256.2500   -38.2430    68.2450    12.2890    11.5730    16.6820    22.0320     2.2590 
  256.3750   -37.8840    65.1240    12.2200    11.4870    18.7080    22.0720     2.2750 
  256.5000   -37.4790    65.7010    12.1050    11.3810    17.4500    22.1100     2.2890 
  256.6250   -37.0120    71.0080    12.1550    11.4850    16.6180    22.1130     2.3060 
  256.7500   -36.4810    73.1010    12.5230    11.9230    16.4440    22.0990     2.3270 
  256.8750   -35.8950    70.6740    13.3070    12.7450    18.1500    22.1090     2.3460 
  257.0000   -35.2320    68.7430    14.4900    13.9030    22.2550    22.2030     2.3520 
  257.1250   -34.4790    70.3440    15.8130    15.1960    28.0560    22.4340     2.3380 
  257.2500   -33.6200    71.9950    16.7540    16.2280    30.5360    22.7590     2.3200 
  257.3750   -32.6660    71.3550    16.9440    16.6730    27.3090    23.0780     2.3120 
  257.5000   -31.6240    68.7240    16.3500    16.4000    21.9140    23.2900     2.3220 
  257.6250   -30.5080    65.9920    15.2520    15.5020    21.5660    23.3140     2.3490 
  257.7500   -29.3150    67.1320    14.1210    14.4040    20.0820    23.2180     2.3720 
  257.8750   -28.0270    72.7980    13.1140    13.3220    17.8870    23.1360     2.3790 
  258.0000   -26.6040    78.0110    12.2170    12.3170    16.9710    23.2330     2.3670 
  258.1250   -25.0670    76.2720    11.3450    11.3350    16.9900    23.7050     2.3380 
  258.2500   -23.4340    71.9150    10.4610    10.3220    13.7900    24.3310     2.3010 
  258.3750   -21.7290    70.6250     9.6110     9.3180    10.1630    24.8190     2.2600 
  258.5000   -19.9870    72.4630     8.8710     8.4210     8.0270    25.1240     2.2190 
  258.6250   -18.2980    73.1030     8.3370     7.7600     7.3670    25.3700     2.1880 
  258.7500   -16.7050    70.9020     7.9880     7.3180     6.9900    25.5750     2.1730 
  258.8750   -15.2710    68.2860     7.7970     7.0570     6.6220    25.5600     2.1740 
  259.0000   -14.1270    66.6090     7.7260     6.9300     6.4390    25.4000     2.1920 
  259.1250   -13.2570    65.1320     7.7620     6.9260     6.3600    25.3510     2.2220 
  259.2500   -12.6480    64.4940     7.8730     7.0150     6.2110    25.3420     2.2560 
  259.3750   -12.2310    64.9380     8.0380     7.1650     6.0490    25.1880     2.2900 
  259.5000   -11.9960    65.8580     8.2100     7.3110     6.1320    24.8400     2.3190 
  259.6250   -11.8930    65.9530     8.2950     7.3580     6.4400    24.4700     2.3330 
  259.7500   -11.8850    66.2630     8.2540     7.2970     6.8610    24.2920     2.3270 
  259.8750   -11.9570    67.5010     8.1090     7.1760     7.0670    24.3200     2.3010 
  260.0000   -12.0760    68.3880     7.9390     7.0720     6.9410    24.5130     2.2640 
  260.1250   -12.2220    70.1760     7.8620     7.0620     6.7420    24.8170     2.2340 
  260.2500   -12.3920    73.1620     7.9350     7.1590     6.5330    25.0590     2.2300 
  260.3750   -12.5980    76.7970     8.1570     7.3510     6.7090    25.0820     2.2570 
  260.5000   -12.8310    80.7800     8.4570     7.5940     7.3720    24.8640     2.3110 
  260.6250   -13.0430    84.6330     8.6660     7.7740     7.9030    24.5810     2.3680 
  260.7500   -13.2280    85.9940     8.6470     7.7690     7.9310    24.4470     2.3990 
  260.8750   -13.3910    82.6990     8.3690     7.5190     7.5450    24.5670     2.3900 
  261.0000   -13.5440    76.5820     7.9210     7.0770     6.7930    24.9100     2.3400 
  261.1250   -13.6900    72.0100     7.4930     6.6250     6.1770    25.2550     2.2730 
  261.2500   -13.8230    70.6460     7.2550     6.3520     5.8620    25.3930     2.2240 
  261.3750   -13.9590    70.7120     7.3020     6.3490     5.8960    25.2720     2.2100 
  261.5000   -14.0980    70.8660     7.6720     6.6260     6.5610    24.9720     2.2260 
  261.6250   -14.2550    72.6140     8.3580     7.1560     7.7360    24.5800     2.2530 
  261.7500   -14.4490    74.8120     9.1600     7.7970     9.0420    24.1400     2.2720 
  261.8750   -14.6730    75.2810     9.8840     8.4320     9.7920    23.6970     2.2820 
  262.0000   -14.9170    75.3790    10.3650     8.9350     9.9500    23.2840     2.2890 
  262.1250   -15.1610    78.9120    10.5020     9.1760     9.9740    22.9910     2.3020 
  262.2500   -15.3820    82.3600    10.4240     9.1920     9.6030    22.9020     2.3170 
  262.3750   -15.5210    82.3690    10.2480     9.0610     9.1330    23.0400     2.3300 
  262.5000   -15.5470    81.4670    10.0630     8.8760     8.9940    23.3230     2.3400 
  262.6250   -15.5030    82.4010     9.9010     8.6920     9.0530    23.6220     2.3500 
  262.7500   -15.3900    81.4340     9.7320     8.5030     9.2300    23.8610     2.3610 
  262.8750   -15.2040    76.0950     9.5380     8.2850     9.0020    24.0140     2.3720 
  263.0000   -14.9540    68.9100     9.3370     8.0440     8.0480    24.0800     2.3820 
  263.1250   -14.6730    66.0940     9.1850     7.8330     7.9380    24.0950     2.3930 
  263.2500   -14.3970    67.2400     9.1020     7.6950     8.1080    24.0940     2.4050 
  263.3750   -14.1780    68.7460     9.0600     7.6300     8.2990    24.0810     2.4150 
  263.5000   -14.0500    68.5810     9.0050     7.6000     8.1550    24.0640     2.4150 
  263.6250   -13.9680    67.5910     8.8980     7.5620     8.1800    24.0940     2.4000 
  263.7500   -13.9180    65.6020     8.7860     7.5260     8.2250    24.1670     2.3780 
  263.8750   -13.9040    62.4020     8.7330     7.5400     8.3090    24.2260     2.3620 
  264.0000   -13.9050    61.3750     8.7740     7.6440     8.1610    24.1960     2.3600 
  264.1250   -13.9220    62.3330     8.8970     7.8290     7.9320    24.1010     2.3750 
  264.2500   -13.9660    62.5110     9.0350     8.0020     7.9370    24.0270     2.3950 
  264.3750   -14.0260    63.4830     9.1420     8.0940     8.1500    23.9940     2.4100 
  264.5000   -14.0870    65.9430     9.1970     8.0770     8.4540    23.9870     2.4170 
  264.6250   -14.1510    67.7370     9.1880     7.9700     8.6800    24.0060     2.4140 
  264.7500   -14.2240    67.6220     9.1390     7.8340     8.5500    24.0470     2.4060 
  264.8750   -14.3190    67.3680     9.0800     7.6970     8.1860    24.0920     2.3980 
  265.0000   -14.4620    66.6690     9.0590     7.5790     7.8610    24.1190     2.3920 
  265.1250   -14.6330    65.6780     9.1350     7.5210     8.0700    24.1200     2.3920 
  265.2500   -14.8090    65.1250     9.2900     7.5600     8.5360    24.1060     2.3950 
  265.3750   -14.9780    64.6550     9.4770     7.7220     8.9450    24.0900     2.3970 
