~V
VERS. 2.00: Ver 2.00
~W
STRT.M 50.0000:
STOP.M 246.0000:
STEP.M 0.1250:
NULL. -999.2500:
UWI. F10164:
~C
DEPT.M :
GR.API :
RML.OHMM :
RI. :
RXO.OHMM :
CALI.CM :
SP.MV :
DEN.GM/CC :
~A
# ...
   95.0000   105.1970     8.3690     6.5420     9.9010    25.9860   -15.0940     2.1690 
   95.1250    98.7160     8.6880     6.8820    17.0610    25.7220   -15.4080     2.1450 
   95.2500    87.7660     8.7760     7.0710    23.9380    25.3480   -15.7380     2.1260 
   95.3750    82.2880     8.6330     7.0760    20.5720    25.1700   -16.0490     2.1210 
   95.5000    81.2200     8.3390     6.9230    12.6780    25.0820   -16.3020     2.1310 
   95.6250    80.7900     8.0240     6.6890     9.0250    24.8980   -16.5590     2.1490 
   95.7500    82.5520     7.7960     6.4750     8.2410    24.7280   -16.7510     2.1600 
   95.8750    84.7420     7.6840     6.3300     8.2580    24.7710   -16.8010     2.1570 
   96.0000    86.2110     7.6590     6.2580     8.0910    24.9640   -16.8090     2.1410 
   96.1250    85.2120     7.6510     6.2280     8.0010    25.1280   -16.7320     2.1210 
   96.2500    84.1040     7.5970     6.1880     8.1270    25.1680   -16.4820     2.1100 
   96.3750    86.0440     7.4820     6.1150     8.2610    25.0010   -16.1360     2.1130 
   96.5000    91.3680     7.3260     6.0080     8.1340    24.7250   -15.7650     2.1300 
   96.6250    94.4970     7.1790     5.8920     7.8580    24.6160   -15.3820     2.1550 
   96.7500    92.3070     7.0820     5.7980     7.7290    24.5200   -15.0810     2.1770 
   96.8750    88.6500     7.0470     5.7440     7.7810    24.2600   -14.9690     2.1920 
   97.0000    87.5360     7.0620     5.7310     7.9350    23.9740   -14.9590     2.2010 
   97.1250    88.6680     7.1040     5.7490     8.0890    23.7500   -15.0100     2.2100 
   97.2500    89.7740     7.1460     5.7750     8.1750    23.5850   -15.1940     2.2260 
   97.3750    89.9240     7.2350     5.8420     8.1610    23.5080   -15.4980     2.2450 
   97.5000    89.9310     7.5300     6.0840     8.1330    23.4890   -15.8020     2.2600 
   97.6250    88.9450     8.3130     6.7610     8.2730    23.4900   -16.0730     2.2580 
   97.7500    87.4130     9.4750     7.8000     8.7790    23.5000   -16.2960     2.2370 
   97.8750    87.9540    10.6100     8.8420     9.6210    23.5170   -16.3910     2.2020 
   98.0000    89.4760    11.1740     9.3730    10.0760    23.5300   -16.4300     2.1650 
   98.1250    88.8280    10.7250     8.9630     9.5120    23.6320   -16.5080     2.1380 
   98.2500    85.8730     9.6860     8.0120     8.8020    23.8840   -16.5160     2.1240 
   98.3750    83.1040     8.5900     7.0270     8.5570    24.1720   -16.4040     2.1220 
   98.5000    81.9260     7.8420     6.3730     8.6840    24.3470   -16.2840     2.1260 
   98.6250    81.9280     7.5550     6.1390     8.6880    24.4120   -16.1880     2.1340 
   98.7500    82.8200     7.4680     6.0780     8.5520    24.4560   -16.0730     2.1450 
   98.8750    81.9380     7.4360     6.0620     8.3830    24.4740   -15.9770     2.1570 
   99.0000    79.8760     7.4240     6.0580     8.2100    24.0800   -15.8870     2.1700 
   99.1250    80.7820     7.4480     6.0770     8.1210    24.0640   -15.7500     2.1800 
   99.2500    82.9240     7.5050     6.1220     8.1740    24.1470   -15.6400     2.1850 
   99.3750    83.1820     7.5820     6.1870     8.3210    24.3110   -15.6220     2.1860 
   99.5000    83.1840     7.6630     6.2630     8.5510    24.3930   -15.6250     2.1850 
   99.6250    86.7260     7.7250     6.3350     8.9490    24.4560   -15.5300     2.1850 
   99.7500    88.9630     7.7570     6.3890     9.2630    24.6030   -15.4350     2.1860 
   99.8750    87.4610     7.7520     6.4130     9.1790    24.7620   -15.3230     2.1860 
  100.0000    85.4670     7.7060     6.4000     8.8510    24.9060   -15.1300     2.1840 
  100.1250    85.5480     7.6170     6.3430     8.8390    24.9280   -14.9880     2.1780 
  100.2500    84.8000     7.5500     6.2880     9.0040    24.9440   -14.9260     2.1700 
  100.3750    85.3960     7.6700     6.3330     8.7790    25.2470   -14.8450     2.1630 
  100.5000    88.6960     8.2000     6.5970     8.1950    25.3400   -14.7820     2.1590 
  100.6250    89.9070     9.2690     7.1370     8.0170    25.3170   -14.8820     2.1590 
  100.7500    86.7760    10.4360     7.7220     8.3630    25.2220   -14.9960     2.1640 
  100.8750    83.6780    11.1510     8.0940     8.7220    25.1260   -15.1330     2.1750 
  101.0000    84.1640    11.0380     8.0850     8.7100    25.0520   -15.3740     2.1930 
  101.1250    86.1580    10.1150     7.6880     8.5100    24.9670   -15.5800     2.2120 
  101.2500    88.2510     9.0520     7.2010     8.4210    24.9310   -15.7280     2.2250 
  101.3750    90.6740     8.2700     6.8230     8.5070    24.9470   -15.8990     2.2260 
  101.5000    91.9850     7.8580     6.6120     8.7910    24.9270   -16.0280     2.2130 
  101.6250    88.9660     7.6430     6.4820     9.0770    24.8430   -15.9760     2.1940 
  101.7500    85.4630     7.4090     6.3200     8.9930    24.7680   -15.8810     2.1800 
  101.8750    86.0220     7.1430     6.1200     8.3800    24.8490   -15.7910     2.1800 
  102.0000    89.7930     6.9190     5.9330     7.5260    25.0570   -15.6430     2.1970 
  102.1250    92.8030     6.8340     5.8340     6.8730    25.3150   -15.5060     2.2290 
  102.2500    93.1720     6.8930     5.8470     6.7380    25.4320   -15.4510     2.2630 
  102.3750    90.9170     7.0710     5.9670     7.2680    25.4180   -15.4320     2.2900 
  102.5000    84.8180     7.3070     6.1600     8.2430    25.2690   -15.4540     2.3030 
  102.6250    77.3630     7.5100     6.3600     8.8430    25.1640   -15.6310     2.2990 
  102.7500    73.1470     7.6040     6.4920     8.5730    25.2150   -15.8600     2.2810 
  102.8750    73.0750     7.5500     6.5080     8.0410    25.3680   -16.0380     2.2560 
  103.0000    74.6960     7.3590     6.3980     7.9000    25.4860   -16.1980     2.2320 
  103.1250    77.3210     7.0950     6.1910     8.0120    25.5620   -16.3830     2.2170 
  103.2500    82.3390     6.8740     5.9840     7.6640    25.4640   -16.5160     2.2140 
  103.3750    88.7900     6.7840     5.8480     6.9730    25.3480   -16.6210     2.2180 
  103.5000    92.2200     6.8710     5.8350     6.7810    25.4390   -16.7840     2.2220 
  103.6250    87.2860     7.1390     5.9720     7.5360    25.4620   -16.9420     2.2160 
  103.7500    80.9000     7.4710     6.1900     8.5270    25.4670   -17.0620     2.2040 
  103.8750    78.2510     7.7450     6.4100     9.1040    25.4670   -17.2330     2.1920 
  104.0000    79.7300     7.8510     6.5410     9.1470    25.4600   -17.4250     2.1860 
  104.1250    82.1370     7.7110     6.4990     8.9580    25.4120   -17.4890     2.1940 
  104.2500    82.2140     7.4350     6.3300     8.6020    25.2870   -17.5170     2.2130 
  104.3750    79.2470     7.1520     6.1150     8.0030    25.4020   -17.5580     2.2350 
  104.5000    74.6380     6.9890     5.9500     7.3420    25.3310   -17.5470     2.2510 
  104.6250    73.0630     7.0500     5.9310     7.1260    25.2530   -17.5470     2.2490 
  104.7500    74.5840     7.2790     6.0510     7.5680    25.2580   -17.6880     2.2300 
  104.8750    76.1630     7.5950     6.2700     8.3970    25.3780   -17.9240     2.2050 
  105.0000    76.4620     7.8920     6.5170     8.9020    25.7130   -18.2190     2.1870 
  105.1250    75.1030     8.0570     6.7020     8.8070    26.1810   -18.6990     2.1880 
  105.2500    74.7660     8.0810     6.7890     8.7650    26.3150   -19.2620     2.1970 
  105.3750    75.6480     7.9970     6.7810     8.9210    25.9850   -19.7710     2.2030 
  105.5000    76.5700     7.8600     6.7070     9.0860    25.4440   -20.2390     2.1970 
  105.6250    78.0290     7.7300     6.6090     9.1460    25.1970   -20.6710     2.1760 
  105.7500    79.6430     7.6360     6.5210     9.1550    25.2180   -20.9650     2.1530 
  105.8750    78.3380     7.5820     6.4550     9.1450    25.4060   -21.0900     2.1350 
  106.0000    73.4300     7.5610     6.4120     9.1140    25.6090   -21.1240     2.1260 
  106.1250    70.6650     7.5660     6.3910     9.0370    25.7670   -21.0060     2.1240 
