~V
VERS. 2.00: Ver 2.00
~W
STRT.M 63.0000:
STOP.M 800.0000:
STEP.M 0.1250:
NULL. -999.2500:
UWI. F10168:
~C
DEPT.M :
SP.MV :
GR.API :
RML.OHMM :
RI. :
RXO.OHMM :
CALI.CM :
DEN.GM/CC :
~A
# ...
  546.7500    -1.6570    70.3970     7.6630     7.2290     8.3510    24.1980     2.3640 
  546.8750    -1.6970    70.2390     7.3950     7.0560     7.3650    24.2790     2.3450 
  547.0000    -1.7350    70.0410     7.3180     6.9860     7.0880    24.2550     2.3640 
  547.1250    -1.7640    72.0520     7.5120     7.0850     7.6600    24.1310     2.4010 
  547.2500    -1.7750    74.7340     7.8830     7.3050     8.7150    23.9930     2.4280 
  547.3750    -1.7700    77.6210     8.3260     7.5850     9.7520    23.9050     2.4340 
  547.5000    -1.7410    80.0260     8.7290     7.8620    10.1040    23.8740     2.4210 
  547.6250    -1.7240    81.8310     9.0210     8.1140     9.9210    23.8820     2.3940 
  547.7500    -1.7210    82.1410     9.2470     8.3780     9.8810    23.9130     2.3660 
  547.8750    -1.7210    80.3410     9.4630     8.6880     9.9870    23.9760     2.3440 
  548.0000    -1.7290    77.1030     9.6990     9.0310    10.1330    24.0700     2.3330 
  548.1250    -1.7430    73.8460     9.9260     9.3190    10.4240    24.1450     2.3350 
  548.2500    -1.7790    71.2730    10.0800     9.4600    10.7870    24.1240     2.3490 
  548.3750    -1.8430    68.5310    10.1140     9.4130    10.8690    24.0350     2.3680 
  548.5000    -1.9260    67.6740    10.0120     9.2000    10.3200    23.9420     2.3860 
  548.6250    -1.9960    70.1410     9.7780     8.8860     9.6410    23.9020     2.3950 
  548.7500    -2.0430    72.2580     9.4640     8.5570     9.1280    23.8920     2.3940 
  548.8750    -2.0750    72.4460     9.0960     8.2310     8.8090    23.8900     2.3860 
  549.0000    -2.0980    71.6140     8.7000     7.8990     8.6430    23.8480     2.3760 
  549.1250    -2.1270    70.3800     8.3320     7.5520     8.2980    23.6970     2.3710 
  549.2500    -2.1740    68.2690     8.0550     7.2340     7.8250    23.4690     2.3720 
  549.3750    -2.2400    66.5230     7.9330     7.0230     7.3880    23.2800     2.3710 
  549.5000    -2.3280    67.5470     8.0200     7.0100     7.1470    23.1930     2.3630 
  549.6250    -2.4440    70.4350     8.3840     7.3160     7.4770    23.1770     2.3460 
  549.7500    -2.5880    73.2080     8.9570     7.8880     8.3880    23.1420     2.3310 
  549.8750    -2.7400    74.4120     9.6460     8.6260     9.0630    23.0560     2.3280 
  550.0000    -2.8660    74.2370    10.2950     9.3460     8.8900    22.9390     2.3390 
  550.1250    -2.9600    74.4720    10.6370     9.7530     8.8310    22.8390     2.3600 
  550.2500    -3.0270    75.2580    10.5440     9.7100     9.1020    22.7820     2.3750 
  550.3750    -3.0820    75.0150     9.9990     9.2100     9.3010    22.7820     2.3770 
  550.5000    -3.1330    73.9570     9.1400     8.3990     9.0400    22.8590     2.3690 
  550.6250    -3.1560    73.9590     8.2140     7.5230     8.1970    23.0430     2.3560 
  550.7500    -3.1330    73.4370     7.4610     6.8070     7.6020    23.3120     2.3510 
  550.8750    -3.0820    71.2460     7.0060     6.3500     7.3070    23.6250     2.3590 
  551.0000    -3.0230    69.7280     6.9050     6.1780     7.4050    23.9290     2.3850 
  551.1250    -2.9790    71.0350     7.2050     6.3150     7.5220    24.1510     2.4270 
  551.2500    -2.9390    72.1360     7.7690     6.6620     7.6920    24.2610     2.4690 
  551.3750    -2.8810    72.0570     8.4540     7.1480     8.0510    24.2730     2.4830 
  551.5000    -2.8120    72.0320     9.0740     7.6710     9.0490    24.2430     2.4950 
  551.6250    -2.7500    72.1340     9.4020     8.0930    10.1350    24.2350     2.4790 
  551.7500    -2.7010    72.2600     9.4410     8.3450    10.0400    24.2580     2.4410 
  551.8750    -2.6550    73.6230     9.2910     8.4240     9.0050    24.2810     2.4000 
  552.0000    -2.6080    76.9390     9.0920     8.3780     8.3580    24.2750     2.3720 
  552.1250    -2.5540    79.6550     8.9610     8.2740     8.4440    24.2300     2.3640 
  552.2500    -2.4960    79.5400     8.9230     8.1900     8.6210    24.1750     2.3670 
  552.3750    -2.4290    76.1490     8.9530     8.1650     8.9280    24.1350     2.3730 
  552.5000    -2.3680    72.6830     9.0100     8.2130     9.0430    24.1200     2.3790 
  552.6250    -2.3040    72.7530     9.0520     8.3250     9.0780    24.1220     2.3830 
  552.7500    -2.2260    73.1160     9.0620     8.4470     8.8570    24.1250     2.3850 
  552.8750    -2.1360    72.1090     9.0350     8.5290     8.6360    24.1230     2.3840 
  553.0000    -2.0690    71.2470     8.9690     8.5250     8.5280    24.1170     2.3780 
  553.1250    -1.9990    73.7730     8.8550     8.3970     8.6530    24.1120     2.3680 
  553.2500    -1.9240    76.4930     8.7030     8.1900     8.7480    24.1100     2.3570 
  553.3750    -1.8680    77.6650     8.5250     7.9550     8.4510    24.1100     2.3490 
  553.5000    -1.8160    78.0530     8.3390     7.7520     7.9570    24.0980     2.3450 
  553.6250    -1.7790    77.7080     8.1800     7.6260     7.7130    24.0640     2.3460 
  553.7500    -1.7790    76.7640     8.0770     7.5620     7.6490    24.0240     2.3470 
  553.8750    -1.8130    75.6740     8.0490     7.5350     7.6450    24.0030     2.3500 
  554.0000    -1.8620    74.5960     8.1030     7.5230     7.5950    24.0100     2.3620 
  554.1250    -1.9290    72.1510     8.2180     7.5170     7.7340    24.0350     2.3960 
  554.2500    -2.0050    67.9510     8.3430     7.5340     8.1500    24.0410     2.4420 
  554.3750    -2.0690    63.4220     8.4720     7.6200     8.9230    24.0000     2.4850 
  554.5000    -2.1040    60.3510     8.6660     7.8530     9.3040    23.9180     2.5120 
  554.6250    -2.1180    59.9420     9.0880     8.3790     9.8350    23.8540     2.5270 
  554.7500    -2.1090    60.2910     9.8260     9.2190     9.4860    23.8330     2.5490 
  554.8750    -2.0870    59.9310    10.8730    10.3220     9.9200    23.8370     2.5840 
  555.0000    -2.0550    58.8830    12.0360    11.4930    12.7680    23.8220     2.6210 
  555.1250    -2.0140    60.0280    12.8120    12.3030    17.8410    23.7430     2.6330 
  555.2500    -1.9780    63.2570    12.8470    12.4670    18.7530    23.6160     2.6120 
  555.3750    -1.9710    66.1110    12.1320    11.9530    14.8750    23.4950     2.5720 
  555.5000    -2.0140    67.6560    11.0030    11.0020    10.9590    23.4260     2.5310 
  555.6250    -2.0810    68.3890     9.9350     9.9920     9.3420    23.4130     2.5070 
  555.7500    -2.1670    67.6600     9.1820     9.1820     9.3970    23.4020     2.4950 
  555.8750    -2.2580    66.4170     8.7640     8.6140     9.5460    23.3740     2.4880 
  556.0000    -2.3390    65.6100     8.5930     8.2380     9.0880    23.3550     2.4860 
  556.1250    -2.4050    64.9520     8.5620     8.0000     8.1330    23.4410     2.4870 
  556.2500    -2.4480    64.0180     8.5490     7.8340     7.9730    23.6020     2.4890 
  556.3750    -2.4480    64.9520     8.5140     7.7320     8.1480    23.7110     2.4860 
  556.5000    -2.3900    68.2710     8.4470     7.6910     8.2540    23.6230     2.4780 
  556.6250    -2.3160    70.6880     8.3490     7.7030     8.1280    23.2830     2.4680 
  556.7500    -2.2480    70.4260     8.2360     7.7360     7.6710    22.8820     2.4610 
  556.8750    -2.2030    70.6310     8.1390     7.7740     7.5050    22.5810     2.4590 
  557.0000    -2.1930    73.5630     8.1080     7.8110     7.8340    22.4320     2.4610 
  557.1250    -2.2060    76.7880     8.2080     7.8550     8.2620    22.4360     2.4720 
  557.2500    -2.2380    76.7090     8.4130     7.9040     7.9380    22.5300     2.4910 
  557.3750    -2.2830    74.4520     8.6480     7.9420     8.2260    22.6700     2.5110 
  557.5000    -2.3250    73.4730     8.7950     7.9320     9.5280    22.8340     2.5190 
  557.6250    -2.3440    74.0210     8.7040     7.8190    10.9540    23.0690     2.4990 
  557.7500    -2.3350    73.3100     8.4030     7.6070     9.2610    23.3890     2.4620 
  557.8750    -2.2890    72.8870     7.9890     7.3250     7.2960    23.7430     2.4250 
