~V
VERS. 2.00: Ver 2.00
~W
STRT.M 50.0000:
STOP.M 268.0000:
STEP.M 0.1250:
NULL. -999.2500:
UWI. F10199:
~C
DEPT.M :
GR.API :
RML.OHMM :
RI. :
RXO.OHMM :
CALI.CM :
DEN.GM/CC :
SP.MV :
~A
# ...
  128.7500    54.0860    12.4820    11.0580    15.7030    24.4580     2.5060    -5.5110 
  128.8750    51.6050    12.1100    10.9940    16.4420    24.4860     2.5060    -5.0980 
  129.0000    53.8300    10.9480    10.1920    14.9160    24.4990     2.4790    -4.7300 
  129.1250    58.0490     9.6520     9.1010    11.7530    24.4910     2.4450    -4.5030 
  129.2500    61.1190     8.9940     8.3880     9.6150    24.4830     2.4320    -4.3790 
  129.3750    63.7250     9.3340     8.3960     9.9350    24.4830     2.4490    -4.3470 
  129.5000    64.9040    10.6950     9.2360    12.4470    24.4740     2.4950    -4.3640 
  129.6250    61.8140    12.8940    10.9160    16.3690    24.4640     2.5510    -4.3690 
  129.7500    55.6970    15.2730    12.9840    20.0390    24.4620     2.5940    -4.3580 
  129.8750    50.2610    17.2600    14.9940    21.9160    24.4530     2.6120    -4.3520 
  130.0000    47.2320    18.4670    16.4810    21.3190    24.4440     2.6100    -4.3700 
  130.1250    46.1470    18.6650    17.0680    19.5160    24.4480     2.5990    -4.3430 
  130.2500    45.5420    18.4240    17.0920    18.0790    24.4440     2.5890    -4.2940 
  130.3750    45.1480    18.3050    16.9460    17.4110    24.4300     2.5850    -4.2590 
  130.5000    45.0700    18.3450    16.8970    17.5870    24.4220     2.5860    -4.2600 
  130.6250    45.8040    18.2780    16.9310    18.3510    24.4040     2.5900    -4.3240 
  130.7500    47.4240    17.9130    16.7560    18.9950    24.3790     2.5930    -4.4010 
  130.8750    50.3310    16.9920    16.0780    19.1790    24.3600     2.5870    -4.5090 
  131.0000    53.1660    15.3800    14.7490    18.6730    24.3300     2.5660    -4.6390 
  131.1250    55.6040    13.2300    12.8510    17.4590    24.2770     2.5220    -4.8400 
  131.2500    59.8500    11.0860    10.8760    14.3350    24.2250     2.4640    -5.0870 
  131.3750    64.8610     9.3230     9.1730    10.4700    24.1660     2.4040    -5.3660 
  131.5000    66.4490     8.1250     7.9320     7.9430    24.0890     2.3510    -5.6820 
  131.6250    63.2430     7.5580     7.2460     7.3330    24.0060     2.3160    -5.9920 
  131.7500    61.6450     7.3860     6.9380     7.2110    23.9160     2.2930    -6.3260 
  131.8750    64.7030     7.4630     6.8920     7.2190    23.8170     2.2800    -6.6650 
  132.0000    68.6310     7.6510     6.9920     7.3020    23.7280     2.2700    -7.0370 
  132.1250    69.9900     7.8430     7.1380     7.4470    23.6490     2.2620    -7.4510 
  132.2500    69.0820     8.0020     7.2730     7.6580    23.5670     2.2540    -7.8740 
  132.3750    68.2920     8.1660     7.4110     7.9300    23.5060     2.2480    -8.2410 
  132.5000    68.1040     8.4390     7.6180     8.2760    23.4740     2.2480    -8.4470 
  132.6250    68.0090     9.0540     8.0620     8.8690    23.4610     2.2570    -8.5430 
  132.7500    67.8460    10.1890     8.8830    10.0310    23.4630     2.2800    -8.5170 
  132.8750    65.6480    12.0230    10.2390    12.0350    23.4590     2.3150    -8.3680 
  133.0000    60.4500    14.6390    12.2460    14.9900    23.4500     2.3620    -8.0990 
  133.1250    53.9720    18.0020    14.9880    18.5520    23.4440     2.4160    -7.6870 
  133.2500    49.7180    21.5610    18.0950    21.5060    23.4240     2.4660    -7.1870 
  133.3750    48.2460    24.7310    21.1160    23.3660    23.4040     2.5090    -6.6820 
  133.5000    47.4710    26.9520    23.5360    24.3940    23.4000     2.5410    -6.2930 
  133.6250    47.1190    27.7300    24.8000    24.4770    23.3940     2.5590    -5.9300 
  133.7500    49.5470    27.4590    25.0860    24.2980    23.3890     2.5690    -5.6670 
  133.8750    52.4610    26.5060    24.6350    23.6480    23.3890     2.5730    -5.5600 
  134.0000    52.3640    25.0760    23.6100    22.8190    23.3760     2.5700    -5.5600 
  134.1250    51.1400    22.9970    21.8600    22.9880    23.3400     2.5610    -5.6350 
  134.2500    54.5390    20.2700    19.4330    22.6010    23.2980     2.5400    -5.8070 
  134.3750    60.9720    17.0750    16.5110    20.5780    23.2420     2.5060    -6.0620 
  134.5000    66.9050    13.8420    13.5020    17.1240    23.1860     2.4580    -6.3050 
  134.6250    71.7860    11.1620    10.9480    12.6550    23.1700     2.4040    -6.5730 
  134.7500    75.9550     9.2200     9.0270     8.8100    23.1880     2.3580    -6.8690 
  134.8750    77.3890     7.9680     7.7170     7.1220    23.2390     2.3260    -7.1110 
  135.0000    76.6140     7.2280     6.8880     6.6830    23.3260     2.3110    -7.2810 
  135.1250    76.9000     6.8550     6.4430     6.5990    23.4300     2.3100    -7.3620 
  135.2500    78.0080     6.6930     6.2310     6.4740    23.5430     2.3150    -7.3820 
  135.3750    78.8880     6.7440     6.2320     6.3490    23.6670     2.3210    -7.3150 
  135.5000    79.2300     7.0490     6.4680     6.4150    23.7800     2.3240    -7.1720 
  135.6250    77.4360     7.6790     7.0040     6.9730    23.8710     2.3210    -7.0740 
  135.7500    74.6480     8.5070     7.7520     8.1480    23.9570     2.3120    -6.9580 
  135.8750    71.9130     9.3700     8.5910     9.7040    24.0360     2.2970    -6.7920 
  136.0000    70.4170    10.0880     9.3610    11.2080    24.1120     2.2780    -6.6650 
  136.1250    69.4550    10.5260     9.8930    11.9780    24.2060     2.2590    -6.6450 
  136.2500    68.2060    10.8450    10.2560    11.8170    24.2930     2.2450    -6.6280 
  136.3750    66.9910    11.3220    10.6540    11.2860    24.3610     2.2350    -6.6250 
  136.5000    67.2010    12.2340    11.3410    11.3430    24.4230     2.2280    -6.6710 
  136.6250    69.4980    13.7290    12.5160    12.7580    24.4780     2.2200    -6.6820 
  136.7500    69.8470    15.3870    13.9120    15.1490    24.5240     2.2110    -6.6740 
  136.8750    66.5760    16.6280    15.0770    17.8160    24.5610     2.2060    -6.6480 
  137.0000    63.8770    16.8550    15.4620    19.4370    24.5770     2.2070    -6.5860 
  137.1250    66.6490    15.5740    14.4970    17.9400    24.5670     2.2200    -6.4540 
  137.2500    72.2160    13.3960    12.6170    14.5900    24.5600     2.2420    -6.2900 
  137.3750    76.7460    11.1010    10.5160    11.0310    24.5490     2.2700    -6.1340 
  137.5000    78.3100     9.4120     8.8480     8.5290    24.5230     2.2960    -5.9810 
  137.6250    76.9380     8.8900     8.0980     8.0380    24.4940     2.3190    -5.8590 
  137.7500    75.4790     9.4070     8.2040     8.6250    24.4500     2.3440    -5.7430 
  137.8750    73.1380    10.8560     9.1320    10.1780    24.3800     2.3790    -5.6730 
  138.0000    67.2310    13.0490    10.7970    12.7750    24.2980     2.4270    -5.6150 
  138.1250    59.1940    15.6800    13.0550    16.0920    24.1990     2.4830    -5.6080 
  138.2500    54.2290    18.1860    15.4370    18.9540    24.0830     2.5320    -5.6580 
  138.3750    51.7410    20.1440    17.5290    19.8470    23.9670     2.5680    -5.6900 
  138.5000    49.0360    21.3070    18.9970    18.8680    23.8520     2.5890    -5.7130 
  138.6250    48.0880    21.6110    19.6240    17.9340    23.7240     2.5960    -5.6640 
  138.7500    49.0800    21.5020    19.7360    17.2300    23.6130     2.5950    -5.6150 
  138.8750    49.6340    21.2900    19.6090    16.8250    23.5370     2.5890    -5.5760 
  139.0000    48.5910    21.1710    19.4510    16.4910    23.4810     2.5790    -5.5600 
  139.1250    47.4280    21.2380    19.3830    16.4280    23.4410     2.5680    -5.5240 
  139.2500    47.0520    21.4490    19.4260    16.6320    23.4190     2.5580    -5.4230 
  139.3750    46.3460    21.7520    19.5690    17.0880    23.3950     2.5480    -5.3090 
  139.5000    45.3820    22.0720    19.7710    17.2060    23.3650     2.5380    -5.2250 
  139.6250    44.8590    22.2800    19.9390    16.9860    23.3300     2.5300    -5.2050 
  139.7500    44.5090    22.2530    19.9540    16.6650    23.2840     2.5240    -5.1700 
  139.8750    43.1950    21.8820    19.7070    16.1030    23.2420     2.5220    -5.1570 
