~V
VERS. 2.00: Ver 2.00
~W
STRT.M 58.0000:
STOP.M 213.0000:
STEP.M 0.1250:
NULL. -999.2500:
UWI. F10138:
~C
DEPT.M :
GR.API :
RML.OHMM :
RI. :
RXO.OHMM :
CALI.CM :
DEN.GM/CC :
SP.MV :
~A
# ...
   80.5000    97.1850     7.4090     5.1380     5.1290    26.2990     2.2350   -20.7360 
   80.6250    90.8710    10.2160     6.7440     7.1990    25.9580     2.2810   -21.0510 
   80.7500    81.8620    14.3030     9.3480    13.9160    25.4900     2.3660   -21.5340 
   80.8750    70.9680    18.9770    12.7420    31.6700    25.1150     2.4680   -22.1770 
   81.0000    62.4800    22.4800    15.8960    50.3210    25.0070     2.5440   -22.9850 
   81.1250    60.9870    22.0890    16.6280    43.2990    24.9560     2.5400   -23.8880 
   81.2500    62.8070    18.7390    14.9800    28.3990    24.8220     2.4690   -24.7750 
   81.3750    64.1880    14.7460    12.4080    17.5830    24.4880     2.3660   -25.6400 
   81.5000    62.3030    11.7800    10.1890    12.2190    23.9020     2.2680   -26.4560 
   81.6250    57.5380    10.3500     8.8520    10.6350    23.6500     2.2000   -27.1540 
   81.7500    56.0090     9.8390     8.1390    10.3040    23.6950     2.1620   -27.7480 
   81.8750    61.5490     9.8690     7.8540    10.2390    23.9550     2.1460   -28.2150 
   82.0000    68.1350    10.1450     7.8280    10.1280    24.4790     2.1430   -28.5470 
   82.1250    67.7820    10.4340     7.9280    10.0160    25.2160     2.1440   -28.7630 
   82.2500    65.3030    10.6210     8.0380     9.9620    25.7700     2.1460   -28.9690 
   82.3750    65.8170    10.6940     8.1130     9.9600    25.9250     2.1500   -29.1440 
   82.5000    67.6100    10.6750     8.1360    10.0310    25.9470     2.1540   -29.2820 
   82.6250    65.9230    10.5930     8.1060    10.1720    25.9490     2.1590   -29.4340 
   82.7500    62.0340    10.4920     8.0470    10.3750    25.9790     2.1580   -29.6050 
   82.8750    59.0100    10.3940     7.9720    10.4840    26.1510     2.1520   -29.7790 
   83.0000    57.2500    10.3100     7.8850    10.5320    26.5660     2.1390   -29.9450 
   83.1250    57.1650    10.2330     7.7860    10.5940    26.8650     2.1270   -30.0770 
   83.2500    58.0770    10.1500     7.6830    10.6400    26.9530     2.1200   -30.1020 
   83.3750    60.3690    10.0540     7.5840    10.5640    27.0120     2.1210   -30.0360 
   83.5000    64.3690     9.9560     7.4950    10.3370    27.2080     2.1260   -29.9240 
   83.6250    66.0670     9.8800     7.4260    10.1410    27.4800     2.1310   -29.7470 
   83.7500    63.6700     9.8410     7.3800    10.2100    27.6210     2.1320   -29.4960 
   83.8750    60.9470     9.8440     7.3670    10.3150    27.6710     2.1280   -29.2040 
   84.0000    61.1730     9.8900     7.3910    10.3850    27.6910     2.1240   -28.8530 
   84.1250    63.7680     9.9650     7.4450    10.3480    27.7250     2.1210   -28.4480 
   84.2500    65.2280    10.0190     7.4950    10.3330    27.7470     2.1200   -28.0620 
   84.3750    63.8160     9.9970     7.5030    10.2990    27.7510     2.1220   -27.6700 
   84.5000    60.1180     9.8540     7.4330    10.3370    27.7520     2.1260   -27.2400 
   84.6250    58.0630     9.5590     7.2490    10.1230    27.7630     2.1310   -26.7860 
   84.7500    61.5640     9.1810     6.9850     9.4790    27.8400     2.1350   -26.3380 
   84.8750    66.8140     8.7930     6.6790     8.5820    28.0360     2.1350   -25.9220 
   85.0000    68.6980     8.4610     6.3800     7.9730    28.3140     2.1350   -25.5770 
   85.1250    69.4180     8.2340     6.1380     7.8020    28.3830     2.1350   -25.3410 
   85.2500    72.6140     8.0960     5.9680     7.7890    28.4390     2.1370   -25.2370 
   85.3750    76.3180     8.0330     5.8710     7.7970    28.5310     2.1410   -25.2700 
   85.5000    76.5170     8.0380     5.8430     7.7880    28.6550     2.1430   -25.4150 
   85.6250    74.1910     8.1240     5.8950     7.9230    28.6920     2.1430   -25.6880 
   85.7500    73.8090     8.2820     6.0100     8.1160    28.7160     2.1410   -26.0640 
   85.8750    73.9630     8.4970     6.1810     8.3850    28.7940     2.1390   -26.5270 
   86.0000    71.6360     8.7380     6.3830     8.9330    28.9190     2.1390   -27.0240 
   86.1250    68.1270     8.9570     6.5820     9.6120    29.0010     2.1450   -27.5270 
   86.2500    67.2870     9.1240     6.7430     9.9560    29.0150     2.1540   -27.9900 
   86.3750    67.6870     9.2330     6.8530     9.7440    29.0170     2.1630   -28.4080 
   86.5000    66.2140     9.2910     6.9160     9.4510    29.0170     2.1690   -28.8220 
   86.6250    64.6900     9.3090     6.9380     9.4390    29.0170     2.1700   -29.2070 
   86.7500    66.4350     9.3000     6.9410     9.4660    29.0150     2.1680   -29.5500 
   86.8750    70.6600     9.2710     6.9330     9.4720    29.0030     2.1610   -29.8790 
   87.0000    73.2770     9.2300     6.9170     9.5180    28.9300     2.1510   -30.2420 
   87.1250    71.1460     9.1950     6.9010     9.4190    28.8490     2.1390   -30.6160 
   87.2500    68.4430     9.1860     6.8910     9.2990    28.7530     2.1260   -30.9820 
   87.3750    67.7850     9.2070     6.8920     9.3090    28.6130     2.1170   -31.3700 
   87.5000    67.4270     9.2400     6.8980     9.6000    28.4540     2.1100   -31.7830 
   87.6250    66.4800     9.2450     6.8920     9.7180    28.2870     2.1050   -32.2040 
   87.7500    66.8950     9.1970     6.8550     9.4960    28.0780     2.0990   -32.5940 
   87.8750    68.2890     9.0860     6.7810     9.1060    28.1390     2.0930   -32.9330 
   88.0000    68.3090     8.9250     6.6710     8.8580    28.3610     2.0910   -33.2450 
   88.1250    66.3200     8.7370     6.5370     8.9690    28.7030     2.0970   -33.5440 
   88.2500    67.4410     8.5610     6.4030     9.0780    28.9190     2.1100   -33.8210 
   88.3750    70.6700     8.4150     6.2870     9.1770    28.9900     2.1240   -34.0570 
   88.5000    72.5840     8.3060     6.2000     9.1240    28.9260     2.1360   -34.2320 
   88.6250    70.9550     8.2370     6.1470     8.9400    28.7280     2.1420   -34.3580 
   88.7500    67.9230     8.1890     6.1150     8.7910    28.4810     2.1420   -34.4900 
   88.8750    65.4610     8.1550     6.0980     8.6400    28.2980     2.1380   -34.6170 
   89.0000    65.5930     8.1350     6.0930     8.3620    28.2510     2.1320   -34.7050 
   89.1250    67.3860     8.1360     6.1060     8.0580    28.3400     2.1260   -34.8050 
   89.2500    68.1320     8.1600     6.1330     8.1490    28.4560     2.1230   -34.9140 
   89.3750    67.1420     8.2030     6.1700     8.6600    28.6290     2.1220   -35.0050 
   89.5000    67.4500     8.2560     6.2090     9.1760    28.6970     2.1240   -35.0930 
   89.6250    69.4240     8.3160     6.2470     9.3580    28.7000     2.1270   -35.1630 
   89.7500    70.8170     8.3810     6.2860     9.3620    28.6610     2.1300   -35.2080 
   89.8750    71.0700     8.4490     6.3280     9.3520    28.4980     2.1330   -35.2120 
   90.0000    68.0590     8.5130     6.3690     9.4920    28.0340     2.1350   -35.1580 
   90.1250    61.5100     8.5460     6.3990     9.5550    27.5620     2.1360   -34.9980 
   90.2500    57.5570     8.5320     6.4050     9.3860    27.4680     2.1330   -34.7900 
   90.3750    60.1520     8.4770     6.3850     8.9590    27.5280     2.1270   -34.5500 
   90.5000    69.1100     8.4110     6.3480     8.5190    27.7040     2.1200   -34.2640 
   90.6250    77.8600     8.3800     6.3160     8.3680    27.7420     2.1150   -33.9640 
   90.7500    80.4710     8.3910     6.3030     8.6220    27.7370     2.1150   -33.6640 
   90.8750    76.1870     8.4250     6.3110     9.0690    27.6640     2.1210   -33.3420 
   91.0000    70.7190     8.4500     6.3340     9.4860    27.3110     2.1290   -33.0160 
   91.1250    68.2420     8.4530     6.3730     9.6300    27.0680     2.1370   -32.6980 
   91.2500    67.5560     8.4700     6.4270     9.6060    26.9150     2.1430   -32.3770 
   91.3750    69.3690     8.5420     6.5060     9.4190    26.8170     2.1440   -32.0560 
   91.5000    72.5780     8.6820     6.6140     9.1280    26.6870     2.1440   -31.6890 
   91.6250    73.2030     8.8730     6.7460     9.0750    26.5060     2.1430   -31.2260 
