~V
VERS. 2.00: Ver 2.00
~W
STRT.M 53.0000:
STOP.M 246.0000:
STEP.M 0.1250:
NULL. -999.2500:
UWI. F10192:
~C
DEPT.M :
DEN.GM/CC :
GR.API :
RML.OHMM :
RI. :
RXO.OHMM :
CALI.CM :
SP.MV :
~A
# ...
  120.5000     2.3680    82.4170     8.4520     7.0150     7.6580    23.5900   -14.9640 
  120.6250     2.4150    81.8660     9.4790     7.8990     9.0930    23.5830   -14.7160 
  120.7500     2.4420    78.8920    10.4860     8.8760    12.7610    23.5510   -14.4500 
  120.8750     2.4460    75.5110    11.1650     9.7010    16.4780    23.5140   -14.2060 
  121.0000     2.4340    73.3820    11.2730    10.1130    15.7840    23.4850   -14.0440 
  121.1250     2.4160    73.1610    10.7730     9.9780    12.3690    23.4550   -14.0140 
  121.2500     2.3870    73.0720     9.8530     9.3640    11.3280    23.4580   -14.0030 
  121.3750     2.3530    73.7270     8.9300     8.6280     9.7970    23.4490   -13.9980 
  121.5000     2.3260    77.4320     8.2540     8.0000     7.7740    23.4720   -14.0490 
  121.6250     2.3130    81.7040     7.9540     7.6270     6.7630    23.5320   -14.1540 
  121.7500     2.3030    80.5980     8.0880     7.6060     6.8050    23.5670   -14.2990 
  121.8750     2.2920    74.5640     8.4820     7.8370     7.0260    23.5770   -14.4380 
  122.0000     2.2950    68.9310     8.9550     8.1980     7.4900    23.5160   -14.5260 
  122.1250     2.3180    66.5220     9.2710     8.5030     8.6590    23.2720   -14.5140 
  122.2500     2.3370    66.1770     9.1400     8.4750     9.8580    23.0860   -14.5000 
  122.3750     2.3310    67.7330     8.6500     8.1170     9.5270    22.9790   -14.4780 
  122.5000     2.3130    72.6180     8.1050     7.6350     7.9200    22.9440   -14.4180 
  122.6250     2.3070    78.4700     7.9150     7.3390     6.9350    22.9410   -14.3130 
  122.7500     2.3330    78.8950     8.6280     7.6250     7.1920    22.9550   -14.1620 
  122.8750     2.3840    72.3850    10.4130     8.6680     8.3630    22.9570   -13.9740 
  123.0000     2.4450    62.9980    13.3990    10.6760    11.7430    22.9490   -13.7680 
  123.1250     2.4920    56.0550    17.4990    13.7930    19.2250    22.9980   -13.5800 
  123.2500     2.5120    53.4680    22.2380    17.9790    28.1340    23.0930   -13.4250 
  123.3750     2.5220    52.2040    26.4440    22.2350    30.9200    23.0920   -13.3420 
  123.5000     2.5360    50.1750    29.1990    25.5070    29.1670    23.0010   -13.3060 
  123.6250     2.5540    48.0660    30.3090    27.2640    27.8410    22.9060   -13.3000 
  123.7500     2.5640    48.8920    30.4380    27.8130    28.1370    22.8130   -13.3190 
  123.8750     2.5630    50.4770    30.6920    28.1660    29.5580    22.7460   -13.3670 
  124.0000     2.5550    49.8690    31.4240    28.7440    31.2370    22.7740   -13.4410 
  124.1250     2.5470    47.8720    32.4890    29.5590    34.4570    22.9490   -13.5440 
  124.2500     2.5370    46.9470    33.3960    30.3080    36.9670    23.2570   -13.6810 
  124.3750     2.5190    47.5220    33.7590    30.6830    35.0960    23.4900   -13.8030 
  124.5000     2.5000    48.9310    33.4400    30.5550    32.2530    23.5830   -13.8980 
  124.6250     2.4940    49.9690    32.4820    29.9170    30.3140    23.6120   -13.9710 
  124.7500     2.5050    49.0080    30.9950    28.8040    26.8410    23.6650   -14.0440 
  124.8750     2.5110    47.4180    29.2830    27.4440    25.2440    23.7220   -14.1480 
  125.0000     2.4950    47.6290    27.5310    25.9900    24.9420    23.6860   -14.2930 
  125.1250     2.4610    50.5240    25.9510    24.6190    24.1840    23.5200   -14.4410 
  125.2500     2.4320    53.4360    24.8510    23.5960    22.6050    23.3510   -14.4960 
  125.3750     2.4190    53.3360    24.2950    23.0190    21.7660    23.3270   -14.4930 
  125.5000     2.4240    50.6590    24.2490    22.9000    21.2390    23.3410   -14.4940 
  125.6250     2.4490    47.1570    24.5800    23.1650    22.0090    23.2680   -14.5260 
  125.7500     2.4890    46.9050    25.0830    23.6860    23.7570    23.1560   -14.5550 
  125.8750     2.5170    47.8860    25.5210    24.2250    23.9250    23.0370   -14.5260 
  126.0000     2.5210    47.4590    25.8240    24.6670    22.9820    22.9370   -14.4200 
  126.1250     2.5040    47.1040    26.0170    24.9830    22.0700    23.0330   -14.2700 
  126.2500     2.4840    48.8850    26.1500    25.1800    21.7620    23.2240   -14.1600 
  126.3750     2.4670    51.1910    26.2550    25.3020    21.9660    23.2480   -14.0660 
  126.5000     2.4540    49.8110    26.2860    25.3450    22.8300    23.0870   -13.9530 
  126.6250     2.4500    45.9840    26.1310    25.2410    23.3830    22.9160   -13.8240 
  126.7500     2.4670    45.0100    25.6010    24.8290    21.0670    22.7630   -13.7100 
  126.8750     2.4930    46.4080    24.7120    24.0870    19.6800    22.6470   -13.6290 
  127.0000     2.5140    49.6130    23.5560    23.0650    19.4480    22.5940   -13.5570 
  127.1250     2.5190    51.9050    22.3700    21.9470    19.5650    22.6410   -13.5010 
  127.2500     2.5180    50.9860    21.6030    21.1070    18.9760    22.7790   -13.4460 
  127.3750     2.5200    49.0190    21.5050    20.8030    18.4150    22.8940   -13.4340 
  127.5000     2.5220    47.9170    22.1260    21.1320    18.1710    22.9890   -13.4490 
  127.6250     2.5160    48.2480    23.2790    22.0160    18.8830    23.1180   -13.4460 
  127.7500     2.5080    48.0970    24.4800    23.1460    22.2950    23.2310   -13.4110 
  127.8750     2.5040    47.2370    25.0960    23.9250    24.2650    23.1870   -13.3700 
  128.0000     2.5080    46.4960    24.7610    23.9150    21.5660    23.0520   -13.3830 
  128.1250     2.5120    46.4380    23.5550    23.0630    17.2360    22.9210   -13.4460 
  128.2500     2.5130    48.2990    21.9800    21.7420    16.1240    22.8760   -13.5210 
  128.3750     2.5120    49.8040    20.6730    20.5470    16.6100    22.8860   -13.5830 
  128.5000     2.5100    49.2750    19.9230    19.7700    17.2410    22.9080   -13.6280 
  128.6250     2.5090    48.3610    19.8280    19.5450    17.5520    22.9160   -13.6600 
  128.7500     2.5020    50.1700    20.4090    19.9630    17.9930    22.9170   -13.6830 
  128.8750     2.4940    51.8600    21.3730    20.7990    18.9950    22.9200   -13.7020 
  129.0000     2.4930    49.3900    22.4860    21.8570    20.0680    22.9240   -13.7080 
  129.1250     2.4980    45.4140    23.4660    22.8810    21.9340    22.9330   -13.7020 
  129.2500     2.5000    45.9190    23.9110    23.4800    24.7430    22.9560   -13.6730 
  129.3750     2.4920    49.6000    23.7030    23.4800    23.9180    22.9830   -13.6050 
  129.5000     2.4770    53.1440    22.9110    22.8970    20.6010    22.9930   -13.5130 
  129.6250     2.4610    54.9650    21.7800    21.9340    18.6520    22.9930   -13.4340 
  129.7500     2.4510    54.8790    20.6440    20.8740    18.3990    22.9870   -13.3730 
  129.8750     2.4470    52.1110    19.7880    19.9970    17.4500    22.9660   -13.3060 
  130.0000     2.4460    49.6520    19.3780    19.4790    16.3720    22.9410   -13.2160 
  130.1250     2.4430    50.9080    19.4750    19.4100    16.2080    22.9970   -13.0920 
  130.2500     2.4380    54.0090    20.0860    19.8530    17.1280    23.2580   -13.0070 
  130.3750     2.4340    54.2770    20.9570    20.6170    19.0950    23.7100   -12.9550 
  130.5000     2.4310    52.4630    21.8400    21.5060    22.6250    24.1750   -12.9390 
  130.6250     2.4280    51.4320    22.4890    22.2750    26.6190    24.5040   -12.9520 
  130.7500     2.4240    54.3620    22.7380    22.6970    27.4750    24.4950   -12.9910 
  130.8750     2.4240    58.4510    22.7630    22.8590    23.2880    24.2090   -13.0340 
  131.0000     2.4300    59.6390    22.7310    22.8920    20.3610    23.7210   -13.0720 
  131.1250     2.4410    57.5960    22.7100    22.8720    19.7130    23.1530   -13.1290 
  131.2500     2.4430    56.1130    22.5950    22.7380    20.1740    22.7290   -13.1930 
  131.3750     2.4300    55.7340    22.2380    22.3880    20.1870    22.7660   -13.2720 
  131.5000     2.4130    53.8440    21.5740    21.7650    19.3100    23.3480   -13.3380 
  131.6250     2.4060    50.3190    20.6930    20.9320    18.0080    23.9990   -13.3730 
