~V
VERS. 2.00: Ver 2.00
~W
STRT.M 53.0000:
STOP.M 219.0000:
STEP.M 0.1250:
NULL. -999.2500:
UWI. F10171:
~C
DEPT.M :
SP.MV :
DEN.GM/CC :
GR.API :
RML.OHMM :
RI. :
RXO.OHMM :
CALI.CM :
~A
# ...
   86.7500   -22.2530     2.3140    92.8230     6.8270     4.6690     5.0430    24.6530 
   86.8750   -22.3110     2.3400    92.0390     6.7640     4.5600     5.1090    24.6180 
   87.0000   -22.6290     2.3420    88.6600     7.0610     4.6860     5.3250    24.5560 
   87.1250   -23.2020     2.3250    84.6140     7.7480     5.0770     5.7830    24.4990 
   87.2500   -23.9680     2.2950    77.9520     8.7960     5.7400     6.7780    24.4520 
   87.3750   -24.8500     2.2540    70.3160    10.1020     6.6520     8.0760    24.4320 
   87.5000   -25.8540     2.2040    66.2620    11.3590     7.6300     9.5890    24.3890 
   87.6250   -26.9180     2.1560    65.4730    12.2560     8.4570    10.2410    24.2780 
   87.7500   -27.9050     2.1240    64.0460    12.5460     8.9170    10.0580    24.0910 
   87.8750   -28.7950     2.1200    61.1600    12.1130     8.8390     9.8580    23.9490 
   88.0000   -29.6510     2.1290    59.8620    11.3240     8.4200     9.8260    23.9730 
   88.1250   -30.3830     2.1350    62.1450    10.4910     7.8590     9.7580    24.2050 
   88.2500   -30.9510     2.1280    65.1830     9.8400     7.3310     9.6190    24.4520 
   88.3750   -31.4970     2.1160    64.9350     9.5150     6.9660     9.5640    24.6250 
   88.5000   -32.0400     2.1050    63.5520     9.4400     6.7680     9.4600    24.7630 
   88.6250   -32.5150     2.0950    62.9200     9.5290     6.7140     9.3580    24.8640 
   88.7500   -32.9650     2.0840    62.4510     9.6920     6.7600     9.3590    24.9020 
   88.8750   -33.4320     2.0860    61.6920     9.8480     6.8600     9.6240    24.8390 
   89.0000   -33.8500     2.1040    62.7620     9.9520     6.9600     9.9450    24.7240 
   89.1250   -34.1990     2.1270    65.2230     9.9780     7.0260    10.2360    24.6250 
   89.2500   -34.5030     2.1420    67.3040     9.9150     7.0350    10.4900    24.5980 
   89.3750   -34.7670     2.1420    67.9450     9.7810     6.9830    10.5110    24.6780 
   89.5000   -34.9640     2.1310    68.0390     9.6530     6.9090    10.2460    24.8490 
   89.6250   -35.1060     2.1060    68.8130     9.6000     6.8580     9.7940    25.0270 
   89.7500   -35.2050     2.0720    69.5420     9.6800     6.8730     9.5650    25.1430 
   89.8750   -35.2360     2.0450    67.4610     9.9400     7.0020     9.6420    25.1360 
   90.0000   -35.2260     2.0300    64.2970    10.2990     7.2160     9.8430    25.0290 
   90.1250   -35.1940     2.0290    62.9220    10.6590     7.4620     9.8610    24.9400 
   90.2500   -35.1320     2.0560    64.0690    10.9050     7.6670     9.6400    24.9700 
   90.3750   -35.0230     2.1300    64.4090    10.9200     7.7420     9.3670    24.9850 
   90.5000   -34.9090     2.2160    63.8470    10.7410     7.6830     9.2940    24.8650 
   90.6250   -34.7950     2.2530    64.1100    10.4620     7.5310     9.4470    24.6720 
   90.7500   -34.7110     2.2240    64.8820    10.2100     7.3550     9.7190    24.5980 
   90.8750   -34.6600     2.1830    64.9200    10.1320     7.2460    10.0630    24.6580 
   91.0000   -34.5820     2.1560    63.8050    10.2440     7.2440    10.4540    24.7420 
   91.1250   -34.5320     2.1310    63.3390    10.4940     7.3440    10.7370    24.8080 
   91.2500   -34.5890     2.1070    62.7000    10.7650     7.4940    10.8980    24.8270 
   91.3750   -34.6500     2.1090    60.2800    10.8840     7.5960    10.9730    24.6760 
   91.5000   -34.7010     2.1430    58.4870    10.7820     7.5800    11.1670    24.4440 
   91.6250   -34.8220     2.1910    59.7410    10.4800     7.4320    11.1280    24.3290 
   91.7500   -34.9490     2.2220    64.5440    10.0750     7.1920    10.8610    24.3360 
   91.8750   -35.0710     2.2260    68.7190     9.7140     6.9380    10.3300    24.4630 
   92.0000   -35.2900     2.2110    67.5960     9.5050     6.7530     9.5520    24.6710 
   92.1250   -35.5560     2.1780    62.2170     9.4980     6.6900     8.9880    24.8200 
   92.2500   -35.7480     2.1310    57.8400     9.6810     6.7670     9.3090    24.8260 
   92.3750   -35.9150     2.0860    58.5800     9.9840     6.9720    10.1380    24.8270 
   92.5000   -36.0900     2.0480    60.2940    10.2650     7.2090    10.8120    24.9010 
   92.6250   -36.1880     2.0130    59.9270    10.4370     7.4070    12.1110    24.9450 
   92.7500   -36.2000     1.9870    59.4760    10.4500     7.5120    13.8010    24.8900 
   92.8750   -36.1620     1.9880    62.1430    10.2890     7.4840    13.2950    24.7740 
   93.0000   -36.0720     2.0180    66.4090    10.0570     7.3740    10.7330    24.6660 
   93.1250   -35.9220     2.0640    70.0280     9.8480     7.2400     9.7780    24.6540 
   93.2500   -35.7420     2.0990    70.0360     9.7380     7.1370     9.8910    24.7610 
   93.3750   -35.5590     2.1040    66.6500     9.7740     7.1170    10.1380    24.9070 
   93.5000   -35.3730     2.1020    63.6350     9.8980     7.1650    10.2570    24.9840 
   93.6250   -35.1870     2.1020    62.4550    10.0390     7.2470    10.2730    24.9990 
   93.7500   -35.0160     2.1040    63.1420    10.1320     7.3230    10.1060    24.9540 
   93.8750   -34.8430     2.1090    64.5760    10.1380     7.3550     9.9770    24.7890 
   94.0000   -34.6400     2.1200    66.9700    10.0910     7.3470    10.0840    24.5610 
   94.1250   -34.4100     2.1340    69.6190    10.0240     7.3150    10.3730    24.4090 
   94.2500   -34.2040     2.1460    71.1120     9.9700     7.2790    10.6070    24.3610 
   94.3750   -34.0610     2.1580    69.9450     9.9560     7.2580    10.6670    24.3610 
   94.5000   -33.8740     2.1730    66.9490     9.9780     7.2570    10.7650    24.3610 
   94.6250   -33.6880     2.1870    64.6550    10.0180     7.2730    10.8400    24.3610 
   94.7500   -33.5750     2.1920    63.8440    10.0560     7.2940    10.8490    24.3690 
   94.8750   -33.4580     2.1860    63.4320    10.0720     7.3120    10.7290    24.3870 
   95.0000   -33.3010     2.1760    63.7230    10.0710     7.3300    10.7730    24.3990 
   95.1250   -33.1980     2.1650    64.8920    10.0640     7.3530    10.8040    24.3840 
   95.2500   -33.1480     2.1510    65.1730    10.0680     7.3900    10.8140    24.3590 
   95.3750   -33.0320     2.1330    63.5790    10.1090     7.4530    10.9720    24.3330 
   95.5000   -32.9340     2.1220    62.3320    10.1910     7.5390    11.0950    24.3050 
   95.6250   -32.8780     2.1210    62.8240    10.3020     7.6410    11.0870    24.2930 
   95.7500   -32.7700     2.1290    64.2420    10.3960     7.7300    11.1300    24.2900 
   95.8750   -32.5820     2.1410    65.2500    10.3750     7.7470    11.1110    24.2850 
   96.0000   -32.3610     2.1530    66.2840    10.1870     7.6490    10.8690    24.2750 
   96.1250   -32.0800     2.1650    67.2010     9.8270     7.4240    10.2280    24.2470 
   96.2500   -31.7380     2.1740    69.2720     9.3610     7.1070     9.3530    24.1890 
   96.3750   -31.3520     2.1800    74.3350     8.9180     6.7750     8.3620    24.0780 
   96.5000   -30.9450     2.1900    79.2060     8.6090     6.5110     7.9100    23.9540 
   96.6250   -30.5510     2.2030    79.6850     8.4840     6.3620     7.9830    23.8970 
   96.7500   -30.2250     2.2110    76.5620     8.5270     6.3340     8.3130    23.9510 
   96.8750   -29.9420     2.2080    74.9490     8.6570     6.4010     8.7480    24.0990 
   97.0000   -29.6690     2.2020    75.9880     8.7550     6.4810     8.7470    24.2160 
   97.1250   -29.4140     2.1990    77.1010     8.7810     6.5350     8.5940    24.2680 
   97.2500   -29.1500     2.1990    76.7600     8.7600     6.5570     8.5290    24.2810 
   97.3750   -28.9380     2.2040    74.3110     8.7650     6.5760     8.1220    24.2920 
   97.5000   -28.8020     2.2140    70.1360     8.8280     6.6160     7.9700    24.3060 
   97.6250   -28.6390     2.2180    66.4470     8.9250     6.6750     8.4290    24.3000 
   97.7500   -28.4120     2.2130    65.8040     8.9820     6.7200     9.4310    24.2870 
   97.8750   -28.2580     2.2100    70.0420     8.9090     6.6970     9.4200    24.2520 
