~V
VERS. 2.00: Ver 2.00
~W
STRT.M 50.0000:
STOP.M 232.0000:
STEP.M 0.1250:
NULL. -999.2500:
UWI. F10160:
~C
DEPT.M :
SP.MV :
DEN.GM/CC :
GR.API :
RML.OHMM :
RI. :
RXO.OHMM :
CALI.CM :
~A
# ...
   95.0000   -33.5190     2.2160    55.6500     9.1000     7.0040     8.4470    24.5430 
   95.1250   -33.6310     2.2220    56.4690     9.0920     6.9780     8.4590    24.5610 
   95.2500   -33.7120     2.2300    58.8470     9.1350     6.9860     8.5610    24.5760 
   95.3750   -33.7630     2.2350    60.7770     9.1790     6.9970     8.7780    24.5840 
   95.5000   -33.7870     2.2390    62.2880     9.1800     6.9850     8.8940    24.5830 
   95.6250   -33.7860     2.2410    63.7060     9.1140     6.9370     8.9690    24.5940 
   95.7500   -33.7620     2.2430    65.0610     9.0250     6.8790     8.9550    24.6470 
   95.8750   -33.7180     2.2410    65.7480     8.9630     6.8370     8.7000    24.7320 
   96.0000   -33.6540     2.2320    64.2450     8.9690     6.8320     8.3850    24.8080 
   96.1250   -33.5620     2.2160    61.2600     9.0550     6.8760     8.6080    24.8450 
   96.2500   -33.4610     2.1980    60.2090     9.1690     6.9420     9.3150    24.8640 
   96.3750   -33.3750     2.1860    60.9790     9.2600     7.0030     9.8040    24.8810 
   96.5000   -33.3230     2.1800    61.2870     9.2890     7.0350     9.6080    24.8890 
   96.6250   -33.3140     2.1820    61.2170     9.2410     7.0240     9.1320    24.8880 
   96.7500   -33.3430     2.1870    62.1970     9.1520     6.9900     8.9400    24.8880 
   96.8750   -33.3870     2.1930    63.7710     9.0560     6.9480     8.8860    24.8870 
   97.0000   -33.4360     2.1970    63.6010     8.9790     6.9140     8.7760    24.8860 
   97.1250   -33.4830     2.1970    61.3820     8.9390     6.8980     8.7210    24.8870 
   97.2500   -33.5150     2.1930    59.9030     8.9350     6.8970     8.6400    24.8900 
   97.3750   -33.5220     2.1850    58.8860     8.9610     6.9110     8.4110    24.8870 
   97.5000   -33.5040     2.1780    56.4840     9.0050     6.9380     8.2620    24.8620 
   97.6250   -33.4680     2.1760    53.5640     9.0400     6.9700     8.5170    24.8090 
   97.7500   -33.4260     2.1820    54.4000     9.0430     6.9890     8.9700    24.7570 
   97.8750   -33.3910     2.1930    58.9150     8.9940     6.9810     9.1360    24.7320 
   98.0000   -33.3690     2.2060    62.9920     8.8830     6.9330     8.8690    24.7300 
   98.1250   -33.3620     2.2170    64.8630     8.7090     6.8350     8.6540    24.7340 
   98.2500   -33.3460     2.2260    65.4840     8.5150     6.7120     8.8760    24.7370 
   98.3750   -33.3010     2.2340    66.1040     8.3520     6.5980     9.2160    24.7370 
   98.5000   -33.2140     2.2390    66.8020     8.2720     6.5320     9.1540    24.7310 
   98.6250   -33.0720     2.2360    66.6370     8.3390     6.5500     8.7370    24.7290 
   98.7500   -32.8870     2.2250    65.2280     8.5240     6.6380     8.5130    24.7320 
   98.8750   -32.6500     2.2080    64.0150     8.7480     6.7490     8.7970    24.7370 
   99.0000   -32.3740     2.1930    64.6420     8.8670     6.8000     9.3170    24.7350 
   99.1250   -32.0700     2.1920    65.5030     8.6670     6.6660     9.3490    24.7410 
   99.2500   -31.7660     2.2050    65.0050     8.1710     6.3510     9.0960    24.8280 
   99.3750   -31.4770     2.2240    66.2800     7.5450     5.9430     8.5870    25.0350 
   99.5000   -31.2330     2.2410    71.2680     7.0380     5.5810     7.6470    25.2870 
   99.6250   -31.0750     2.2470    76.6320     6.9170     5.4270     7.3240    25.3830 
   99.7500   -31.0360     2.2450    77.2740     7.1840     5.5080     7.5430    25.2360 
   99.8750   -31.1250     2.2400    72.8130     7.7510     5.8000     8.5200    24.9190 
  100.0000   -31.3260     2.2320    66.9160     8.4300     6.2190     9.0440    24.6050 
  100.1250   -31.6240     2.2220    64.3060     8.9530     6.6250     8.9200    24.4590 
  100.2500   -31.9390     2.2110    64.1370     9.1880     6.9030     8.8300    24.4360 
  100.3750   -32.2060     2.2030    63.9820     9.1660     7.0210     8.8310    24.4440 
  100.5000   -32.3630     2.2020    61.9540     9.0290     7.0290     8.7920    24.4430 
  100.6250   -32.3640     2.2090    58.8090     8.9400     7.0090     8.8350    24.4430 
  100.7500   -32.2390     2.2160    56.3060     8.9390     7.0120     8.9210    24.4430 
  100.8750   -32.0090     2.2210    57.1010     8.9800     7.0220     8.8920    24.4460 
  101.0000   -31.7030     2.2210    63.1050     9.0040     7.0020     8.8390    24.4580 
  101.1250   -31.3570     2.2130    68.5390     8.9350     6.8960     8.7130    24.4760 
  101.2500   -30.9980     2.1990    68.1300     8.7350     6.6920     8.5740    24.4910 
  101.3750   -30.6410     2.1830    65.5720     8.3850     6.3920     8.5730    24.4950 
  101.5000   -30.2960     2.1730    65.1890     7.9260     6.0350     8.4980    24.4940 
  101.6250   -29.9740     2.1750    68.6900     7.4770     5.7040     8.2660    24.4940 
  101.7500   -29.6980     2.1910    72.1230     7.1800     5.4800     7.8380    24.4960 
  101.8750   -29.4940     2.2140    73.9430     7.1310     5.4210     7.5820    24.4980 
  102.0000   -29.3620     2.2340    73.3390     7.3620     5.5540     7.8130    24.4980 
  102.1250   -29.2960     2.2400    70.5110     7.8550     5.8820     9.0450    24.4960 
  102.2500   -29.2660     2.2340    68.7810     8.4410     6.3040     9.5160    24.4930 
  102.3750   -29.2290     2.2220    67.2540     8.9690     6.7250     9.2880    24.4920 
  102.5000   -29.1290     2.2110    64.6870     9.2980     7.0450     8.9560    24.4880 
  102.6250   -28.8910     2.2090    62.1220     9.2820     7.1480     9.0320    24.4880 
  102.7500   -28.5290     2.2200    60.8450     8.9740     7.0370     9.1980    24.5500 
  102.8750   -28.0650     2.2390    60.3080     8.4710     6.7570     8.9930    24.7630 
  103.0000   -27.5490     2.2600    61.3960     7.9130     6.3950     7.9870    25.1570 
  103.1250   -27.0270     2.2760    65.6940     7.4720     6.0610     6.5880    25.5900 
  103.2500   -26.5430     2.2890    70.7280     7.2280     5.8310     6.2720    25.8770 
  103.3750   -26.1440     2.3050    74.2740     7.1850     5.7250     6.6590    26.0050 
  103.5000   -25.8390     2.3240    76.5310     7.2730     5.7190     7.6610    26.0590 
  103.6250   -25.6510     2.3380    78.3190     7.3570     5.7410     8.4830    26.0890 
  103.7500   -25.5490     2.3400    78.7050     7.3200     5.7110     7.9440    26.0970 
  103.8750   -25.5300     2.3320    78.7510     7.1390     5.5950     7.0840    26.0910 
  104.0000   -25.5940     2.3220    81.9580     6.8700     5.4110     6.5170    26.0870 
  104.1250   -25.7780     2.3180    86.5310     6.6250     5.2220     6.3360    26.0870 
  104.2500   -26.0770     2.3210    87.8990     6.4810     5.0920     6.2020    26.0740 
  104.3750   -26.5000     2.3290    86.4590     6.4660     5.0530     6.3200    26.0200 
  104.5000   -27.0450     2.3310    85.1660     6.5830     5.1110     6.3780    25.9030 
  104.6250   -27.7130     2.3230    82.7630     6.8470     5.2740     6.6170    25.7540 
  104.7500   -28.4420     2.3060    76.7650     7.2130     5.5140     6.9620    25.5920 
  104.8750   -29.2010     2.2880    71.1870     7.6270     5.8030     7.0680    25.3870 
  105.0000   -29.9590     2.2730    69.1760     8.0110     6.0950     7.6100    25.1590 
  105.1250   -30.6540     2.2640    68.9080     8.2680     6.3270     7.8660    25.0240 
  105.2500   -31.2610     2.2530    68.8970     8.3950     6.4770     7.9410    25.0610 
  105.3750   -31.7590     2.2360    69.6880     8.4390     6.5610     7.7940    25.2390 
  105.5000   -32.1460     2.2210    70.6340     8.4790     6.6210     7.3590    25.4100 
  105.6250   -32.4090     2.2170    68.9320     8.6010     6.7110     7.3630    25.3660 
  105.7500   -32.5570     2.2230    66.6460     8.8170     6.8520     7.4600    25.1530 
  105.8750   -32.5930     2.2320    64.8540     9.1010     7.0340     7.6100    24.9530 
  106.0000   -32.5480     2.2400    62.1320     9.3840     7.2220     7.8010    24.8780 
  106.1250   -32.4440     2.2460    59.4030     9.5590     7.3440     8.1530    24.8890 
