~V
VERS. 2.00: Ver 2.00
~W
STRT.M 54.0000:
STOP.M 236.0000:
STEP.M 0.1250:
NULL. -999.2500:
UWI. F10195:
~C
DEPT.M :
GR.API :
RML.OHMM :
RI. :
RXO.OHMM :
CALI.CM :
SP.MV :
DEN.GM/CC :
~A
# ...
  177.7500    62.4140    94.4490    91.7490    47.2980    24.5720   -32.4390     2.2430 
  177.8750    65.6620   102.3850    98.8690    56.4280    24.4960   -32.4480     2.2450 
  178.0000    65.6600   111.8200   107.6350    79.2880    24.5120   -32.4340     2.2460 
  178.1250    60.9360   121.1000   116.4140   103.9780    24.6060   -32.3930     2.2450 
  178.2500    58.1270   127.9050   122.8280   112.5240    24.7230   -32.2680     2.2430 
  178.3750    59.7330   131.7650   126.2090    95.8900    24.8050   -32.0390     2.2400 
  178.5000    61.6260   133.4380   127.1110    87.4030    24.7490   -31.7600     2.2350 
  178.6250    61.2870   134.3780   126.8550    93.4840    24.5780   -31.5140     2.2280 
  178.7500    59.6150   135.7390   126.6680   101.9110    24.4930   -31.3110     2.2210 
  178.8750    57.8580   137.2030   126.6610   111.0770    24.4790   -31.0560     2.2160 
  179.0000    56.3260   137.7130   126.1080   114.0130    24.4900   -30.7140     2.2150 
  179.1250    55.1040   136.4030   124.2840   112.6070    24.5060   -30.3670     2.2190 
  179.2500    54.7700   133.0570   120.9440   109.4210    24.5330   -30.1160     2.2220 
  179.3750    57.1030   128.9490   117.0470   112.4480    24.5530   -29.8970     2.2250 
  179.5000    62.7260   125.2070   113.5140   103.8760    24.5470   -29.6360     2.2300 
  179.6250    67.7050   122.7350   111.1340    93.5070    24.5170   -29.3050     2.2350 
  179.7500    66.7180   122.0830   110.4430    92.0570    24.5090   -28.9510     2.2360 
  179.8750    62.1970   122.4880   110.7810    93.6500    24.5150   -28.6850     2.2350 
  180.0000    59.4540   123.0570   111.3780   100.3870    24.5180   -28.5160     2.2360 
  180.1250    61.2620   122.8390   111.4110   106.4390    24.5000   -28.3650     2.2390 
  180.2500    63.7960   121.0420   110.1350   100.0160    24.4600   -28.1570     2.2460 
  180.3750    63.4490   118.1530   107.8110    87.2390    24.4470   -27.9620     2.2540 
  180.5000    62.8420   114.8410   104.9450    81.2650    24.4660   -27.8400     2.2600 
  180.6250    64.5890   111.6740   102.0950    82.7050    24.5190   -27.7910     2.2640 
  180.7500    67.0350   108.9600    99.7410    86.8890    24.5610   -27.7560     2.2660 
  180.8750    67.4210   106.4910    97.8790    88.4970    24.5870   -27.6350     2.2670 
  181.0000    66.5590   103.9310    96.2640    88.5100    24.5680   -27.4640     2.2670 
  181.1250    64.5870   100.9100    94.4860    87.8650    24.5370   -27.3450     2.2650 
  181.2500    61.3060    97.1150    92.0530    89.9700    24.5160   -27.2540     2.2620 
  181.3750    59.5110    92.9900    89.1320    92.2150    24.5140   -27.1160     2.2640 
  181.5000    60.7180    89.3360    86.3350    93.3900    24.5130   -26.9430     2.2700 
  181.6250    62.6780    87.0670    84.5010    93.2570    24.5060   -26.7780     2.2800 
  181.7500    63.5490    86.8430    84.3800    89.9800    24.4900   -26.6680     2.2900 
  181.8750    64.0550    87.4410    85.1340    88.3490    24.4780   -26.5790     2.2950 
  182.0000    63.8180    86.8000    84.9690    90.8230    24.3720   -26.4770     2.2920 
  182.1250    63.1380    82.4450    81.3320    97.8180    23.9880   -26.3440     2.2820 
  182.2500    64.2360    72.7330    72.1950    83.8600    23.2370   -26.2620     2.2750 
  182.3750    68.6090    60.8670    60.7270    56.2080    22.5760   -26.2710     2.2790 
  182.5000    73.8720    50.2670    50.4120    33.5170    22.2190   -26.3350     2.2930 
  182.6250    76.6960    43.4040    43.4920    25.2160    22.0730   -26.4120     2.3080 
  182.7500    76.1750    42.1780    41.3790    26.0340    21.9980   -26.4950     2.3090 
  182.8750    74.1030    45.8090    43.4470    36.1710    21.9550   -26.6310     2.2960 
  183.0000    71.3150    53.7280    49.6520    53.5490    21.9730   -26.8360     2.2750 
  183.1250    70.2480    64.6940    59.5260    72.9350    22.0240   -27.1200     2.2590 
  183.2500    71.2000    75.9420    71.0610    86.6920    22.0450   -27.4600     2.2520 
  183.3750    71.0260    83.5150    79.7900    93.7850    22.0250   -27.7730     2.2510 
  183.5000    69.9650    85.1700    82.6690    92.4760    21.9880   -28.0440     2.2530 
  183.6250    69.1260    81.8300    80.0310    83.4900    22.0140   -28.3100     2.2580 
  183.7500    68.6990    77.0900    75.1750    71.4840    22.0750   -28.6290     2.2650 
  183.8750    66.1600    74.5030    71.8090    63.2940    22.1050   -28.9690     2.2710 
  184.0000    63.6170    75.4600    71.4140    63.4040    22.1050   -29.2820     2.2730 
  184.1250    63.5990    80.2270    74.4110    78.5380    22.1210   -29.5610     2.2710 
  184.2500    66.1400    88.5030    80.7460    98.1620    22.1900   -29.8400     2.2670 
  184.3750    69.1420    98.0240    88.5280   108.3220    22.2870   -30.1560     2.2670 
  184.5000    72.3010   106.7620    95.9980   107.7990    22.2780   -30.4990     2.2680 
  184.6250    73.6730   113.0150   101.5670   104.3010    22.1820   -30.7940     2.2680 
  184.7500    70.9470   115.8370   104.1860   102.7050    22.1400   -31.0070     2.2650 
  184.8750    68.2220   116.6950   104.9250   107.1090    22.1460   -31.2460     2.2610 
  185.0000    68.5400   116.6550   104.7030   107.0980    22.1570   -31.5340     2.2550 
  185.1250    69.3170   116.2230   104.0440   103.1940    22.1540   -31.7770     2.2490 
  185.2500    66.8900   115.3910   102.9970   100.9290    22.1420   -31.9170     2.2440 
  185.3750    65.0510   114.2970   101.6830   100.8710    22.1410   -32.0420     2.2400 
  185.5000    66.4210   113.2810   100.3960   101.3600    22.1510   -32.1950     2.2350 
  185.6250    65.9940   112.8860    99.6320   102.8260    22.1610   -32.3930     2.2320 
  185.7500    62.5480   113.9760   100.1770   102.5670    22.1920   -32.5560     2.2320 
  185.8750    63.3660   116.7690   102.2270   100.7700    22.2100   -32.6520     2.2320 
  186.0000    68.5330   121.3000   105.8310   103.3600    22.2150   -32.7160     2.2310 
  186.1250    71.1550   127.1990   110.7140   110.8550    22.2120   -32.8390     2.2320 
  186.2500    69.2190   133.5670   116.1690   119.7410    22.2090   -33.0640     2.2360 
  186.3750    67.8160   139.0670   121.0040   124.0920    22.2130   -33.2990     2.2380 
  186.5000    67.5530   142.7540   124.3270   122.3520    22.2410   -33.4980     2.2350 
  186.6250    65.7500   144.2360   125.7200   120.6450    22.2860   -33.6500     2.2270 
  186.7500    63.5930   143.5690   125.1710   116.9240    22.3470   -33.8320     2.2110 
  186.8750    62.7350   141.8920   123.6590   112.4600    22.3740   -34.0780     2.1890 
  187.0000    62.6780   139.9790   121.8320   108.1640    22.3950   -34.3230     2.1670 
  187.1250    62.8740   138.4610   120.2110   104.0000    22.6450   -34.4930     2.1500 
  187.2500    62.2200   138.0250   119.3770   104.3440    23.4540   -34.5570     2.1380 
  187.3750    61.0840   138.8050   119.5600   106.2280    24.3720   -34.6020     2.1260 
  187.5000    61.0790   140.8150   120.8520   108.0100    24.7590   -34.6300     2.1220 
  187.6250    61.9500   143.9580   123.1900   113.0860    24.7050   -34.6090     2.1320 
  187.7500    61.1970   148.2970   126.6090   124.0550    24.6020   -34.5190     2.1530 
  187.8750    59.8410   153.5900   130.8890   127.6000    24.6260   -34.3670     2.1720 
  188.0000    59.9120   159.8020   136.0200   128.6020    24.7190   -34.2070     2.1820 
  188.1250    61.5260   166.8350   141.9220   130.7920    24.7370   -34.0230     2.1880 
  188.2500    63.1520   174.2740   148.2330   134.0410    24.6330   -33.7600     2.1980 
  188.3750    63.3780   181.1030   154.0830   141.2260    24.6180   -33.3970     2.2100 
  188.5000    63.7290   186.2580   158.6150   148.6380    24.6820   -32.9880     2.2160 
  188.6250    65.2610   188.8640   161.1500   152.9800    24.7860   -32.6190     2.2180 
  188.7500    65.3900   188.3030   161.1340   152.4890    24.9460   -32.3140     2.2260 
  188.8750    61.9070   185.8980   159.4950   147.7860    25.0120   -31.9900     2.2410 
