~V
VERS. 2.00: Ver 2.00
~W
STRT.M 50.0000:
STOP.M 268.0000:
STEP.M 0.1250:
NULL. -999.2500:
UWI. F10199:
~C
DEPT.M :
GR.API :
RML.OHMM :
RI. :
RXO.OHMM :
CALI.CM :
DEN.GM/CC :
SP.MV :
~A
# ...
  207.5000    55.3510   111.0040   100.3460    71.4170    23.2290     2.2460   -25.0430 
  207.6250    56.7330   108.6960    98.5250    65.5950    23.1440     2.2710   -25.0030 
  207.7500    60.2770   107.1320    97.3560    59.1530    23.0860     2.2740   -24.9600 
  207.8750    61.8470   106.2630    96.7770    57.6860    23.0700     2.2590   -24.9270 
  208.0000    60.9950   106.1650    96.8280    61.0400    23.0890     2.2370   -24.8900 
  208.1250    61.3840   107.1960    97.7930    66.8000    23.1530     2.2210   -24.8920 
  208.2500    61.2660   109.3980    99.7250    72.2850    23.2840     2.2110   -24.9330 
  208.3750    58.4210   112.8080   102.7000    77.7580    23.4650     2.2040   -24.9650 
  208.5000    54.4420   117.2100   106.5890    83.0970    23.6770     2.1940   -24.9570 
  208.6250    52.4100   122.0760   110.9990    86.9980    23.9080     2.1810   -24.9740 
  208.7500    51.6250   126.5730   115.1890    89.3230    24.1040     2.1660   -25.0060 
  208.8750    51.9480   130.1870   118.6500    90.5950    24.2230     2.1530   -25.0150 
  209.0000    53.7450   132.8460   121.2260    90.3830    24.2660     2.1470   -25.0730 
  209.1250    55.2160   134.9920   123.1970    87.2610    24.2410     2.1540   -25.0950 
  209.2500    55.5630   137.3380   125.2200    82.5260    24.1820     2.1700   -25.1220 
  209.3750    56.1430   139.9900   127.4850    77.3620    24.1180     2.1870   -25.1680 
  209.5000    56.6670   142.4250   129.6520    74.0540    24.0570     2.1970   -25.2200 
  209.6250    55.6070   143.3900   130.7090    72.5200    23.9920     2.1970   -25.2210 
  209.7500    53.0490   142.3950   130.1400    69.8510    23.9350     2.1940   -25.1620 
  209.8750    51.2850   139.7620   128.0960    67.7660    23.8880     2.1950   -25.0930 
  210.0000    52.4200   136.7020   125.5200    68.3090    23.8430     2.2030   -25.0370 
  210.1250    53.1160   135.1200   124.0930    71.7870    23.8060     2.2110   -24.9560 
  210.2500    51.2130   135.7190   124.6700    74.7640    23.7610     2.2140   -24.8290 
  210.3750    48.9860   138.1610   127.1680    76.7240    23.7040     2.2100   -24.7120 
  210.5000    49.0110   141.3550   130.7220    78.0160    23.6430     2.2060   -24.5600 
  210.6250    50.0950   143.7540   133.9420    79.6430    23.5760     2.2050   -24.3960 
  210.7500    50.5890   144.4910   135.8180    81.4800    23.5130     2.2080   -24.2520 
  210.8750    52.2900   143.2470   135.8810    80.9340    23.4650     2.2110   -24.1040 
  211.0000    54.2290   139.9620   133.9360    75.9950    23.4170     2.2100   -23.9200 
  211.1250    53.8280   134.1770   129.4530    69.1070    23.3720     2.2040   -23.7820 
  211.2500    52.7570   126.2060   122.7050    64.0850    23.3460     2.1980   -23.6390 
  211.3750    53.6140   116.5030   114.0350    61.5250    23.3330     2.1950   -23.4770 
  211.5000    55.4830   106.2520   104.4660    60.3810    23.3340     2.1980   -23.2970 
  211.6250    53.3710    97.6390    95.9720    60.9230    23.3560     2.2070   -23.1490 
  211.7500    50.4880    92.1670    90.1560    62.3510    23.3750     2.2190   -23.0620 
  211.8750    52.3410    90.5080    87.8490    64.1560    23.3890     2.2320   -22.9930 
  212.0000    59.2970    92.3750    88.9810    66.3980    23.4000     2.2410   -22.9310 
  212.1250    63.4210    96.8500    92.8780    69.9830    23.3970     2.2430   -22.8190 
  212.2500    60.5460   101.8290    97.5450    73.1730    23.3930     2.2380   -22.7050 
  212.3750    54.5980   105.9330   101.6040    75.0680    23.3990     2.2300   -22.6590 
  212.5000    50.2160   108.3540   104.1420    75.0210    23.4040     2.2220   -22.6560 
  212.6250    49.0750   108.9790   104.8480    71.0210    23.4110     2.2170   -22.6150 
  212.7500    49.4850   109.0500   104.8080    69.3120    23.4350     2.2170   -22.5710 
  212.8750    51.5450   109.5280   104.9480    71.8210    23.4680     2.2190   -22.5490 
  213.0000    55.6550   110.8980   105.8330    75.0130    23.5100     2.2230   -22.4850 
  213.1250    59.9300   113.0040   107.4690    79.0560    23.5830     2.2250   -22.4120 
  213.2500    62.2700   114.8900   109.0420    85.1470    23.6560     2.2220   -22.4150 
  213.3750    62.0070   115.7290   109.7860    91.7570    23.7150     2.2150   -22.3950 
  213.5000    58.7720   115.0200   109.1960    96.4490    23.7610     2.2070   -22.4000 
  213.6250    55.7890   112.6610   107.1090    96.0300    23.7800     2.2010   -22.4030 
  213.7500    56.1510   109.6860   104.4100    90.4430    23.7960     2.2000   -22.3420 
  213.8750    58.4300   107.1090   102.0100    82.7280    23.8040     2.2060   -22.2670 
  214.0000    58.5760   105.8380   100.7710    77.4230    23.7950     2.2150   -22.2660 
  214.1250    55.4730   106.5490   101.4330    77.8050    23.7820     2.2250   -22.3200 
  214.2500    53.9110   108.4600   103.3900    78.5320    23.7620     2.2300   -22.3390 
  214.3750    55.1780   110.4480   105.6740    78.8520    23.7240     2.2290   -22.3250 
  214.5000    57.3530   111.1470   106.9900    77.7250    23.6830     2.2240   -22.3020 
  214.6250    58.2490   108.9920   105.7340    74.2770    23.6360     2.2210   -22.3680 
  214.7500    57.9030   104.2580   101.9170    68.3810    23.5850     2.2250   -22.4400 
  214.8750    59.4830    97.8540    96.2130    62.7960    23.5550     2.2340   -22.4880 
  215.0000    63.8100    91.2330    89.9210    59.0130    23.5560     2.2420   -22.5280 
  215.1250    66.6040    86.1660    84.7540    57.6810    23.5860     2.2430   -22.6180 
  215.2500    65.4170    83.3410    81.5800    58.3530    23.6470     2.2360   -22.7320 
  215.3750    61.7130    83.0030    80.7470    60.7320    23.7240     2.2240   -22.8520 
  215.5000    59.4390    85.1720    82.3290    64.1200    23.7960     2.2150   -22.9550 
  215.6250    58.2250    90.2430    86.7340    67.5150    23.8660     2.2110   -23.0530 
  215.7500    56.2030    97.6990    93.4840    71.0670    23.9160     2.2110   -23.1960 
  215.8750    55.2350   107.1370   102.2340    74.2800    23.9310     2.2080   -23.4040 
  216.0000    54.8720   117.6120   112.1400    77.1560    23.9260     2.1980   -23.6020 
  216.1250    54.2260   127.1540   121.4030    80.1650    23.8940     2.1810   -23.7300 
  216.2500    53.8470   133.7760   128.0370    81.7950    23.8440     2.1630   -23.8980 
  216.3750    55.2870   136.2000   130.6790    81.3840    23.7880     2.1510   -24.0800 
  216.5000    57.7370   134.4360   129.1180    79.2450    23.7240     2.1500   -24.2370 
  216.6250    57.3410   129.8890   124.3700    75.2880    23.6570     2.1620   -24.3610 
  216.7500    56.0790   125.5520   119.2860    69.9020    23.6030     2.1780   -24.5300 
  216.8750    56.0870   123.2540   115.7310    65.6720    23.5550     2.1950   -24.6440 
  217.0000    58.2670   123.9490   114.8050    63.4400    23.5210     2.2090   -24.7190 
  217.1250    60.3810   128.3620   117.3590    64.0580    23.5070     2.2200   -24.8290 
  217.2500    59.0930   135.6520   122.6940    67.7010    23.4880     2.2290   -24.8440 
  217.3750    56.0630   145.3020   130.3740    72.9110    23.4640     2.2330   -24.8640 
  217.5000    54.2330   156.6350   139.8070    77.0220    23.4340     2.2330   -24.9210 
  217.6250    54.3540   168.8810   150.3600    78.8410    23.3720     2.2260   -24.9450 
  217.7500    54.4340   180.9770   161.0580    80.8840    23.3190     2.2180   -24.8900 
  217.8750    54.5040   192.0390   171.1550    85.8900    23.3090     2.2090   -24.7940 
  218.0000    53.7010   200.9190   179.6970    92.8280    23.3140     2.1990   -24.7010 
  218.1250    51.6820   204.9980   184.5180    99.3080    23.3240     2.1860   -24.5640 
  218.2500    51.1900   202.7150   184.1020   102.7870    23.3450     2.1670   -24.3710 
  218.3750    52.0600   192.9010   177.1360   100.0860    23.3650     2.1440   -24.1100 
  218.5000    53.0070   176.3470   163.8050    88.4700    23.3760     2.1230   -23.7980 
  218.6250    55.5050   156.4320   146.3050    73.8880    23.3770     2.1080   -23.4790 
