~V
VERS. 2.00: Ver 2.00
~W
STRT.M 49.0000:
STOP.M 223.0000:
STEP.M 0.1250:
NULL. -999.2500:
UWI. F10156:
~C
DEPT.M :
SP.MV :
GR.API :
RML.OHMM :
RI. :
RXO.OHMM :
CALI.CM :
DEN.GM/CC :
~A
# ...
  206.5000   -13.3610    92.2870     6.7750     6.1590     8.8180    24.4470     2.4440 
  206.6250   -13.2570    94.1960     6.9240     6.2950     8.7490    24.4910     2.4450 
  206.7500   -13.1700    93.7490     7.0190     6.3810     8.9100    24.4880     2.4410 
  206.8750   -13.1040    93.0930     7.0760     6.4320     9.2290    24.4650     2.4370 
  207.0000   -13.0250    92.8630     7.1280     6.4800     9.4690    24.4420     2.4340 
  207.1250   -12.9330    93.0790     7.2350     6.5770     9.6210    24.4270     2.4360 
  207.2500   -12.8270    92.4450     7.4970     6.8150     9.6870    24.3860     2.4440 
  207.3750   -12.6800    92.9070     7.9350     7.2140     9.9990    24.3280     2.4580 
  207.5000   -12.5290    95.3740     8.5160     7.7420    10.8270    24.2450     2.4790 
  207.6250   -12.3840    96.0010     9.1260     8.2960    12.2190    24.1720     2.5050 
  207.7500   -12.2220    89.2790     9.5330     8.6660    14.0890    24.1480     2.5310 
  207.8750   -12.0450    81.4280     9.6060     8.7330    13.3420    24.1730     2.5420 
  208.0000   -11.8730    79.6550     9.3590     8.5080    10.9060    24.2080     2.5370 
  208.1250   -11.7310    82.5620     8.9360     8.1240     9.5470    24.2280     2.5250 
  208.2500   -11.6090    85.7310     8.5230     7.7490     9.6670    24.2340     2.5170 
  208.3750   -11.5260    89.1800     8.2260     7.4780     8.8850    24.2230     2.5070 
  208.5000   -11.4620    90.4640     8.0600     7.3270     8.2350    24.2130     2.4890 
  208.6250   -11.3950    85.7280     7.9920     7.2650     8.2450    24.2240     2.4620 
  208.7500   -11.3220    75.6390     7.9690     7.2440     8.3460    24.2400     2.4380 
  208.8750   -11.2760    67.8400     7.9530     7.2300     8.1060    24.2690     2.4240 
  209.0000   -11.2620    64.3490     7.9490     7.2260     7.7700    24.3400     2.4190 
  209.1250   -11.2430    64.0730     7.9670     7.2420     7.5260    24.4740     2.4230 
  209.2500   -11.2120    66.8300     8.0040     7.2760     7.4870    24.5130     2.4320 
  209.3750   -11.1820    68.7100     8.0320     7.3020     7.8540    24.4840     2.4390 
  209.5000   -11.1830    67.6030     8.0210     7.2920     8.4630    24.4200     2.4400 
  209.6250   -11.1910    64.3200     7.9490     7.2260     8.8790    24.4050     2.4360 
  209.7500   -11.1760    62.9210     7.7970     7.0880     8.5560    24.4120     2.4290 
  209.8750   -11.1210    63.7900     7.5970     6.9070     7.9460    24.4040     2.4240 
  210.0000   -11.0580    66.0290     7.3880     6.7160     7.5240    24.3690     2.4200 
  210.1250   -11.0320    68.0090     7.2060     6.5510     7.7750    24.3400     2.4170 
  210.2500   -11.0060    67.7140     7.0870     6.4430     8.0830    24.3010     2.4160 
  210.3750   -10.9500    65.2720     7.0210     6.3820     7.8840    24.2890     2.4160 
  210.5000   -10.8930    63.1230     6.9920     6.3560     7.2630    24.2740     2.4180 
  210.6250   -10.8220    63.0580     6.9820     6.3470     6.6950    24.2610     2.4190 
  210.7500   -10.7730    63.4400     6.9840     6.3490     6.4540    24.2420     2.4160 
  210.8750   -10.7540    62.1310     7.0010     6.3640     6.7200    24.2130     2.4090 
  211.0000   -10.7090    61.0560     7.0400     6.4000     6.9750    24.2040     2.4000 
  211.1250   -10.6260    61.1090     7.1030     6.4570     7.1300    24.1700     2.3900 
  211.2500   -10.5480    62.3430     7.1750     6.5220     7.4780    23.9910     2.3860 
  211.3750   -10.4800    64.5760     7.2340     6.5770     8.2930    23.6090     2.3910 
  211.5000   -10.3990    66.5000     7.2800     6.6180     9.5180    23.3960     2.4020 
  211.6250   -10.3300    64.9200     7.3280     6.6620    10.4720    23.3980     2.4100 
  211.7500   -10.2520    61.5270     7.4000     6.7270    10.9710    23.6190     2.4100 
  211.8750   -10.1750    62.2260     7.4920     6.8110     8.8860    23.9370     2.3950 
  212.0000   -10.0830    65.7420     7.5850     6.8960     7.9410    24.1230     2.3840 
  212.1250    -9.9980    66.8170     7.6460     6.9510     8.2340    24.1070     2.3760 
  212.2500    -9.9260    65.0610     7.6410     6.9470     8.8570    24.0590     2.3720 
  212.3750    -9.8630    63.4770     7.5870     6.8970     8.5550    24.0640     2.3740 
  212.5000    -9.7980    63.0150     7.5180     6.8340     7.6660    24.0760     2.3770 
  212.6250    -9.7080    63.0150     7.4660     6.7870     7.0930    24.0560     2.3750 
  212.7500    -9.6180    63.0150     7.4530     6.7760     7.1340    23.9870     2.3650 
  212.8750    -9.5340    63.0150     7.4620     6.7830     7.5370    23.9110     2.3530 
  213.0000    -9.4730    63.0150     7.4560     6.7790     7.6540    23.8360     2.3450 
  213.1250    -9.4450    63.0150     7.4010     6.7280     7.4300    23.7820     2.3400 
  213.2500    -9.4090    63.0150     7.2690     6.6080     6.8130    23.7000     2.3360 
  213.3750    -9.3380    63.0150     7.0950     6.4500     6.3300    23.5980     2.3280 
  213.5000    -9.2510    63.0150     6.9170     6.2880     5.9020    23.5700     2.3170 
  213.6250    -9.1890    63.0150     6.7690     6.1540     5.4090    23.5980     2.3110 
  213.7500    -9.1260    63.0150     6.6830     6.0750     5.1480    23.5750     2.3160 
  213.8750    -9.0640    63.0150     6.6510     6.0470     5.2870    23.5020     2.3310 
  214.0000    -9.0350    63.0150     6.6710     6.0650     5.3960    23.3990     2.3430 
  214.1250    -8.9720    63.0150     6.7500     6.1370     5.2660    23.3310     2.3460 
  214.2500    -8.9190    63.0150     6.9280     6.2980     5.3720    23.3870     2.3470 
  214.3750    -8.8870    63.0150     7.2110     6.5550     5.6570    23.5660     2.3640 
  214.5000    -8.8520    63.0150     7.5980     6.9070     6.0100    23.7720     2.4140 
  214.6250    -8.7980    63.0150     8.0640     7.3310     6.5340    23.8800     2.4810 
  214.7500    -8.7540    63.0150     8.5530     7.7760     7.1170    23.9340     2.5410 
  214.8750    -8.6970    63.0150     9.0010     8.1830     8.1800    23.9890     2.5750 
  215.0000    -8.6230    63.0150     9.3710     8.5190     9.2220    24.0210     2.5800 
  215.1250    -8.5510    63.0150     9.6530     8.7750     9.9090    24.0190     2.5680 
  215.2500    -8.4840    63.0150     9.8470     8.9520    10.1850    23.9170     2.5480 
  215.3750    -8.4530    63.0150     9.9940     9.0860    10.6040    23.6790     2.5310 
  215.5000    -8.4200    63.0150    10.1210     9.2010    11.0820    23.4630     2.5280 
  215.6250    -8.4080    63.0150    10.2460     9.3150    11.2100    23.4530     2.5340 
  215.7500    -8.3910    63.0150    10.3820     9.4380    10.2250    23.5060     2.5400 
  215.8750    -8.3920    63.0150    10.5120     9.5560     9.7150    23.4780     2.5420 
  216.0000    -8.3740    63.0150    10.5980     9.6340    10.4130    23.4450     2.5410 
  216.1250    -8.3980    63.0150    10.6000     9.6370    12.7660    23.5290     2.5380 
  216.2500    -8.4370    63.0150    10.4990     9.5450    15.2320    23.5700     2.5350 
  216.3750    -8.4410    63.0150    10.3500     9.4090    17.3240    23.5750     2.5300 
  216.5000    -8.4700    63.0150    10.2060     9.2780    18.5430    23.5980     2.5100 
  216.6250    -8.4840    63.0150    10.1060     9.1870    17.0130    23.7570     2.4770 
  216.7500    -8.4880    63.0150    10.0660     9.1510    14.7760    23.7790     2.4410 
  216.8750    -8.5140    63.0150    10.0560     9.1420    12.7490    23.4560     2.4200 
  217.0000    -8.5270    63.0150    10.0570     9.1430    11.0410    22.8670     2.4330 
  217.1250    -8.4810    63.0150    10.0590     9.1450     9.7670    22.2990     2.4630 
  217.2500    -8.4170    63.0150    10.0620     9.1470    10.2370    21.9910     2.4840 
  217.3750    -8.3860    63.0150    10.0640     9.1490    10.9310    22.0920     2.4790 
  217.5000    -8.3590    63.0150    10.0660     9.1500    11.2930    22.6000     2.4500 
  217.6250    -8.3220    63.0150    10.0670     9.1520    10.8840    23.2670     2.4120 
