~V
VERS. 2.00: Ver 2.00
~W
STRT.M 45.0000:
STOP.M 252.0000:
STEP.M 0.1250:
NULL. -999.2500:
UWI. F10190:
~C
DEPT.M :
GR.API :
RML.OHMM :
RI. :
RXO.OHMM :
CALI.CM :
SP.MV :
DEN.GM/CC :
~A
# ...
  168.7500    65.7020    35.9120    29.3000    34.1160    23.7490   -26.6890     2.2200 
  168.8750    62.6610    48.1970    39.6120    44.5720    23.9310   -27.2400     2.2250 
  169.0000    60.8610    71.1230    54.4760    52.0280    24.2780   -27.7200     2.2170 
  169.1250    58.3790    92.6150    72.1490    74.2870    24.7150   -28.1610     2.1950 
  169.2500    56.3300   113.9260    90.3340   118.1540    25.0420   -28.5520     2.1740 
  169.3750    56.9780   132.0570   106.5580   147.8390    25.1580   -28.8810     2.1640 
  169.5000    58.9020   144.5820   118.5020   135.0960    25.1350   -29.1620     2.1730 
  169.6250    59.2350   152.1250   126.1130   115.4880    25.1000   -29.3970     2.1860 
  169.7500    59.6750   155.5110   129.7840   120.0660    25.0920   -29.6000     2.1930 
  169.8750    62.3530   156.9920   131.2540   137.7960    25.1460   -29.7540     2.1890 
  170.0000    64.8150   159.4730   133.1210   140.6220    25.2820   -29.8610     2.1680 
  170.1250    64.1400   164.0390   136.8370   133.1990    25.4550   -29.9160     2.1440 
  170.2500    62.2890   170.5390   142.5540   136.9040    25.5400   -29.9390     2.1300 
  170.3750    61.9900   178.3990   149.8750   145.4530    25.4390   -29.9920     2.1320 
  170.5000    61.8890   186.8320   158.2140   157.5340    25.3090   -30.0900     2.1420 
  170.6250    60.2080   194.7380   166.5620   175.9360    25.2400   -30.2120     2.1460 
  170.7500    57.9230   201.2030   174.1560   190.4750    25.2330   -30.3200     2.1460 
  170.8750    56.1230   205.4510   180.3510   177.1060    25.2570   -30.4010     2.1480 
  171.0000    54.8630   204.7240   183.1010   156.7060    25.2720   -30.4700     2.1540 
  171.1250    54.5580   195.5310   179.4720   157.6500    25.2810   -30.5900     2.1630 
  171.2500    56.6560   175.6990   166.7390   164.8330    25.2820   -30.7520     2.1780 
  171.3750    59.8530   148.4390   145.7570   156.8480    25.2540   -30.9080     2.1990 
  171.5000    62.1760   121.3330   121.6390   127.5730    25.1500   -31.0350     2.2230 
  171.6250    63.3560    99.7460   100.7290    93.9780    25.0310   -31.1490     2.2460 
  171.7500    65.0490    85.1230    85.7880    73.3180    24.9300   -31.2770     2.2670 
  171.8750    66.0430    77.1160    77.3280    64.6150    24.8870   -31.4270     2.2820 
  172.0000    65.3670    75.3900    75.2860    67.7570    24.8880   -31.5660     2.2780 
  172.1250    65.0820    77.7820    77.4890    80.0530    24.9100   -31.6710     2.2610 
  172.2500    65.4690    83.1450    82.8940    91.6430    24.9470   -31.7530     2.2430 
  172.3750    66.4580    89.9510    90.0810    95.5920    24.9660   -31.8110     2.2340 
  172.5000    66.0710    95.9400    96.7950    89.7090    24.9380   -31.8340     2.2410 
  172.6250    64.2330    99.6600   101.2760    86.7470    24.8790   -31.8110     2.2520 
  172.7500    61.7260   101.0500   103.1470    86.1480    24.8110   -31.7430     2.2590 
  172.8750    60.1680   101.1510   103.2270    90.4000    24.7640   -31.6340     2.2570 
  173.0000    60.3790   102.1670   103.5450    83.5860    24.7180   -31.5120     2.2500 
  173.1250    61.0390   106.3210   106.5450    70.9860    24.6500   -31.3380     2.2430 
  173.2500    61.1760   115.2230   114.0220    79.4980    24.5390   -31.1140     2.2330 
  173.3750    59.5760   129.5460   126.6760   110.2640    24.3250   -30.8590     2.2120 
  173.5000    56.7250   148.8060   143.8460   146.7490    24.0510   -30.6120     2.1820 
  173.6250    55.1510   168.4100   161.2880   152.4380    23.9170   -30.3950     2.1600 
  173.7500    54.7620   183.6330   175.0600   139.4320    23.8940   -30.2110     2.1540 
  173.8750    54.4920   192.0400   183.1070   119.7190    23.8950   -30.0530     2.1640 
  174.0000    56.5040   195.9820   187.0220   107.1590    23.8730   -29.9080     2.1790 
  174.1250    59.4340   201.7370   192.2340   103.4080    23.8340   -29.8280     2.1890 
  174.2500    60.5360   212.2930   201.8030   110.1940    23.7860   -29.8380     2.1900 
  174.3750    59.6990   227.4170   215.8280   118.1660    23.7580   -29.9370     2.1840 
  174.5000    58.5210   243.6200   231.3720   136.3400    23.7540   -30.1070     2.1730 
  174.6250    58.0770   255.8750   243.9930   163.3290    23.8000   -30.2790     2.1620 
  174.7500    58.9300   261.1560   251.0130   213.8100    23.9540   -30.4520     2.1490 
  174.8750    60.7180   258.3580   251.2250   231.0060    24.2090   -30.6450     2.1360 
  175.0000    60.2180   245.9780   242.8090   194.4120    24.4190   -30.8970     2.1290 
  175.1250    57.4750   225.7090   226.6240   173.4980    24.4790   -31.1760     2.1300 
  175.2500    56.4270   199.4360   203.5650   180.5260    24.4890   -31.4460     2.1390 
  175.3750    59.1730   171.4730   177.0000   153.8550    24.5100   -31.6950     2.1530 
  175.5000    63.5700   148.6050   153.3960   112.9360    24.5450   -31.9030     2.1720 
  175.6250    66.2360   134.4380   137.5410    90.0780    24.5200   -32.1160     2.1900 
  175.7500    66.4610   130.7230   131.9550    86.2830    24.4300   -32.3210     2.1970 
  175.8750    64.2670   138.3050   137.8790    97.6190    24.3900   -32.5130     2.1910 
  176.0000    59.7340   159.5510   157.5090   137.9450    24.4600   -32.6630     2.1730 
  176.1250    55.9390   191.1000   186.6980   242.6620    24.5690   -32.7480     2.1560 
  176.2500    55.3020   227.5230   219.6790   324.8680    24.6560   -32.7600     2.1480 
  176.3750    56.7430   258.6770   247.4040   268.2950    24.7160   -32.6840     2.1530 
  176.5000    56.0110   272.2890   259.4290   217.0060    24.7900   -32.5070     2.1590 
  176.6250    54.7360   272.4850   258.6960   198.9800    24.8570   -32.2380     2.1610 
  176.7500    55.7340   267.8980   252.1530   206.6970    24.8960   -31.9200     2.1590 
  176.8750    57.5340   265.6640   246.5090   223.8100    24.9080   -31.6040     2.1570 
  177.0000    57.8040   269.6210   245.9860   212.1640    24.9080   -31.3170     2.1540 
  177.1250    57.4800   278.1900   249.7470   198.4040    24.9090   -31.0480     2.1510 
  177.2500    56.9410   289.2150   256.0320   206.8750    24.9090   -30.7930     2.1500 
  177.3750    55.8300   299.8520   262.4450   216.2580    24.9020   -30.5420     2.1520 
  177.5000    53.5210   305.6240   265.4610   225.5270    24.8740   -30.3070     2.1570 
  177.6250    51.5050   303.4990   262.5990   226.5600    24.8300   -30.1270     2.1640 
  177.7500    50.8850   292.2970   252.7000   224.0830    24.7960   -30.0020     2.1700 
  177.8750    53.2380   274.0920   237.0460   221.8280    24.7720   -29.9070     2.1750 
  178.0000    57.2430   252.6420   218.4990   200.9040    24.6920   -29.7940     2.1830 
  178.1250    59.1600   231.2240   200.0430   171.2840    24.6060   -29.6380     2.1950 
  178.2500    58.7970   210.5030   182.4880   134.3010    24.5530   -29.4370     2.2080 
  178.3750    57.6590   190.4210   165.9330   100.0260    24.4840   -29.2110     2.2180 
  178.5000    55.9280   171.1580   150.5280    65.7370    24.3280   -28.9780     2.2290 
  178.6250    55.0440   153.4680   136.5930    45.2230    24.1470   -28.7170     2.2430 
  178.7500    57.3990   138.6190   125.0410    39.2220    24.0610   -28.4190     2.2560 
  178.8750    62.9800   127.6470   116.7720    37.4840    24.0440   -28.0640     2.2580 
  179.0000    65.5480   120.9700   112.4330    35.1260    24.0390   -27.6560     2.2450 
  179.1250    63.8710   115.5730   109.6030    32.5080    24.0100   -27.2400     2.2270 
  179.2500    60.7390   107.8520   104.9050    30.9240    23.9500   -26.8280     2.2100 
  179.3750    58.5670    94.8970    94.9540    31.0300    23.9050   -26.4160     2.1990 
  179.5000    59.9990    77.1810    77.8610    31.2700    23.8630   -25.9880     2.2010 
  179.6250    64.9320    59.9860    57.8970    26.8850    23.7740   -25.5150     2.2200 
  179.7500    71.0560    43.7800    41.9510    19.8440    23.6430   -25.0010     2.2520 
  179.8750    76.5280    31.8190    30.1720    17.1110    23.5770   -24.4570     2.2850 
