~V
VERS. 2.00: Ver 2.00
~W
STRT.M 50.0000:
STOP.M 223.0000:
STEP.M 0.1250:
NULL. -999.2500:
UWI. F10135:
~C
DEPT.M :
SP.MV :
DEN.GM/CC :
GR.API :
RML.OHMM :
RI. :
RXO.OHMM :
CALI.CM :
~A
# ...
  106.2500    -3.0870     2.3570    97.6150     7.4600     6.1850     8.1390    25.8030 
  106.3750    -4.1220     2.3450    94.4490     8.0070     6.6550    10.1390    25.8970 
  106.5000    -5.2770     2.3130    94.8870     8.3280     6.9930    10.5530    25.9620 
  106.6250    -6.5140     2.2720    95.2680     8.2980     7.0670     9.7990    25.9860 
  106.7500    -7.7480     2.2360    93.3340     8.0280     6.9170     9.3280    25.9880 
  106.8750    -8.9140     2.2070    90.2400     7.6510     6.6270     9.1110    25.9910 
  107.0000    -9.9810     2.1860    87.9790     7.2940     6.3030     8.7790    25.9950 
  107.1250   -10.9260     2.1740    85.4800     7.0520     6.0390     8.2610    25.9960 
  107.2500   -11.7020     2.1700    82.5160     6.9160     5.8530     7.9980    25.9950 
  107.3750   -12.2630     2.1700    81.3030     6.8630     5.7370     8.0180    25.9950 
  107.5000   -12.7140     2.1720    81.7960     6.8760     5.6810     8.0240    25.9960 
  107.6250   -13.1790     2.1740    81.7120     6.9620     5.6960     7.9040    25.9940 
  107.7500   -13.6900     2.1780    81.1220     7.1140     5.7770     7.7420    25.9900 
  107.8750   -14.2240     2.1890    80.6340     7.3280     5.9260     7.9420    25.9860 
  108.0000   -14.7880     2.2050    78.9020     7.5780     6.1280     8.5680    25.9820 
  108.1250   -15.3680     2.2230    74.7030     7.8080     6.3420     9.0440    25.9810 
  108.2500   -15.9070     2.2350    73.3440     7.9540     6.5070     9.5810    25.9840 
  108.3750   -16.4010     2.2360    77.0930     7.9840     6.5820    10.0700    26.0000 
  108.5000   -16.8310     2.2280    83.6010     7.9020     6.5520     9.6920    26.0610 
  108.6250   -17.1380     2.2140    87.1310     7.7470     6.4320     8.8620    26.2070 
  108.7500   -17.3340     2.2000    86.7200     7.5950     6.2850     8.3140    26.3620 
  108.8750   -17.4530     2.1890    84.7440     7.4830     6.1520     8.1250    26.4680 
  109.0000   -17.5190     2.1810    82.3410     7.4210     6.0560     8.0920    26.5220 
  109.1250   -17.5270     2.1770    78.2310     7.3950     6.0050     8.2140    26.5600 
  109.2500   -17.4970     2.1770    74.6150     7.3760     5.9770     8.2750    26.5740 
  109.3750   -17.4270     2.1810    76.4530     7.3560     5.9580     8.1010    26.5800 
  109.5000   -17.3230     2.1850    83.2450     7.3340     5.9420     7.6600    26.5820 
  109.6250   -17.2320     2.1880    88.7060     7.3200     5.9300     7.4780    26.5810 
  109.7500   -17.1600     2.1860    90.4090     7.3200     5.9290     7.5900    26.5830 
  109.8750   -17.0970     2.1840    88.1300     7.3400     5.9450     7.7280    26.5840 
  110.0000   -17.0220     2.1860    83.1960     7.3840     5.9820     7.7260    26.5830 
  110.1250   -17.0080     2.1970    79.7900     7.4460     6.0390     7.6760    26.5810 
  110.2500   -17.0920     2.2120    78.9120     7.5060     6.1000     7.7940    26.5820 
  110.3750   -17.2120     2.2250    77.1420     7.5390     6.1470     8.1020    26.5810 
  110.5000   -17.3070     2.2280    73.3400     7.5230     6.1620     8.3670    26.5830 
  110.6250   -17.3360     2.2190    70.7130     7.4480     6.1260     8.4300    26.5840 
  110.7500   -17.3160     2.2060    70.1880     7.3490     6.0540     8.4640    26.5850 
  110.8750   -17.2220     2.1980    71.9240     7.2720     5.9750     8.3550    26.5840 
  111.0000   -17.0370     2.2000    76.5360     7.2630     5.9260     8.0500    26.5820 
  111.1250   -16.7870     2.2190    81.6610     7.3630     5.9530     7.6350    26.5790 
  111.2500   -16.5240     2.2460    83.6440     7.5280     6.0460     7.4750    26.5790 
  111.3750   -16.3110     2.2690    83.8170     7.6980     6.1740     7.6710    26.5770 
  111.5000   -16.1810     2.2770    83.5380     7.8020     6.2910     8.1560    26.5640 
  111.6250   -16.1170     2.2620    81.8790     7.7710     6.3380     8.3670    26.5230 
  111.7500   -16.0890     2.2340    79.7770     7.6320     6.3100     8.2650    26.4760 
  111.8750   -16.0980     2.2040    79.0950     7.4360     6.2260     8.2350    26.4350 
  112.0000   -16.1370     2.1800    79.3760     7.2410     6.1220     8.3120    26.3900 
  112.1250   -16.1120     2.1670    79.5310     7.0910     6.0300     8.3760    26.3220 
  112.2500   -15.9440     2.1650    78.8830     6.9700     5.9480     8.3830    26.2680 
  112.3750   -15.6070     2.1730    77.1690     6.8480     5.8590     8.3320    26.1980 
  112.5000   -15.0800     2.1880    75.8020     6.6930     5.7360     8.0780    26.1410 
  112.6250   -14.3620     2.2080    81.5080     6.4860     5.5620     7.2730    26.1090 
  112.7500   -13.5410     2.2280    93.4090     6.2450     5.3530     6.1960    26.1090 
  112.8750   -12.7010     2.2480   103.3840     5.9910     5.1290     5.5510    26.1160 
  113.0000   -11.8680     2.2680   106.3720     5.7360     4.9040     5.4790    26.1010 
  113.1250   -11.0510     2.2930   108.6510     5.4890     4.6890     5.5470    26.0640 
  113.2500   -10.3630     2.3210   115.5970     5.2520     4.4850     5.1410    25.9850 
  113.3750    -9.8570     2.3490   123.1180     5.0420     4.2990     4.8230    25.8780 
  113.5000    -9.5350     2.3720   124.2810     4.8970     4.1510     4.6380    25.7870 
  113.6250    -9.4430     2.3830   117.5980     4.9040     4.1030     4.7490    25.7080 
  113.7500    -9.6070     2.3810   110.2840     5.1020     4.1990     4.8480    25.6460 
  113.8750   -10.0460     2.3630   106.1250     5.5130     4.4760     4.9840    25.6050 
  114.0000   -10.6930     2.3300   101.6530     6.1020     4.9350     6.3300    25.5900 
  114.1250   -11.5300     2.2880    93.7120     6.7560     5.5280    11.1480    25.5920 
  114.2500   -12.4900     2.2490    86.0640     7.2930     6.1020    16.6150    25.5780 
  114.3750   -13.5270     2.2190    82.2930     7.5900     6.5190    13.5970    25.5120 
  114.5000   -14.5730     2.2000    80.9320     7.6150     6.6970     9.2210    25.4180 
  114.6250   -15.5270     2.1940    78.2870     7.4350     6.6240     7.7860    25.3750 
  114.7500   -16.3300     2.1950    75.6140     7.2350     6.4500     7.4960    25.3650 
  114.8750   -16.9330     2.2040    75.9490     7.1110     6.2820     7.4350    25.3640 
  115.0000   -17.3430     2.2170    79.5220     7.0790     6.1750     7.5730    25.3620 
  115.1250   -17.5710     2.2290    83.9000     7.0750     6.1210     7.9880    25.3590 
  115.2500   -17.6870     2.2350    84.7090     6.9990     6.0480     8.1930    25.3600 
  115.3750   -17.7430     2.2290    82.5640     6.8200     5.9130     8.0630    25.3630 
  115.5000   -17.7690     2.2080    78.9890     6.6070     5.7280     7.7720    25.3630 
  115.6250   -17.7470     2.1880    78.1020     6.6010     5.6230     7.8470    25.3630 
  115.7500   -17.6430     2.1980    81.2170     7.0220     5.7740     7.9230    25.3850 
  115.8750   -17.4560     2.2590    82.9380     7.9970     6.3380     7.6950    25.4550 
  116.0000   -17.1990     2.3700    79.0100     9.4300     7.3600     8.5050    25.5760 
  116.1250   -16.7640     2.4970    74.4330    10.8210     8.6190    14.4310    25.7290 
  116.2500   -16.1760     2.5850    75.2110    11.4390     9.4910    27.8750    25.8710 
  116.3750   -15.4970     2.6080    80.2600    10.8620     9.4790    32.1150    25.9760 
  116.5000   -14.7870     2.5690    86.8110     9.2390     8.5030    18.7380    26.0180 
  116.6250   -14.1490     2.4930    94.7260     7.2810     6.9790     7.9640    26.0190 
  116.7500   -13.6630     2.4180   100.0160     5.7790     5.6190     4.9270    26.0170 
  116.8750   -13.4520     2.3540    98.7140     4.9880     4.7270     4.2540    26.0160 
  117.0000   -13.6140     2.3010    91.1820     4.8520     4.3560     4.3470    26.0160 
  117.1250   -14.2220     2.2560    85.1720     5.2310     4.4880     4.8600    26.0160 
  117.2500   -15.1210     2.2200    85.3730     5.8250     4.9090     5.6340    26.0160 
  117.3750   -16.2110     2.1960    88.9490     6.4470     5.4710     6.8580    26.0160 
