~V
VERS. 2.00: Ver 2.00
~W
STRT.M 52.0000:
STOP.M 216.0000:
STEP.M 0.1250:
NULL. -999.2500:
UWI. F10126:
~C
DEPT.M :
DEN.GM/CC :
GR.API :
RML.OHMM :
RI. :
RXO.OHMM :
CALI.CM :
SP.MV :
~A
# ...
  164.5000     2.4080    58.2540     6.8290     5.7520     5.7880    25.0450   -19.5060 
  164.6250     2.4050    56.6100     6.9990     5.8980     5.8000    25.1050   -19.4690 
  164.7500     2.4070    56.9130     7.1750     6.0570     6.0050    25.1700   -19.4510 
  164.8750     2.4150    56.5300     7.3020     6.1710     6.3890    25.1550   -19.4580 
  165.0000     2.4260    53.3360     7.3480     6.2070     6.4790    25.0800   -19.4930 
  165.1250     2.4350    49.9920     7.3000     6.1480     6.0830    24.9730   -19.5530 
  165.2500     2.4360    49.6620     7.2050     6.0340     5.6550    24.8810   -19.6260 
  165.3750     2.4290    51.5020     7.1060     5.9070     5.4180    24.8380   -19.7040 
  165.5000     2.4160    53.0900     7.0400     5.8030     5.3110    24.8620   -19.8170 
  165.6250     2.4030    53.7410     7.0280     5.7460     5.1590    24.8470   -19.9400 
  165.7500     2.3970    53.7810     7.0500     5.7210     5.0020    24.7540   -20.0240 
  165.8750     2.4000    53.1210     7.0820     5.7090     4.9940    24.5710   -20.0640 
  166.0000     2.4120    52.1460     7.1090     5.6970     5.1210    24.3370   -20.0430 
  166.1250     2.4280    51.0280     7.1240     5.6820     5.0810    24.1950   -19.9790 
  166.2500     2.4390    48.9960     7.1340     5.6690     5.0890    24.1890   -19.9240 
  166.3750     2.4440    46.7800     7.1420     5.6600     5.2060    24.2910   -19.9080 
  166.5000     2.4410    46.3610     7.1470     5.6510     5.4050    24.4300   -19.9200 
  166.6250     2.4360    47.0400     7.1460     5.6330     5.6130    24.4370   -19.9410 
  166.7500     2.4330    46.9320     7.1450     5.6080     5.5090    24.3690   -20.0140 
  166.8750     2.4330    46.3820     7.1570     5.5890     5.4120    24.3200   -20.2080 
  167.0000     2.4340    45.9400     7.1990     5.5910     5.5160    24.3430   -20.5800 
  167.1250     2.4350    45.4530     7.2870     5.6350     5.4440    24.4650   -21.1340 
  167.2500     2.4340    46.0050     7.4070     5.7120     5.4370    24.6810   -21.7320 
  167.3750     2.4290    48.3330     7.5430     5.8100     5.5190    24.8590   -22.3160 
  167.5000     2.4230    50.7580     7.6760     5.9080     5.6260    25.0130   -22.8970 
  167.6250     2.4180    53.0380     7.7880     5.9860     5.6300    25.1600   -23.5140 
  167.7500     2.4180    57.0340     7.8830     6.0450     5.7330    25.3230   -24.1390 
  167.8750     2.4210    64.4940     7.9740     6.0900     5.9120    25.4450   -24.7100 
  168.0000     2.4190    75.0650     8.0840     6.1360     5.9190    25.4910   -25.1480 
  168.1250     2.4010    86.2360     8.2480     6.2090     5.7140    25.6650   -25.4340 
  168.2500     2.3690    94.5430     8.4790     6.3240     5.3130    26.1350   -25.6490 
  168.3750     2.3320    97.2350     8.7730     6.4900     5.0920    26.7600   -25.8260 
  168.5000     2.3020    95.5230     9.1040     6.6990     5.7780    27.1320   -25.9890 
  168.6250     2.2900    92.5840     9.4210     6.9220     7.0770    26.6880   -26.1120 
  168.7500     2.2870    91.9750     9.6860     7.1200     7.4970    25.9810   -26.1960 
  168.8750     2.2840    94.4660     9.8950     7.2740     7.4880    25.3820   -26.2510 
  169.0000     2.2780    97.5020    10.0800     7.3940     7.5660    25.1040   -26.3190 
  169.1250     2.2780    97.8830    10.3230     7.5380     7.5960    25.0940   -26.4190 
  169.2500     2.2890    95.5070    10.6890     7.7660     8.0400    25.1180   -26.5450 
  169.3750     2.3110    92.3320    11.2080     8.1110     8.7820    25.1000   -26.6910 
  169.5000     2.3330    91.5090    11.8570     8.5710     9.4030    25.0510   -26.8040 
  169.6250     2.3490    91.7560    12.5480     9.1040     9.9460    25.0070   -26.8740 
  169.7500     2.3600    93.5270    13.1400     9.5970    10.7320    24.9590   -26.9270 
  169.8750     2.3710    95.2930    13.5160     9.9460    11.4490    24.9060   -26.9710 
  170.0000     2.3870    95.7370    13.5990    10.0700    11.4390    24.8410   -26.9790 
  170.1250     2.4070    95.6820    13.3350     9.9040    11.4490    24.7770   -26.9320 
  170.2500     2.4260    97.6140    12.8470     9.5490    11.0420    24.7310   -26.8460 
  170.3750     2.4360   101.9310    12.2400     9.0940    10.6870    24.6880   -26.7310 
  170.5000     2.4370   104.7320    11.6060     8.6260    10.2090    24.7170   -26.6170 
  170.6250     2.4330   102.0940    11.0130     8.1970    10.2010    24.7930   -26.4520 
  170.7500     2.4270    98.3740    10.4660     7.8020     9.2840    24.8270   -26.1700 
  170.8750     2.4220    97.7780     9.9610     7.4290     8.4730    24.8610   -25.7820 
  171.0000     2.4180    99.4290     9.4990     7.0790     7.9510    24.9070   -25.3160 
  171.1250     2.4140    96.3670     9.1120     6.7800     7.5130    24.9570   -24.7520 
  171.2500     2.4100    88.1530     8.8190     6.5490     6.8530    24.9600   -24.0610 
  171.3750     2.4040    78.9850     8.6270     6.4040     6.3940    24.9330   -23.2980 
  171.5000     2.3950    69.7960     8.5220     6.3430     6.5840    24.8820   -22.4820 
  171.6250     2.3830    61.6690     8.4650     6.3400     6.9500    24.9080   -21.6400 
  171.7500     2.3700    57.6380     8.3960     6.3390     6.6910    24.8820   -20.8390 
  171.8750     2.3650    57.6330     8.2890     6.3040     6.2030    24.7990   -20.1020 
  172.0000     2.3730    57.9900     8.1410     6.2230     5.9240    24.7190   -19.4810 
  172.1250     2.3980    55.1110     7.9740     6.1100     5.8200    24.7120   -19.0570 
  172.2500     2.4270    52.3360     7.8200     6.0010     5.7410    24.7100   -18.8530 
  172.3750     2.4410    51.6770     7.6960     5.9130     5.7300    24.7020   -18.8240 
  172.5000     2.4290    52.2100     7.6090     5.8530     5.7590    24.6920   -18.9370 
  172.6250     2.3900    52.1450     7.5730     5.8280     5.7680    24.8040   -19.2230 
  172.7500     2.3480    52.8840     7.5840     5.8380     5.6770    24.9790   -19.6200 
  172.8750     2.3170    54.6420     7.6370     5.8800     5.6420    25.0940   -20.1080 
  173.0000     2.3010    56.3930     7.7150     5.9460     5.7880    24.8700   -20.6450 
  173.1250     2.2950    60.3630     7.7800     6.0130     5.8890    24.7300   -21.1400 
  173.2500     2.2950    66.3500     7.8020     6.0570     5.8780    24.7470   -21.5380 
  173.3750     2.3040    71.1540     7.7670     6.0660     5.7970    24.9210   -21.8290 
  173.5000     2.3250    72.5240     7.6820     6.0400     5.6830    25.0960   -22.0300 
  173.6250     2.3580    73.8830     7.5700     5.9940     5.7420    25.4340   -22.1190 
  173.7500     2.3920    78.7280     7.4680     5.9580     5.6780    25.5370   -22.1100 
  173.8750     2.4190    83.9950     7.4030     5.9550     5.7040    25.6910   -21.9910 
  174.0000     2.4390    86.2600     7.3930     5.9950     5.8100    25.4100   -21.7580 
  174.1250     2.4480    85.5560     7.4580     6.0880     6.0110    24.8070   -21.4670 
  174.2500     2.4470    86.1040     7.5730     6.2140     6.2020    24.5270   -21.1850 
  174.3750     2.4370    88.8710     7.7050     6.3490     6.3050    24.5080   -20.9230 
  174.5000     2.4180    91.6790     7.8060     6.4550     6.3750    24.5900   -20.6390 
  174.6250     2.3830    91.9360     7.8010     6.4660     6.4310    24.6290   -20.2550 
  174.7500     2.3320    89.8260     7.6630     6.3540     6.3350    24.7600   -19.7430 
  174.8750     2.2680    86.4410     7.3880     6.1120     5.9110    24.8560   -19.0500 
  175.0000     2.2080    83.1960     7.0110     5.7680     5.3270    24.8580   -18.1280 
  175.1250     2.1760    78.7670     6.6110     5.3910     4.9480    24.6420   -16.9150 
  175.2500     2.1770    72.7330     6.3150     5.0870     4.7510    24.7940   -15.4820 
  175.3750     2.2040    67.5970     6.2390     4.9470     4.6410    25.2360   -13.9420 
  175.5000     2.2430    67.7610     6.4970     5.0510     4.5980    25.4380   -12.4670 
  175.6250     2.2840    75.8830     7.2330     5.5300     4.9560    25.4010   -11.2320 
