~V
VERS. 2.00: Ver 2.00
~W
STRT.M 30.0000:
STOP.M 209.0000:
STEP.M 0.1250:
NULL. -999.2500:
UWI. F10150:
~C
DEPT.M :
SP.MV :
DEN.GM/CC :
GR.API :
RML.OHMM :
RI. :
RXO.OHMM :
CALI.CM :
~A
# ...
  142.5000   -21.3870     2.2060    67.2320    14.7340    12.2210    11.6670    24.8360 
  142.6250   -21.3470     2.2300    68.8200    14.5850    12.1640    11.7450    24.7910 
  142.7500   -21.3350     2.2520    71.8260    13.9000    11.7160    12.4110    24.7890 
  142.8750   -21.3450     2.2700    75.3720    12.5690    10.7590    11.8270    24.7540 
  143.0000   -21.3610     2.2820    80.5510    10.8030     9.4070    10.3870    24.7260 
  143.1250   -21.4400     2.2890    85.5260     9.1500     8.0280     8.0740    24.7130 
  143.2500   -21.5500     2.2910    87.0130     8.0620     6.9940     6.1900    24.7210 
  143.3750   -21.6640     2.2850    83.2140     7.7220     6.4860     5.3240    24.7370 
  143.5000   -21.8290     2.2740    75.6180     8.1360     6.5660     5.9700    24.7680 
  143.6250   -21.9950     2.2610    69.6040     9.2680     7.2850     7.9070    24.8220 
  143.7500   -22.1150     2.2500    67.3370    10.7120     8.3890    10.2490    24.8600 
  143.8750   -22.2630     2.2450    68.2340    12.0540     9.5920    11.6550    24.8500 
  144.0000   -22.4560     2.2470    70.4980    12.8750    10.5280    11.8860    24.8160 
  144.1250   -22.6120     2.2540    72.6990    12.8900    10.8430    11.1720    24.8060 
  144.2500   -22.7480     2.2640    75.4150    12.4500    10.6910    10.4170    24.8150 
  144.3750   -22.8900     2.2740    76.6110    11.8930    10.3100    10.2290    24.8300 
  144.5000   -22.9860     2.2810    74.6990    11.4420     9.9030    10.4080    24.8370 
  144.6250   -23.0490     2.2790    72.1690    11.1950     9.5870    10.3720    24.8380 
  144.7500   -23.1620     2.2660    71.6180    11.0870     9.3610     9.9530    24.8360 
  144.8750   -23.2650     2.2460    72.9700    11.0610     9.2060     9.5930    24.8400 
  145.0000   -23.3320     2.2240    75.1850    11.0800     9.1120     9.6110    24.8480 
  145.1250   -23.4120     2.2110    76.5090    11.1630     9.1050     9.8150    24.8550 
  145.2500   -23.4650     2.2110    77.5760    11.3770     9.2210     9.9430    24.8620 
  145.3750   -23.5130     2.2240    77.3720    11.8220     9.5140    10.1350    24.8850 
  145.5000   -23.5620     2.2420    75.5760    12.5910    10.0370    10.5820    24.9080 
  145.6250   -23.6040     2.2570    74.1320    13.7840    10.8700    11.7800    24.9080 
  145.7500   -23.6530     2.2640    74.4350    15.2420    11.9360    13.5970    24.8760 
  145.8750   -23.6730     2.2630    75.2360    16.7080    13.0920    15.3700    24.8320 
  146.0000   -23.6700     2.2580    73.7760    17.7790    14.0650    16.2700    24.8310 
  146.1250   -23.6760     2.2520    71.1920    17.8520    14.3770    16.1300    24.8650 
  146.2500   -23.6900     2.2510    70.7670    16.9100    13.9060    15.5230    24.8680 
  146.3750   -23.6920     2.2550    72.7840    15.2400    12.7830    14.3170    24.8450 
  146.5000   -23.7410     2.2600    75.4840    13.3780    11.3760    12.3280    24.8040 
  146.6250   -23.7810     2.2630    77.6800    11.9300    10.1410    10.1070    24.7450 
  146.7500   -23.7590     2.2640    78.8630    11.1090     9.3110     8.5250    24.6860 
  146.8750   -23.7920     2.2620    78.8150    10.9350     8.9550     7.9310    24.6420 
  147.0000   -23.8800     2.2610    78.3700    11.3110     9.0500     8.4940    24.6170 
  147.1250   -23.9240     2.2610    78.8710    12.0910     9.5490     9.7290    24.6060 
  147.2500   -24.0130     2.2600    78.5220    12.9680    10.2310    10.3900    24.5830 
  147.3750   -24.1300     2.2590    77.5270    13.7500    10.9380    10.6310    24.5480 
  147.5000   -24.2020     2.2580    77.4510    14.3380    11.5500    10.9550    24.5180 
  147.6250   -24.3200     2.2590    77.1060    14.7320    12.0100    11.4990    24.5680 
  147.7500   -24.4660     2.2610    73.8100    15.0420    12.3780    12.1830    24.6700 
  147.8750   -24.5620     2.2640    69.4450    15.2880    12.6730    12.9350    24.7670 
  148.0000   -24.6390     2.2660    67.6980    15.4140    12.8630    13.2540    24.8130 
  148.1250   -24.7090     2.2670    68.9500    15.2930    12.8480    13.2200    24.8100 
  148.2500   -24.7180     2.2660    71.4560    14.9360    12.6210    13.0610    24.8150 
  148.3750   -24.6580     2.2630    74.1720    14.4130    12.2210    12.5590    24.8240 
  148.5000   -24.5890     2.2600    74.9120    13.8590    11.7470    11.7560    24.8350 
  148.6250   -24.4830     2.2570    72.4860    13.4440    11.3370    11.0140    24.8310 
  148.7500   -24.3680     2.2550    68.0620    13.2340    11.0750    10.8000    24.8290 
  148.8750   -24.2990     2.2540    65.8950    13.2290    10.9860    11.0420    24.8400 
  149.0000   -24.2270     2.2530    67.2630    13.3780    11.0540    11.6320    24.8530 
  149.1250   -24.2080     2.2510    69.2490    13.6020    11.2270    12.2030    24.8620 
  149.2500   -24.2440     2.2490    70.9820    13.8090    11.4180    12.5270    24.8720 
  149.3750   -24.3130     2.2480    72.9710    13.9750    11.5940    12.5830    24.8890 
  149.5000   -24.4080     2.2470    74.7460    14.1180    11.7560    12.4770    24.8980 
  149.6250   -24.5160     2.2460    73.5120    14.2790    11.9240    12.5230    24.9030 
  149.7500   -24.6180     2.2440    72.8420    14.4680    12.1040    12.8440    24.9060 
  149.8750   -24.7110     2.2440    73.7200    14.6510    12.2800    13.0720    24.9010 
  150.0000   -24.8090     2.2460    73.5610    14.7650    12.4070    13.2340    24.8820 
  150.1250   -24.8960     2.2510    73.8090    14.6870    12.3940    13.3170    24.8680 
  150.2500   -24.9460     2.2560    75.7440    14.3870    12.2030    13.1950    24.8630 
  150.3750   -24.9730     2.2580    75.7250    13.9060    11.8460    12.8690    24.8760 
  150.5000   -24.9720     2.2580    72.3740    13.3670    11.4050    12.1870    24.9040 
  150.6250   -24.9570     2.2560    72.3770    12.9670    11.0260    11.3550    24.9420 
  150.7500   -24.9230     2.2530    76.6680    12.8180    10.8170    10.5800    24.9530 
  150.8750   -24.8570     2.2490    80.4220    12.9510    10.8260    10.0930    24.9500 
  151.0000   -24.7570     2.2460    78.7610    13.3030    11.0360    10.6410    24.9630 
  151.1250   -24.6130     2.2470    73.1930    13.6970    11.3500    11.7770    24.9710 
  151.2500   -24.4720     2.2530    70.0350    13.9290    11.5900    12.1440    24.9750 
  151.3750   -24.3270     2.2650    70.3770    13.9150    11.6600    12.1640    24.9590 
  151.5000   -24.1750     2.2790    71.5700    13.7120    11.5610    11.9990    24.9500 
  151.6250   -23.9750     2.2860    70.1920    13.5180    11.4110    11.6640    24.9750 
  151.7500   -23.7750     2.2780    70.4080    13.5360    11.3790    11.2610    24.9720 
  151.8750   -23.5700     2.2550    71.7010    13.8520    11.5570    11.4820    24.8990 
  152.0000   -23.3560     2.2240    69.1380    14.4350    11.9620    13.0070    24.7740 
  152.1250   -23.1540     2.1980    64.5920    15.1730    12.5480    14.1450    24.6550 
  152.2500   -22.9580     2.1860    65.2680    15.8610    13.1600    14.5010    24.5940 
  152.3750   -22.8310     2.1910    70.0150    16.3570    13.6760    14.1970    24.6050 
  152.5000   -22.7130     2.2050    72.5060    16.5850    14.0070    13.7990    24.6260 
  152.6250   -22.6790     2.2200    72.3310    16.5130    14.0900    13.4740    24.5730 
  152.7500   -22.7180     2.2300    72.5540    16.2600    14.0010    13.3750    24.4960 
  152.8750   -22.7800     2.2370    73.0670    15.9070    13.7920    13.3530    24.5050 
  153.0000   -22.9070     2.2430    74.3780    15.5400    13.5180    13.0230    24.6000 
  153.1250   -23.0920     2.2460    77.0540    15.2780    13.2540    12.6710    24.7220 
  153.2500   -23.2780     2.2440    76.0890    15.1800    13.0730    12.4880    24.7800 
  153.3750   -23.4550     2.2370    71.1870    15.2500    13.0090    12.4170    24.7540 
  153.5000   -23.6430     2.2260    70.0780    15.4420    13.0560    12.4830    24.6840 
  153.6250   -23.8210     2.2160    76.3550    15.6910    13.1880    12.9290    24.6250 
