~V
VERS. 2.00: Ver 2.00
~W
STRT.M 63.0000:
STOP.M 308.0000:
STEP.M 0.1250:
NULL. -999.2500:
UWI. F10102:
~C
DEPT.M :
DEN.GM/CC :
SP.MV :
GR.API :
RML.OHMM :
RI. :
RXO.OHMM :
CALI.CM :
~A
# ...
  231.7500     2.3290    -9.3100    69.7390     8.8180     7.1560     5.7170    22.9070 
  231.8750     2.3010    -8.5550    63.0390     8.0140     6.3770     5.0880    23.1490 
  232.0000     2.2850    -7.7750    61.4570     7.6790     5.9570     4.7910    23.6200 
  232.1250     2.2900    -7.0640    60.8880     7.7190     5.8510     4.7170    24.3810 
  232.2500     2.3180    -6.5170    64.0860     8.0120     5.9800     4.7920    25.1630 
  232.3750     2.3610    -6.1980    72.9530     8.4150     6.2660     5.0440    25.3290 
  232.5000     2.4030    -6.0460    81.0510     8.7440     6.5910     5.4530    25.1180 
  232.6250     2.4330    -6.0180    84.1120     8.8820     6.8800     5.9590    24.8840 
  232.7500     2.4480    -6.0300    84.0450     8.7830     7.0640     6.3340    24.7890 
  232.8750     2.4450    -6.0380    83.7110     8.4720     7.0570     6.2830    24.7860 
  233.0000     2.4360    -5.9810    82.4110     8.0960     6.8810     5.9910    24.7880 
  233.1250     2.4320    -5.8220    79.0660     7.7350     6.5820     5.5160    24.7470 
  233.2500     2.4370    -5.6230    74.6950     7.4160     6.2320     5.1960    24.6310 
  233.3750     2.4490    -5.4420    73.4550     7.1390     5.9150     5.0150    24.4900 
  233.5000     2.4550    -5.2810    75.7150     6.9060     5.6710     4.7730    24.3240 
  233.6250     2.4470    -5.1720    78.9700     6.7500     5.5050     4.6190    24.0720 
  233.7500     2.4260    -5.1360    81.6930     6.6920     5.3990     4.6210    23.6810 
  233.8750     2.4020    -5.1160    83.8460     6.7270     5.3170     4.8240    23.4540 
  234.0000     2.3840    -5.1390    84.9510     6.7780     5.2300     4.9450    23.3800 
  234.1250     2.3740    -5.2460    84.8770     6.8020     5.1320     4.8630    23.3950 
  234.2500     2.3660    -5.4010    85.0490     6.8220     5.0420     4.7780    23.5390 
  234.3750     2.3560    -5.6370    85.9330     6.9700     5.0330     4.6830    23.8940 
  234.5000     2.3470    -5.9250    85.7600     7.3830     5.1880     5.0200    24.2510 
  234.6250     2.3420    -6.2140    83.5850     8.1600     5.5850     5.6950    24.3620 
  234.7500     2.3400    -6.5420    80.8530     9.3270     6.2780     6.6760    24.2930 
  234.8750     2.3360    -7.0240    79.1100    10.8620     7.3210     8.2340    24.1650 
  235.0000     2.3270    -7.5840    77.7720    12.5480     8.5960    10.6690    24.0610 
  235.1250     2.3140    -8.0880    77.2900    14.2080     9.9710    12.6480    23.9440 
  235.2500     2.3020    -8.4780    78.4770    15.6820    11.2840    13.2470    23.7920 
  235.3750     2.2950    -8.7570    80.3420    16.8360    12.3690    13.5130    23.6530 
  235.5000     2.2910    -8.9580    79.1260    17.7430    13.2300    14.4520    23.5230 
  235.6250     2.2910    -9.0680    73.9710    18.4880    13.9210    16.0110    23.4180 
  235.7500     2.2920    -8.9830    70.0020    19.1340    14.5180    17.2790    23.3970 
  235.8750     2.2900    -8.7100    72.7870    19.6350    15.0430    16.9440    23.4680 
  236.0000     2.2850    -8.4220    77.4940    19.9040    15.4630    15.9860    23.5390 
  236.1250     2.2780    -8.1200    78.7570    19.8460    15.7040    15.4640    23.6360 
  236.2500     2.2720    -7.8240    75.8580    19.4370    15.7110    15.8230    23.9920 
  236.3750     2.2730    -7.5280    73.1550    18.7240    15.4440    16.2710    24.4110 
  236.5000     2.2820    -7.2080    71.6890    17.9220    15.0090    15.5520    24.6010 
  236.6250     2.2960    -6.8730    70.3620    17.2100    14.5200    14.1530    24.6390 
  236.7500     2.3070    -6.5910    70.8340    16.7400    14.1140    13.3990    24.6370 
  236.8750     2.3110    -6.3600    72.8230    16.6680    13.9680    13.5410    24.6210 
  237.0000     2.3100    -6.0860    73.6250    16.9370    14.1040    13.6430    24.5710 
  237.1250     2.3080    -5.8440    72.2280    17.4600    14.4910    13.5360    24.4850 
  237.2500     2.3100    -5.7100    70.2310    18.1000    15.0160    14.1600    24.4160 
  237.3750     2.3200    -5.6310    69.9900    18.7020    15.4970    15.3540    24.4000 
  237.5000     2.3350    -5.5830    70.1280    19.2020    15.8290    15.8430    24.3990 
  237.6250     2.3510    -5.5360    69.9210    19.6340    16.0380    15.4090    24.3840 
  237.7500     2.3630    -5.4820    70.7140    20.1010    16.2550    14.8960    24.3340 
  237.8750     2.3650    -5.4310    70.9400    20.7790    16.7140    14.8320    24.1990 
  238.0000     2.3570    -5.4170    68.8630    21.7460    17.5420    15.7560    24.0360 
  238.1250     2.3430    -5.4310    66.9570    22.9960    18.7790    17.9420    24.0060 
  238.2500     2.3280    -5.3770    66.6850    24.3770    20.3070    19.1150    24.1010 
  238.3750     2.3150    -5.3490    67.2650    25.4950    21.7810    21.3600    24.2570 
  238.5000     2.3030    -5.4200    66.8380    25.9790    22.7870    23.2530    24.3580 
  238.6250     2.2910    -5.5460    67.1080    25.6570    23.0790    22.9430    24.3980 
  238.7500     2.2830    -5.6670    69.0580    24.8270    22.6620    20.5860    24.3910 
  238.8750     2.2830    -5.7620    70.6160    23.9920    21.7340    18.3520    24.3660 
  239.0000     2.2890    -5.9010    70.7840    23.2440    20.6710    17.0090    24.2620 
  239.1250     2.2960    -5.9790    69.2650    22.3680    19.6110    16.3180    24.0060 
  239.2500     2.2970    -5.9870    66.7340    21.2820    18.5660    16.3010    23.6550 
  239.3750     2.2930    -5.9960    65.2680    20.1050    17.5100    15.9650    23.4590 
  239.5000     2.2880    -5.9780    66.2770    18.9710    16.4960    14.9730    23.4160 
  239.6250     2.2870    -5.9500    70.4050    18.0420    15.6640    13.5180    23.4880 
  239.7500     2.2890    -5.9070    76.6600    17.5430    15.1800    12.1090    23.6240 
  239.8750     2.2940    -5.8760    80.9580    17.6350    15.2040    11.6320    23.7290 
  240.0000     2.3040    -5.8020    79.8530    18.0670    15.5800    12.4430    23.6740 
  240.1250     2.3160    -5.7740    75.3680    18.5520    16.1020    14.3000    23.5110 
  240.2500     2.3290    -5.9070    71.7420    18.8290    16.5160    16.0090    23.3380 
  240.3750     2.3360    -6.0530    71.6250    18.7830    16.5710    15.8590    23.2040 
  240.5000     2.3350    -6.1100    72.2120    18.6670    16.3710    14.5680    23.1350 
  240.6250     2.3290    -6.1210    72.0060    18.7900    16.1910    14.2950    23.0840 
  240.7500     2.3210    -6.1910    71.7800    19.4160    16.3480    15.4590    23.0360 
  240.8750     2.3130    -6.3230    71.5810    20.7660    17.1590    17.2260    22.9330 
  241.0000     2.3030    -6.5260    70.5530    22.6660    18.5870    19.8340    22.7290 
  241.1250     2.2920    -6.7850    69.0400    24.9450    20.5500    25.9930    22.5150 
  241.2500     2.2800    -6.9670    67.2790    27.4020    22.8490    31.2230    22.4370 
  241.3750     2.2700    -7.1210    65.0480    29.8680    25.2160    29.3370    22.5600 
  241.5000     2.2610    -7.3680    63.2080    32.2970    27.5080    26.7150    22.8510 
  241.6250     2.2520    -7.6790    62.6140    34.7620    29.7810    29.8440    23.3640 
  241.7500     2.2410    -7.9540    63.2410    37.3640    32.1430    35.2140    24.0310 
  241.8750     2.2280    -8.1350    62.7370    40.1800    34.7050    37.9380    24.4630 
  242.0000     2.2150    -8.2990    61.1720    43.0860    37.4200    39.3380    24.5990 
  242.1250     2.2060    -8.4440    60.5140    45.8920    40.1060    40.9570    24.5760 
  242.2500     2.2030    -8.5890    61.7630    48.4090    42.5180    39.5780    24.5000 
  242.3750     2.2050    -8.6380    63.2320    50.5140    44.4730    39.5950    24.4870 
  242.5000     2.2150    -8.6160    63.0210    52.4070    46.1540    43.5040    24.5160 
  242.6250     2.2350    -8.6590    61.3260    54.3330    47.7870    48.7530    24.5690 
  242.7500     2.2620    -8.7980    59.8400    56.5720    49.6570    49.2460    24.6020 
  242.8750     2.2850    -9.0220    60.4270    59.4690    52.1770    48.2220    24.5760 
