~V
VERS. 2.00: Ver 2.00
~W
STRT.M 56.0000:
STOP.M 221.0000:
STEP.M 0.1250:
NULL. -999.2500:
UWI. F10169:
~C
DEPT.M :
GR.API :
RML.OHMM :
RI. :
RXO.OHMM :
CALI.CM :
SP.MV :
DEN.GM/CC :
~A
# ...
  112.2500    84.2580     8.6450     5.9610     5.1370    26.7210   -25.4440     2.2630 
  112.3750    84.6800     8.6570     5.8870     5.2200    26.5620   -24.6090     2.2780 
  112.5000    81.5560     8.8870     5.9700     5.5480    26.4380   -23.9210     2.2620 
  112.6250    80.7040     9.2070     6.1500     5.6990    26.3190   -23.3830     2.2420 
  112.7500    84.2040     9.4250     6.3230     5.9070    26.2170   -22.9980     2.2360 
  112.8750    86.8070     9.4400     6.3970     5.9400    26.1240   -22.7260     2.2410 
  113.0000    87.8870     9.2550     6.3450     5.5800    26.0340   -22.5100     2.2510 
  113.1250    89.6760     8.9530     6.1960     5.2350    25.9460   -22.3390     2.2630 
  113.2500    92.8230     8.6370     6.0080     5.1290    25.8550   -22.1400     2.2750 
  113.3750    94.0350     8.3910     5.8470     5.1630    25.7570   -21.9360     2.2830 
  113.5000    93.2810     8.2610     5.7510     5.1400    25.6570   -21.7180     2.2820 
  113.6250    94.4460     8.2640     5.7360     5.0910    25.5610   -21.5390     2.2800 
  113.7500    98.1280     8.3890     5.8030     5.1950    25.4840   -21.4100     2.2850 
  113.8750    99.5610     8.5660     5.9080     5.3310    25.4190   -21.3350     2.2960 
  114.0000    98.1730     8.7420     6.0180     5.6060    25.3760   -21.3200     2.3010 
  114.1250    95.8930     8.8760     6.1040     5.7810    25.3570   -21.3560     2.2920 
  114.2500    94.2640     8.9300     6.1380     5.6690    25.3520   -21.4800     2.2780 
  114.3750    92.1510     8.9100     6.1220     5.4490    25.3410   -21.6920     2.2690 
  114.5000    90.1150     8.8170     6.0570     5.4200    25.3150   -22.0320     2.2640 
  114.6250    89.2220     8.6410     5.9430     5.5290    25.2880   -22.4240     2.2600 
  114.7500    87.7460     8.3910     5.7850     5.5630    25.2540   -22.8930     2.2640 
  114.8750    86.4680     8.1850     5.6500     5.4280    25.2050   -23.3860     2.2790 
  115.0000    87.7650     8.1860     5.6340     5.2390    25.1470   -23.9290     2.3020 
  115.1250    90.4220     8.5380     5.8260     5.2760    25.0920   -24.5060     2.3240 
  115.2500    88.0450     9.3510     6.3100     5.9110    25.0690   -25.1050     2.3370 
  115.3750    81.4420    10.4130     6.9830     8.4510    25.0620   -25.6770     2.3370 
  115.5000    76.5170    11.4020     7.6750    12.5690    25.0630   -26.2080     2.3190 
  115.6250    76.5610    11.9020     8.1290    12.8220    25.0630   -26.7030     2.2800 
  115.7500    79.3870    11.5450     8.0720     9.0630    25.0650   -27.1650     2.2290 
  115.8750    81.7010    10.6720     7.6510     7.1820    25.0650   -27.5970     2.1950 
  116.0000    83.7330     9.7110     7.0970     6.6630    25.0650   -27.9650     2.1870 
  116.1250    85.6270     9.0040     6.6310     6.3480    25.0640   -28.2590     2.1970 
  116.2500    85.9460     8.7660     6.4250     5.9730    25.0650   -28.4880     2.2110 
  116.3750    83.7220     8.8750     6.4610     6.3120    25.0700   -28.6930     2.2200 
  116.5000    80.2720     9.2010     6.6870     6.7360    25.0850   -28.8470     2.2200 
  116.6250    78.2220     9.6190     7.0370     7.1500    25.1130   -28.9790     2.2080 
  116.7500    78.5490    10.0110     7.4410     7.7560    25.1230   -29.0310     2.1860 
  116.8750    78.0460    10.2850     7.8120     8.5250    25.1260   -29.0400     2.1620 
  117.0000    76.5400    10.3900     8.0820     8.6270    25.1240   -28.9580     2.1410 
  117.1250    75.3130    10.3430     8.2190     8.3010    25.0980   -28.8210     2.1270 
  117.2500    73.4950    10.2290     8.2320     7.9940    25.0060   -28.5800     2.1310 
  117.3750    71.7540    10.1710     8.2030     7.9230    24.9000   -28.2530     2.1550 
  117.5000    72.0570    10.2310     8.1910     7.9710    24.8610   -27.8030     2.1880 
  117.6250    74.4200    10.3930     8.2130     7.9820    24.9350   -27.2640     2.2060 
  117.7500    74.9660    10.5120     8.2010     7.9380    25.0010   -26.6340     2.2000 
  117.8750    72.4970    10.3680     8.0260     8.2260    25.0250   -25.9220     2.1980 
  118.0000    71.2380     9.7860     7.5760     8.2360    24.9710   -25.2000     2.2160 
  118.1250    77.0940     8.7700     6.8450     7.4330    24.8520   -24.4870     2.2590 
  118.2500    89.2290     7.6550     6.0330     5.9690    24.7220   -23.8620     2.3190 
  118.3750    95.4170     6.9850     5.4700     5.3760    24.6590   -23.3370     2.3710 
  118.5000    91.7140     7.1810     5.4180     5.2730    24.6710   -22.9540     2.4070 
  118.6250    85.9030     8.5950     6.1240     6.0670    24.7320   -22.6870     2.4360 
  118.7500    80.9010    11.7420     8.0930    10.9920    24.7630   -22.5710     2.4730 
  118.8750    73.0250    16.2070    11.3380    23.6340    24.7730   -22.6040     2.5190 
  119.0000    64.4180    20.8790    15.3810    31.8960    24.7690   -22.7430     2.5590 
  119.1250    59.9300    23.5630    18.5800    26.8880    24.7450   -22.9310     2.5670 
  119.2500    58.1740    22.0120    18.5220    20.2460    24.6930   -23.1380     2.5290 
  119.3750    58.1570    18.2920    16.2320    16.4190    24.6450   -23.3060     2.4690 
  119.5000    64.0770    14.7170    13.5440    11.6660    24.6200   -23.4050     2.4080 
  119.6250    73.1810    12.4590    11.5740     8.7010    24.6080   -23.4070     2.3630 
  119.7500    75.1180    11.8610    10.7580     8.2050    24.6000   -23.3150     2.3460 
  119.8750    71.3170    12.5500    10.9140     8.8160    24.6190   -23.1110     2.3550 
  120.0000    66.7830    14.5530    12.1170    10.3440    24.6520   -22.8290     2.3840 
  120.1250    62.5230    17.9990    14.5360    12.4580    24.6950   -22.5040     2.4300 
  120.2500    56.3180    23.2460    18.5930    15.6320    24.7210   -22.1130     2.4900 
  120.3750    50.5350    29.7910    23.9750    22.1650    24.7130   -21.6950     2.5470 
  120.5000    47.0210    36.7560    30.0130    32.4260    24.7050   -21.2950     2.5870 
  120.6250    45.4380    42.5010    35.3260    39.8080    24.7030   -20.9530     2.6050 
  120.7500    45.4530    44.6310    37.8100    37.4360    24.6900   -20.6800     2.6080 
  120.8750    46.3900    43.5040    37.4890    32.4420    24.6580   -20.4680     2.6020 
  121.0000    45.8800    40.6210    35.3920    27.5340    24.6170   -20.3110     2.5830 
  121.1250    43.9720    37.6720    32.8590    25.0240    24.5740   -20.1780     2.5530 
  121.2500    44.4480    35.8430    30.9630    24.0260    24.5590   -20.0960     2.5250 
  121.3750    46.6250    35.0260    29.8570    23.6480    24.5590   -20.0230     2.5110 
  121.5000    48.0740    34.8020    29.3310    23.4690    24.5820   -19.9720     2.5090 
  121.6250    47.6010    34.7080    29.0740    24.2170    24.6350   -19.8970     2.5160 
  121.7500    46.0810    34.4620    28.8590    25.3430    24.7250   -19.8120     2.5310 
  121.8750    45.5490    34.2000    28.6940    25.7890    24.8530   -19.7140     2.5480 
  122.0000    46.8460    34.1790    28.7350    23.7780    25.0350   -19.6170     2.5570 
  122.1250    49.1650    34.5050    29.0600    22.1290    25.2650   -19.5190     2.5540 
  122.2500    49.2040    34.8800    29.4720    24.0050    25.5140   -19.4050     2.5480 
  122.3750    46.6480    34.7300    29.5280    28.5500    25.6670   -19.2870     2.5500 
  122.5000    43.7180    33.7240    28.9430    30.8600    25.7210   -19.1510     2.5570 
  122.6250    42.6560    31.9790    27.7610    27.2020    25.7530   -19.0250     2.5600 
  122.7500    43.9970    30.0900    26.3740    20.8630    25.8110   -18.8720     2.5440 
  122.8750    45.0880    28.6950    25.2670    19.2320    25.8550   -18.7070     2.5210 
  123.0000    44.0820    27.9860    24.6210    22.0010    25.8630   -18.5150     2.5090 
  123.1250    42.0850    27.8150    24.3880    26.1220    25.9070   -18.2920     2.5160 
  123.2500    41.6620    27.8050    24.3640    24.1720    25.9960   -18.0340     2.5260 
  123.3750    41.8890    27.5680    24.2520    20.9610    26.0070   -17.7920     2.5230 
