~V
VERS. 2.00: Ver 2.00
~W
STRT.M 47.0000:
STOP.M 242.0000:
STEP.M 0.1250:
NULL. -999.2500:
UWI. F10188:
~C
DEPT.M :
SP.MV :
DEN.GM/CC :
GR.API :
RML.OHMM :
RI. :
RXO.OHMM :
CALI.CM :
~A
# ...
   92.0000   -39.0250     2.1570    76.8570     7.2570     6.6750    10.5530    24.2090 
   92.1250   -38.5140     2.1630    78.3440     7.2360     6.6650    10.2920    24.1750 
   92.2500   -37.9660     2.1660    74.1000     7.1920     6.6300     9.7210    24.1520 
   92.3750   -37.4120     2.1670    69.5670     7.1250     6.5670     9.1700    24.1500 
   92.5000   -36.9570     2.1610    71.1830     7.0380     6.4700     8.9690    24.1730 
   92.6250   -36.5480     2.1530    74.4710     6.9380     6.3480     8.9320    24.1930 
   92.7500   -36.1490     2.1450    75.4600     6.8280     6.2140     8.8670    24.2290 
   92.8750   -35.8010     2.1400    75.1930     6.7220     6.0830     8.2850    24.3030 
   93.0000   -35.5380     2.1420    74.8620     6.6360     5.9830     7.6430    24.3640 
   93.1250   -35.3670     2.1490    75.4940     6.5840     5.9230     7.3670    24.3780 
   93.2500   -35.3380     2.1570    76.8550     6.5790     5.9000     7.5440    24.3520 
   93.3750   -35.4220     2.1630    77.6160     6.6200     5.9050     7.8200    24.3200 
   93.5000   -35.5690     2.1650    78.2120     6.6930     5.9240     7.8640    24.3000 
   93.6250   -35.7490     2.1670    78.3170     6.7610     5.9470     7.6720    24.3000 
   93.7500   -36.0430     2.1700    76.8640     6.8040     5.9760     7.6160    24.3020 
   93.8750   -36.4600     2.1730    74.1950     6.8190     6.0160     7.9950    24.2670 
   94.0000   -37.0020     2.1750    74.9110     6.8290     6.0760     8.4350    24.1560 
   94.1250   -37.5710     2.1750    77.3560     6.8740     6.1600     8.7200    24.0350 
   94.2500   -38.1400     2.1760    77.7990     6.9750     6.2770     8.6880    23.9440 
   94.3750   -38.7240     2.1790    75.8120     7.1390     6.4300     8.5890    23.8790 
   94.5000   -39.2510     2.1800    72.8450     7.3540     6.6210     9.0110    23.8590 
   94.6250   -39.6790     2.1820    70.4730     7.5750     6.8220     9.5680    23.8880 
   94.7500   -39.9750     2.1850    70.4270     7.7700     7.0060     9.8430    24.0220 
   94.8750   -40.1400     2.1860    71.8960     7.9120     7.1460     9.8640    24.3690 
   95.0000   -40.1190     2.1730    70.1730     8.0030     7.2230     9.6160    24.9910 
   95.1250   -39.9600     2.1490    65.3450     8.0760     7.2610     9.5530    25.6310 
   95.2500   -39.7560     2.1260    63.3740     8.1600     7.2870     9.6910    25.9630 
   95.3750   -39.5050     2.1150    66.9720     8.2660     7.3260     9.6090    26.0360 
   95.5000   -39.2740     2.1190    70.2780     8.3960     7.4010     9.3410    26.0600 
   95.6250   -39.0970     2.1270    68.9720     8.5230     7.5030     9.3650    26.1230 
   95.7500   -38.9240     2.1280    66.0090     8.6100     7.6030     9.9330    26.1330 
   95.8750   -38.7240     2.1200    64.8890     8.6240     7.6690    10.5640    25.9980 
   96.0000   -38.5120     2.1130    66.1380     8.5390     7.6650    10.6600    25.7860 
   96.1250   -38.2940     2.1090    68.7300     8.3950     7.6060    10.0840    25.5870 
   96.2500   -38.0390     2.1040    71.7140     8.2470     7.5240     9.4930    25.3700 
   96.3750   -37.7540     2.0970    72.0940     8.1500     7.4600     9.3550    25.0760 
   96.5000   -37.4140     2.1000    70.7620     8.1440     7.4510     9.6380    24.7400 
   96.6250   -37.0000     2.1180    70.9320     8.1770     7.4710     9.6620    24.4310 
   96.7500   -36.5500     2.1470    71.3330     8.1590     7.4630     9.0450    24.2580 
   96.8750   -36.1420     2.1760    70.2170     7.9970     7.3590     8.2110    24.2080 
   97.0000   -35.7700     2.1960    72.0240     7.6470     7.1160     7.8060    24.2320 
   97.1250   -35.4250     2.2090    76.2870     7.2520     6.8180     7.9850    24.2780 
   97.2500   -35.1580     2.2210    78.0680     6.9830     6.5750     8.3730    24.3090 
   97.3750   -35.0070     2.2300    76.4480     6.9760     6.4960     8.6980    24.3270 
   97.5000   -35.0040     2.2290    77.0100     7.3230     6.6780     9.0310    24.3570 
   97.6250   -35.0740     2.2170    77.7730     7.8800     7.0610     9.8750    24.4100 
   97.7500   -35.1950     2.1970    75.3950     8.4730     7.5470    11.1400    24.4400 
   97.8750   -35.3120     2.1760    70.7010     8.8890     7.9820    12.1000    24.4180 
   98.0000   -35.4340     2.1620    65.0340     8.9180     8.1640    11.6070    24.3460 
   98.1250   -35.5200     2.1530    61.1940     8.6630     8.0890    10.0470    24.3300 
   98.2500   -35.4680     2.1510    62.7750     8.2990     7.8460     8.7980    24.3670 
   98.3750   -35.2820     2.1570    71.0680     7.9820     7.5550     8.6380    24.3850 
   98.5000   -34.9540     2.1710    77.3320     7.7900     7.3150     8.9920    24.4170 
   98.6250   -34.6070     2.1840    75.8400     7.6690     7.1420     9.0590    24.5100 
   98.7500   -34.3160     2.1930    70.9970     7.5660     7.0200     8.7570    24.6110 
   98.8750   -34.1220     2.1980    69.4950     7.4590     6.9200     8.4960    24.6910 
   99.0000   -34.0380     2.2010    73.5870     7.3660     6.8350     8.6120    24.8060 
   99.1250   -34.0790     2.2040    75.3480     7.3230     6.7780     9.0040    24.9590 
   99.2500   -34.3180     2.2080    73.0370     7.3460     6.7720     9.1270    25.0780 
   99.3750   -34.6900     2.2130    70.7750     7.4350     6.8310     9.0250    25.1270 
   99.5000   -35.1980     2.2190    70.3890     7.5770     6.9620     8.7820    25.1490 
   99.6250   -35.7980     2.2260    67.5870     7.7220     7.1210     9.0200    25.2080 
   99.7500   -36.4020     2.2330    63.2910     7.8290     7.2690     9.4930    25.3210 
   99.8750   -36.9600     2.2380    62.2910     7.8650     7.3700     9.7640    25.4540 
  100.0000   -37.4410     2.2350    64.7310     7.8000     7.3890     9.2000    25.5350 
  100.1250   -37.8060     2.2190    66.0130     7.6670     7.3370     8.1860    25.5620 
  100.2500   -38.0010     2.1950    66.3640     7.5010     7.2300     7.6260    25.5370 
  100.3750   -38.0530     2.1710    67.0220     7.3400     7.0960     7.9280    25.4530 
  100.5000   -37.9990     2.1550    67.0540     7.2170     6.9680     8.5390    25.3770 
  100.6250   -37.8580     2.1450    65.4680     7.1450     6.8820     8.8100    25.3000 
  100.7500   -37.6650     2.1430    62.8960     7.1280     6.8590     8.9440    25.2250 
  100.8750   -37.4730     2.1490    60.3840     7.1680     6.9060     9.2580    25.1520 
  101.0000   -37.3430     2.1630    60.3370     7.2600     7.0170     9.9800    25.1230 
  101.1250   -37.2780     2.1770    62.1040     7.3660     7.1430    10.3870    25.1450 
  101.2500   -37.1940     2.1860    62.9960     7.4440     7.2460    10.2460    25.1730 
  101.3750   -37.0890     2.1910    61.4410     7.4660     7.2990     9.7310    25.1500 
  101.5000   -36.9830     2.1950    60.0650     7.4210     7.2900     9.2840    25.0640 
  101.6250   -36.8780     2.1990    63.2560     7.3310     7.2360     9.3770    24.9860 
  101.7500   -36.7270     2.1990    68.6040     7.1990     7.1310     9.4720    24.9220 
  101.8750   -36.4900     2.1930    70.7870     7.0260     6.9650     9.1830    24.9170 
  102.0000   -36.1560     2.1860    67.6390     6.8280     6.7400     8.6830    25.0760 
  102.1250   -35.7760     2.1860    64.9130     6.6490     6.5100     8.1810    25.1360 
  102.2500   -35.4790     2.1940    65.5370     6.5430     6.3330     8.0580    24.9490 
  102.3750   -35.3120     2.2060    68.5500     6.5600     6.2660     8.2680    24.7480 
  102.5000   -35.2270     2.2090    70.3030     6.7510     6.3750     8.6190    24.8050 
  102.6250   -35.1480     2.1970    70.4140     7.0700     6.6300     9.1650    24.9280 
  102.7500   -35.1050     2.1780    68.6570     7.4510     6.9760     9.8500    24.9820 
  102.8750   -35.0930     2.1630    66.0660     7.7860     7.3160    10.7010    25.0040 
  103.0000   -35.1640     2.1480    64.3970     7.9340     7.5130    11.4890    25.0540 
  103.1250   -35.3310     2.1290    64.1840     7.8910     7.5310    11.6980    25.0460 
