~V
VERS. 2.00: Ver 2.00
~W
STRT.M 50.0000:
STOP.M 200.0000:
STEP.M 0.1250:
NULL. -999.2500:
UWI. F10131:
~C
DEPT.M :
GR.API :
RML.OHMM :
RI. :
RXO.OHMM :
CALI.CM :
SP.MV :
DEN.GM/CC :
~A
# ...
   72.5000    71.6320     7.4190     6.0180     9.8210    24.8520   -20.5330     2.1690 
   72.6250    66.7090     7.6610     6.1630     9.8170    24.8210   -20.1240     2.1790 
   72.7500    64.0460     7.9690     6.3760     9.9270    24.9080   -19.6970     2.1940 
   72.8750    62.4950     8.2750     6.6270    10.2190    25.0410   -19.2790     2.2080 
   73.0000    61.7300     8.5060     6.8660    10.6350    25.1170   -18.8730     2.2180 
   73.1250    63.8140     8.5790     7.0170    11.5060    25.1190   -18.5080     2.2170 
   73.2500    67.4400     8.5100     7.0550    11.8440    25.0920   -18.1960     2.2100 
   73.3750    69.5170     8.3340     6.9850    10.9040    25.0730   -17.9510     2.2040 
   73.5000    70.6440     8.1080     6.8410    10.0040    25.0370   -17.8350     2.2020 
   73.6250    71.7230     7.8910     6.6720     9.7840    24.9350   -17.8700     2.2030 
   73.7500    69.5000     7.7080     6.5180     9.8510    24.8330   -18.0120     2.2030 
   73.8750    64.5170     7.5510     6.3890     9.9190    24.8450   -18.2090     2.1950 
   74.0000    62.8110     7.3900     6.2710     9.8590    24.9600   -18.3850     2.1800 
   74.1250    68.0200     7.1800     6.1250     9.5630    25.1680   -18.4080     2.1650 
   74.2500    72.8210     6.9000     5.9150     9.3390    25.3190   -18.2440     2.1600 
   74.3750    73.2620     6.5500     5.6250     9.0240    25.3600   -17.8840     2.1720 
   74.5000    75.9250     6.1540     5.2690     8.3800    25.3560   -17.3290     2.2030 
   74.6250    88.8530     5.7740     4.9040     7.2690    25.2470   -16.6220     2.2470 
   74.7500   102.2920     5.4840     4.6070     6.1280    25.0430   -15.8880     2.2850 
   74.8750   106.8330     5.3450     4.4320     5.3740    24.9250   -15.2640     2.3060 
   75.0000   102.8920     5.3900     4.4070     5.2760    24.9510   -14.8450     2.3050 
   75.1250    95.4450     5.6360     4.5480     5.9490    25.1260   -14.8020     2.2840 
   75.2500    86.4190     6.0000     4.7990     7.0770    25.3470   -15.0830     2.2560 
   75.3750    77.9460     6.4130     5.1230     8.0170    25.5990   -15.6110     2.2270 
   75.5000    73.9310     6.8130     5.4830     8.4660    25.7970   -16.2670     2.1980 
   75.6250    74.0970     7.1120     5.8220     8.8330    25.9630   -16.8880     2.1680 
   75.7500    73.0410     7.2510     6.0680     9.2830    26.0340   -17.2860     2.1410 
   75.8750    72.3500     7.1750     6.1510     9.9330    25.9940   -17.3040     2.1220 
   76.0000    76.0830     6.8730     6.0270    10.1190    25.8360   -16.8710     2.1190 
   76.1250    84.5080     6.3980     5.6910     8.7980    25.7510   -15.8750     2.1420 
   76.2500    93.1370     5.9150     5.2710     6.6720    25.7180   -14.5330     2.1840 
   76.3750   101.5140     5.5390     4.8750     5.2990    25.6630   -13.0270     2.2340 
   76.5000   107.1890     5.3390     4.5850     4.9630    25.5460   -11.5240     2.2780 
   76.6250   107.0160     5.3410     4.4680     5.1620    25.3820   -10.1510     2.3010 
   76.7500   104.2010     5.4640     4.4860     5.3140    25.2630    -8.9820     2.3080 
   76.8750   100.4360     5.6420     4.5980     5.3650    25.1900    -8.0840     2.3060 
   77.0000    95.1330     5.8200     4.7490     5.4410    25.0710    -7.4960     2.3020 
   77.1250    90.2510     5.9520     4.8860     5.6490    24.8960    -7.2430     2.2960 
   77.2500    90.3560     6.0380     4.9820     5.8320    24.7550    -7.1880     2.2870 
   77.3750    93.1350     6.0850     5.0360     5.8420    24.7830    -7.2610     2.2760 
   77.5000    92.9050     6.1090     5.0610     5.7010    24.8830    -7.4110     2.2670 
   77.6250    88.8780     6.1250     5.0770     5.6760    24.9170    -7.6290     2.2650 
   77.7500    84.4250     6.1490     5.0990     5.7410    24.9860    -7.9140     2.2700 
   77.8750    81.1660     6.1910     5.1320     5.9200    25.1300    -8.2500     2.2730 
   78.0000    79.9850     6.2550     5.1710     6.2930    25.3190    -8.6370     2.2680 
   78.1250    80.5730     6.3450     5.2110     6.6090    25.5050    -9.0920     2.2510 
   78.2500    79.7270     6.4590     5.2540     6.7510    25.6160    -9.6110     2.2300 
   78.3750    77.9020     6.6050     5.3120     6.7740    25.6470   -10.1480     2.2110 
   78.5000    76.5930     6.7980     5.4020     6.9480    25.6350   -10.6700     2.1990 
   78.6250    76.1590     7.0590     5.5510     7.4390    25.6070   -11.1760     2.1960 
   78.7500    74.2760     7.3750     5.7560     7.8300    25.5920   -11.6620     2.1970 
   78.8750    72.4850     7.7310     6.0080     8.0360    25.5540   -12.1380     2.2010 
   79.0000    73.6690     8.0940     6.2840     8.4750    25.4570   -12.6050     2.2030 
   79.1250    75.4310     8.4070     6.5460     8.6910    25.3380   -13.0990     2.1990 
   79.2500    75.1310     8.6250     6.7550     8.4300    25.2150   -13.6330     2.1880 
   79.3750    73.1450     8.7180     6.8860     8.0650    25.0780   -14.2130     2.1740 
   79.5000    71.8430     8.6790     6.9260     8.2990    24.9310   -14.8320     2.1630 
   79.6250    71.6970     8.5140     6.8720     8.9020    24.8870   -15.5040     2.1570 
   79.7500    71.8020     8.2920     6.7630     9.3060    24.8780   -16.2120     2.1550 
   79.8750    72.7980     8.0580     6.6280     9.6640    24.8570   -16.9240     2.1530 
   80.0000    74.0090     7.8470     6.4900    10.0540    24.8260   -17.6160     2.1500 
   80.1250    72.3810     7.6860     6.3680    10.4180    24.8260   -18.2320     2.1470 
   80.2500    68.6440     7.5700     6.2670    10.4060    24.9000   -18.7450     2.1460 
   80.3750    66.8130     7.4940     6.1860    10.1360    25.0100   -19.1430     2.1450 
   80.5000    69.3820     7.4420     6.1230     9.7870    25.0870   -19.4100     2.1430 
   80.6250    71.4280     7.3990     6.0750     9.4160    25.0780   -19.4940     2.1380 
   80.7500    68.9740     7.3420     6.0310     9.2750    25.0470   -19.3890     2.1360 
   80.8750    65.4220     7.2530     5.9780     9.1870    25.0280   -19.0870     2.1410 
   81.0000    65.6130     7.1280     5.9040     9.3510    25.0400   -18.5980     2.1570 
   81.1250    68.8800     6.9850     5.8070     9.5270    25.0950   -17.8890     2.1900 
   81.2500    71.9050     6.8610     5.7110     9.5660    25.1420   -17.0050     2.2260 
   81.3750    74.8470     6.7740     5.6310     9.1720    25.1480   -15.9980     2.2510 
   81.5000    77.6270     6.7130     5.5660     8.4620    25.0990   -14.9420     2.2510 
   81.6250    79.1190     6.6360     5.4910     8.2480    25.1190   -13.8530     2.2220 
   81.7500    79.5980     6.5010     5.3760     8.5110    25.3200   -12.7210     2.1870 
   81.8750    81.3810     6.2900     5.2050     8.2830    25.5020   -11.5340     2.1660 
   82.0000    85.6780     6.0070     4.9810     6.9500    25.4880   -10.3530     2.1720 
   82.1250    90.3590     5.6880     4.7230     5.6330    25.3650    -9.3290     2.2060 
   82.2500    93.9830     5.3980     4.4750     5.6830    25.2910    -8.4790     2.2470 
   82.3750    96.7190     5.2090     4.2820     5.6600    25.3030    -7.7980     2.2790 
   82.5000    97.6330     5.2000     4.1980     5.0690    25.3490    -7.2700     2.2940 
   82.6250    94.7890     5.4940     4.3190     4.6800    25.3900    -6.9600     2.2990 
   82.7500    89.1020     6.0830     4.6640     4.9580    25.4630    -6.9220     2.3170 
   82.8750    82.7730     6.9290     5.2390     6.0720    25.5760    -7.2180     2.3590 
   83.0000    76.7390     7.9070     5.9950     9.3830    25.6160    -7.8070     2.4150 
   83.1250    71.3910     8.7620     6.7830    20.3870    25.3720    -8.6250     2.4510 
   83.2500    69.3640     9.2750     7.3910    27.9660    25.0180    -9.5680     2.4430 
   83.3750    71.3550     9.3630     7.6880    20.7200    24.7770   -10.5620     2.3920 
   83.5000    75.0420     9.1090     7.6610    12.7820    24.6920   -11.5180     2.3200 
   83.6250    75.6820     8.7170     7.4090    10.3710    24.7010   -12.3510     2.2580 
