~V
VERS. 2.00: Ver 2.00
~W
STRT.M 50.0000:
STOP.M 233.0000:
STEP.M 0.1250:
NULL. -999.2500:
UWI. F10166:
~C
DEPT.M :
SP.MV :
DEN.GM/CC :
GR.API :
RML.OHMM :
RI. :
RXO.OHMM :
CALI.CM :
~A
# ...
  140.0000   -13.8970     2.4320    82.0240    15.2890    12.7580    11.6520    25.0200 
  140.1250   -13.7540     2.4280    83.6440    15.9030    13.1760    12.8680    25.1290 
  140.2500   -13.5940     2.4310    81.3140    16.6370    13.7240    13.8010    25.2310 
  140.3750   -13.4480     2.4440    77.1900    17.2630    14.2250    14.1930    25.3000 
  140.5000   -13.3050     2.4660    73.3740    17.4790    14.4310    14.4240    25.3360 
  140.6250   -13.2030     2.4830    70.8670    16.9060    14.0250    14.8230    25.3530 
  140.7500   -13.1160     2.4760    71.2340    15.6650    13.0840    14.0370    25.3600 
  140.8750   -13.0530     2.4370    75.3180    14.0380    11.8200    11.4270    25.3620 
  141.0000   -13.0020     2.3710    80.4510    12.4160    10.5220     8.5790    25.3740 
  141.1250   -12.9600     2.3010    82.6590    11.2070     9.4990     7.5070    25.4680 
  141.2500   -12.9210     2.2460    81.8740    10.4900     8.8370     7.7520    25.6750 
  141.3750   -12.8920     2.2110    79.5940    10.2190     8.5290     8.2220    25.9200 
  141.5000   -12.8750     2.1890    77.8070    10.2620     8.5040     8.3000    26.0920 
  141.6250   -12.9050     2.1680    77.3320    10.4630     8.6660     8.1980    26.1100 
  141.7500   -12.9550     2.1490    77.2780    10.6660     8.8730     8.0990    25.9690 
  141.8750   -13.0340     2.1450    77.5390    10.7920     9.0420     7.8790    25.7060 
  142.0000   -13.1100     2.1710    78.3210    10.7680     9.0970     7.6850    25.4450 
  142.1250   -13.1980     2.2340    79.3130    10.4660     8.9190     7.9060    25.3610 
  142.2500   -13.2720     2.3050    77.3640     9.8720     8.4900     8.0250    25.3930 
  142.3750   -13.3500     2.3500    75.2120     9.0440     7.8450     7.2720    25.4270 
  142.5000   -13.4390     2.3540    77.8790     8.1410     7.0990     5.8400    25.4340 
  142.6250   -13.5420     2.3230    84.1690     7.3980     6.4210     4.8330    25.4290 
  142.7500   -13.6540     2.2900    87.0060     6.9140     5.9110     4.4740    25.4260 
  142.8750   -13.7610     2.2670    85.3450     6.6880     5.5980     4.4290    25.4260 
  143.0000   -13.8690     2.2570    83.6620     6.6470     5.4600     4.4240    25.4250 
  143.1250   -13.9450     2.2550    84.1660     6.6860     5.4510     4.4010    25.4330 
  143.2500   -13.9930     2.2570    83.5820     6.7160     5.4880     4.3720    25.4550 
  143.3750   -14.0080     2.2600    81.9310     6.7340     5.5400     4.3660    25.4910 
  143.5000   -14.0160     2.2620    79.9120     6.7690     5.6020     4.3970    25.5330 
  143.6250   -14.0130     2.2620    79.0790     6.8510     5.6740     4.4610    25.5670 
  143.7500   -14.0290     2.2590    79.7400     6.9560     5.7440     4.5450    25.5910 
  143.8750   -14.0410     2.2550    80.2940     7.0560     5.7960     4.6310    25.6060 
  144.0000   -14.0640     2.2510    79.8430     7.1250     5.8120     4.7010    25.6170 
  144.1250   -14.0530     2.2500    79.4610     7.1370     5.7770     4.7250    25.6270 
  144.2500   -14.0350     2.2520    79.7750     7.1020     5.7090     4.7090    25.6380 
  144.3750   -13.9960     2.2570    79.6820     7.0320     5.6270     4.6740    25.6480 
  144.5000   -13.9620     2.2640    81.0590     6.9570     5.5540     4.6670    25.6630 
  144.6250   -13.9210     2.2680    85.4930     6.9190     5.5180     4.7120    25.7000 
  144.7500   -13.9100     2.2700    89.1100     6.9430     5.5310     4.8020    25.7600 
  144.8750   -13.9140     2.2680    88.9780     7.0520     5.6110     4.9380    25.8280 
  145.0000   -13.9450     2.2630    85.6850     7.2600     5.7700     5.1070    25.8860 
  145.1250   -13.9720     2.2620    82.2690     7.5770     6.0230     5.3500    25.9180 
  145.2500   -14.0080     2.2670    81.2410     7.9390     6.3260     5.7160    25.9280 
  145.3750   -14.0270     2.2760    84.3250     8.2630     6.6220     6.1750    25.9260 
  145.5000   -14.0340     2.2830    88.0230     8.4450     6.8380     6.4660    25.9170 
  145.6250   -14.0030     2.2820    87.4150     8.3740     6.8770     6.2730    25.8870 
  145.7500   -13.9750     2.2760    84.0920     8.1200     6.7570     5.8590    25.8400 
  145.8750   -13.9380     2.2690    82.2570     7.7930     6.5350     5.4880    25.8000 
  146.0000   -13.9120     2.2660    82.9070     7.5030     6.2900     5.2190    25.7920 
  146.1250   -13.8820     2.2640    85.0800     7.3200     6.0940     5.0220    25.8130 
  146.2500   -13.8700     2.2590    88.2580     7.2040     5.9580     4.9120    25.8180 
  146.3750   -13.8580     2.2500    90.8530     7.0970     5.8560     4.8740    25.7720 
  146.5000   -13.8490     2.2380    92.5930     6.9540     5.7540     4.7660    25.6810 
  146.6250   -13.8480     2.2300    96.5480     6.7720     5.6310     4.5240    25.5960 
  146.7500   -13.8510     2.2270   103.0450     6.6220     5.5120     4.2730    25.5360 
  146.8750   -13.8590     2.2280   108.1790     6.5780     5.4410     4.1540    25.4780 
  147.0000   -13.8870     2.2350   109.5470     6.6920     5.4630     4.2200    25.4130 
  147.1250   -13.9440     2.2450   107.2650     7.0030     5.6200     4.5070    25.3670 
  147.2500   -14.0340     2.2490   102.2920     7.4220     5.8750     4.9350    25.3380 
  147.3750   -14.1480     2.2440    97.1040     7.8520     6.1760     5.3720    25.2910 
  147.5000   -14.2770     2.2320    95.7630     8.1920     6.4550     5.6520    25.1970 
  147.6250   -14.4000     2.2220    96.2510     8.3740     6.6510     5.7190    25.0840 
  147.7500   -14.5100     2.2180    94.4470     8.4860     6.7890     5.8210    25.0070 
  147.8750   -14.6090     2.2220    91.4980     8.6700     6.9520     6.0930    24.9780 
  148.0000   -14.6970     2.2270    89.6170     9.0930     7.2480     6.4800    24.9750 
  148.1250   -14.7790     2.2280    87.9170     9.9680     7.8330     7.2220    24.9790 
  148.2500   -14.8750     2.2260    85.1000    11.2830     8.7360     8.7300    24.9840 
  148.3750   -14.9840     2.2260    82.1660    12.9680     9.9480    11.1130    24.9920 
  148.5000   -15.1050     2.2310    79.5840    14.8200    11.3640    13.6230    25.0140 
  148.6250   -15.2320     2.2360    77.4740    16.4000    12.7070    14.7040    25.0540 
  148.7500   -15.3500     2.2400    76.9540    17.3310    13.6380    14.6230    25.0900 
  148.8750   -15.4450     2.2400    79.0150    17.4410    13.9510    14.1880    25.1040 
  149.0000   -15.5110     2.2400    82.8040    16.8580    13.6800    13.4580    25.0980 
  149.1250   -15.5770     2.2420    85.7220    15.9420    13.0640    12.0710    25.0920 
  149.2500   -15.6530     2.2470    87.2890    15.1200    12.4530    10.6310    25.1030 
  149.3750   -15.7550     2.2530    87.1830    14.5680    11.9940    10.0830    25.1420 
  149.5000   -15.8660     2.2570    83.8090    14.3500    11.7600    10.9450    25.2140 
  149.6250   -15.9850     2.2550    76.8530    14.5370    11.8410    12.2110    25.2950 
  149.7500   -16.0700     2.2510    73.0100    15.0830    12.2270    12.0950    25.3550 
  149.8750   -16.1310     2.2490    73.2920    16.0760    12.9700    11.7190    25.3940 
  150.0000   -16.1550     2.2490    73.7280    17.6590    14.1510    13.3220    25.4340 
  150.1250   -16.1600     2.2530    71.2030    20.0240    15.9260    17.5740    25.4830 
  150.2500   -16.1470     2.2570    67.6930    22.8980    18.1660    21.3890    25.5280 
  150.3750   -16.1420     2.2610    65.1600    25.8520    20.6420    23.1190    25.5640 
  150.5000   -16.1400     2.2620    61.4520    28.2420    22.8980    24.3600    25.6000 
  150.6250   -16.1590     2.2580    56.5330    29.2020    24.1760    25.7150    25.6350 
  150.7500   -16.1740     2.2470    55.1080    28.8610    24.3670    26.2850    25.6550 
  150.8750   -16.1860     2.2330    59.2790    27.7400    23.7770    24.6360    25.6600 
  151.0000   -16.1810     2.2210    65.7220    26.5070    22.9180    21.2060    25.6600 
  151.1250   -16.1700     2.2170    67.0540    25.8480    22.3390    19.6100    25.6600 
