~V
VERS. 2.00: Ver 2.00
~W
STRT.M 59.0000:
STOP.M 216.0000:
STEP.M 0.1250:
NULL. -999.2500:
UWI. F10129:
~C
DEPT.M :
GR.API :
RML.OHMM :
RI. :
RXO.OHMM :
CALI.CM :
DEN.GM/CC :
SP.MV :
~A
# ...
  160.2500    71.0090   150.4560   152.2350    89.5070    24.2430     2.2170   -10.3950 
  160.3750    70.4780   131.6550   134.7200   115.6260    24.2890     2.2220    -9.4810 
  160.5000    71.4330   115.0940   118.9590   104.7440    24.3380     2.2210    -8.9820 
  160.6250    71.7430   100.3490   104.4940    85.2580    24.3080     2.2180    -9.1010 
  160.7500    70.4170    86.8480    90.6310    78.4580    24.2350     2.2190    -9.7060 
  160.8750    69.1980    74.8570    77.6930    79.4520    24.1630     2.2280   -10.5080 
  161.0000    70.0960    65.0650    66.7170    78.2690    24.1350     2.2420   -11.2410 
  161.1250    73.3730    58.9310    59.4240    82.3030    24.2260     2.2610   -11.7770 
  161.2500    76.3550    56.7750    56.0750    71.4290    24.3520     2.2780   -12.1690 
  161.3750    76.2700    59.3020    57.3770    52.9320    24.4650     2.2880   -12.3400 
  161.5000    73.5180    67.7420    64.3700    52.8150    24.5610     2.2830   -12.3120 
  161.6250    70.3840    84.0580    79.7000    71.7610    24.6510     2.2610   -11.9240 
  161.7500    65.4400   106.3130   103.5220   107.7600    24.7720     2.2370   -11.1630 
  161.8750    58.8750   134.7680   136.1660   166.9620    24.8350     2.2310   -10.2260 
  162.0000    54.3880   170.8450   176.2140   215.3000    24.7860     2.2590    -9.3150 
  162.1250    54.5690   214.4350   220.1180   257.9260    24.7040     2.3250    -8.4710 
  162.2500    55.1450   258.5040   262.1240   326.1180    24.7350     2.4100    -7.7080 
  162.3750    55.1360   296.9340   298.0930   479.3910    24.7890     2.4930    -7.1270 
  162.5000    54.5660   326.1320   324.4860   612.8220    24.8090     2.5650    -6.6040 
  162.6250    54.0470   339.0040   336.9300   588.0500    24.8370     2.6170    -6.0440 
  162.7500    54.9180   328.0410   333.8390   544.5190    24.8880     2.6540    -5.4910 
  162.8750    57.1180   284.8380   303.0330   500.9600    24.9350     2.6790    -4.9370 
  163.0000    58.1520   213.3950   233.7550   407.0610    24.9410     2.6940    -4.4430 
  163.1250    56.6440   136.0120   146.0910   291.6520    24.9170     2.6970    -4.0200 
  163.2500    55.7570    76.6190    79.0470   153.2100    24.8480     2.6810    -3.6360 
  163.3750    58.0830    40.2590    39.6660    49.7070    24.7120     2.6370    -3.2620 
  163.5000    62.7610    21.1210    19.9980    13.7700    24.5930     2.5650    -2.9730 
  163.6250    65.7550    12.7080    12.1070     7.0000    24.5780     2.4800    -2.8670 
  163.7500    65.6990     8.7160     8.5410     5.6060    24.5410     2.4100    -2.8430 
  163.8750    64.0640     7.0410     6.9410     5.9240    24.4920     2.3680    -2.8570 
  164.0000    62.2690     6.5070     6.3180     6.1110    24.4080     2.3560    -2.8880 
  164.1250    59.0330     6.5250     6.2910     5.8210    24.3390     2.3670    -3.0010 
  164.2500    56.5390     6.6960     6.4800     5.8230    24.2980     2.3810    -3.1890 
  164.3750    56.2980     6.8700     6.7050     5.9650    24.2660     2.3910    -3.4210 
  164.5000    57.2710     6.9950     6.8770     6.1460    24.2300     2.3910    -3.6920 
  164.6250    56.9540     7.0630     6.9730     6.4500    24.2230     2.3820    -3.9300 
  164.7500    56.5470     7.0950     7.0120     6.9400    24.2350     2.3720    -4.1000 
  164.8750    57.1050     7.0970     6.9970     7.4350    24.2690     2.3670    -4.2740 
  165.0000    58.2190     7.0650     6.9310     7.7150    24.2810     2.3730    -4.4360 
  165.1250    59.6230     7.0010     6.8090     7.4320    24.2580     2.3900    -4.4880 
  165.2500    60.5780     6.9210     6.6430     6.8830    24.2680     2.4110    -4.5180 
  165.3750    61.6230     6.8440     6.4540     6.5200    24.2950     2.4290    -4.5080 
  165.5000    63.7350     6.7900     6.2710     6.2750    24.3390     2.4390    -4.4100 
  165.6250    64.4670     6.7830     6.1300     5.9640    24.3400     2.4350    -4.2990 
  165.7500    61.5080     6.8240     6.0430     5.9070    24.3390     2.4200    -4.2570 
  165.8750    57.0300     6.9080     6.0080     6.0880    24.3620     2.3990    -4.2830 
  166.0000    56.9150     7.0170     6.0090     6.1760    24.4390     2.3780    -4.3710 
  166.1250    61.4570     7.1170     6.0180     6.0890    24.6150     2.3670    -4.4740 
  166.2500    64.4520     7.1760     6.0030     6.0690    24.7940     2.3660    -4.5730 
  166.3750    63.2230     7.1870     5.9550     6.1230    24.9250     2.3710    -4.6920 
  166.5000    59.0170     7.1700     5.8900     6.1110    24.9850     2.3740    -4.8610 
  166.6250    56.6090     7.1860     5.8590     6.0720    25.0320     2.3700    -5.1100 
  166.7500    56.1440     7.2890     5.9040     6.0080    25.0270     2.3620    -5.3900 
  166.8750    55.8030     7.5020     6.0470     6.2230    24.9950     2.3550    -5.6880 
  167.0000    54.9090     7.8080     6.2780     6.7470    24.9630     2.3510    -6.0100 
  167.1250    55.0640     8.1300     6.5410     7.1920    24.9360     2.3470    -6.3690 
  167.2500    56.6170     8.3610     6.7390     7.1700    24.9290     2.3430    -6.6440 
  167.3750    58.1750     8.4270     6.7970     6.8520    24.9190     2.3370    -6.7950 
  167.5000    58.8470     8.3050     6.6890     6.7830    24.8890     2.3320    -6.8920 
  167.6250    56.7830     8.0320     6.4440     6.9680    24.7990     2.3360    -6.9060 
  167.7500    53.7660     7.7460     6.1830     7.0030    24.6710     2.3470    -6.8200 
  167.8750    51.8930     7.5540     5.9930     6.8360    24.5550     2.3620    -6.6600 
  168.0000    51.4760     7.5310     5.9290     6.8230    24.5230     2.3760    -6.4210 
  168.1250    51.1800     7.7250     6.0270     6.7490    24.5610     2.3810    -6.2030 
  168.2500    51.4870     8.0500     6.2330     6.7720    24.6280     2.3770    -6.1280 
  168.3750    52.6850     8.4110     6.4860     7.0390    24.7750     2.3680    -6.1360 
  168.5000    53.5630     8.7150     6.7150     7.2110    24.8990     2.3570    -6.2060 
  168.6250    54.9220     8.8800     6.8470     7.0860    24.9100     2.3460    -6.3330 
  168.7500    58.8470     8.9300     6.8910     7.0140    24.8180     2.3360    -6.5650 
  168.8750    63.6540     8.9090     6.8760     6.9930    24.6230     2.3300    -6.9340 
  169.0000    67.0280     8.8630     6.8360     6.9020    24.3370     2.3300    -7.4010 
  169.1250    69.7840     8.8280     6.7940     6.9860    24.1500     2.3410    -7.9660 
  169.2500    73.3850     8.8210     6.7590     7.1040    24.1310     2.3570    -8.5990 
  169.3750    78.8290     8.8600     6.7430     7.1390    24.1420     2.3710    -9.3210 
  169.5000    86.3940     8.9560     6.7620     7.1120    24.1870     2.3720   -10.0850 
  169.6250    92.3570     9.1120     6.8280     7.0270    24.2770     2.3540   -10.8510 
  169.7500    92.4560     9.2880     6.9220     7.0250    24.4870     2.3270   -11.5380 
  169.8750    89.4540     9.4480     7.0190     7.3800    24.7660     2.3010   -12.1380 
  170.0000    90.0100     9.5680     7.0980     7.7800    25.0460     2.2830   -12.7040 
  170.1250    95.1690     9.6500     7.1510     7.7360    25.2390     2.2760   -13.1780 
  170.2500   100.1840     9.7430     7.2050     7.4050    25.3840     2.2740   -13.5820 
  170.3750   103.1110     9.8880     7.2900     7.4870    25.4440     2.2720   -13.9970 
  170.5000   103.1230    10.1050     7.4270     8.0650    25.3010     2.2720   -14.4020 
  170.6250    99.7740    10.3790     7.6210     8.5600    25.1890     2.2770   -14.7550 
  170.7500    97.5850    10.6450     7.8270     8.8430    25.1590     2.2900   -15.1660 
  170.8750    98.8490    10.8580     8.0050     8.9850    25.1810     2.3070   -15.5630 
  171.0000    98.6550    11.0000     8.1270     9.0590    25.2050     2.3270   -15.8910 
  171.1250    94.0670    11.0810     8.1860     9.1480    25.1970     2.3450   -16.2320 
  171.2500    91.8470    11.1460     8.2190     9.1780    25.2010     2.3600   -16.4760 
  171.3750    95.4940    11.2230     8.2500     9.1520    25.1990     2.3730   -16.5720 
