~V
VERS. 2.00: Ver 2.00
~W
STRT.M 52.0000:
STOP.M 233.0000:
STEP.M 0.1250:
NULL. -999.2500:
UWI. F10175:
~C
DEPT.M :
GR.API :
RML.OHMM :
RI. :
RXO.OHMM :
CALI.CM :
DEN.GM/CC :
SP.MV :
~A
# ...
  142.0000    57.5910     6.3640     6.3270     7.9590    24.5350     2.5430   -11.2540 
  142.1250    59.6340     6.2510     6.1900     7.7800    24.4760     2.5420   -11.1990 
  142.2500    61.1890     6.1430     6.0660     7.9640    24.4500     2.5430   -11.2280 
  142.3750    59.7720     6.0270     5.9290     8.7320    24.4390     2.5440   -11.4030 
  142.5000    58.3140     5.9110     5.7710     8.8100    24.4310     2.5400   -11.6870 
  142.6250    61.6180     5.8810     5.6530     8.0870    24.4310     2.5200   -12.1560 
  142.7500    66.2510     6.0600     5.6850     6.9310    24.3550     2.4830   -12.7450 
  142.8750    67.7490     6.5890     5.9910     6.5830    24.1040     2.4340   -13.4020 
  143.0000    65.2890     7.5780     6.7070     7.8030    23.6980     2.3830   -14.1010 
  143.1250    62.6220     9.2390     8.0570    10.2990    23.3180     2.3410   -14.7600 
  143.2500    62.3310    11.6010    10.0040    13.6440    23.2210     2.3100   -15.3330 
  143.3750    62.9830    14.6110    12.4180    17.4860    23.3160     2.2880   -15.7700 
  143.5000    62.4570    17.8790    14.9650    19.8210    23.4760     2.2730   -16.1060 
  143.6250    62.0630    20.6810    17.1280    20.3220    23.5990     2.2610   -16.2970 
  143.7500    64.5630    22.7830    18.7730    20.3900    23.6130     2.2500   -16.4260 
  143.8750    67.6640    24.4310    20.0920    20.7830    23.4940     2.2380   -16.5170 
  144.0000    66.2110    26.0430    21.4040    22.1630    23.3290     2.2270   -16.5850 
  144.1250    61.8900    27.8990    22.9930    24.2040    23.2590     2.2200   -16.6420 
  144.2500    61.4030    29.8700    24.8130    26.1020    23.2780     2.2180   -16.6880 
  144.3750    63.0310    31.6660    26.6170    26.5220    23.3100     2.2220   -16.7450 
  144.5000    62.9700    32.9320    28.0190    26.3680    23.3020     2.2300   -16.7920 
  144.6250    62.3200    33.2430    28.5100    27.1340    23.2450     2.2390   -16.7970 
  144.7500    63.7530    32.7320    28.1620    28.1820    23.2170     2.2490   -16.7600 
  144.8750    65.7770    31.6670    27.2520    27.4780    23.2070     2.2580   -16.6300 
  145.0000    67.7670    30.4590    26.2020    24.5810    23.2070     2.2650   -16.4560 
  145.1250    70.4130    29.6110    25.4870    22.5490    23.2070     2.2690   -16.2600 
  145.2500    72.1870    29.3580    25.3170    21.3320    23.2090     2.2670   -16.1130 
  145.3750    72.7180    29.7600    25.7590    21.0920    23.2100     2.2620   -15.9750 
  145.5000    74.9020    30.7240    26.7580    21.4240    23.2110     2.2570   -15.8410 
  145.6250    79.6810    32.0770    28.1830    21.8400    23.2110     2.2540   -15.7290 
  145.7500    82.4150    33.4880    29.7060    21.7130    23.2120     2.2550   -15.6050 
  145.8750    82.5120    34.7290    31.0950    21.3870    23.2140     2.2570   -15.5340 
  146.0000    80.8590    35.6080    32.1530    21.3000    23.2120     2.2590   -15.4720 
  146.1250    77.9650    35.8830    32.6420    21.3180    23.2120     2.2610   -15.4190 
  146.2500    75.5880    35.5660    32.5390    21.2090    23.2170     2.2640   -15.3100 
  146.3750    73.5440    34.6960    31.8280    21.0750    23.2430     2.2700   -15.1630 
  146.5000    71.6770    33.4320    30.6380    21.0190    23.3060     2.2800   -15.0130 
  146.6250    70.2310    32.0810    29.2650    21.2760    23.4040     2.2950   -14.8110 
  146.7500    69.9150    31.0420    28.1280    20.6260    23.5050     2.3100   -14.5950 
  146.8750    71.4220    30.6200    27.5270    19.0370    23.5870     2.3230   -14.3460 
  147.0000    74.9080    31.0240    27.6830    17.3440    23.5780     2.3310   -14.0940 
  147.1250    79.0830    32.4450    28.8370    18.9370    23.4490     2.3320   -13.8920 
  147.2500    79.7790    34.5640    30.7520    19.0080    23.3240     2.3260   -13.8090 
  147.3750    73.8980    37.0640    33.1630    19.3510    23.2820     2.3140   -13.9060 
  147.5000    65.4280    39.5550    35.6650    20.9410    23.3100     2.2980   -14.2430 
  147.6250    61.2800    41.5940    37.7020    23.8290    23.3970     2.2820   -14.8960 
  147.7500    62.7270    43.0790    39.0690    25.9570    23.4840     2.2720   -15.7760 
  147.8750    66.6610    44.0960    39.8430    25.8530    23.5130     2.2680   -16.7920 
  148.0000    70.1200    44.8830    40.2910    24.3650    23.4750     2.2690   -17.8340 
  148.1250    71.1880    45.7780    40.7710    24.0070    23.3510     2.2730   -18.8200 
  148.2500    68.8900    46.9990    41.5670    24.4090    23.2150     2.2720   -19.7390 
  148.3750    64.8550    48.5980    42.7910    24.5070    23.1150     2.2640   -20.5990 
  148.5000    62.5710    50.4660    44.3940    23.6750    23.0790     2.2510   -21.2820 
  148.6250    61.5940    52.3160    46.1670    23.1390    23.0810     2.2370   -21.7440 
  148.7500    59.3450    53.8100    47.7510    22.7240    23.1120     2.2270   -21.9840 
  148.8750    56.4330    54.7170    48.8600    23.6030    23.1670     2.2250   -22.0780 
  149.0000    56.4760    54.9600    49.3340    24.5660    23.2030     2.2290   -22.0970 
  149.1250    59.1010    54.5780    49.1710    24.9920    23.1450     2.2370   -22.0370 
  149.2500    60.3950    53.9230    48.7480    24.9710    23.0670     2.2450   -21.8580 
  149.3750    60.7630    53.1920    48.3350    23.8520    23.0400     2.2490   -21.5760 
  149.5000    61.4110    52.4060    48.0620    22.1920    23.1370     2.2500   -21.2950 
  149.6250    61.8020    51.2410    47.7090    23.3150    23.2370     2.2470   -21.1380 
  149.7500    62.2090    49.3120    46.6820    27.2720    23.1580     2.2470   -21.0300 
  149.8750    65.2540    46.4450    44.4240    30.9800    22.9100     2.2520   -20.9070 
  150.0000    69.9090    42.8330    40.8800    32.8330    22.7320     2.2630   -20.7770 
  150.1250    71.6440    39.0010    36.7430    32.0330    22.8340     2.2770   -20.6580 
  150.2500    71.0660    35.6770    33.1920    28.5810    23.2770     2.2870   -20.5410 
  150.3750    71.2570    33.4290    30.9070    23.0920    23.9720     2.2910   -20.3960 
  150.5000    71.2330    32.5590    30.1320    22.7500    24.5580     2.2900   -20.1170 
  150.6250    69.0500    33.0160    30.8530    27.7520    24.7850     2.2860   -19.6560 
  150.7500    67.4640    33.9310    32.2280    33.1170    24.6910     2.2800   -19.2080 
  150.8750    67.6000    34.6720    33.4930    34.8740    24.5480     2.2730   -18.8380 
  151.0000    67.3960    34.8200    33.9860    31.4080    24.4100     2.2660   -18.5780 
  151.1250    65.5000    34.2640    33.4070    27.8210    24.3980     2.2620   -18.4470 
  151.2500    64.7650    33.4960    32.4320    25.7740    24.5470     2.2610   -18.4550 
  151.3750    66.1250    32.9670    31.6860    24.6070    24.7860     2.2610   -18.5020 
  151.5000    67.5560    32.9910    31.5570    25.5000    24.9760     2.2580   -18.6360 
  151.6250    68.2140    33.7420    32.1940    27.2150    24.8750     2.2520   -18.7860 
  151.7500    68.3910    34.9730    33.2840    29.6090    24.7900     2.2460   -18.9370 
  151.8750    67.7710    36.5080    34.6080    30.9240    24.7830     2.2440   -19.0970 
  152.0000    65.7280    38.2140    36.0290    29.4660    24.9080     2.2480   -19.2050 
  152.1250    61.9460    40.0350    37.5350    28.7010    25.1260     2.2560   -19.2050 
  152.2500    59.0880    41.9160    39.1400    28.8410    25.4510     2.2650   -19.1240 
  152.3750    59.6950    43.8030    40.8370    29.5330    25.6510     2.2700   -19.0480 
  152.5000    63.8510    45.6130    42.5500    31.0740    25.2560     2.2710   -19.0300 
  152.6250    67.6970    47.2120    44.1120    31.2780    24.8410     2.2670   -19.1000 
  152.7500    66.9340    48.5740    45.4270    29.5380    24.4940     2.2590   -19.1790 
  152.8750    63.2720    49.7070    46.4880    28.9330    24.3140     2.2520   -19.2390 
  153.0000    61.7200    50.6660    47.3630    29.6850    24.3790     2.2470   -19.2700 
  153.1250    64.5240    51.4910    48.1400    30.8710    24.5570     2.2460   -19.2420 
