~V
VERS. 2.00: Ver 2.00
~W
STRT.M 55.0000:
STOP.M 228.0000:
STEP.M 0.1250:
NULL. -999.2500:
UWI. F10142:
~C
DEPT.M :
DEN.GM/CC :
GR.API :
RML.OHMM :
RI. :
RXO.OHMM :
CALI.CM :
SP.MV :
~A
# ...
  122.5000     2.5770    52.1950    26.5440    24.5490    26.8140    25.0700    -8.9970 
  122.6250     2.5800    49.3430    27.4550    25.4070    29.0190    25.1730    -9.0060 
  122.7500     2.5740    50.1070    28.1760    26.1910    29.6180    25.2190    -9.0210 
  122.8750     2.5550    51.5340    28.4940    26.6860    29.5870    25.2180    -9.0320 
  123.0000     2.5210    51.3210    28.3350    26.7740    28.4360    25.2180    -9.0450 
  123.1250     2.4800    51.3560    27.8080    26.4780    27.6350    25.2420    -9.0710 
  123.2500     2.4470    52.2230    27.2870    26.1090    29.2100    25.2510    -9.0700 
  123.3750     2.4330    53.7050    27.0380    25.9180    32.4920    25.2170    -9.0590 
  123.5000     2.4420    54.7620    27.1870    26.0540    31.0090    25.1500    -9.0760 
  123.6250     2.4690    54.0720    27.6920    26.5290    32.5530    25.1010    -9.1000 
  123.7500     2.4980    53.3050    28.2080    27.0670    33.8110    25.1050    -9.1000 
  123.8750     2.5210    53.4800    28.4120    27.3820    32.3060    25.0860    -9.1050 
  124.0000     2.5300    54.0720    28.0730    27.2420    27.4150    25.0580    -9.1000 
  124.1250     2.5230    53.8670    27.0790    26.4910    24.2580    25.0500    -9.0960 
  124.2500     2.5100    54.0550    25.7350    25.3670    22.1810    25.0590    -9.1030 
  124.3750     2.4970    54.9360    24.3220    24.1090    20.4380    25.0830    -9.1060 
  124.5000     2.4920    55.2460    23.0960    22.9560    19.1450    25.0670    -9.1060 
  124.6250     2.4940    55.1710    22.2850    22.1380    19.1300    25.0420    -9.1170 
  124.7500     2.4950    54.5490    21.8610    21.6710    19.0440    25.0130    -9.1400 
  124.8750     2.4890    54.4820    21.7630    21.5200    20.0260    25.0020    -9.1580 
  125.0000     2.4730    55.4850    21.8970    21.6080    22.9020    24.9960    -9.1800 
  125.1250     2.4560    55.8730    22.1880    21.8710    28.6920    24.9730    -9.2100 
  125.2500     2.4470    54.3790    22.5410    22.2200    26.3060    24.9270    -9.2410 
  125.3750     2.4490    52.1870    22.9270    22.6220    23.8830    24.8930    -9.2710 
  125.5000     2.4600    51.4210    23.3190    23.0440    25.0690    24.8610    -9.2900 
  125.6250     2.4670    53.4530    23.6530    23.4160    27.0040    24.7800    -9.2960 
  125.7500     2.4660    55.9230    23.8590    23.6630    24.9170    24.6680    -9.2900 
  125.8750     2.4570    57.0100    23.9030    23.7420    21.7050    24.5210    -9.2880 
  126.0000     2.4500    55.4780    23.8100    23.6690    19.6000    24.4160    -9.3020 
  126.1250     2.4520    54.1230    23.6630    23.5080    18.8700    24.4950    -9.2830 
  126.2500     2.4640    54.7760    23.5640    23.3580    19.7570    24.7270    -9.2560 
  126.3750     2.4810    56.0980    23.5330    23.2490    22.4010    24.9580    -9.2420 
  126.5000     2.4970    56.1100    23.5110    23.1430    25.4220    25.0570    -9.2410 
  126.6250     2.5080    54.1760    23.3700    22.9540    24.4660    25.0450    -9.2190 
  126.7500     2.5150    52.4890    23.0860    22.6640    21.3780    25.0070    -9.2130 
  126.8750     2.5200    52.4780    22.7460    22.3390    19.2420    24.9490    -9.2030 
  127.0000     2.5220    53.5750    22.5130    22.1050    18.4090    24.8190    -9.1670 
  127.1250     2.5210    55.0790    22.6190    22.1490    18.3820    24.6150    -9.1480 
  127.2500     2.5160    55.5450    23.0970    22.5020    19.0620    24.3810    -9.1400 
  127.3750     2.5070    55.1090    23.8930    23.1370    19.7630    24.2520    -9.1190 
  127.5000     2.4980    53.9840    24.8620    23.9560    22.2310    24.2510    -9.0820 
  127.6250     2.4920    52.6420    25.7900    24.8000    24.3920    24.3510    -9.0650 
  127.7500     2.4930    52.2350    26.5190    25.5080    24.6200    24.5270    -9.0390 
  127.8750     2.4960    52.0750    26.9920    26.0000    24.6240    24.7910    -9.0220 
  128.0000     2.4980    51.9180    27.2370    26.2690    26.6590    25.0130    -9.0210 
  128.1250     2.4970    52.9500    27.3390    26.3710    27.4960    25.0960    -9.0190 
  128.2500     2.4960    53.7740    27.4360    26.4410    28.3550    25.1200    -9.0120 
  128.3750     2.4980    53.4230    27.5860    26.5560    28.3080    25.1250    -9.0130 
  128.5000     2.5030    53.1010    27.7600    26.7080    29.9830    25.1200    -9.0270 
  128.6250     2.5050    54.9260    27.7500    26.7270    29.2570    25.1160    -9.0350 
  128.7500     2.5000    57.1230    27.3080    26.3740    26.2140    25.1210    -9.0450 
  128.8750     2.4890    57.8010    26.2620    25.4780    25.0140    25.1110    -9.0650 
  129.0000     2.4770    58.5300    24.6680    24.0640    23.6950    25.0790    -9.0880 
  129.1250     2.4730    58.9420    22.9010    22.4280    20.7920    25.0690    -9.1020 
  129.2500     2.4790    58.5550    21.5460    21.0750    17.2650    25.0760    -9.1060 
  129.3750     2.4930    57.3620    21.0020    20.3640    17.4070    25.0900    -9.1110 
  129.5000     2.5080    55.0420    21.4360    20.4750    21.0300    25.0970    -9.1130 
  129.6250     2.5150    51.8370    22.8300    21.4690    26.3740    25.0890    -9.1080 
  129.7500     2.5140    49.5510    24.5980    22.9070    30.8060    25.0530    -9.1090 
  129.8750     2.5090    49.4600    26.2230    24.3710    32.4340    24.9850    -9.0840 
  130.0000     2.5080    49.2460    27.2730    25.4580    27.3440    24.8860    -9.0580 
  130.1250     2.5130    47.2840    27.4410    25.8160    23.4510    24.8160    -9.0560 
  130.2500     2.5220    45.5570    26.9780    25.5680    24.0050    24.7610    -9.0450 
  130.3750     2.5250    45.2260    26.0920    24.8630    26.1210    24.7220    -9.0350 
  130.5000     2.5170    47.1740    24.9390    23.8520    25.8890    24.6920    -9.0330 
  130.6250     2.5000    50.9630    23.6050    22.6380    22.5060    24.6880    -9.0330 
  130.7500     2.4850    55.0940    22.2530    21.3860    18.3570    24.7000    -9.0360 
  130.8750     2.4820    58.1370    21.0580    20.2410    15.5210    24.7860    -9.0480 
  131.0000     2.4930    60.3130    20.1850    19.3380    14.6090    24.9690    -9.0580 
  131.1250     2.5150    61.1230    19.7560    18.7940    14.7100    25.1240    -9.0590 
  131.2500     2.5370    60.6250    19.5870    18.4920    14.6110    25.1980    -9.0670 
  131.3750     2.5520    60.9810    19.4790    18.2920    14.8390    25.1980    -9.0650 
  131.5000     2.5580    62.8390    19.2670    18.0560    15.3710    25.1780    -9.0580 
  131.6250     2.5560    61.9260    18.8800    17.7070    15.1430    25.1590    -9.0550 
  131.7500     2.5510    57.7060    18.4400    17.3090    14.6770    25.1270    -9.0360 
  131.8750     2.5460    53.2050    18.0690    16.9440    14.8910    25.1010    -9.0220 
  132.0000     2.5380    49.7620    17.8290    16.6630    15.5800    25.0770    -9.0090 
  132.1250     2.5270    47.5370    17.7140    16.4770    16.0950    25.0600    -8.9720 
  132.2500     2.5180    47.7660    17.6390    16.3400    15.5200    25.0530    -8.9540 
  132.3750     2.5150    50.1610    17.5850    16.2420    14.9050    25.0630    -8.9580 
  132.5000     2.5200    52.9990    17.6020    16.2170    14.1520    25.0860    -8.9540 
  132.6250     2.5290    56.0570    17.8370    16.3700    14.3600    25.0810    -8.9430 
  132.7500     2.5370    59.6630    18.3560    16.7480    15.2490    25.0670    -8.9570 
  132.8750     2.5420    62.0260    19.1330    17.3470    16.9330    25.0370    -8.9710 
  133.0000     2.5440    62.6490    20.0030    18.0670    19.0570    24.9630    -8.9780 
  133.1250     2.5420    62.6170    20.6290    18.6730    20.3190    24.8910    -9.0190 
  133.2500     2.5340    62.2750    20.7980    18.9680    20.0960    24.8690    -9.0610 
  133.3750     2.5190    62.9620    20.4780    18.8890    17.8570    24.8530    -9.0740 
  133.5000     2.5000    65.1750    19.8390    18.5280    15.6830    24.8080    -9.0940 
  133.6250     2.4880    65.9850    19.2300    18.1260    15.6980    24.7580    -9.1230 
