~V
VERS. 2.00: Ver 2.00
~W
STRT.M 60.0000:
STOP.M 220.0000:
STEP.M 0.1250:
NULL. -999.2500:
UWI. F10154:
~C
DEPT.M :
GR.API :
RML.OHMM :
RI. :
RXO.OHMM :
CALI.CM :
DEN.GM/CC :
SP.MV :
~A
# ...
  105.0000    69.1770     8.7540     6.9480     9.3990    22.8480     2.1580   -29.0040 
  105.1250    71.2040     8.5300     6.8250     8.8280    22.8190     2.1520   -28.7740 
  105.2500    69.0440     8.2250     6.6340     7.9220    22.7690     2.1470   -28.3870 
  105.3750    64.4020     7.9510     6.4390     7.4580    22.7230     2.1420   -27.8330 
  105.5000    61.6330     7.8470     6.3420     7.2650    22.7340     2.1440   -27.0710 
  105.6250    62.5830     8.0540     6.4730     7.2860    22.8370     2.1680   -26.0860 
  105.7500    64.1630     8.4750     6.8070     7.6380    23.0080     2.2230   -24.9060 
  105.8750    66.1690     8.9130     7.2290     8.6980    23.3070     2.3010   -23.5000 
  106.0000    69.8350     9.1020     7.5270    11.4510    23.6700     2.3800   -21.9440 
  106.1250    76.8240     8.7640     7.4040    14.3690    24.0650     2.4270   -20.3510 
  106.2500    87.1000     8.0150     6.8870    11.8830    24.4290     2.4340   -18.8260 
  106.3750    96.8970     7.0910     6.1710     7.5990    24.6830     2.4100   -17.4670 
  106.5000   101.0340     6.2720     5.4980     5.4390    24.7940     2.3770   -16.3280 
  106.6250    96.6280     5.8050     5.0690     4.8930    24.7500     2.3540   -15.4640 
  106.7500    91.0920     5.6530     4.8820     5.0030    24.6890     2.3460   -14.8580 
  106.8750    88.4180     5.7190     4.8810     5.1270    24.7120     2.3460   -14.5270 
  107.0000    88.0530     5.8820     4.9780     5.1850    24.7690     2.3450   -14.4860 
  107.1250    88.5770     6.0720     5.0970     5.2480    24.7930     2.3350   -14.7880 
  107.2500    89.4930     6.2850     5.2160     5.0260    24.7700     2.3150   -15.3780 
  107.3750    88.9060     6.5590     5.3590     5.0090    24.6870     2.2900   -16.1920 
  107.5000    85.4910     6.9010     5.5520     5.7130    24.5310     2.2650   -17.1440 
  107.6250    80.9820     7.2640     5.8030     6.4210    24.3700     2.2460   -18.2230 
  107.7500    77.2770     7.5520     6.0590     6.8730    24.2280     2.2310   -19.4040 
  107.8750    73.8910     7.7150     6.2670     6.9120    24.0750     2.2160   -20.6090 
  108.0000    70.3260     7.7990     6.4170     6.9420    23.8680     2.2050   -21.6900 
  108.1250    69.0790     8.0510     6.6120     7.2900    23.6850     2.2120   -22.4450 
  108.2500    70.0050     8.7970     7.0530     7.8290    23.7550     2.2510   -22.8290 
  108.3750    70.6440    10.3350     7.9650     8.7120    24.0010     2.3290   -22.8550 
  108.5000    68.8650    12.7460     9.5330    10.9470    24.2880     2.4370   -22.5970 
  108.6250    65.6580    15.5580    11.7580    16.8940    24.5520     2.5440   -22.0210 
  108.7500    64.5710    17.5030    13.7320    23.9530    24.7120     2.6150   -21.1800 
  108.8750    65.6390    17.5120    14.1730    28.4190    24.7180     2.6290   -20.1480 
  109.0000    67.9090    15.3500    12.4960    24.8090    24.5920     2.5860   -19.0580 
  109.1250    73.4860    11.8830     9.6650    14.3000    24.4850     2.5010   -18.1030 
  109.2500    84.0580     8.7610     7.2280     6.9690    24.4470     2.4120   -17.4180 
  109.3750    95.3450     6.7210     5.6220     4.6440    24.4610     2.3380   -17.0630 
  109.5000    99.7850     5.8530     4.8250     4.3960    24.4380     2.2860   -17.0330 
  109.6250    93.5040     6.0110     4.7790     5.2130    24.3100     2.2550   -17.3520 
  109.7500    84.9850     6.6770     5.1990     6.4470    24.1390     2.2350   -17.8980 
  109.8750    79.3820     7.5340     5.8970     7.1480    24.0650     2.2210   -18.6270 
  110.0000    77.5340     8.2990     6.6420     7.1660    24.0910     2.2130   -19.4630 
  110.1250    78.7200     8.7210     7.1650     7.0920    24.0840     2.2100   -20.2940 
  110.2500    80.5610     8.8290     7.4080     7.1400    24.0580     2.2100   -21.0400 
  110.3750    79.3130     8.7240     7.4280     7.3040    24.0250     2.2090   -21.6100 
  110.5000    74.9160     8.5330     7.3250     7.5050    23.9910     2.2050   -21.9640 
  110.6250    73.5430     8.3530     7.1840     7.2700    23.9290     2.1990   -22.1370 
  110.7500    76.9850     8.2200     7.0510     6.9980    23.8420     2.1920   -22.2410 
  110.8750    79.7560     8.1400     6.9380     6.9790    23.7670     2.1880   -22.3170 
  111.0000    78.1620     8.1060     6.8450     7.1490    23.7660     2.1920   -22.3490 
  111.1250    74.8200     8.1010     6.7650     7.2920    23.7850     2.2030   -22.2970 
  111.2500    74.6450     8.0910     6.6850     7.1190    23.7560     2.2170   -22.1370 
  111.3750    76.9520     8.0640     6.6030     6.9360    23.6750     2.2300   -21.9620 
  111.5000    78.8840     8.0290     6.5270     6.7610    23.5870     2.2390   -21.8720 
  111.6250    78.5980     8.0240     6.4870     6.7010    23.5390     2.2430   -21.8580 
  111.7500    77.8900     8.0730     6.4960     6.6180    23.5610     2.2430   -21.9050 
  111.8750    76.8670     8.1720     6.5520     6.6140    23.6890     2.2380   -22.0310 
  112.0000    75.9890     8.2920     6.6310     6.9040    23.9170     2.2270   -22.2510 
  112.1250    75.9150     8.3780     6.6950     7.1490    24.1510     2.2110   -22.5660 
  112.2500    75.0860     8.4080     6.7180     7.5100    24.3760     2.1940   -22.9630 
  112.3750    73.1290     8.3970     6.7070     7.7840    24.4970     2.1800   -23.4140 
  112.5000    72.1310     8.3900     6.6980     7.9630    24.5060     2.1700   -23.8190 
  112.6250    72.5220     8.4570     6.7460     7.8990    24.4660     2.1600   -24.1080 
  112.7500    72.2650     8.6120     6.8690     7.7110    24.3970     2.1470   -24.3250 
  112.8750    71.6250     8.8280     7.0530     8.0790    24.2780     2.1300   -24.4630 
  113.0000    70.6280     9.0430     7.2540     8.9440    24.1690     2.1190   -24.4980 
  113.1250    68.2200     9.1730     7.3970     9.1310    24.1080     2.1230   -24.4570 
  113.2500    66.7040     9.1920     7.4450     8.4800    24.0770     2.1430   -24.3570 
  113.3750    68.0620     9.1170     7.4030     7.8510    24.0160     2.1740   -24.1890 
  113.5000    69.5100     8.9960     7.3070     7.5900    23.9210     2.2040   -24.0340 
  113.6250    68.4680     8.8850     7.2040     7.6590    23.8670     2.2240   -23.9570 
  113.7500    69.6820     8.8150     7.1280     7.7820    23.8910     2.2320   -23.8550 
  113.8750    72.9250     8.7880     7.0870     7.9060    23.9660     2.2300   -23.7570 
  114.0000    73.7730     8.7940     7.0700     7.7770    24.0180     2.2220   -23.7210 
  114.1250    70.3710     8.8310     7.0700     7.8260    24.0430     2.2130   -23.7550 
  114.2500    67.0010     8.8970     7.0800     7.8020    24.0900     2.2100   -23.8380 
  114.3750    66.5030     9.0010     7.1100     7.8210    24.1690     2.2130   -23.9260 
  114.5000    69.8240     9.1490     7.1750     7.7660    24.2100     2.2190   -23.9620 
  114.6250    73.4350     9.3390     7.2910     7.6970    24.1460     2.2220   -23.9210 
  114.7500    72.8060     9.5250     7.4380     7.8040    24.0890     2.2210   -23.8840 
  114.8750    68.1490     9.6630     7.5810     8.1490    24.1410     2.2190   -23.8560 
  115.0000    64.7410     9.7420     7.6930     8.5750    24.2710     2.2210   -23.8380 
  115.1250    66.9000     9.8380     7.8010     9.0070    24.3620     2.2350   -23.7500 
  115.2500    70.6130    10.0990     7.9980     9.1980    24.3470     2.2600   -23.6620 
  115.3750    72.6630    10.6430     8.3810     9.2750    24.2750     2.2910   -23.6320 
  115.5000    72.2170    11.4880     9.0040     9.9980    24.2170     2.3220   -23.6230 
  115.6250    69.0960    12.4660     9.8190    12.2000    24.1890     2.3410   -23.7160 
  115.7500    63.0720    13.1990    10.5470    14.6490    24.1620     2.3410   -23.9070 
  115.8750    55.9200    13.3830    10.8830    15.0050    24.1410     2.3240   -24.1220 
  116.0000    53.8870    12.9010    10.6430    13.3680    24.1040     2.2930   -24.3540 
  116.1250    58.9970    11.8620     9.8660    11.0180    24.0210     2.2570   -24.7040 
