~V
VERS. 2.00: Ver 2.00
~W
STRT.M 47.0000:
STOP.M 242.0000:
STEP.M 0.1250:
NULL. -999.2500:
UWI. F10188:
~C
DEPT.M :
SP.MV :
DEN.GM/CC :
GR.API :
RML.OHMM :
RI. :
RXO.OHMM :
CALI.CM :
~A
# ...
  227.0000   -25.9760     2.3690    97.8530    14.4480    12.1070    14.6940    25.5540 
  227.1250   -25.5070     2.3810    96.1470    14.8230    12.5500    15.2210    25.5150 
  227.2500   -25.0840     2.3890    89.7740    14.8000    12.7580    14.6280    25.5030 
  227.3750   -24.7350     2.3900    87.3860    14.3620    12.6140    13.3790    25.5340 
  227.5000   -24.4530     2.3810    92.4000    13.6790    12.1420    12.3340    25.5920 
  227.6250   -24.2380     2.3680    97.8580    13.0180    11.5740    11.6960    25.6060 
  227.7500   -24.1190     2.3620    98.9670    12.4720    11.0450    11.7200    25.5810 
  227.8750   -24.0150     2.3660    95.5210    12.0460    10.6140    12.0780    25.5510 
  228.0000   -23.8880     2.3760    90.7680    11.7240    10.3000    12.5320    25.5200 
  228.1250   -23.8160     2.3840    86.3060    11.4810    10.0660    12.5110    25.4740 
  228.2500   -23.7860     2.3850    83.8120    11.3400     9.9070    11.8700    25.4240 
  228.3750   -23.8010     2.3790    82.9380    11.3450     9.8460    11.1840    25.4120 
  228.5000   -23.7860     2.3720    81.0940    11.5840     9.9670    11.1310    25.3770 
  228.6250   -23.7490     2.3700    77.1360    12.0810    10.3070    12.2480    25.3050 
  228.7500   -23.6390     2.3740    72.7160    12.8570    10.8940    14.2600    25.2530 
  228.8750   -23.4660     2.3780    69.7510    13.8650    11.6930    16.5650    25.2840 
  229.0000   -23.2120     2.3840    67.1750    14.9670    12.6110    18.4630    25.3170 
  229.1250   -22.8370     2.3980    65.0450    15.9570    13.4940    19.4520    25.3140 
  229.2500   -22.3060     2.4150    64.6580    16.6820    14.2300    19.2100    25.2700 
  229.3750   -21.6220     2.4230    66.0550    16.9990    14.6890    18.1740    25.2180 
  229.5000   -20.8090     2.4200    65.8910    16.6860    14.6340    18.0050    25.2630 
  229.6250   -19.8550     2.4170    62.7010    15.7780    14.0300    18.4260    25.3060 
  229.7500   -18.7410     2.4130    60.2420    14.3610    12.9170    18.6250    25.3370 
  229.8750   -17.5510     2.3950    62.4990    12.6810    11.4950    17.6540    25.2980 
  230.0000   -16.3780     2.3670    67.6610    11.1560    10.1040    14.1460    25.3390 
  230.1250   -15.2870     2.3490    69.6900    10.0620     9.0150    10.7170    25.4070 
  230.2500   -14.3100     2.3480    67.2320     9.4940     8.3410     8.8620    25.4690 
  230.3750   -13.4250     2.3600    63.4310     9.4360     8.1060     8.6740    25.4910 
  230.5000   -12.7080     2.3840    63.4630     9.8500     8.3220     9.5110    25.4590 
  230.6250   -12.1500     2.4140    66.1190    10.5110     8.8080    10.8660    25.3990 
  230.7500   -11.7700     2.4400    67.8670    11.2670     9.4240    12.5690    25.3580 
  230.8750   -11.5090     2.4570    65.0440    11.9930    10.0500    13.9700    25.3420 
  231.0000   -11.3680     2.4660    59.9790    12.5880    10.5930    14.3630    25.3080 
  231.1250   -11.2890     2.4720    58.5760    13.0360    11.0290    14.0590    25.2420 
  231.2500   -11.2510     2.4740    60.3110    13.3430    11.3480    13.5470    25.2050 
  231.3750   -11.2580     2.4700    62.2840    13.5230    11.5500    13.2860    25.1910 
  231.5000   -11.2450     2.4580    62.2850    13.5680    11.6160    13.0790    25.1970 
  231.6250   -11.2490     2.4460    62.2850    13.5110    11.5810    13.1990    25.1920 
  231.7500   -11.2860     2.4370    62.2850    13.3860    11.4730    13.3950    25.1730 
  231.8750   -11.3440     2.4330    62.2850    13.2380    11.3290    13.2860    25.1300 
  232.0000   -11.3440     2.4330    62.2850    13.0990    11.1730    12.5060    25.0760 
  232.1250   -11.3160     2.4340    62.2850    12.9670    11.0120    11.5380    25.0100 
  232.2500   -11.2710     2.4400    62.2850    12.8150    10.8330    10.7800    24.9030 
  232.3750   -11.1970     2.4450    62.2850    12.5970    10.6100    10.5760    24.7810 
  232.5000   -11.1290     2.4410    62.2850    12.2660    10.3110    10.4250    24.6740 
  232.6250   -10.9750     2.4270    62.2850    11.8550     9.9580     9.8040    24.5830 
  232.7500   -10.7840     2.4150    62.2850    11.4050     9.5770     9.0660    24.5530 
  232.8750   -10.5630     2.4090    62.2850    10.9640     9.1990     8.6550    24.6000 
  233.0000   -10.3290     2.4100    62.2850    10.5820     8.8580     8.9740    24.6500 
  233.1250   -10.0960     2.4110    62.2850    10.2670     8.5720     9.3650    24.6900 
  233.2500    -9.8710     2.4120    62.2850    10.0150     8.3550     9.3830    24.6910 
  233.3750    -9.6960     2.4120    62.2850     9.8160     8.2070     8.9870    24.6640 
  233.5000    -9.5400     2.4100    62.2850     9.6760     8.1240     8.5100    24.6350 
  233.6250    -9.4920     2.4030    62.2850     9.5710     8.0660     7.8300    24.6160 
  233.7500    -9.4660     2.3910    62.2850     9.4760     8.0030     7.1660    24.6040 
  233.8750    -9.4340     2.3810    62.2850     9.3550     7.9080     7.0500    24.5910 
  234.0000    -9.4730     2.3790    62.2850     9.1670     7.7520     7.4590    24.5970 
  234.1250    -9.5370     2.3810    62.2850     8.9210     7.5470     7.9730    24.5830 
  234.2500    -9.6430     2.3840    62.2850     8.6510     7.3120     8.1970    24.5910 
  234.3750    -9.7510     2.3830    62.2850     8.4010     7.0780     8.2620    24.6660 
  234.5000    -9.8940     2.3810    62.2850     8.2190     6.8880     8.1590    24.7780 
  234.6250   -10.0380     2.3800    62.2850     8.1360     6.7670     8.0940    24.8230 
  234.7500   -10.2040     2.3810    62.2850     8.1920     6.7380     8.1980    24.8230 
  234.8750   -10.4040     2.3860    62.2850     8.4030     6.8070     8.5340    24.8140 
  235.0000   -10.5890     2.4000    62.2850     8.7260     6.9540     9.1430    24.8120 
  235.1250   -10.7730     2.4280    62.2850     9.0430     7.1100     9.7010    24.8010 
  235.2500   -10.9170     2.4700    62.2850     9.2860     7.2280    10.0960    24.7810 
  235.3750   -11.0200     2.5090    62.2850     9.4390     7.2880    10.2090    24.7750 
  235.5000   -11.1170     2.5310    62.2850     9.5170     7.3030     9.9510    24.7860 
  235.6250   -11.1760     2.5230    62.2850     9.5660     7.3090     9.4450    24.7940 
  235.7500   -11.2040     2.4860    62.2850     9.5970     7.3230     8.6640    24.8130 
  235.8750   -11.2160     2.4450    62.2850     9.6100     7.3380     7.8970    24.8910 
  236.0000   -11.1700     2.4190    62.2850     9.6090     7.3460     6.8580    24.9880 
  236.1250   -11.1030     2.4130    62.2850     9.6060     7.3470     6.0000    25.0700 
  236.2500   -11.0810     2.4200    62.2850     9.6030     7.3440     5.2340    25.1220 
  236.3750   -11.0810     2.4330    62.2850     9.5990     7.3420     4.7020    25.1270 
  236.5000   -11.0540     2.4530    62.2850     9.5920     7.3470     4.7830    25.1020 
  236.6250   -11.0420     2.4710    62.2850     9.5840     7.3570     5.1620    24.9940 
  236.7500   -11.0250     2.4570    62.2850     9.5820     7.3650     5.8530    24.8650 
  236.8750   -11.0390     2.4170    62.2850     9.5880     7.3660     6.6740    24.8560 
  237.0000   -11.0910     2.3800    62.2850     9.5980     7.3610     7.3790    24.8940 
  237.1250   -11.1520     2.3660    62.2850     9.6040     7.3540     7.9880    24.9360 
  237.2500   -11.1580     2.3750    62.2850     9.6030     7.3500     8.4440    24.9760 
  237.3750   -11.1550     2.3860    62.2850     9.6020     7.3500     8.7500    25.0490 
  237.5000   -11.1550     2.3880    62.2850     9.6020     7.3500     9.1010    25.1620 
  237.6250   -11.1550     2.3810    62.2850     9.6020     7.3500     9.3640    25.2150 
  237.7500  -999.2500     2.3770    62.2850     9.6020     7.3500     9.5910    25.1600 
  237.8750  -999.2500     2.3800    62.2850     9.6020     7.3500     9.4840    25.0530 
  238.0000  -999.2500     2.3820    62.2850     9.6020     7.3500     9.1160    25.0250 
  238.1250  -999.2500     2.3750    62.2850     9.6020     7.3500     8.4750    25.0870 
