~V
VERS. 2.00: Ver 2.00
~W
STRT.M 49.0000:
STOP.M 223.0000:
STEP.M 0.1250:
NULL. -999.2500:
UWI. F10156:
~C
DEPT.M :
SP.MV :
GR.API :
RML.OHMM :
RI. :
RXO.OHMM :
CALI.CM :
DEN.GM/CC :
~A
# ...
  150.2500   -17.1450    71.6730    36.5250    35.8300    13.4430    24.5530     2.3290 
  150.3750   -17.3950    69.6870    41.8600    39.6110    17.1680    24.8470     2.3080 
  150.5000   -17.6310    69.9100    51.4330    47.4260    23.7150    25.0940     2.2850 
  150.6250   -17.8710    71.1730    66.2070    60.7130    25.6790    25.0160     2.2740 
  150.7500   -18.1200    70.4080    92.7190    82.3430    24.0800    24.5940     2.2740 
  150.8750   -18.3350    67.4830   122.4970   110.9860    26.1730    24.2740     2.2740 
  151.0000   -18.5680    62.0410   156.1990   143.2410    25.5180    24.0960     2.2690 
  151.1250   -18.7740    57.0770   187.7430   173.0380    23.5940    23.9630     2.2600 
  151.2500   -18.9930    58.0600   206.3740   191.3250    25.7990    23.8090     2.2540 
  151.3750   -19.2080    63.3700   210.0640   196.3460    30.0120    23.7750     2.2530 
  151.5000   -19.3770    67.8570   203.9720   191.6050    33.1370    23.9160     2.2540 
  151.6250   -19.5500    68.1130   195.8500   183.5840    37.5530    24.0680     2.2550 
  151.7500   -19.7190    63.9950   190.4180   177.1660    40.0120    24.2050     2.2580 
  151.8750   -19.8910    59.9840   187.2190   172.8070    43.3540    24.3660     2.2600 
  152.0000   -20.0450    60.3910   184.8920   169.6200    50.5590    24.6240     2.2550 
  152.1250   -20.1780    62.9240   182.4410   166.8370    57.2230    24.9140     2.2390 
  152.2500   -20.3280    62.0580   180.2560   164.7350    50.3840    25.0720     2.2220 
  152.3750   -20.4960    59.2550   179.9470   164.4720    46.3540    25.1070     2.2130 
  152.5000   -20.6630    58.8560   183.0940   167.4020    46.4370    25.0510     2.2110 
  152.6250   -20.8190    60.9960   190.5450   174.3770    49.0660    24.9170     2.2120 
  152.7500   -20.9270    60.9500   201.9510   185.3540    52.8870    24.7360     2.2120 
  152.8750   -21.0450    60.0180   213.2530   196.8410    60.6120    24.6270     2.2150 
  153.0000   -21.1580    58.3350   219.8740   204.8580    64.7480    24.5880     2.2210 
  153.1250   -21.2950    54.7390   218.1870   206.0300    68.9400    24.6120     2.2300 
  153.2500   -21.3780    53.2640   206.0570   197.9070    75.8870    24.6450     2.2390 
  153.3750   -21.4080    55.2980   187.3850   183.2920    82.9280    24.6580     2.2480 
  153.5000   -21.4660    58.0240   165.7210   164.8850    75.3950    24.6530     2.2580 
  153.6250   -21.4600    58.3900   145.0780   146.0750    68.8830    24.6350     2.2670 
  153.7500   -21.4630    58.4960   130.1530   131.2400    68.9350    24.6330     2.2690 
  153.8750   -21.4660    59.5270   122.4600   122.6810    61.0650    24.6050     2.2660 
  154.0000   -21.4600    58.2140   122.7340   121.8610    49.4730    24.5560     2.2540 
  154.1250   -21.4290    53.0150   130.5810   129.0980    46.2730    24.5250     2.2300 
  154.2500   -21.3700    46.2510   143.7350   142.7930    68.6400    24.5710     2.1990 
  154.3750   -21.3440    43.8310   153.9520   154.9360   139.4290    24.6730     2.1780 
  154.5000   -21.3040    47.2920   152.1300   156.5230   225.2960    24.7420     2.1790 
  154.6250   -21.3130    52.6970   134.4830   142.2640   207.1490    24.7510     2.2000 
  154.7500   -21.2940    56.3270   108.2680   116.3640   126.5520    24.6810     2.2290 
  154.8750   -21.2430    59.7360    86.2620    92.2870    75.6340    24.5680     2.2540 
  155.0000   -21.2290    62.3770    72.9140    76.2350    55.6830    24.4660     2.2690 
  155.1250   -21.2040    61.6100    68.5090    69.3460    53.2500    24.4070     2.2730 
  155.2500   -21.2140    58.9600    73.3340    71.9090    56.3460    24.3500     2.2700 
  155.3750   -21.2220    59.7150    85.0970    81.5930    79.9680    24.3540     2.2640 
  155.5000   -21.1970    62.4330   102.3250    97.0570   150.9120    24.4480     2.2580 
  155.6250   -21.1610    63.3370   115.6900   114.8420   231.8340    24.5590     2.2590 
  155.7500   -21.1150    60.3810   128.3550   127.6290   200.2610    24.6210     2.2720 
  155.8750   -21.0570    57.9060   131.4750   131.3540   149.3330    24.6440     2.2900 
  156.0000   -20.9620    58.3190   126.9290   127.2260   126.1440    24.6490     2.3000 
  156.1250   -20.8500    61.2020   120.0550   119.8720   120.9580    24.6410     2.2970 
  156.2500   -20.7210    64.6410   115.8860   114.2580   123.2070    24.6510     2.2900 
  156.3750   -20.5660    65.9180   115.4780   112.0280   124.6290    24.6820     2.2870 
  156.5000   -20.4380    65.5870   118.4610   113.0100   130.1120    24.7200     2.2850 
  156.6250   -20.3120    66.2050   124.0920   116.5260   135.3230    24.7440     2.2800 
  156.7500   -20.2060    69.7010   131.5250   121.8590   141.4860    24.7680     2.2730 
  156.8750   -20.1540    73.6910   138.8130   127.3190   150.1760    24.8110     2.2670 
  157.0000   -20.0740    74.2960   144.0350   131.2710   160.1560    24.8590     2.2610 
  157.1250   -20.0130    70.2960   145.6390   132.3510   167.7970    24.8860     2.2570 
  157.2500   -19.9370    63.9140   142.6550   129.5840   164.2090    24.8900     2.2570 
  157.3750   -19.8460    59.8250   136.7960   124.1980   146.6230    24.8900     2.2620 
  157.5000   -19.7540    59.3660   129.5320   117.3180   125.4400    24.8880     2.2680 
  157.6250   -19.6290    61.3880   122.2560   110.1410   115.1860    24.9070     2.2730 
  157.7500   -19.5110    63.4770   116.2560   103.8670   116.8510    24.9410     2.2730 
  157.8750   -19.3390    64.8690   111.9280    98.9850   119.7320    24.9720     2.2710 
  158.0000   -19.1710    66.2200   109.4800    95.7170   105.8380    24.9980     2.2690 
  158.1250   -19.0310    67.1050   108.9870    94.1440    88.6360    25.0300     2.2650 
  158.2500   -18.8750    65.7200   110.7500    94.5570    96.9170    25.0430     2.2600 
  158.3750   -18.7440    62.9470   114.3090    96.6100   108.0370    25.0410     2.2550 
  158.5000   -18.6130    61.4310   119.4020   100.1510   116.1760    25.0270     2.2530 
  158.6250   -18.4810    61.0890   125.5890   104.8470   118.9990    25.0230     2.2520 
  158.7500   -18.3490    61.3870   132.3700   110.2980   123.8070    25.0110     2.2530 
  158.8750   -18.2040    63.3170   139.2610   115.9720   135.6240    25.0110     2.2540 
  159.0000   -18.0590    66.7290   146.1470   121.6520   144.2130    25.0010     2.2510 
  159.1250   -17.9020    69.0300   152.9380   127.1870   150.4930    25.0000     2.2450 
  159.2500   -17.7180    66.7570   158.2160   131.6130   155.5580    25.0220     2.2380 
  159.3750   -17.5080    62.2690   157.8860   132.0910   157.4010    25.0310     2.2370 
  159.5000   -17.3290    58.2870   146.1460   123.9840   161.6940    24.9770     2.2430 
  159.6250   -17.1630    55.5630   121.0360   104.6300   155.1580    24.8330     2.2560 
  159.7500   -16.9890    56.1200    89.3440    78.2490   131.7710    24.7470     2.2760 
  159.8750   -16.8700    60.7710    62.2810    54.9930    79.5000    24.7600     2.3060 
  160.0000   -16.7560    68.2160    43.5320    38.7780    41.8110    24.7600     2.3420 
  160.1250   -16.5830    74.5690    32.5400    29.2630    24.6180    24.7190     2.3760 
  160.2500   -16.4600    77.1680    27.9360    25.0300    21.5530    24.6960     2.3900 
  160.3750   -16.3730    79.4620    26.6810    23.4660    23.7710    24.7200     2.3860 
  160.5000   -16.2490    82.4600    27.3420    23.5770    27.1400    24.7660     2.3740 
  160.6250   -16.1380    84.4150    28.7090    24.6220    28.8240    24.8510     2.3640 
  160.7500   -16.0310    83.6130    29.6090    25.7540    28.6670    24.9580     2.3600 
  160.8750   -15.9150    81.9810    29.5490    26.2770    27.6060    25.0020     2.3600 
  161.0000   -15.8030    81.8290    28.6430    26.0500    25.2150    24.9610     2.3640 
  161.1250   -15.7710    82.8310    27.3480    25.3370    23.5040    24.8740     2.3680 
  161.2500   -15.7490    83.0500    26.2250    24.5710    25.0220    24.8320     2.3690 
  161.3750   -15.7130    82.0440    25.5630    24.0530    26.5650    24.8020     2.3680 
