~V
VERS. 2.00: Ver 2.00
~W
STRT.M 56.0000:
STOP.M 214.0000:
STEP.M 0.1250:
NULL. -999.2500:
UWI. F10128:
~C
DEPT.M :
SP.MV :
GR.API :
RML.OHMM :
RI. :
RXO.OHMM :
CALI.CM :
DEN.GM/CC :
~A
# ...
  134.7500   -31.9010    63.3650   140.1960   134.3050   114.0520    25.0650     2.2050 
  134.8750   -32.4430    63.3490   146.0900   140.9680   125.9300    25.1030     2.2020 
  135.0000   -32.9520    64.3320   152.0960   148.3060   160.2630    25.0850     2.1980 
  135.1250   -33.4510    63.5670   155.7190   153.6110   173.3160    25.1900     2.1970 
  135.2500   -33.9500    61.4300   154.9020   154.0890   175.0080    25.4030     2.2000 
  135.3750   -34.3930    62.6780   148.9660   148.3280   162.5160    25.5420     2.2060 
  135.5000   -34.7850    66.9730   141.2620   140.1040   142.9860    25.6100     2.2130 
  135.6250   -35.1580    70.0220   134.8570   132.9900   120.8280    25.6010     2.2190 
  135.7500   -35.4470    71.0740   132.0050   129.5320   105.7700    25.5070     2.2230 
  135.8750   -35.7310    71.9290   134.3070   131.4590   106.4510    25.4010     2.2230 
  136.0000   -35.9160    72.6850   140.4030   137.4240   122.3290    25.3230     2.2180 
  136.1250   -36.0510    70.6010   148.7850   145.9250   133.2310    25.3770     2.2120 
  136.2500   -36.1920    66.5260   157.4680   154.8450   141.3320    25.5120     2.2070 
  136.3750   -36.2940    65.6100   164.1530   161.4790   153.2110    25.5520     2.2070 
  136.5000   -36.4380    67.8080   168.3160   165.0640   156.4750    25.5540     2.2080 
  136.6250   -36.5680    70.2040   170.5720   166.3220   152.5230    25.5050     2.2070 
  136.7500   -36.7440    69.9310   172.2200   166.8020   150.8230    25.4000     2.2050 
  136.8750   -37.0220    67.3160   174.7400   168.1600   159.6220    25.2510     2.2040 
  137.0000   -37.3660    65.1700   178.6170   171.0010   162.0710    25.0430     2.2100 
  137.1250   -37.7510    65.6210   183.6590   175.2030   166.4630    24.8500     2.2220 
  137.2500   -38.1550    68.5400   189.2190   180.0900   169.0840    24.7470     2.2340 
  137.3750   -38.5770    69.4900   194.3620   184.6690   163.7660    24.7940     2.2390 
  137.5000   -39.0430    67.4990   198.5510   188.4030   154.8220    24.9260     2.2330 
  137.6250   -39.5440    64.5340   201.6220   191.2270   158.5630    25.1040     2.2230 
  137.7500   -40.0640    63.3720   203.5110   193.2470   170.8420    25.2860     2.2140 
  137.8750   -40.5850    65.3940   203.5360   194.0400   173.0040    25.3370     2.2110 
  138.0000   -41.0990    68.9120   201.0590   192.8160   173.3310    25.2990     2.2120 
  138.1250   -41.6370    70.6500   195.2960   188.4740   181.6790    25.2190     2.2130 
  138.2500   -42.1730    69.2500   186.1680   180.5720   194.9530    25.1500     2.2150 
  138.3750   -42.7800    67.6360   174.6030   169.7100   188.8730    25.0640     2.2170 
  138.5000   -43.3670    67.2550   163.1830   158.5260   161.9760    24.9910     2.2190 
  138.6250   -43.9640    67.0690   153.8670   149.1310   131.2950    24.9440     2.2220 
  138.7500   -44.5410    66.8800   147.9520   143.0240   112.6270    24.9290     2.2250 
  138.8750   -45.0820    66.9260   146.4000   141.3310   107.0830    24.9300     2.2270 
  139.0000   -45.6260    67.0110   147.9430   142.8290   109.4800    24.9420     2.2290 
  139.1250   -46.0850    67.7160   151.4900   146.3770   118.9310    24.9810     2.2310 
  139.2500   -46.5370    71.2160   155.8380   150.6480   131.6650    25.0190     2.2330 
  139.3750   -46.7880    75.8820   159.8730   154.3100   141.5530    24.9910     2.2360 
  139.5000   -46.8530    75.6170   163.2250   156.8990   147.1290    24.9100     2.2390 
  139.6250   -46.7830    69.7210   166.2080   158.6650   148.1080    24.8360     2.2430 
  139.7500   -46.4910    63.9380   169.6150   160.4120   145.9260    24.7990     2.2490 
  139.8750   -45.8620    65.0760   174.9020   163.5650   145.7090    24.7680     2.2550 
  140.0000   -44.9540    69.6720   182.9230   169.0440   145.2310    24.7210     2.2590 
  140.1250   -43.7210    72.3040   194.2900   177.5000   149.6480    24.6830     2.2590 
  140.2500   -42.1530    70.4020   209.6150   189.1020   161.7420    24.6680     2.2540 
  140.3750   -40.3720    64.9360   227.5690   203.5520   192.2080    24.6680     2.2490 
  140.5000   -38.6000    61.7540   242.7240   218.7480   221.3650    24.6640     2.2530 
  140.6250   -36.8690    62.7580   252.9560   232.6260   239.0970    24.6500     2.2700 
  140.7500   -35.1740    63.5390   260.1820   243.2170   249.6900    24.6250     2.2970 
  140.8750   -33.6110    63.0810   266.1640   248.6260   258.8740    24.6250     2.3220 
  141.0000   -32.2000    65.1900   269.3710   249.9050   255.7830    24.6510     2.3310 
  141.1250   -30.9800    69.6660   268.2880   248.2260   249.7920    24.6940     2.3210 
  141.2500   -29.8850    71.6100   264.2120   244.9920   244.1700    24.7690     2.2960 
  141.3750   -28.9900    69.2350   256.9920   241.0850   222.9910    24.8370     2.2670 
  141.5000   -28.1220    68.5500   247.1740   235.5700   169.4540    24.8660     2.2460 
  141.6250   -27.1840    69.6830   234.5520   225.2910   118.1930    24.8350     2.2340 
  141.7500   -26.3260    69.6460   216.6720   207.3300    89.6880    24.7750     2.2270 
  141.8750   -25.5180    68.5400   189.7310   181.1350   128.7420    24.7570     2.2240 
  142.0000   -24.8090    68.9150   158.0870   152.3770   144.1980    24.7430     2.2260 
  142.1250   -24.1760    71.8450   127.9210   125.3330    97.6330    24.6700     2.2360 
  142.2500   -23.6580    74.1830   102.9440   102.2000    54.6320    24.5720     2.2530 
  142.3750   -23.2370    75.4090    83.4880    83.7110    48.6160    24.5100     2.2700 
  142.5000   -22.8430    77.3370    67.9830    68.6100    66.2970    24.5510     2.2810 
  142.6250   -22.5690    79.1020    56.0430    56.7890    67.2230    24.6150     2.2890 
  142.7500   -22.3340    80.2430    47.5590    48.3500    40.0900    24.6130     2.2970 
  142.8750   -22.0880    81.3310    43.0200    43.7390    22.9900    24.6110     2.3110 
  143.0000   -21.8390    81.6950    41.6580    42.1560    17.2590    24.7360     2.3250 
  143.1250   -21.6340    80.5750    43.0770    43.2910    21.1200    24.9440     2.3340 
  143.2500   -21.4500    79.5910    46.5650    46.6030    32.3140    25.0980     2.3350 
  143.3750   -21.2650    78.6910    50.9190    51.0930    44.5230    25.0120     2.3280 
  143.5000   -21.0740    75.0980    54.4300    54.8580    42.3810    24.7450     2.3200 
  143.6250   -20.8920    72.0180    56.0790    56.5180    29.9680    24.4540     2.3150 
  143.7500   -20.7510    73.8340    55.7070    55.7350    23.2540    24.3670     2.3150 
  143.8750   -20.6500    78.4840    54.0780    53.4010    28.3050    24.3260     2.3210 
  144.0000   -20.5150    80.2820    52.7980    51.3200    28.6760    24.3190     2.3270 
  144.1250   -20.3400    79.0500    52.9470    50.5120    27.7550    24.3920     2.3300 
  144.2500   -20.1390    75.5340    55.2410    51.6110    28.1790    24.4560     2.3280 
  144.3750   -19.9240    73.0490    60.4440    55.3440    31.7720    24.4740     2.3230 
  144.5000   -19.7860    73.5970    67.9930    61.2790    39.3370    24.4720     2.3150 
  144.6250   -19.6530    75.7020    77.2430    68.9380    47.9420    24.4780     2.3040 
  144.7500   -19.5670    77.2110    87.0840    77.3890    56.6340    24.4960     2.2900 
  144.8750   -19.5250    76.9040    95.7910    85.0670    65.9850    24.5260     2.2730 
  145.0000   -19.5570    74.7350   102.1960    90.8090    75.0010    24.5490     2.2580 
  145.1250   -19.6680    71.6100   105.7030    94.0930    81.6740    24.5710     2.2500 
  145.2500   -19.8060    69.9300   106.2000    94.8740    83.7320    24.5760     2.2470 
  145.3750   -19.9940    69.9350   103.4840    92.8710    83.6960    24.5550     2.2470 
  145.5000   -20.1660    69.4300    98.5950    88.8010    81.5820    24.5430     2.2420 
  145.6250   -20.3370    67.8920    92.4010    83.3890    79.2550    24.5400     2.2320 
  145.7500   -20.5110    66.3810    86.0180    77.6820    76.7480    24.5380     2.2220 
  145.8750   -20.6660    67.7160    80.7980    72.9500    66.8960    24.5130     2.2200 
