~V
VERS. 2.00: Ver 2.00
~W
STRT.M 50.0000:
STOP.M 233.0000:
STEP.M 0.1250:
NULL. -999.2500:
UWI. F10166:
~C
DEPT.M :
SP.MV :
DEN.GM/CC :
GR.API :
RML.OHMM :
RI. :
RXO.OHMM :
CALI.CM :
~A
# ...
  128.7500    -9.5430     2.5210    52.1930    22.5160    20.1910    15.7270    24.0860 
  128.8750    -9.5950     2.5180    51.8770    22.1850    19.8730    15.6030    24.0850 
  129.0000    -9.6350     2.5180    50.5310    22.0660    19.7540    15.4910    24.0810 
  129.1250    -9.6890     2.5250    46.7360    22.1830    19.8460    15.7910    24.0820 
  129.2500    -9.7430     2.5350    45.2600    22.4200    20.0230    16.4550    24.0890 
  129.3750    -9.8030     2.5430    48.3040    22.6910    20.2060    17.2210    24.0960 
  129.5000    -9.8760     2.5450    51.9950    22.9260    20.3510    17.2870    24.0910 
  129.6250    -9.9470     2.5410    53.2930    23.1090    20.4640    16.4800    24.0730 
  129.7500    -9.9910     2.5360    54.2430    23.3020    20.6030    16.2580    24.0640 
  129.8750    -9.9910     2.5310    54.8710    23.5300    20.7940    17.3490    24.0760 
  130.0000    -9.9650     2.5270    54.0140    23.7400    20.9970    19.2400    24.0960 
  130.1250    -9.9040     2.5250    52.8570    23.7840    21.1020    19.9100    24.1030 
  130.2500    -9.8460     2.5230    53.3900    23.5920    21.0480    18.8840    24.1180 
  130.3750    -9.7880     2.5230    54.8640    23.1980    20.8470    17.4260    24.1470 
  130.5000    -9.7490     2.5200    56.2900    22.7420    20.5770    16.5820    24.1730 
  130.6250    -9.7150     2.5110    57.9400    22.3790    20.3300    16.4510    24.1810 
  130.7500    -9.7220     2.5010    59.3960    22.1050    20.1140    16.1120    24.1800 
  130.8750    -9.7450     2.4950    60.2260    21.8410    19.8820    15.3290    24.1790 
  131.0000    -9.7890     2.4940    60.6830    21.5250    19.5980    14.3870    24.1790 
  131.1250    -9.8590     2.4970    60.6780    21.1510    19.2620    13.5410    24.1790 
  131.2500    -9.9640     2.4990    59.6950    20.7470    18.9050    13.0980    24.1790 
  131.3750   -10.0930     2.4960    56.9810    20.2760    18.5090    13.3150    24.1790 
  131.5000   -10.2460     2.4890    52.3470    19.6650    18.0220    13.7820    24.1780 
  131.6250   -10.4030     2.4790    49.6640    18.8840    17.4000    13.3830    24.1800 
  131.7500   -10.5590     2.4680    51.4420    18.1300    16.7580    12.4020    24.1950 
  131.8750   -10.7110     2.4560    55.3850    17.6350    16.2600    11.8650    24.2270 
  132.0000   -10.8530     2.4450    57.6960    17.5720    16.0630    12.0670    24.2700 
  132.1250   -10.9810     2.4410    57.9530    18.0540    16.3110    12.9010    24.3100 
  132.2500   -11.1120     2.4430    56.9390    18.8470    16.8710    14.0550    24.3480 
  132.3750   -11.2360     2.4510    53.9710    19.6600    17.5400    15.1230    24.3870 
  132.5000   -11.3430     2.4610    49.8960    20.1530    18.0400    15.6330    24.4210 
  132.6250   -11.4550     2.4670    48.0030    19.9700    18.0410    15.3910    24.4330 
  132.7500   -11.5650     2.4700    48.1590    19.2170    17.5630    14.5340    24.4280 
  132.8750   -11.6730     2.4710    47.8660    18.1510    16.7690    13.3390    24.4230 
  133.0000   -11.7490     2.4720    46.9090    17.1320    15.9270    12.3150    24.4180 
  133.1250   -11.8050     2.4690    47.5460    16.5390    15.3470    11.7170    24.4230 
  133.2500   -11.8250     2.4620    48.8670    16.4330    15.1390    11.3930    24.4660 
  133.3750   -11.8390     2.4530    49.1100    16.7490    15.3100    11.8510    24.5390 
  133.5000   -11.8360     2.4450    47.7420    17.2790    15.7350    13.4130    24.6000 
  133.6250   -11.8400     2.4450    47.3060    17.6290    16.1150    15.1930    24.6160 
  133.7500   -11.8410     2.4530    49.6360    17.4960    16.1360    15.8430    24.6120 
  133.8750   -11.8730     2.4640    54.0870    16.8190    15.6780    14.9880    24.6050 
  134.0000   -11.9140     2.4740    59.0120    15.7930    14.8590    13.2120    24.5970 
  134.1250   -11.9870     2.4810    62.2340    14.8300    13.9870    11.6050    24.5980 
  134.2500   -12.0590     2.4830    64.1440    14.2360    13.3510    10.8800    24.6040 
  134.3750   -12.1400     2.4790    64.4370    14.0750    13.0460    11.0530    24.6070 
  134.5000   -12.2210     2.4710    62.1110    14.2230    13.0230    11.6360    24.6060 
  134.6250   -12.3460     2.4620    57.6720    14.4490    13.1480    12.0480    24.6040 
  134.7500   -12.4870     2.4540    55.0820    14.5560    13.2480    11.9770    24.6050 
  134.8750   -12.6750     2.4470    57.1110    14.5340    13.2760    11.6280    24.6070 
  135.0000   -12.8930     2.4350    63.1570    14.4980    13.2840    11.4460    24.6060 
  135.1250   -13.1400     2.4190    69.4750    14.6410    13.4010    11.7780    24.6040 
  135.2500   -13.3780     2.4030    74.3540    15.0060    13.6840    12.4090    24.6090 
  135.3750   -13.6220     2.3920    77.9320    15.5340    14.1150    13.1090    24.6180 
  135.5000   -13.8620     2.3880    80.3810    16.0980    14.6060    13.7920    24.6300 
  135.6250   -14.0920     2.3920    80.1540    16.5610    15.0270    14.4160    24.6430 
  135.7500   -14.3210     2.3990    79.8420    16.9170    15.3360    14.6230    24.6600 
  135.8750   -14.5410     2.4040    81.0990    17.2390    15.5750    14.3050    24.6770 
  136.0000   -14.7570     2.4030    82.9090    17.6320    15.8280    13.9760    24.6910 
  136.1250   -14.9460     2.3930    84.0150    18.1800    16.1750    14.7550    24.6980 
  136.2500   -15.1000     2.3770    84.0480    18.7880    16.5730    16.3580    24.6990 
  136.3750   -15.1900     2.3590    83.3250    19.2750    16.9030    17.6910    24.7000 
  136.5000   -15.2150     2.3460    82.2760    19.4520    17.0290    17.8730    24.7080 
  136.6250   -15.1530     2.3420    83.7560    19.2170    16.8650    16.9620    24.7180 
  136.7500   -15.0490     2.3440    86.8120    18.8200    16.5690    15.8110    24.7240 
  136.8750   -14.9100     2.3510    87.7180    18.5420    16.3260    14.5180    24.7240 
  137.0000   -14.7780     2.3600    84.1920    18.6150    16.3090    13.7690    24.7240 
  137.1250   -14.6530     2.3700    79.2540    19.2220    16.6830    14.2240    24.7360 
  137.2500   -14.5630     2.3810    78.0450    20.2080    17.3840    14.9510    24.7590 
  137.3750   -14.5020     2.3900    79.6210    21.3910    18.3040    15.0950    24.7810 
  137.5000   -14.4740     2.3980    81.9290    22.5430    19.2730    15.0080    24.7910 
  137.6250   -14.4630     2.3990    83.7540    23.3710    20.0460    15.7420    24.7930 
  137.7500   -14.4610     2.3960    84.2970    23.7450    20.4780    16.8150    24.7980 
  137.8750   -14.4610     2.3900    81.2970    23.5980    20.4840    16.8970    24.8020 
  138.0000   -14.4610     2.3870    74.8390    22.9580    20.0550    15.6430    24.8030 
  138.1250   -14.4480     2.3900    68.6730    21.9300    19.2490    14.3960    24.8020 
  138.2500   -14.4350     2.3970    66.7920    20.8250    18.3270    13.8860    24.8040 
  138.3750   -14.4090     2.4040    69.7490    19.8630    17.4790    13.3840    24.8170 
  138.5000   -14.3800     2.4050    75.3490    19.1910    16.8380    12.6660    24.8380 
  138.6250   -14.3470     2.3970    79.5360    18.8860    16.4920    12.5980    24.8530 
  138.7500   -14.3230     2.3840    80.7840    18.7810    16.3240    13.3320    24.8420 
  138.8750   -14.3020     2.3710    80.8560    18.7040    16.1960    13.9750    24.8030 
  139.0000   -14.2890     2.3640    80.2650    18.5010    15.9730    13.8870    24.7550 
  139.1250   -14.2740     2.3690    78.5260    18.0420    15.5410    13.2160    24.7270 
  139.2500   -14.2680     2.3870    76.0630    17.3700    14.9330    12.3500    24.7260 
  139.3750   -14.2580     2.4130    74.6020    16.5820    14.2260    11.5060    24.7450 
  139.5000   -14.2270     2.4380    76.2740    15.8190    13.5400    10.8490    24.7770 
  139.6250   -14.1890     2.4520    77.9490    15.2580    13.0120    10.5780    24.8200 
  139.7500   -14.1170     2.4520    78.4220    14.9640    12.6880    10.5510    24.8700 
  139.8750   -14.0280     2.4430    79.2810    14.9740    12.6000    10.8040    24.9330 
