~V
VERS. 2.00: Ver 2.00
~W
STRT.M 49.0000:
STOP.M 243.0000:
STEP.M 0.1250:
NULL. -999.2500:
UWI. F10196:
~C
DEPT.M :
SP.MV :
DEN.GM/CC :
GR.API :
RML.OHMM :
RI. :
RXO.OHMM :
CALI.CM :
~A
# ...
  206.5000   -19.1920     2.3560    58.7220     6.5030     6.2100     6.7540    24.2830 
  206.6250   -18.4380     2.3580    57.0390     6.6500     6.3840     6.6800    24.2050 
  206.7500   -17.8760     2.3570    59.9870     6.7150     6.5220     6.5220    24.0780 
  206.8750   -17.4520     2.3560    67.8450     6.6870     6.5680     6.4100    24.0070 
  207.0000   -17.1550     2.3580    78.3910     6.5910     6.5250     6.4420    23.8990 
  207.1250   -16.9660     2.3610    87.8680     6.4700     6.4220     6.6520    23.7170 
  207.2500   -16.8590     2.3610    93.7200     6.3610     6.2960     6.9690    23.5490 
  207.3750   -16.8280     2.3610    96.9000     6.2920     6.1840     7.0670    23.5760 
  207.5000   -16.8520     2.3600    99.2430     6.2830     6.1090     6.8770    23.8080 
  207.6250   -16.9150     2.3540   101.4910     6.3510     6.0930     6.8380    24.1130 
  207.7500   -17.0110     2.3400   101.6360     6.5360     6.1740     7.5220    24.3360 
  207.8750   -17.1190     2.3230    98.0060     6.8450     6.3610     8.8900    24.4510 
  208.0000   -17.2130     2.3080    92.9110     7.2850     6.6650    10.3280    24.4760 
  208.1250   -17.2800     2.2970    88.5740     7.8410     7.0790    11.4980    24.4420 
  208.2500   -17.3240     2.2920    85.8320     8.4830     7.5860    12.1820    24.3970 
  208.3750   -17.3520     2.2880    82.6780     9.1250     8.1190    12.4360    24.3750 
  208.5000   -17.3810     2.2850    79.8010     9.6860     8.6150    12.2800    24.3700 
  208.6250   -17.4310     2.2850    80.3020    10.1080     9.0120    11.8030    24.3660 
  208.7500   -17.5070     2.2890    85.6990    10.3910     9.2820    12.0900    24.3620 
  208.8750   -17.6320     2.2900    89.0240    10.6990     9.5350    12.6080    24.3600 
  209.0000   -17.8160     2.2890    86.2310    11.2330     9.9190    12.3470    24.3350 
  209.1250   -18.0220     2.2900    80.9420    12.1890    10.5960    11.7280    24.2050 
  209.2500   -18.2300     2.2900    78.1150    13.7810    11.7840    13.1970    23.8710 
  209.3750   -18.4570     2.2810    76.7440    15.8520    13.4520    16.7330    23.4670 
  209.5000   -18.7120     2.2620    73.5320    18.1300    15.4770    21.2240    23.2750 
  209.6250   -18.9480     2.2420    71.3070    20.1800    17.5550    23.9320    23.3370 
  209.7500   -19.1440     2.2310    73.6240    21.4310    19.1510    25.0760    23.2830 
  209.8750   -19.3190     2.2270    76.3750    21.8710    20.0410    25.4680    23.1470 
  210.0000   -19.4710     2.2270    75.4700    21.7590    20.3150    25.2320    23.1160 
  210.1250   -19.6180     2.2300    71.1090    21.4950    20.2840    24.1550    23.1350 
  210.2500   -19.7510     2.2370    69.6340    21.3990    20.2600    23.1930    23.0050 
  210.3750   -19.8550     2.2450    71.0710    21.4820    20.3510    23.5330    22.8360 
  210.5000   -19.9310     2.2500    72.4270    21.6300    20.5000    23.7500    22.7220 
  210.6250   -20.0190     2.2480    71.4680    21.6980    20.5970    22.1680    22.5990 
  210.7500   -20.1210     2.2480    68.9100    21.5130    20.4840    19.5910    22.4500 
  210.8750   -20.1860     2.2530    67.4190    21.0480    20.1160    17.6180    22.5320 
  211.0000   -20.2240     2.2540    66.8310    20.3320    19.5020    17.2410    22.9870 
  211.1250   -20.2550     2.2440    66.3760    19.4520    18.7060    18.4970    23.5880 
  211.2500   -20.3080     2.2320    65.3950    18.5530    17.8410    20.6390    24.1370 
  211.3750   -20.3980     2.2310    65.7980    17.8350    17.0830    21.3930    24.3630 
  211.5000   -20.5200     2.2400    68.3490    17.4920    16.5990    20.7030    24.3890 
  211.6250   -20.6630     2.2530    71.4500    17.6820    16.5430    19.2350    24.3450 
  211.7500   -20.8320     2.2640    72.5700    18.5580    17.0930    19.4110    24.2730 
  211.8750   -21.0460     2.2780    71.3410    19.8760    18.1160    22.3630    24.1790 
  212.0000   -21.2980     2.3040    70.5680    21.3280    19.4030    27.4550    24.0890 
  212.1250   -21.5710     2.3380    71.7460    22.5270    20.6290    33.2570    24.0380 
  212.2500   -21.8720     2.3430    73.7330    23.1110    21.4010    37.5180    24.0620 
  212.3750   -22.1920     2.3110    74.6790    23.2520    21.7270    41.1180    24.1170 
  212.5000   -22.5220     2.2710    74.0400    23.2920    21.8130    42.6750    24.1420 
  212.6250   -22.8200     2.2480    71.9050    23.5860    21.9600    39.9870    24.1470 
  212.7500   -23.0870     2.2430    69.0870    24.3630    22.4400    34.6060    24.1570 
  212.8750   -23.3350     2.2400    67.9950    25.3750    23.1850    30.1360    24.2010 
  213.0000   -23.5420     2.2340    67.3360    26.2410    23.9540    27.6610    24.3010 
  213.1250   -23.6980     2.2270    64.6750    26.5550    24.4070    27.2320    24.4300 
  213.2500   -23.7630     2.2220    62.2820    25.9720    24.1770    27.6890    24.4770 
  213.3750   -23.7580     2.2230    61.9440    24.8270    23.4120    27.7190    24.4170 
  213.5000   -23.6890     2.2320    61.6500    23.5840    22.4290    27.8390    24.2890 
  213.6250   -23.5740     2.2500    60.7740    22.7200    21.6180    29.5130    24.1490 
  213.7500   -23.4350     2.2790    62.1460    22.6300    21.3660    33.6580    24.0620 
  213.8750   -23.2800     2.3160    63.7910    23.0580    21.6130    34.0940    24.0640 
  214.0000   -23.1210     2.3570    63.4440    23.4360    21.9940    33.7990    24.0930 
  214.1250   -22.9800     2.3960    64.0160    22.9010    21.7700    35.3310    24.1020 
  214.2500   -22.8870     2.4250    66.3090    20.4640    19.8870    34.0000    24.0760 
  214.3750   -22.8180     2.4390    65.6120    16.7660    16.7160    26.0550    24.0000 
  214.5000   -22.7850     2.4340    62.8650    12.9440    13.2230    16.5960    23.8540 
  214.6250   -22.8260     2.4150    61.4750     9.9630    10.3040    10.3030    23.6800 
  214.7500   -22.9370     2.3900    60.3070     8.3410     8.4920     8.5920    23.6860 
  214.8750   -23.1090     2.3680    56.1320     7.6940     7.5600     8.5320    23.9620 
  215.0000   -23.3220     2.3550    51.1470     7.7340     7.3200     9.1940    24.2930 
  215.1250   -23.5330     2.3500    49.3550     8.1680     7.5660     9.8370    24.4780 
  215.2500   -23.6660     2.3500    50.5290     8.6800     8.0630     9.9710    24.5320 
  215.3750   -23.7270     2.3490    51.4410     8.9880     8.4920     9.8700    24.5540 
  215.5000   -23.7010     2.3450    51.5000     8.9740     8.6700     9.6020    24.5050 
  215.6250   -23.5490     2.3350    51.4530     8.6560     8.5400     8.9780    24.2910 
  215.7500   -23.2320     2.3200    50.8090     8.1300     8.1310     7.9890    23.9450 
  215.8750   -22.8010     2.3020    49.2130     7.5750     7.6160     7.0150    23.6480 
  216.0000   -22.3020     2.2860    47.5370     7.0890     7.1050     6.5600    23.5280 
  216.1250   -21.7840     2.2740    45.5540     6.7220     6.6680     6.5470    23.5750 
  216.2500   -21.3130     2.2670    43.3840     6.4840     6.3430     6.5980    23.7650 
  216.3750   -20.9070     2.2630    44.7200     6.3220     6.1000     6.5580    23.8070 
  216.5000   -20.5880     2.2620    51.2150     6.2280     5.9300     6.4440    23.5610 
  216.6250   -20.3850     2.2630    59.7480     6.2300     5.8490     6.2750    23.2090 
  216.7500   -20.3720     2.2620    63.4470     6.4040     5.9160     6.0670    23.1160 
  216.8750   -20.4970     2.2570    63.1130     6.7500     6.1430     6.1430    23.1830 
  217.0000   -20.7180     2.2550    61.4970     7.2350     6.5250     6.6310    23.3830 
  217.1250   -20.9510     2.2640    60.2480     7.7610     7.0110     7.6470    23.7750 
  217.2500   -21.1240     2.2900    64.2430     8.1600     7.4690     8.8320    24.2790 
  217.3750   -21.2250     2.3250    76.5220     8.3410     7.7660     9.6140    24.5750 
  217.5000   -21.2240     2.3560    95.4680     8.3050     7.8480     9.7380    24.6650 
  217.6250   -21.1080     2.3720   116.1920     8.1360     7.7510     9.4610    24.6570 
