~V
VERS. 2.00: Ver 2.00
~W
STRT.M 50.0000:
STOP.M 230.0000:
STEP.M 0.1250:
NULL. -999.2500:
UWI. F10167:
~C
DEPT.M :
DEN.GM/CC :
GR.API :
RML.OHMM :
RI. :
RXO.OHMM :
CALI.CM :
SP.MV :
~A
# ...
  218.7500     2.3790    48.5670     6.9120     5.9840     8.3650    24.9320    -9.0200 
  218.8750     2.3960    47.5790     7.1630     6.2060     8.3250    24.9090    -9.2420 
  219.0000     2.4050    46.1070     7.3900     6.4090     8.1760    24.9460    -9.4790 
  219.1250     2.4080    46.1930     7.6320     6.6110     8.3830    24.9300    -9.6460 
  219.2500     2.4110    46.8630     7.9080     6.8340     8.4590    24.8840    -9.8180 
  219.3750     2.4180    47.0170     8.2000     7.0750     8.5010    24.8300    -9.9740 
  219.5000     2.4280    47.0170     8.4590     7.3080     9.1030    24.7880   -10.0880 
  219.6250     2.4330    47.0170     8.6000     7.4680    10.2670    24.7810   -10.1730 
  219.7500     2.4250    47.0170     8.6010     7.5190    10.0360    24.7650   -10.1980 
  219.8750     2.4050    47.0170     8.4700     7.4540     9.0810    24.7420   -10.1330 
  220.0000     2.3800    47.0170     8.2470     7.2920     8.6810    24.7470   -10.0040 
  220.1250     2.3650    47.0170     7.9840     7.0650     8.4980    24.7590    -9.9040 
  220.2500     2.3570    47.0170     7.7340     6.8280     8.5070    24.7720    -9.7520 
  220.3750     2.3590    47.0170     7.5220     6.6120     8.4640    24.7760    -9.5730 
  220.5000     2.3690    47.0170     7.3650     6.4380     8.3990    24.8460    -9.3620 
  220.6250     2.3800    47.0170     7.2940     6.3380     7.8600    24.9090    -9.1790 
  220.7500     2.3830    47.0170     7.3130     6.3160     7.6310    24.8970    -9.0020 
  220.8750     2.3710    47.0170     7.4240     6.3820     7.8240    24.8510    -8.7780 
  221.0000     2.3520    47.0170     7.6000     6.5250     8.1360    24.7860    -8.5190 
  221.1250     2.3450    47.0170     7.7490     6.6720     8.4050    24.7210    -8.1940 
  221.2500     2.3650    47.0170     7.9230     6.9100     8.9820    24.5950    -7.8770 
  221.3750     2.4190    47.0170     7.9290     6.9690     9.3350    24.4390    -7.5820 
  221.5000     2.4820    47.0170     7.9340     7.0020     8.8870    24.2930    -7.2550 
  221.6250     2.5300    47.0170     8.0120     7.0710     7.6530    24.2460    -6.8370 
  221.7500     2.5470    47.0170     8.1990     7.2200     7.4100    24.3040    -6.3530 
  221.8750     2.5330    47.0170     8.4550     7.4400     8.7120    24.3740    -5.8910 
  222.0000     2.5070    47.0170     8.6430     7.6320    10.1480    24.3680    -5.4950 
  222.1250     2.4800    47.0170     8.6520     7.6960     9.7980    24.3330    -5.1140 
  222.2500     2.4550    47.0170     8.4410     7.5790     8.8140    24.2700    -4.7390 
  222.3750     2.4380    47.0170     8.0580     7.2910     8.2200    24.2830    -4.3110 
  222.5000     2.4370    47.0170     7.6800     6.9670     7.8410    24.3150    -3.9070 
  222.6250     2.4530    47.0170     7.4270     6.7160     8.0430    24.3790    -3.6890 
  222.7500     2.4810    47.0170     7.3520     6.6070     8.6990    24.4210    -3.6340 
  222.8750     2.5020    47.0170     7.4470     6.6670     8.0310    24.4050    -3.6570 
  223.0000     2.5020    47.0170     7.6050     6.8210     7.7800    24.3510    -3.6930 
  223.1250     2.4810    47.0170     7.7500     7.0030     8.3120    24.2880    -3.7480 
  223.2500     2.4500    47.0170     7.8250     7.1460     9.1020    24.3900    -3.8160 
  223.3750     2.4240    47.0170     7.7630     7.1670     8.0580    24.7330    -3.9450 
  223.5000     2.4090    47.0170     7.5640     7.0450     7.4730    25.0020    -4.1330 
  223.6250     2.4010    47.0170     7.2400     6.7800     7.0630    25.0290    -4.2070 
  223.7500     2.3950    47.0170     6.8350     6.4050     6.3990    24.9820    -4.2150 
  223.8750     2.3910    47.0170     6.4260     5.9890     6.0310    24.9400  -999.2500 
  224.0000     2.3900    47.0170     6.0820     5.6090     5.8650    24.9020  -999.2500 
  224.1250     2.3900    47.0170     5.8290     5.3040     5.5450    24.8640  -999.2500 
  224.2500     2.3890    47.0170     5.6600     5.0810     5.3170    24.8660  -999.2500 
  224.3750     2.3800    47.0170     5.5570     4.9380     5.4860    24.9330  -999.2500 
  224.5000     2.3680    47.0170     5.4800     4.8400     5.6470    24.9720  -999.2500 
  224.6250     2.3610    47.0170     5.4180     4.7720     5.7310    24.9630  -999.2500 
  224.7500     2.3620    47.0170     5.3710     4.7250     5.7680    24.9520  -999.2500 
  224.8750     2.3680    47.0170     5.3440     4.7010     6.1180    24.9890  -999.2500 
  225.0000     2.3710    47.0170     5.3350     4.6910     6.9720    25.1010  -999.2500 
  225.1250     2.3680    47.0170     5.3360     4.6890     8.1510    25.2640  -999.2500 
  225.2500     2.3650    47.0170     5.3380     4.6900     9.9050    25.4180  -999.2500 
  225.3750     2.3680    47.0170     5.3380     4.6900    11.8170    25.3290  -999.2500 
  225.5000     2.3780    47.0170     5.3380     4.6900    14.9020    25.1460  -999.2500 
  225.6250     2.3940    47.0170     5.3380     4.6900    14.9410    24.9950  -999.2500 
  225.7500     2.4110    47.0170     5.3380     4.6900    11.0910    25.0300  -999.2500 
  225.8750     2.4210    47.0170     5.3380     4.6900     6.5370    25.2460  -999.2500 
  226.0000     2.4250    47.0170     5.3380     4.6900     5.1260    25.4470  -999.2500 
  226.1250     2.4250    47.0170     5.3380     4.6900     4.8820    25.5340  -999.2500 
  226.2500     2.4240    47.0170     5.3380     4.6900     5.1900    25.4070  -999.2500 
  226.3750     2.4240    47.0170     5.3380     4.6900     6.4730    25.1780  -999.2500 
  226.5000     2.4260    47.0170     5.3380     4.6900     8.5240    24.9640  -999.2500 
  226.6250     2.4310    47.0170     5.3380     4.6900     9.6980    24.9100  -999.2500 
  226.7500     2.4390    47.0170     5.3380     4.6900     9.4060    25.0100  -999.2500 
  226.8750     2.4440    47.0170     5.3380     4.6900     7.6640    25.3310  -999.2500 
  227.0000     2.4370    47.0170     5.3380     4.6900     5.7620    25.9650  -999.2500 
  227.1250     2.4090    47.0170     5.3380     4.6900     4.5650    26.8340  -999.2500 
  227.2500     2.3620    47.0170     5.3380     4.6900     4.1530    27.5180  -999.2500 
  227.3750     2.3090    47.0170     5.3380     4.6900     4.1070    28.0870  -999.2500 
  227.5000     2.2670    47.0170     5.3380     4.6900     4.0790    29.5270  -999.2500 
  227.6250     2.2390    47.0170     5.3380     4.6900     3.9870    31.1110  -999.2500 
  227.7500     2.2170    47.0170     5.3380     4.6900     3.9290    31.5000  -999.2500 
  227.8750     2.1920    47.0170     5.3380     4.6900     3.9860    31.1620  -999.2500 
  228.0000     2.1660    47.0170     5.3380     4.6900     4.0960    30.6890  -999.2500 
  228.1250     2.1460    47.0170     5.3380     4.6900     4.2610    30.0610  -999.2500 
  228.2500     2.1350    47.0170     5.3380     4.6900     4.4170    29.7720  -999.2500 
  228.3750     2.1240    47.0170     5.3380     4.6900     4.4440    30.6770  -999.2500 
  228.5000     2.1060    47.0170     5.3380     4.6900     4.2800    32.1610  -999.2500 
  228.6250     2.0870    47.0170     5.3380     4.6900     4.0780    32.9540  -999.2500 
  228.7500     2.0870    47.0170     5.3380     4.6900     4.0420    33.4900  -999.2500 
  228.8750     2.1210    47.0170     5.3380     4.6900     4.2420    33.8910  -999.2500 
  229.0000     2.1710    47.0170     5.3380     4.6900     4.3820    32.2810  -999.2500 
  229.1250     2.2030    47.0170     5.3380     4.6900     4.3960    28.6430  -999.2500 
  229.2500     2.1890    47.0170     5.3380     4.6900     4.3680    25.2270  -999.2500 
  229.3750     2.1210    47.0170     5.3380     4.6900     4.2690    23.5800  -999.2500 
  229.5000     2.0360    47.0170     5.3380     4.6900     4.1270    22.8380  -999.2500 
  229.6250     1.9660    47.0170     5.3380     4.6900     4.0500    22.4420  -999.2500 
  229.7500     1.9090    47.0170     5.3380     4.6900     4.0320    22.2950  -999.2500 
  229.8750     1.9200    47.0170     5.3380     4.6900     4.0330    22.2950  -999.2500 
