~V
VERS. 2.00: Ver 2.00
~W
STRT.M 63.0000:
STOP.M 308.0000:
STEP.M 0.1250:
NULL. -999.2500:
UWI. F10102:
~C
DEPT.M :
DEN.GM/CC :
SP.MV :
GR.API :
RML.OHMM :
RI. :
RXO.OHMM :
CALI.CM :
~A
# ...
  265.5000     2.2470   -10.3150    64.8840   111.3730   102.9490    84.1260    24.8080 
  265.6250     2.2530   -10.4640    66.9220   118.0920   110.7040    83.4090    24.5000 
  265.7500     2.2600   -10.7030    68.3290   120.9440   114.8410    90.4810    24.2810 
  265.8750     2.2660   -10.8970    70.2530   118.4770   112.9940    96.9200    24.3310 
  266.0000     2.2740   -11.0050    73.5640   112.9200   107.1320   103.7560    24.4670 
  266.1250     2.2810   -11.1450    76.5140   106.9460   100.0570   106.0410    24.6690 
  266.2500     2.2850   -11.3070    76.2200   103.3260    94.7040    93.6510    24.7960 
  266.3750     2.2790   -11.4860    71.8070   105.0140    94.2300    77.0470    24.8410 
  266.5000     2.2650   -11.7140    67.2120   112.1480    99.1980    80.4120    24.8720 
  266.6250     2.2490   -11.9470    64.3730   124.3710   109.5670   104.5440    24.9110 
  266.7500     2.2370   -12.1450    63.1380   140.2200   124.2450   130.9960    24.8770 
  266.8750     2.2360   -12.3500    62.4970   156.7010   140.7390   136.5740    24.7230 
  267.0000     2.2450   -12.5800    62.0340   169.9870   154.9040   135.3100    24.6410 
  267.1250     2.2590   -12.8370    61.5090   177.6310   163.8360   138.4670    24.6670 
  267.2500     2.2740   -13.1320    61.1960   178.9200   166.5650   156.4080    24.7170 
  267.3750     2.2830   -13.3400    62.0270   174.2200   163.3380   171.6720    24.7530 
  267.5000     2.2850   -13.4520    63.0690   166.5470   156.8730   169.8970    24.7630 
  267.6250     2.2780   -13.5830    62.3620   157.8120   148.9530   149.3320    24.7530 
  267.7500     2.2660   -13.6990    60.8930   149.5890   141.2820   131.9440    24.7160 
  267.8750     2.2530   -13.6630    60.1450   143.1780   135.4280   122.8330    24.6940 
  268.0000     2.2440   -13.5390    58.9700   138.3710   131.4880   118.6120    24.6970 
  268.1250     2.2450   -13.3860    57.3730   134.4610   128.8740   118.2540    24.7050 
  268.2500     2.2530   -13.1260    58.4140   130.5330   126.4570   113.8630    24.6510 
  268.3750     2.2640   -12.8420    62.0040   125.9570   123.1090   100.6190    24.5330 
  268.5000     2.2710   -12.6970    63.9520   121.1090   119.1030    95.2640    24.4670 
  268.6250     2.2740   -12.4740    63.7110   116.5060   115.2980    95.0110    24.4770 
  268.7500     2.2720   -12.1150    62.7600   112.1340   112.1300    92.6510    24.5350 
  268.8750     2.2720   -11.8060    61.0790   106.7740   108.4520    98.6120    24.6380 
  269.0000     2.2750   -11.6030    58.7470    99.2300   102.3050   111.8430    24.7190 
  269.1250     2.2800   -11.3630    57.1690    89.3140    92.8050   122.6380    24.7780 
  269.2500     2.2870   -11.1160    59.7420    78.2380    81.0600   103.0120    24.7910 
  269.3750     2.2900   -10.9790    66.3740    68.5790    70.1040    63.8080    24.7360 
  269.5000     2.2880   -10.8080    71.1310    62.1280    62.3390    43.8810    24.6800 
  269.6250     2.2810   -10.6640    71.5260    59.5980    58.6580    42.9910    24.6330 
  269.7500     2.2700   -10.6110    70.5380    60.8390    58.9800    51.2720    24.6530 
  269.8750     2.2550   -10.6440    70.1730    65.4780    63.1430    61.7380    24.7380 
  270.0000     2.2410   -10.7210    68.9880    71.7700    69.4980    75.9190    24.8280 
  270.1250     2.2280   -10.7890    68.0450    78.4540    76.7060    85.6060    24.8760 
  270.2500     2.2180   -10.8510    68.5350    84.3550    83.3590    84.4690    24.8750 
  270.3750     2.2150   -10.9310    67.1290    88.2600    88.1070    82.4240    24.8310 
  270.5000     2.2170   -11.0360    64.0360    90.0420    90.7840    90.9260    24.7960 
  270.6250     2.2220   -11.1640    62.4850    89.7340    91.3060    98.9730    24.7760 
  270.7500     2.2270   -11.2640    63.7800    87.6630    89.8140    94.7130    24.7700 
  270.8750     2.2300   -11.2900    65.4070    84.3310    86.6510    85.0610    24.7600 
  271.0000     2.2310   -11.2580    65.6180    80.7050    82.9070    74.0550    24.7360 
  271.1250     2.2300   -11.2250    63.5440    77.2760    79.2850    67.7490    24.7120 
  271.2500     2.2310   -11.1900    61.8620    74.1720    76.1400    65.8320    24.6940 
  271.3750     2.2360   -11.1140    63.7000    71.1350    73.3240    65.0610    24.6630 
  271.5000     2.2460   -11.0420    68.2930    67.7820    70.2810    64.6170    24.6150 
  271.6250     2.2570   -10.9650    70.7900    64.0180    66.6980    63.4500    24.6070 
  271.7500     2.2630   -10.9250    68.6550    60.1200    62.6480    58.4660    24.6670 
  271.8750     2.2640   -10.9620    67.4300    56.8850    58.8200    51.7550    24.7540 
  272.0000     2.2590   -10.9800    71.0590    55.0190    56.1440    48.7890    24.7880 
  272.1250     2.2520   -11.0500    75.0770    55.0310    55.3050    47.8870    24.7960 
  272.2500     2.2440   -11.2640    74.3950    57.1220    56.6400    46.7070    24.8140 
  272.3750     2.2370   -11.4490    70.9300    61.4180    60.4920    53.9110    24.8280 
  272.5000     2.2330   -11.5780    69.5270    67.0320    66.0520    72.2120    24.8450 
  272.6250     2.2310   -11.7590    68.4610    73.2250    72.4680    90.1690    24.8710 
  272.7500     2.2310   -12.0100    66.3610    79.2840    78.7180    89.0040    24.8870 
  272.8750     2.2330   -12.2840    64.1800    84.7000    83.9950    83.8740    24.8670 
  273.0000     2.2350   -12.5830    63.3160    89.6700    88.5950    85.4340    24.8420 
  273.1250     2.2390   -12.8540    62.7140    94.5400    93.0150    91.9160    24.8310 
  273.2500     2.2460   -13.1070    61.4520    99.5510    97.6100    92.5870    24.8280 
  273.3750     2.2530   -13.4880    60.6960   104.6130   102.3490   104.1740    24.8210 
  273.5000     2.2550   -13.9330    62.0300   109.3300   106.7740   115.7820    24.8200 
  273.6250     2.2510   -14.2910    63.2570   113.3580   110.5270   120.0530    24.8490 
  273.7500     2.2420   -14.4880    63.1530   116.4810   113.5130   114.6980    24.8780 
  273.8750     2.2300   -14.5730    63.0410   118.2980   115.5450   117.5490    24.9280 
  274.0000     2.2210   -14.6450    62.5840   118.6640   116.3710   130.7500    24.9470 
  274.1250     2.2180   -14.6110    61.6550   117.3460   115.4860   135.7360    24.9530 
  274.2500     2.2240   -14.3770    61.6360   114.4520   112.7900   125.6890    24.9550 
  274.3750     2.2500   -13.9730    64.3880   110.4430   108.7280   105.3470    24.9840 
  274.5000     2.2890   -13.4370    66.5670   106.2410   104.3690    96.9020    25.0470 
  274.6250     2.3290   -12.8960    66.8290   102.2990   100.2120    95.4840    25.1030 
  274.7500     2.3570   -12.4850    66.5450    98.8270    96.4620    96.8030    25.0500 
  274.8750     2.3670   -12.1700    66.0290    96.0950    93.3840   101.4210    24.7180 
  275.0000     2.3670   -11.7790    65.2820    94.3000    91.1620    96.4300    24.1890 
  275.1250     2.3610   -11.4330    64.8180    93.8250    90.2280    78.6120    23.7760 
  275.2500     2.3470   -11.2950    65.7010    94.9490    91.0280    72.0310    23.7550 
  275.3750     2.3180   -11.2390    67.6130    97.7040    93.8090    86.6470    24.0490 
  275.5000     2.2870   -11.2580    68.1620   100.9390    97.3920   107.5730    24.2290 
  275.6250     2.2780   -11.3730    67.6820   103.4130   100.4400   127.7470    24.3040 
  275.7500     2.3160   -11.4550    68.8010   104.0010   101.5920   116.0250    24.3920 
  275.8750     2.4020   -11.4630    72.7920   101.9620    99.6390    98.0960    24.4520 
  276.0000     2.4980   -11.4270    74.2380    98.4830    95.6990    77.0810    24.4340 
  276.1250     2.5630   -11.3730    71.2450    94.8230    91.3000    84.6990    24.5450 
  276.2500     2.5780   -11.2820    68.0620    92.0150    87.7350    81.0630    24.6790 
  276.3750     2.5430   -11.1160    68.9560    90.7430    85.7090    75.5380    24.7810 
  276.5000     2.4950   -10.9060    71.7270    90.7730    84.9350    73.9130    24.8920 
  276.6250     2.4560   -10.6320    74.2200    92.0380    85.3780    86.6550    24.9250 
