~V
VERS. 2.00: Ver 2.00
~W
STRT.M 50.0000:
STOP.M 200.0000:
STEP.M 0.1250:
NULL. -999.2500:
UWI. F10131:
~C
DEPT.M :
GR.API :
RML.OHMM :
RI. :
RXO.OHMM :
CALI.CM :
SP.MV :
DEN.GM/CC :
~A
# ...
  173.7500   103.3530     9.7430     7.8780    13.5840    23.7790   -23.5570     2.3600 
  173.8750   102.2960     9.8400     7.9890    10.2640    24.0180   -24.1300     2.3210 
  174.0000   100.2840     9.9480     8.0610     8.8500    24.2130   -24.6040     2.2990 
  174.1250    97.4740    10.1960     8.1950    10.8810    24.2330   -24.9670     2.3010 
  174.2500    95.6210    10.6350     8.4700    12.1590    24.2300   -25.2080     2.3180 
  174.3750    95.4010    11.2640     8.9320    11.6090    24.2350   -25.2800     2.3470 
  174.5000    96.8430    12.0050     9.5610    13.5540    24.2720   -25.1410     2.3860 
  174.6250    95.5600    12.6710    10.2370    18.2930    24.2670   -24.7610     2.4290 
  174.7500    91.9780    13.0480    10.7440    21.0680    24.2100   -24.2320     2.4620 
  174.8750    90.5520    12.9790    10.9000    21.4940    24.1490   -23.5790     2.4730 
  175.0000    94.9950    12.4200    10.6150    18.3060    24.1100   -22.8280     2.4630 
  175.1250   103.0820    11.4410     9.8970    12.5050    24.0730   -21.9890     2.4420 
  175.2500   109.3280    10.3310     8.9920    10.1850    23.9580   -21.0580     2.4240 
  175.3750   112.3190     9.2790     8.0720     9.4970    23.6500   -20.0490     2.4130 
  175.5000   112.5880     8.3940     7.2480     8.9100    23.4890   -19.0190     2.4040 
  175.6250   110.6010     7.7480     6.6000     7.8310    23.5900   -17.9650     2.3930 
  175.7500   107.7390     7.3050     6.1180     6.5830    23.6460   -16.8680     2.3840 
  175.8750   103.8300     7.0600     5.8050     5.7570    23.7000   -15.7020     2.3810 
  176.0000    98.5750     6.9970     5.6580     6.1190    23.9220   -14.5210     2.3840 
  176.1250    94.1320     7.0870     5.6790     6.8290    24.1450   -13.4100     2.3900 
  176.2500    90.5480     7.2240     5.7920     7.3950    24.2320   -12.4030     2.3930 
  176.3750    86.5710     7.3330     5.9380     7.4750    24.1800   -11.5020     2.3920 
  176.5000    81.2460     7.3770     6.0690     7.0350    24.1010   -10.6940     2.3880 
  176.6250    75.4620     7.3570     6.1520     6.7040    24.1150    -9.9800     2.3810 
  176.7500    70.2390     7.3190     6.1960     6.5780    24.0980    -9.3610     2.3720 
  176.8750    66.6450     7.2800     6.2120     6.6850    23.8960    -8.8740     2.3600 
  177.0000    64.8370     7.2370     6.2030     6.7210    23.5140    -8.4790     2.3480 
  177.1250    65.2590     7.1610     6.1540     6.5570    23.0810    -8.0640     2.3410 
  177.2500    68.7870     7.0370     6.0630     6.0700    22.6780    -7.6580     2.3440 
  177.3750    75.9370     6.8680     5.9310     5.7260    22.3600    -7.2930     2.3600 
  177.5000    83.3690     6.6770     5.7770     5.6820    22.1970    -6.9710     2.3900 
  177.6250    85.5980     6.5130     5.6370     5.5660    22.1760    -6.6640     2.4280 
  177.7500    85.3810     6.4190     5.5420     5.4280    22.3710    -6.4040     2.4640 
  177.8750    87.1610     6.4160     5.5110     5.5280    22.8840    -6.1980     2.4870 
  178.0000    90.4720     6.5000     5.5480     5.8230    23.6310    -6.0620     2.4890 
  178.1250    91.9170     6.6460     5.6470     6.1790    24.0400    -6.0630     2.4610 
  178.2500    93.0640     6.7860     5.7580     6.4270    24.1740    -6.1560     2.4150 
  178.3750    94.0040     6.8560     5.8320     6.5910    24.1940    -6.3040     2.3660 
  178.5000    91.9170     6.8060     5.8210     6.5470    24.1850    -6.4890     2.3310 
  178.6250    85.2210     6.5920     5.6800     6.4300    24.1830    -6.7480     2.3240 
  178.7500    80.3700     6.2780     5.4420     6.0210    24.1470    -7.0690     2.3310 
  178.8750    79.8890     5.9430     5.1580     5.4190    24.0630    -7.4720     2.3330 
  179.0000    81.5490     5.6790     4.8950     4.9320    23.9180    -7.9050     2.3160 
  179.1250    82.9690     5.6040     4.7470     4.6440    23.7720    -8.2760     2.2820 
  179.2500    85.2580     5.7490     4.7540     4.5730    23.7660    -8.5000     2.2510 
  179.3750    88.8570     6.1410     4.9520     4.7190    23.9820    -8.6150     2.2410 
  179.5000    92.0280     6.7880     5.3670     5.3530    24.1620    -8.6130     2.2550 
  179.6250    92.9140     7.7080     6.0480     6.6940    24.2390    -8.5370     2.2870 
  179.7500    93.3450     8.7860     6.9290     8.7740    24.2560    -8.3320     2.3180 
  179.8750    94.8560     9.9160     7.9410    11.0530    24.2640    -7.9860     2.3420 
  180.0000    96.1130    11.0010     8.9890    12.3900    24.2550    -7.5690     2.3560 
  180.1250    93.2660    12.0200    10.0020    13.9800    24.2580    -7.1760     2.3580 
  180.2500    89.3100    13.0980    11.0190    15.8810    24.2400    -6.9130     2.3550 
  180.3750    86.6990    14.3760    12.1480    16.2640    24.1900    -6.7240     2.3520 
  180.5000    84.9080    15.8830    13.4680    15.8690    24.1960    -6.5990     2.3540 
  180.6250    82.0840    17.3420    14.8730    17.9440    24.2270    -6.4910     2.3630 
  180.7500    79.4260    18.2130    15.9520    23.8350    24.2250    -6.4220     2.3730 
  180.8750    79.9220    18.1460    16.2740    29.0770    24.1970    -6.3580     2.3780 
  181.0000    84.2900    17.1300    15.6180    27.9320    24.1500    -6.2510     2.3770 
  181.1250    91.0900    15.3550    14.0760    19.4590    24.1450    -6.1140     2.3720 
  181.2500    95.0170    13.3620    12.2890    14.7190    24.1990    -5.9270     2.3690 
  181.3750    94.4820    11.5540    10.6610    11.7690    24.2730    -5.6910     2.3690 
  181.5000    93.1780    10.2180     9.3990    10.7870    24.3180    -5.3900     2.3690 
  181.6250    93.1750     9.4420     8.5890    10.6220    24.2800    -5.0030     2.3660 
  181.7500    94.3580     8.9700     8.0890     9.6300    24.1870    -4.6060     2.3600 
  181.8750    96.6660     8.6850     7.8200     7.8980    24.0650    -4.2960     2.3570 
  182.0000    98.1460     8.4970     7.7050     7.2530    23.9410    -4.0960     2.3590 
  182.1250    97.1570     8.3270     7.6710     8.4090    23.7210    -3.9610     2.3640 
  182.2500    96.5370     8.1160     7.6150     9.3940    23.7800    -3.8740     2.3660 
  182.3750    97.7050     7.8390     7.4760     8.8980    24.0070    -3.8050     2.3620 
  182.5000    97.0690     7.5040     7.2370     8.9180    24.2190    -3.7610     2.3560 
  182.6250    96.1780     7.1750     6.9270     8.0350    24.2750    -3.8480     2.3580 
  182.7500    99.2030     6.9440     6.6440     6.5540    24.2480    -4.0050     2.3710 
  182.8750   103.8330     6.8950     6.4730     5.7860    24.1950    -4.1070     2.3910 
  183.0000   105.6270     7.0820     6.4800     6.2880    24.1410    -4.1150     2.4100 
  183.1250   102.3010     7.5370     6.7430     7.4980    24.1970    -4.0160     2.4180 
  183.2500    96.4960     8.1340     7.1990     9.0420    24.2350    -3.8550     2.4170 
  183.3750    90.1210     8.7250     7.7430     9.6870    24.2280    -3.7320     2.4110 
  183.5000    86.0270     9.1420     8.2110     9.8350    24.1890    -3.6690     2.4050 
  183.6250    86.6600     9.2140     8.3890    10.8670    24.1230    -3.5820     2.3970 
  183.7500    88.5560     9.0110     8.2710    11.6310    24.0250    -3.4430     2.3850 
  183.8750    91.1520     8.6940     7.9630     9.6630    23.9100    -3.2950     2.3700 
  184.0000    94.5330     8.4850     7.6580     7.7090    23.8570    -3.1690     2.3550 
  184.1250    96.1400     8.6780     7.6150     7.4970    23.8530    -3.1140     2.3480 
  184.2500    93.1460     9.3370     7.9470     8.4360    23.8080    -3.1170     2.3520 
  184.3750    87.3750    10.4120     8.6840     9.4490    23.7570    -3.1150     2.3660 
  184.5000    83.2460    11.6860     9.7200    10.0080    23.7330    -3.1140     2.3840 
  184.6250    81.9460    12.7380    10.7550    11.4370    23.7090    -3.1180     2.3960 
  184.7500    81.0130    13.2950    11.4590    13.8090    23.6600    -3.1560     2.4000 
  184.8750    83.6380    13.3850    11.7260    15.6690    23.6620    -3.2400     2.3950 
