~V
VERS. 2.00: Ver 2.00
~W
STRT.M 43.0000:
STOP.M 249.0000:
STEP.M 0.1250:
NULL. -999.2500:
UWI. F10197:
~C
DEPT.M :
GR.API :
RML.OHMM :
RI. :
RXO.OHMM :
CALI.CM :
SP.MV :
DEN.GM/CC :
~A
# ...
  155.5000    70.3510    11.6390    10.3210    10.1460    21.8710    -8.5140     2.2300 
  155.6250    74.5900    12.7470    11.0760    11.3940    22.0200    -8.3360     2.1870 
  155.7500    79.7740    13.7780    11.9910    11.3210    22.1660    -8.1420     2.1590 
  155.8750    82.0980    14.4210    12.7450    11.0340    22.3420    -7.9350     2.1510 
  156.0000    78.9660    14.5940    13.1560    11.2630    22.6010    -7.7090     2.1530 
  156.1250    72.0360    14.4250    13.2050    11.9780    22.9180    -7.5090     2.1600 
  156.2500    68.1750    14.1970    13.0990    12.6670    23.2070    -7.3430     2.1720 
  156.3750    68.0130    14.0310    12.9510    12.8150    23.4520    -7.1950     2.1880 
  156.5000    68.3790    14.0020    12.8310    12.4010    23.6090    -7.0560     2.2040 
  156.6250    66.3560    14.1840    12.8120    11.9010    23.6030    -6.9730     2.2150 
  156.7500    65.3830    14.5140    12.8850    12.0280    23.4430    -6.9340     2.2180 
  156.8750    66.9830    14.8400    12.9690    12.2180    23.1680    -6.9120     2.2140 
  157.0000    69.4480    14.9040    12.8900    12.2490    22.7150    -6.9090     2.2050 
  157.1250    69.8620    14.3590    12.3900    11.9080    21.9440    -6.9170     2.1980 
  157.2500    68.8360    13.3200    11.5130    11.2010    21.1190    -6.9150     2.1970 
  157.3750    68.5110    12.0910    10.4610     9.9820    20.4720    -6.8730     2.1990 
  157.5000    69.7590    11.0180     9.4890     8.4750    20.2600    -6.7750     2.2040 
  157.6250    74.4670    10.4000     8.8420     7.9330    20.4180    -6.6130     2.2120 
  157.7500    78.8120    10.2310     8.5470     9.0150    20.8430    -6.4090     2.2200 
  157.8750    77.7090    10.4450     8.5810    10.8190    21.5400    -6.1860     2.2230 
  158.0000    73.1170    10.9230     8.8780    11.3150    22.4360    -5.9450     2.2170 
  158.1250    72.1690    11.5210     9.3610     9.8430    23.1690    -5.6920     2.2050 
  158.2500    72.9570    12.0440     9.8710    10.2240    23.5630    -5.4350     2.1940 
  158.3750    71.2460    12.3470    10.2770    11.1590    23.6920    -5.1880     2.1930 
  158.5000    68.4030    12.3400    10.4710    11.5490    23.6940    -4.9740     2.2030 
  158.6250    68.9800    11.9650    10.3620    11.2860    23.6540    -4.8260     2.2210 
  158.7500    70.0380    11.3290    10.0010    10.7060    23.6050    -4.7000     2.2400 
  158.8750    69.8780    10.4910     9.4150     9.7480    23.5460    -4.5820     2.2590 
  159.0000    70.0780     9.5060     8.6380     8.8210    23.4730    -4.4680     2.2780 
  159.1250    71.0690     8.4230     7.7070     7.9770    23.4230    -4.3330     2.2900 
  159.2500    72.4870     7.3440     6.7340     7.4330    23.4400    -4.1780     2.2950 
  159.3750    74.7820     6.3660     5.8200     6.5610    23.5000    -4.0500     2.2960 
  159.5000    77.4590     5.5650     5.0450     5.1970    23.5270    -3.9730     2.2900 
  159.6250    78.8070     5.0150     4.4860     4.2570    23.4840    -3.9200     2.2730 
  159.7500    80.0670     4.6650     4.1040     4.1340    23.4010    -3.9090     2.2540 
  159.8750    82.6230     4.4640     3.8630     4.3330    23.3830    -3.9350     2.2440 
  160.0000    86.4910     4.3600     3.7280     4.2190    23.3640    -3.9980     2.2430 
  160.1250    88.2600     4.3150     3.6850     3.7560    23.2470    -4.0770     2.2420 
  160.2500    85.3670     4.2830     3.6900     3.5670    23.0540    -4.1750     2.2430 
  160.3750    80.1850     4.2460     3.7140     3.6340    22.8430    -4.2680     2.2520 
  160.5000    77.8860     4.2110     3.7390     3.7250    22.7030    -4.3210     2.2700 
  160.6250    82.6630     4.2080     3.7750     3.7660    22.7660    -4.3320     2.2860 
  160.7500    87.7980     4.2710     3.8510     3.7950    22.8410    -4.3210     2.2940 
  160.8750    88.1840     4.4240     3.9900     3.8540    22.8580    -4.2920     2.2990 
  161.0000    86.1800     4.6540     4.1910     4.0110    22.8590    -4.2420     2.3010 
  161.1250    86.8970     4.8750     4.3940     4.3080    22.8130    -4.1820     2.3010 
  161.2500    88.4600     4.9750     4.4970     4.6240    22.7570    -4.0890     2.2960 
  161.3750    87.6810     4.8940     4.4400     4.6100    22.7640    -3.9830     2.2890 
  161.5000    86.7120     4.6500     4.2270     4.2440    22.8540    -3.8760     2.2750 
  161.6250    86.4760     4.3430     3.9290     3.6910    23.0090    -3.7730     2.2560 
  161.7500    86.3300     4.1100     3.6620     3.4580    23.1780    -3.7020     2.2380 
  161.8750    86.2330     4.0150     3.4850     3.4140    23.3330    -3.6760     2.2260 
  162.0000    86.6470     4.0600     3.4110     3.5090    23.3790    -3.7170     2.2200 
  162.1250    84.1560     4.2100     3.4360     3.7160    23.2290    -3.8280     2.2130 
  162.2500    81.1250     4.3760     3.5020     3.9720    23.1120    -4.0100     2.1990 
  162.3750    83.0910     4.5040     3.5750     4.1660    23.1150    -4.2470     2.1740 
  162.5000    88.5920     4.6040     3.6510     4.1660    23.1920    -4.5350     2.1370 
  162.6250    92.1890     4.8050     3.7990     4.4150    23.2510    -4.9040     2.0790 
  162.7500    93.4170     5.2730     4.1200     5.0200    23.1930    -5.3310     1.9980 
  162.8750    93.1830     6.1670     4.7230     5.5710    22.9140    -5.7950     1.9110 
  163.0000    90.3280     7.5950     5.7160     6.3270    22.4320    -6.2800     1.8530 
  163.1250    84.1880     9.6280     7.2490     7.8470    21.9270    -6.7720     1.8570 
  163.2500    77.8890    11.9370     9.1760    10.1110    21.4850    -7.2330     1.9030 
  163.3750    75.6940    14.0720    11.2130    11.7140    21.1400    -7.6390     1.9630 
  163.5000    78.7170    15.5120    12.8930    12.4330    20.9190    -7.9650     1.9950 
  163.6250    82.5120    15.8890    13.7200    12.7810    21.0750    -8.2060     1.9660 
  163.7500    81.6320    15.7480    13.9420    12.8870    21.3490    -8.3860     1.9090 
  163.8750    79.2790    15.6540    13.9740    13.0310    21.5480    -8.5110     1.8690 
  164.0000    77.8990    15.9650    14.1690    13.7290    21.7100    -8.5690     1.8640 
  164.1250    77.8180    16.7590    14.7050    15.1110    21.8070    -8.5880     1.8880 
  164.2500    78.9570    17.7270    15.4350    16.2510    21.9700    -8.6240     1.9190 
  164.3750    79.1500    18.6450    16.2070    16.5360    22.1490    -8.6970     1.9520 
  164.5000    75.5290    19.4190    16.9240    16.3890    22.2520    -8.8130     1.9860 
  164.6250    71.8190    20.1730    17.6280    15.7080    22.1980    -8.9340     2.0220 
  164.7500    72.7940    21.1820    18.5060    15.3140    21.9990    -9.0450     2.0590 
  164.8750    73.9370    22.6760    19.7650    16.5280    21.8110    -9.1520     2.0930 
  165.0000    71.7110    24.7960    21.5730    19.1470    21.8290    -9.2650     2.1210 
  165.1250    69.7930    27.7180    24.1640    21.0790    22.0870    -9.3750     2.1370 
  165.2500    69.3490    31.3160    27.4690    21.7860    22.3490    -9.5120     2.1440 
  165.3750    67.0680    35.4650    31.4170    24.3090    22.6730    -9.6730     2.1480 
  165.5000    63.4260    39.8500    35.7720    28.9800    23.0500    -9.8330     2.1510 
  165.6250    61.0310    43.7710    39.9940    34.0810    23.3180    -9.9900     2.1530 
  165.7500    58.6110    46.4330    43.3120    36.3290    23.4370   -10.1350     2.1540 
  165.8750    57.7190    47.0540    44.9050    35.8330    23.4480   -10.2840     2.1580 
  166.0000    60.7960    45.3130    44.2600    35.3870    23.4000   -10.4490     2.1640 
  166.1250    66.7410    41.6280    41.4560    34.2480    23.2460   -10.6350     2.1700 
  166.2500    69.4830    37.5060    37.8650    30.8180    22.9970   -10.7820     2.1760 
  166.3750    68.9830    33.7450    34.3240    26.3320    22.7400   -10.8920     2.1820 
  166.5000    69.1260    30.6970    31.2860    22.9510    22.6240   -10.9920     2.1890 
  166.6250    70.7790    28.4520    28.9350    22.9140    22.6160   -11.1040     2.1960 
