~V
VERS. 2.00: Ver 2.00
~W
STRT.M 53.0000:
STOP.M 219.0000:
STEP.M 0.1250:
NULL. -999.2500:
UWI. F10171:
~C
DEPT.M :
SP.MV :
DEN.GM/CC :
GR.API :
RML.OHMM :
RI. :
RXO.OHMM :
CALI.CM :
~A
# ...
  165.5000   -23.8430     2.1950    66.4540    52.5700    47.2430    38.9930    24.4470 
  165.6250   -23.8950     2.2110    68.2560    49.2900    44.3090    31.9970    24.4700 
  165.7500   -23.9990     2.2180    70.2850    49.4870    44.6250    25.4680    24.4360 
  165.8750   -24.0310     2.2110    69.3210    53.8440    48.5090    27.3180    24.3420 
  166.0000   -24.0260     2.1890    67.1210    61.4300    54.7680    39.9560    24.2370 
  166.1250   -24.0540     2.1670    67.9210    70.5120    61.5740    52.6730    24.1010 
  166.2500   -24.0420     2.1600    71.3040    76.9450    65.1930    48.0640    23.9510 
  166.3750   -23.9680     2.1640    72.0640    72.7280    59.5460    41.0370    23.9080 
  166.5000   -23.8860     2.1610    69.6610    58.4580    46.6680    43.1350    24.0090 
  166.6250   -23.8220     2.1540    67.6160    41.1660    32.4890    38.3900    24.2730 
  166.7500   -23.7240     2.1610    68.2450    27.5100    21.6360    23.5920    24.5640 
  166.8750   -23.6540     2.1940    70.9030    20.0220    15.7870    13.3350    24.7820 
  167.0000   -23.6880     2.2320    73.2550    16.5810    13.4510     9.3060    24.9060 
  167.1250   -23.7300     2.2550    73.8620    16.2550    14.1130    10.5890    24.9790 
  167.2500   -23.7850     2.2570    72.4260    18.9890    17.7440    17.3770    25.0300 
  167.3750   -23.9970     2.2460    68.5630    26.3230    25.2900    33.4380    25.0500 
  167.5000   -24.2950     2.2350    62.9120    38.4580    36.2600    56.3130    25.0540 
  167.6250   -24.5970     2.2270    57.0100    54.1040    49.0560    67.6350    25.0530 
  167.7500   -24.9760     2.2200    53.3800    68.4890    59.7810    68.7930    25.0540 
  167.8750   -25.4040     2.2120    54.2260    74.9220    63.7210    70.4790    25.0550 
  168.0000   -25.7630     2.2040    56.0330    75.1200    63.1290    69.3550    25.0490 
  168.1250   -26.1490     2.1990    56.8000    72.9770    61.4520    67.8570    25.0340 
  168.2500   -26.6110     2.2030    56.6840    71.2510    60.8470    66.9390    25.0030 
  168.3750   -27.0110     2.2130    57.8690    70.9680    62.0460    64.7040    24.9850 
  168.5000   -27.4260     2.2140    59.4890    71.4210    64.2160    64.1130    24.9650 
  168.6250   -27.9050     2.2020    59.8250    71.6860    66.3470    69.9430    24.9190 
  168.7500   -28.3450     2.1830    59.4790    70.7680    67.2580    76.8970    24.8780 
  168.8750   -28.7690     2.1730    59.3950    68.0080    66.0090    75.4750    24.8800 
  169.0000   -29.2570     2.1760    58.7260    64.5280    63.7530    67.5440    24.9610 
  169.1250   -29.7130     2.1860    56.7850    61.7920    62.1560    58.2460    25.0030 
  169.2500   -30.0660     2.1970    54.8780    61.3150    62.9580    53.1990    25.0320 
  169.3750   -30.4340     2.2020    55.4050    65.4380    68.5770    55.3150    25.0600 
  169.5000   -30.7800     2.1970    58.2270    75.2830    79.9450    70.9010    25.1360 
  169.6250   -31.0300     2.1780    60.7470    97.2650    93.7280   105.6850    25.3010 
  169.7500   -31.1950     2.1500    61.1360   125.9930   117.9630   154.3400    25.4880 
  169.8750   -31.3080     2.1270    59.1630   163.8990   152.4320   193.9530    25.5610 
  170.0000   -31.3570     2.1160    56.3970   205.7240   189.3250   218.8700    25.5460 
  170.1250   -31.3320     2.1160    54.1240   239.5210   219.3640   236.9040    25.5160 
  170.2500   -31.2440     2.1270    53.3800   251.5910   232.6200   256.1810    25.5070 
  170.3750   -31.0850     2.1460    54.1370   235.2920   222.1710   255.9760    25.5210 
  170.5000   -30.8840     2.1710    55.9480   206.8470   198.4930   223.9810    25.5250 
  170.6250   -30.6370     2.2000    57.7050   178.7330   171.9080   174.8750    25.4480 
  170.7500   -30.4140     2.2220    58.8580   157.8280   150.2810   129.3590    25.2780 
  170.8750   -30.2280     2.2220    58.3090   146.4360   137.8280   109.5740    25.1080 
  171.0000   -29.9930     2.2040    56.8530   140.5900   131.6120   105.7370    25.0770 
  171.1250   -29.8130     2.1800    56.5500   136.9200   128.4980   111.7310    25.1190 
  171.2500   -29.7480     2.1600    57.7850   132.1200   125.2310   131.3570    25.1620 
  171.3750   -29.6660     2.1500    58.4640   123.8690   119.2110   130.0410    25.1490 
  171.5000   -29.5900     2.1530    56.6850   113.7430   111.1410   102.6420    25.0790 
  171.6250   -29.5960     2.1700    55.0340   103.8020   102.6650    75.1390    24.9740 
  171.7500   -29.5900     2.1990    57.1050    94.9480    94.8220    65.8640    24.8540 
  171.8750   -29.5840     2.2250    60.3620    86.1450    86.8780    71.2660    24.8790 
  172.0000   -29.6540     2.2370    62.2220    75.6870    77.1830    82.5390    24.9720 
  172.1250   -29.6870     2.2370    64.1230    63.2560    65.2010    85.5860    25.0300 
  172.2500   -29.6450     2.2380    66.2680    52.2240    50.2500    69.3390    25.0310 
  172.3750   -29.6770     2.2460    67.8500    41.0190    39.2640    45.4300    24.9970 
  172.5000   -29.7120     2.2570    69.8250    32.7790    31.2410    29.3450    24.9780 
  172.6250   -29.6920     2.2700    71.9580    27.4200    26.0790    22.5930    24.9690 
  172.7500   -29.7360     2.2840    74.1360    24.3050    23.1660    21.5060    24.9700 
  172.8750   -29.7650     2.2970    78.6910    22.9240    21.9370    22.1480    24.9740 
  173.0000   -29.7090     2.3090    83.8550    22.3850    21.4090    23.3110    24.9780 
  173.1250   -29.6390     2.3230    84.4970    22.2260    21.0940    23.1150    24.9790 
  173.2500   -29.6080     2.3370    81.0420    22.1750    20.7730    21.9230    24.9780 
  173.3750   -29.4780     2.3440    80.8150    22.2270    20.5180    21.7450    24.9760 
  173.5000   -29.2600     2.3430    82.4040    22.4480    20.4430    20.8920    24.9730 
  173.6250   -29.0510     2.3330    81.9860    22.8300    20.5460    19.9310    24.9720 
  173.7500   -28.7840     2.3180    78.5700    23.2610    20.7230    20.1270    24.9650 
  173.8750   -28.4260     2.3120    74.5140    23.4300    20.6960    21.5590    24.9540 
  174.0000   -28.0880     2.3250    72.3730    23.0560    20.2380    20.7700    24.9520 
  174.1250   -27.7790     2.3510    73.5280    22.0370    19.2860    17.7600    24.9580 
  174.2500   -27.4230     2.3780    76.7230    20.5200    17.9650    16.8540    24.9540 
  174.3750   -27.1670     2.3900    79.1200    18.8020    16.5300    17.9500    24.9410 
  174.5000   -27.0230     2.3940    81.2350    17.2510    15.2910    17.2130    24.9540 
  174.6250   -26.8980     2.3990    82.4420    16.0880    14.4510    14.3210    24.9670 
  174.7500   -26.8550     2.4030    82.3310    15.4140    14.0960    12.2920    24.9720 
  174.8750   -26.9640     2.3960    81.3140    15.3210    14.3170    12.4540    24.9720 
  175.0000   -27.1240     2.3730    81.3770    15.7200    15.0270    13.8080    24.9680 
  175.1250   -27.3760     2.3410    82.3030    16.5900    16.1910    15.6750    24.9540 
  175.2500   -27.7650     2.3090    82.9090    17.8710    17.7350    17.2690    24.9260 
  175.3750   -28.1490     2.2860    82.7930    19.5330    19.6450    18.6960    24.9080 
  175.5000   -28.5520     2.2730    81.6890    21.5170    21.9180    20.4620    24.8710 
  175.6250   -29.0510     2.2670    80.4360    24.5450    24.0400    23.4050    24.7810 
  175.7500   -29.5410     2.2660    78.8190    28.0340    26.7960    28.3210    24.6390 
  175.8750   -29.9930     2.2660    77.8100    32.1700    30.3370    32.8720    24.5340 
  176.0000   -30.4870     2.2620    76.2510    36.9960    34.4500    37.4110    24.4820 
  176.1250   -30.9580     2.2500    73.1420    42.5540    39.1510    42.4960    24.5400 
  176.2500   -31.3600     2.2320    69.1680    48.9300    44.5020    49.5050    24.7350 
  176.3750   -31.7340     2.2160    66.6240    56.4670    50.8140    54.8310    25.0080 
  176.5000   -32.0950     2.2060    66.0660    65.1430    58.1430    61.2960    25.1490 
  176.6250   -32.4110     2.1980    65.3980    74.8650    66.4780    71.5900    25.1890 
