~V
VERS. 2.00: Ver 2.00
~W
STRT.M 49.0000:
STOP.M 243.0000:
STEP.M 0.1250:
NULL. -999.2500:
UWI. F10196:
~C
DEPT.M :
SP.MV :
DEN.GM/CC :
GR.API :
RML.OHMM :
RI. :
RXO.OHMM :
CALI.CM :
~A
# ...
  116.5000   -10.1700     2.4580    56.8250    21.7320    17.8560    31.8060    23.3250 
  116.6250   -10.2780     2.4200    53.5880    22.9330    20.0100    30.2480    23.1910 
  116.7500   -10.2010     2.4150    54.9940    22.3490    20.3030    33.3200    23.2550 
  116.8750    -9.9750     2.4270    57.7140    21.1270    19.6150    29.2730    23.2310 
  117.0000    -9.5890     2.4240    58.5410    19.8570    18.5700    22.1910    23.1350 
  117.1250    -9.0190     2.4020    57.6710    18.6220    17.3900    20.0020    23.1620 
  117.2500    -8.3630     2.3900    58.3150    17.1440    15.9400    22.5440    23.2640 
  117.3750    -7.8220     2.3920    61.0870    15.2970    14.1780    22.3450    23.3030 
  117.5000    -7.4550     2.3870    65.6170    13.2230    12.2430    16.8600    23.2960 
  117.6250    -7.1860     2.3570    72.8020    11.3030    10.4370    11.4150    23.3580 
  117.7500    -6.9130     2.3150    80.8420    10.1480     9.1970     9.8270    23.5060 
  117.8750    -6.6670     2.2900    82.7850    10.0350     8.6970     9.7270    23.6570 
  118.0000    -6.5220     2.2940    77.9370    11.2030     9.1100    10.8760    23.7640 
  118.1250    -6.4770     2.3250    71.1470    13.8840    10.6480    13.4210    23.8270 
  118.2500    -6.4540     2.3840    65.3970    18.6760    13.9140    17.7520    23.8890 
  118.3750    -6.4300     2.4580    58.5810    25.4290    19.0240    26.4920    23.9710 
  118.5000    -6.4250     2.5230    50.0620    33.7930    25.9280    39.8080    24.0600 
  118.6250    -6.4330     2.5590    44.7690    42.5820    33.7520    51.6260    24.1550 
  118.7500    -6.4490     2.5570    44.8080    49.2570    40.2980    53.4770    24.2170 
  118.8750    -6.4620     2.5440    45.2940    52.6000    44.1590    53.7790    24.2220 
  119.0000    -6.4890     2.5390    45.2390    53.1410    45.4580    56.6610    24.2000 
  119.1250    -6.5530     2.5430    45.7840    52.4750    45.2820    57.8110    24.1880 
  119.2500    -6.6240     2.5420    46.5060    52.2830    44.9080    52.1540    24.1950 
  119.3750    -6.6440     2.5320    45.7030    53.2820    45.1750    50.3680    24.2010 
  119.5000    -6.6040     2.5260    45.4130    55.4610    46.2900    52.4220    24.1820 
  119.6250    -6.5700     2.5350    46.5320    58.3290    48.0790    56.1150    24.1460 
  119.7500    -6.5980     2.5580    45.0710    60.8840    49.9980    58.2120    24.1580 
  119.8750    -6.6270     2.5790    40.3540    62.2630    51.3700    57.5940    24.1950 
  120.0000    -6.5870     2.5920    37.6480    62.1890    51.8590    55.2000    24.2140 
  120.1250    -6.5130     2.5980    41.2600    60.9530    51.4870    52.2060    24.1980 
  120.2500    -6.4930     2.5950    47.4620    59.0150    50.4470    47.8180    24.1740 
  120.3750    -6.5130     2.5890    50.0640    56.7540    49.0340    46.7300    24.1340 
  120.5000    -6.5180     2.5890    49.2520    54.1320    47.2530    48.7320    24.0470 
  120.6250    -6.4750     2.6000    46.0380    51.1430    45.1030    49.5430    23.9800 
  120.7500    -6.3800     2.6120    43.0810    48.0620    42.7620    45.2140    23.9620 
  120.8750    -6.3280     2.6130    43.4410    45.3640    40.6180    41.5250    23.9950 
  121.0000    -6.3630     2.6040    47.8470    43.2850    38.9030    40.7490    24.0210 
  121.1250    -6.4190     2.5930    52.3070    41.7400    37.6200    41.3150    24.0470 
  121.2500    -6.4060     2.5820    51.8390    40.2590    36.4860    39.9050    24.1050 
  121.3750    -6.3810     2.5720    48.7160    38.2240    34.9900    38.0060    24.0810 
  121.5000    -6.4160     2.5610    45.2590    35.3700    32.8140    37.1460    23.9930 
  121.6250    -6.5150     2.5450    43.9780    31.9080    30.0050    33.5700    23.9210 
  121.7500    -6.6150     2.5160    45.2350    28.5140    27.0310    27.7030    23.9510 
  121.8750    -6.6670     2.4800    44.9050    25.8030    24.4830    23.6790    24.0570 
  122.0000    -6.6810     2.4490    43.2320    24.0480    22.6610    21.6510    24.1560 
  122.1250    -6.7090     2.4340    43.2520    23.2720    21.6660    21.0980    24.2170 
  122.2500    -6.7680     2.4410    46.1060    23.4040    21.5460    21.7290    24.2290 
  122.3750    -6.8020     2.4620    48.7390    23.9920    21.9590    23.0430    24.2260 
  122.5000    -6.8140     2.4860    49.7590    24.7450    22.6530    24.5840    24.2450 
  122.6250    -6.8410     2.4990    49.1410    25.4380    23.3910    25.7920    24.2380 
  122.7500    -6.8790     2.4940    46.7020    25.9240    23.9790    26.3940    24.1940 
  122.8750    -6.9110     2.4820    45.6060    26.2360    24.3830    26.3050    24.1630 
  123.0000    -6.9240     2.4720    47.7370    26.4290    24.6290    26.6140    24.1560 
  123.1250    -6.9190     2.4660    51.2110    26.5400    24.7550    27.4480    24.1850 
  123.2500    -6.9280     2.4620    52.6490    26.5310    24.7500    27.4160    24.2020 
  123.3750    -6.9210     2.4670    51.9150    26.3430    24.5860    25.2630    24.0780 
  123.5000    -6.8460     2.4860    49.9590    25.9280    24.2220    22.8540    23.7700 
  123.6250    -6.6860     2.5100    48.4770    25.3080    23.6660    21.9430    23.4910 
  123.7500    -6.5110     2.5190    48.0220    24.5900    22.9940    22.1440    23.6120 
  123.8750    -6.3730     2.5110    49.3140    23.9390    22.3550    22.6510    23.9920 
  124.0000    -6.2400     2.4970    53.2380    23.4630    21.8450    22.6550    24.3150 
  124.1250    -6.0550     2.4890    56.5170    23.2340    21.5380    22.5840    24.4380 
  124.2500    -5.8350     2.4930    54.3140    23.3330    21.5240    23.4410    24.4630 
  124.3750    -5.7160     2.4950    48.8080    23.6670    21.7570    23.8100    24.4820 
  124.5000    -5.6700     2.4930    46.0960    24.1100    22.1520    23.8480    24.4360 
  124.6250    -5.6080     2.4930    48.7460    24.4740    22.5590    23.3080    24.3450 
  124.7500    -5.5450     2.5080    51.8890    24.5170    22.7580    23.4180    24.2200 
  124.8750    -5.5130     2.5250    52.4290    24.2150    22.6610    24.1010    24.1290 
  125.0000    -5.5220     2.5320    51.4940    23.6610    22.2940    23.5640    24.0640 
  125.1250    -5.5640     2.5230    50.6290    23.0520    21.7890    22.1210    24.0660 
  125.2500    -5.6050     2.5070    52.4800    22.6190    21.3350    21.4830    24.1200 
  125.3750    -5.6120     2.4960    54.7910    22.4100    21.0330    22.2260    24.1070 
  125.5000    -5.6240     2.5000    56.0680    22.3430    20.8730    22.5530    23.9660 
  125.6250    -5.6840     2.5230    55.4830    22.2330    20.7390    22.8280    23.8070 
  125.7500    -5.7360     2.5510    52.3390    21.8210    20.4150    22.2410    23.8320 
  125.8750    -5.7260     2.5690    48.9580    21.0710    19.8100    21.1470    23.9960 
  126.0000    -5.6940     2.5750    47.7160    20.0830    18.9630    19.7690    24.1460 
  126.1250    -5.7010     2.5750    48.9740    19.0640    18.0250    18.7320    24.2460 
  126.2500    -5.7250     2.5700    49.8190    18.2990    17.2350    17.3810    24.3100 
  126.3750    -5.7000     2.5620    48.6250    17.9530    16.7700    17.1510    24.3780 
  126.5000    -5.6440     2.5550    48.4000    18.1230    16.7470    17.5800    24.4010 
  126.6250    -5.6080     2.5480    50.3930    18.8040    17.2110    17.8130    24.3280 
  126.7500    -5.6230     2.5370    51.4730    19.8650    18.1410    18.1670    24.0090 
  126.8750    -5.6590     2.5250    50.1090    20.8770    19.2030    20.0760    23.6210 
  127.0000    -5.6450     2.5150    49.0950    21.4520    20.0350    23.0890    23.4920 
  127.1250    -5.5580     2.5080    49.5170    21.3400    20.3140    25.2770    23.7400 
  127.2500    -5.4990     2.4980    49.0970    20.5410    19.8780    23.9890    24.0370 
  127.3750    -5.4960     2.4860    46.1010    19.5600    19.1150    20.5010    24.1860 
  127.5000    -5.5380     2.4800    42.5000    18.7590    18.3570    18.4510    24.2690 
  127.6250    -5.5810     2.4820    41.7810    18.3020    17.8170    18.2230    24.3490 
