~V
VERS. 2.00: Ver 2.00
~W
STRT.M 57.0000:
STOP.M 247.0000:
STEP.M 0.1250:
NULL. -999.2500:
UWI. F10194:
~C
DEPT.M :
SP.MV :
DEN.GM/CC :
GR.API :
RML.OHMM :
RI. :
RXO.OHMM :
CALI.CM :
~A
# ...
   90.7500   -25.7690     2.1880    70.4220     9.4340     7.8060    12.5020    25.3200 
   90.8750   -26.0770     2.1950    72.0190     8.4160     6.9200    10.7170    25.0110 
   91.0000   -26.4100     2.2060    72.2110     7.8970     6.3450    10.0540    24.7590 
   91.1250   -26.6580     2.2080    71.1070     7.7230     6.0440     9.8260    24.5590 
   91.2500   -26.7300     2.1960    69.1920     7.7710     5.9630     9.7540    24.4230 
   91.3750   -26.5600     2.1750    67.8460     7.9380     6.0490     9.7430    24.4530 
   91.5000   -26.1580     2.1490    67.7300     8.1160     6.2170     9.7750    24.7060 
   91.6250   -25.5200     2.1240    68.1440     8.2080     6.3730     9.8280    25.1430 
   91.7500   -24.6240     2.1040    68.5150     8.1310     6.4310     9.8400    25.5820 
   91.8750   -23.3980     2.0980    69.5140     7.8200     6.3090     9.6700    25.8240 
   92.0000   -21.8570     2.1040    72.3260     7.3130     6.0070     9.1420    25.8900 
   92.1250   -20.0920     2.1190    77.0270     6.7300     5.5980     8.1400    25.9040 
   92.2500   -18.2340     2.1470    82.3590     6.2010     5.1790     6.8130    25.9340 
   92.3750   -16.4050     2.1880    87.1980     5.8540     4.8540     5.6890    26.0060 
   92.5000   -14.6570     2.2300    91.4860     5.7050     4.6590     5.1170    26.1180 
   92.6250   -13.0600     2.2600    94.5700     5.6750     4.5630     4.9410    26.2810 
   92.7500   -11.7090     2.2780    94.8550     5.6600     4.5050     4.9140    26.5030 
   92.8750   -10.7700     2.2820    92.6430     5.5520     4.4140     4.8960    26.8210 
   93.0000   -10.3250     2.2630    90.8010     5.3170     4.2550     4.7750    27.4350 
   93.1250   -10.3910     2.2300    91.1320     5.0200     4.0480     4.5180    28.6570 
   93.2500   -10.9320     2.2050    92.6200     4.7690     3.8520     4.3060    30.4080 
   93.3750   -11.9480     2.2030    92.5170     4.6970     3.7540     4.3990    31.2710 
   93.5000   -13.4150     2.2160    90.4110     4.8610     3.8080     4.8610    30.2290 
   93.6250   -15.2530     2.2230    87.8550     5.2440     4.0300     5.6520    28.1510 
   93.7500   -17.3760     2.2130    85.7690     5.7860     4.4080     6.7030    26.4820 
   93.8750   -19.6770     2.1830    82.4180     6.3940     4.9020     7.6750    25.8520 
   94.0000   -21.9990     2.1420    76.5160     6.9590     5.4250     8.3650    25.8540 
   94.1250   -24.1620     2.1020    70.4190     7.3980     5.8840     8.7100    26.0740 
   94.2500   -25.9910     2.0690    66.7550     7.6530     6.2010     8.8190    26.3190 
   94.3750   -27.2580     2.0460    65.3500     7.6800     6.3050     8.8290    26.4540 
   94.5000   -27.9200     2.0350    64.1210     7.5060     6.2040     8.7960    26.3910 
   94.6250   -28.0640     2.0440    63.1460     7.2110     5.9630     8.7700    26.1090 
   94.7500   -27.7890     2.0710    64.6320     6.8880     5.6530     8.7310    25.7940 
   94.8750   -27.2550     2.1050    69.5320     6.6410     5.3560     8.5910    25.6340 
   95.0000   -26.6870     2.1310    75.0230     6.5270     5.1290     8.4300    25.6140 
   95.1250   -26.2390     2.1480    77.8560     6.5410     4.9960     8.4200    25.6540 
   95.2500   -26.0070     2.1580    77.1770     6.6410     4.9570     8.5820    25.7180 
   95.3750   -26.1230     2.1620    74.1230     6.7730     4.9970     8.8450    25.7790 
   95.5000   -26.6020     2.1630    70.9600     6.8910     5.0820     9.0980    25.8290 
   95.6250   -27.3570     2.1630    69.3150     6.9770     5.1790     9.2450    25.8990 
   95.7500   -28.3120     2.1620    69.2440     7.0400     5.2720     9.1760    26.0180 
   95.8750   -29.3000     2.1550    68.6470     7.1000     5.3490     8.9170    26.1790 
   96.0000   -30.1390     2.1380    66.5320     7.1740     5.4120     8.6370    26.3660 
   96.1250   -30.7130     2.1180    64.5060     7.2620     5.4640     8.4710    26.5240 
   96.2500   -31.0020     2.1040    63.9170     7.3550     5.5090     8.4810    26.5950 
   96.3750   -31.0040     2.0980    64.3650     7.4470     5.5530     8.6470    26.5850 
   96.5000   -30.7610     2.0960    65.1720     7.5370     5.6020     8.8830    26.5610 
   96.6250   -30.3670     2.0970    66.7350     7.6280     5.6610     9.1500    26.5530 
   96.7500   -29.8800     2.1100    69.4620     7.7160     5.7270     9.4540    26.5430 
   96.8750   -29.3650     2.1370    71.7760     7.7820     5.7880     9.7990    26.5120 
   97.0000   -28.8560     2.1660    71.5960     7.8130     5.8340    10.0410    26.4780 
   97.1250   -28.3620     2.1800    69.1130     7.8210     5.8630    10.0750    26.4620 
   97.2500   -27.8670     2.1780    67.1510     7.8320     5.8900     9.9820    26.4660 
   97.3750   -27.2930     2.1660    67.9200     7.8720     5.9340     9.8690    26.4890 
   97.5000   -26.5230     2.1550    69.9090     7.9220     5.9910     9.7460    26.5220 
   97.6250   -25.4550     2.1490    70.8230     7.9190     6.0250     9.6910    26.5470 
   97.7500   -24.0270     2.1460    70.5090     7.7850     5.9780     9.8410    26.5450 
   97.8750   -22.2330     2.1450    70.2320     7.4540     5.7860    10.0090    26.5110 
   98.0000   -20.1990     2.1440    70.9790     6.9610     5.4500     9.9920    26.4780 
   98.1250   -18.1210     2.1500    73.9330     6.4160     5.0370     9.3260    26.4900 
   98.2500   -16.1420     2.1710    79.7940     5.9380     4.6330     7.4420    26.5010 
   98.3750   -14.4140     2.2040    85.8540     5.6280     4.3260     5.9300    26.4250 
   98.5000   -13.0370     2.2290    88.8730     5.4940     4.1480     5.4800    26.2640 
   98.6250   -12.0690     2.2380    89.1310     5.4790     4.0850     5.4610    26.1130 
   98.7500   -11.5520     2.2340    88.8520     5.5250     4.1050     5.4780    26.0150 
   98.8750   -11.4970     2.2280    89.2660     5.6270     4.1850     5.5290    25.9380 
   99.0000   -11.7980     2.2220    88.9390     5.7950     4.3070     5.6740    25.8620 
   99.1250   -12.3180     2.2180    86.0830     6.0470     4.4730     5.9220    25.8120 
   99.2500   -12.9300     2.2160    80.9480     6.4210     4.6890     6.4580    25.7770 
   99.3750   -13.4780     2.2110    76.1930     6.7690     4.9410     7.3650    25.7380 
   99.5000   -13.8700     2.2020    73.8540     7.0190     5.1860     8.3260    25.6990 
   99.6250   -14.0830     2.1860    72.6470     7.1570     5.3640     8.8420    25.6920 
   99.7500   -14.1400     2.1630    71.2740     7.1470     5.4350     8.8280    25.7560 
   99.8750   -14.0560     2.1380    71.1520     6.9890     5.3730     8.2180    25.9040 
  100.0000   -13.8360     2.1210    73.6240     6.7420     5.2060     7.2170    26.0350 
  100.1250   -13.4530     2.1170    77.9030     6.4750     4.9910     6.3730    26.0920 
  100.2500   -12.9300     2.1180    81.6350     6.2240     4.7710     5.8970    26.1040 
  100.3750   -12.3630     2.1210    82.6020     5.9910     4.5700     5.5220    26.1030 
  100.5000   -11.8450     2.1260    81.4030     5.7580     4.3880     5.0780    26.0930 
  100.6250   -11.3810     2.1320    81.3620     5.5130     4.2150     4.7000    26.0630 
  100.7500   -10.9200     2.1320    84.9540     5.2600     4.0420     4.4310    26.0050 
  100.8750   -10.4340     2.1330    91.5960     5.0210     3.8720     4.2180    25.8810 
  101.0000    -9.9610     2.1530    98.1050     4.8250     3.7200     4.0760    25.6860 
  101.1250    -9.5580     2.1940   101.9050     4.6940     3.6050     4.0260    25.4560 
  101.2500    -9.2420     2.2420   102.1010     4.6450     3.5380     4.0280    25.2180 
  101.3750    -9.0090     2.2770   101.0810     4.6930     3.5310     4.0600    24.9830 
  101.5000    -8.8600     2.2930   101.9020     4.8230     3.5770     4.1400    24.7840 
  101.6250    -8.8200     2.2990   103.7710     4.9970     3.6570     4.2650    24.6670 
  101.7500    -8.8810     2.3030   103.7930     5.1770     3.7580     4.4150    24.6270 
  101.8750    -9.0230     2.3060   101.8300     5.3240     3.8670     4.5780    24.6290 
