~V
VERS. 2.00: Ver 2.00
~W
STRT.M 50.0000:
STOP.M 252.0000:
STEP.M 0.1250:
NULL. -999.2500:
UWI. F10101:
~C
DEPT.M :
DEN.GM/CC :
SP.MV :
GR.API :
RML.OHMM :
RI. :
RXO.OHMM :
CALI.CM :
~A
# ...
  241.2500     2.5220    -0.6030    72.0600    12.3620    10.2010    11.6310    24.0870 
  241.3750     2.5270    -0.6130    72.8160    12.0080     9.8600    12.9590    24.1280 
  241.5000     2.5100    -0.5870    72.7630    11.7990     9.5970    15.1320    24.1690 
  241.6250     2.4870    -0.6620    72.0840    11.8600     9.5550    16.3320    24.1840 
  241.7500     2.4700    -0.7220    72.0840    12.1260     9.7240    17.6970    24.1890 
  241.8750     2.4620    -0.7130    72.0840    12.4850    10.0320    20.6650    24.1840 
  242.0000     2.4640    -0.7640    72.0840    12.7710    10.3410    23.1830    24.1830 
  242.1250     2.4710    -0.8410    72.0840    12.7690    10.4470    22.1820    24.1940 
  242.2500     2.4740    -0.8410    72.0840    12.4620    10.2960    17.3320    24.2070 
  242.3750     2.4710    -0.8450    72.0840    11.9340     9.9340    13.7390    24.2060 
  242.5000     2.4690    -0.8680    72.0840    11.3480     9.4880    12.3990    24.2030 
  242.6250     2.4730    -0.8220    72.0840    10.9220     9.1380    13.4910    24.2270 
  242.7500     2.4800    -0.8040    72.0840    10.7410     8.9780    15.1520    24.2820 
  242.8750     2.4900    -0.8320    72.0840    10.7890     9.0190    13.6840    24.3290 
  243.0000     2.4990    -0.8620    72.0840    10.9820     9.2060    10.5940    24.3730 
  243.1250     2.5020    -0.8990    72.0840    11.1910     9.4360     9.6360    24.3870 
  243.2500     2.4980    -0.9230    72.0840    11.3000     9.5920     9.4360    24.3750 
  243.3750     2.4860    -0.9250    72.0840    11.2550     9.6140     9.1880    24.2460 
  243.5000     2.4660    -0.9720    72.0840    11.0560     9.4940     8.8460    23.9720 
  243.6250     2.4460    -1.0670    72.0840    10.7460     9.2610     8.7300    23.7080 
  243.7500     2.4430    -1.1310    72.0840    10.4140     8.9960     9.0690    23.4830 
  243.8750     2.4610    -1.1440    72.0840    10.1120     8.7440     9.6370    23.3550 
  244.0000     2.4840    -1.1060    72.0840     9.8670     8.5300     9.4910    23.2980 
  244.1250     2.4860    -1.0620    72.0840     9.6990     8.3770     9.0280    23.3090 
  244.2500     2.4680    -1.1000    72.0840     9.6090     8.2890     8.6610    23.3050 
  244.3750     2.4440    -1.1340    72.0840     9.6140     8.2840     8.7350    23.3040 
  244.5000     2.4270    -1.1060    72.0840     9.7300     8.3760     8.9740    23.3110 
  244.6250     2.4270    -1.0620    72.0840     9.9670     8.5680     9.1620    23.3160 
  244.7500     2.4410    -1.0480    72.0840    10.2550     8.8020     9.1580    23.3210 
  244.8750     2.4630    -1.1260    72.0840    10.5300     9.0240     8.6680    23.3070 
  245.0000     2.4840    -1.2280    72.0840    10.7430     9.1880     8.0800    23.2580 
  245.1250     2.4920    -1.2530    72.0840    10.8540     9.2640     8.5780    23.2870 
  245.2500     2.4880    -1.2250    72.0840    10.8830     9.2790     8.2100    23.5490 
  245.3750     2.4800    -1.2530    72.0840    10.8580     9.2640     7.7330    23.9390 
  245.5000     2.4750    -1.3260    72.0840    10.8170     9.2480     7.2690    24.1520 
  245.6250     2.4810    -1.4050    72.0840    10.7900     9.2470     7.2150    24.1850 
  245.7500     2.4960    -1.4450    72.0840    10.7810     9.2550     7.3000    24.1660 
  245.8750     2.5140    -1.4430    72.0840    10.7850     9.2660     7.7900    24.1640 
  246.0000     2.5230    -1.4180    72.0840    10.7930     9.2750     8.5250    24.1670 
  246.1250     2.5190    -1.4890    72.0840    10.7960     9.2810     9.7580    24.1750 
  246.2500     2.5070    -1.6220    72.0840    10.7980     9.2880    11.8900    24.2060 
  246.3750     2.4930    -1.6770    72.0840    10.8030     9.2960    14.6040    24.2250 
  246.5000     2.4830    -1.6490    72.0840    10.8100     9.3030    18.5670    24.2330 
  246.6250     2.4740    -1.6620    72.0840    10.8150     9.3030    24.4000    24.2460 
  246.7500     2.4610    -1.7140    72.0840    10.8120     9.2960    23.1120    24.2160 
  246.8750     2.4440    -1.8520    72.0840    10.8040     9.2830    16.6370    24.1850 
  247.0000     2.4300    -2.2350    72.0840    10.7920     9.2680    11.9100    24.1700 
  247.1250     2.4320    -2.6530    72.0840    10.7810     9.2560    10.0570    24.1690 
  247.2500     2.4450    -3.0590    72.0840    10.7730     9.2470     9.0300    24.1470 
  247.3750     2.4610    -3.4650    72.0840    10.7680     9.2430     8.5510    24.1100 
  247.5000     2.4710    -3.9320    72.0840    10.7680     9.2440     8.5480    24.0980 
  247.6250     2.4760    -4.3810    72.0840    10.7680     9.2440     8.4500    24.1330 
  247.7500     2.4810    -4.7620    72.0840    10.7680     9.2440     8.5480    24.1190 
  247.8750     2.4850    -4.9150    72.0840    10.7680     9.2440     8.8700    24.0940 
  248.0000     2.4860    -4.9150    72.0840    10.7680     9.2440     8.8960    24.1300 
  248.1250     2.4810  -999.2500    72.0840    10.7680     9.2440     8.9720    24.1430 
  248.2500     2.4800  -999.2500    72.0840    10.7680     9.2440     9.1990    24.1160 
  248.3750     2.4870  -999.2500    72.0840    10.7680     9.2440     9.4040    24.0680 
  248.5000     2.5040  -999.2500    72.0840    10.7680     9.2440     9.4920    24.0360 
  248.6250     2.5240  -999.2500    72.0840    10.7680     9.2440    10.0000    24.0240 
  248.7500     2.5370  -999.2500    72.0840    10.7680     9.2440    11.0780    24.0280 
  248.8750     2.5370  -999.2500    72.0840    10.7680     9.2440    12.6980    24.0310 
  249.0000     2.5250  -999.2500    72.0840    10.7680     9.2440    14.8420    24.0340 
  249.1250     2.5060  -999.2500    72.0840    10.7680     9.2440    16.5070    24.0470 
  249.2500     2.4810  -999.2500    72.0840    10.7680     9.2440    17.2750    24.0570 
  249.3750     2.4320  -999.2500    72.0840    10.7680     9.2440    18.5950    24.0820 
  249.5000     2.3410  -999.2500    72.0840    10.7680     9.2440    21.1930    24.1450 
  249.6250     2.1950  -999.2500    72.0840    10.7680     9.2440    23.6710    24.1800 
  249.7500     1.9940  -999.2500    72.0840    10.7680     9.2440    24.4280    24.1390 
  249.8750     1.7730  -999.2500    72.0840    10.7680     9.2440    25.0150    24.0670 
  250.0000     1.6070  -999.2500    72.0840    10.7680     9.2440    25.0400    24.0090 
  250.1250     1.5340  -999.2500    72.0840    10.7680     9.2440    24.7220    23.9860 
  250.2500     1.5110  -999.2500    72.0840    10.7680     9.2440    24.6150    23.9840 
  250.3750     1.5080  -999.2500    72.0840    10.7680     9.2440    24.5600    23.9680 
  250.5000     1.5060  -999.2500    72.0840    10.7680     9.2440    24.5910    23.9230 
  250.6250     1.5040  -999.2500    72.0840    10.7680     9.2440    24.6100    23.9220 
  250.7500     1.5040  -999.2500    72.0840    10.7680     9.2440    24.7070    23.9400 
  250.8750     1.5020  -999.2500    72.0840    10.7680     9.2440    24.7150    23.9430 
  251.0000     1.4960  -999.2500    72.0840    10.7680     9.2440    24.6460    23.9240 
  251.1250     1.4870  -999.2500    72.0840    10.7680     9.2440    24.7330    23.9440 
  251.2500     1.4740  -999.2500    72.0840    10.7680     9.2440    24.7600    23.9500 
  251.3750     1.4590  -999.2500    72.0840    10.7680     9.2440    24.7980    23.9560 
  251.5000     1.4500  -999.2500    72.0840    10.7680     9.2440    24.7840    23.9530 
  251.6250     1.4400  -999.2500    72.0840    10.7680     9.2440    24.7320    23.9410 
  251.7500     1.4440  -999.2500    72.0840    10.7680     9.2440    24.6670    23.9120 
  251.8750     1.4770  -999.2500    72.0840    10.7680     9.2440    24.7420    23.9090 
  252.0000     1.5610  -999.2500    72.0840    10.7680     9.2440    24.7850    23.8790 
