~V
VERS. 2.00: Ver 2.00
~W
STRT.M 50.0000:
STOP.M 232.0000:
STEP.M 0.1250:
NULL. -999.2500:
UWI. F10160:
~C
DEPT.M :
SP.MV :
DEN.GM/CC :
GR.API :
RML.OHMM :
RI. :
RXO.OHMM :
CALI.CM :
~A
# ...
  106.2500   -32.3110     2.2530    59.5980     9.5740     7.3560     8.4470    24.9290 
  106.3750   -32.1720     2.2620    63.3670     9.4190     7.2480     8.7020    25.0180 
  106.5000   -32.0540     2.2660    67.6160     9.1340     7.0470     8.8870    25.1650 
  106.6250   -31.9810     2.2620    70.6960     8.8060     6.8200     8.4820    25.3690 
  106.7500   -31.9460     2.2550    75.8820     8.5590     6.6470     7.6460    25.5860 
  106.8750   -31.9290     2.2550    82.7130     8.4760     6.5800     7.3530    25.7550 
  107.0000   -31.9060     2.2620    87.4440     8.5850     6.6380     7.6210    25.8410 
  107.1250   -31.8860     2.2670    87.4990     8.8650     6.8180     7.9730    25.8850 
  107.2500   -31.8860     2.2560    84.4910     9.1890     7.0510     8.3090    25.9820 
  107.3750   -31.9050     2.2300    80.0500     9.4550     7.2820     8.4370    26.1450 
  107.5000   -31.9370     2.2000    74.6830     9.5950     7.4610     8.3580    26.3070 
  107.6250   -31.9940     2.1810    69.7740     9.5770     7.5510     8.2460    26.3850 
  107.7500   -32.0720     2.1770    65.4280     9.4630     7.5700     8.3130    26.4140 
  107.8750   -32.1580     2.1820    62.9720     9.2900     7.5310     8.3240    26.4780 
  108.0000   -32.2320     2.1880    63.0110     9.0910     7.4520     8.0070    26.6090 
  108.1250   -32.2630     2.1920    64.7920     8.8950     7.3510     7.8950    26.7310 
  108.2500   -32.2600     2.1890    66.1460     8.7210     7.2480     7.7970    26.7910 
  108.3750   -32.2260     2.1790    67.2090     8.5820     7.1570     7.8190    26.8590 
  108.5000   -32.1730     2.1650    68.5210     8.4900     7.0890     7.8970    27.0150 
  108.6250   -32.1170     2.1590    69.3040     8.4670     7.0590     7.8770    27.2060 
  108.7500   -32.0800     2.1660    68.3600     8.5040     7.0650     7.8910    27.3130 
  108.8750   -32.0730     2.1780    66.8300     8.5810     7.1000     8.0480    27.3470 
  109.0000   -32.0900     2.1820    66.1160     8.6680     7.1490     8.4670    27.4520 
  109.1250   -32.1180     2.1660    66.0560     8.7270     7.1920     9.0660    27.7190 
  109.2500   -32.1460     2.1390    67.1560     8.7430     7.2170     9.4220    27.9750 
  109.3750   -32.1780     2.1100    70.3320     8.7320     7.2260     9.5140    28.0400 
  109.5000   -32.2180     2.0880    72.3310     8.7280     7.2360     9.2170    27.8830 
  109.6250   -32.2490     2.0740    68.0600     8.8000     7.2920     9.0750    27.5150 
  109.7500   -32.2720     2.0640    61.8130     9.0080     7.4420     8.9110    26.9500 
  109.8750   -32.2810     2.0640    59.6260     9.4320     7.7450     9.1920    26.3100 
  110.0000   -32.2700     2.0880    61.0890    10.1510     8.2530     9.8410    25.8340 
  110.1250   -32.2180     2.1680    60.7930    11.2450     9.0300    10.9660    25.6940 
  110.2500   -32.1300     2.2980    58.9490    12.5750     9.9910    12.7690    25.7160 
  110.3750   -32.0050     2.4460    58.0050    13.9240    11.0030    16.5560    25.7630 
  110.5000   -31.8500     2.5510    59.3150    14.9660    11.8520    20.7830    25.7450 
  110.6250   -31.7170     2.5530    60.9540    15.2490    12.2060    17.2760    25.5400 
  110.7500   -31.6270     2.4900    61.1740    14.7860    12.0210    11.6850    25.2190 
  110.8750   -31.5880     2.4020    60.7790    13.7700    11.3910     8.9760    24.9170 
  111.0000   -31.5980     2.3200    60.0970    12.5120    10.5180     8.1530    24.7160 
  111.1250   -31.6440     2.2590    60.9880    11.3300     9.6360     8.0100    24.6150 
  111.2500   -31.6900     2.2170    62.5100    10.4060     8.9150     8.0230    24.5640 
  111.3750   -31.7200     2.1980    61.8820     9.8520     8.4540     8.1410    24.5510 
  111.5000   -31.7230     2.2060    58.6090     9.7760     8.3320     8.2430    24.5530 
  111.6250   -31.6810     2.2490    56.1290    10.4010     8.6980     8.5160    24.5520 
  111.7500   -31.6140     2.3160    56.2450    11.6710     9.5230     9.2270    24.5510 
  111.8750   -31.5650     2.3890    55.2980    13.4410    10.7420    11.4130    24.5520 
  112.0000   -31.5640     2.4460    52.9770    15.2970    12.1150    16.1460    24.5490 
  112.1250   -31.6190     2.4650    53.1530    16.3370    13.0440    20.7950    24.5370 
  112.2500   -31.7220     2.4530    56.8410    16.0320    13.0710    21.9200    24.5220 
  112.3750   -31.8530     2.4210    61.4910    14.4790    12.1590    18.6510    24.5130 
  112.5000   -31.9860     2.3790    64.2540    12.3620    10.7170    13.4930    24.5090 
  112.6250   -32.0810     2.3340    65.5100    10.5360     9.3140    10.1030    24.5070 
  112.7500   -32.1090     2.2950    66.5470     9.3350     8.2650     8.9100    24.5070 
  112.8750   -32.0570     2.2670    68.1950     8.7330     7.6150     9.0560    24.5100 
  113.0000   -31.9240     2.2470    69.8820     8.5660     7.3010     9.2810    24.5250 
  113.1250   -31.7110     2.2270    71.2030     8.6700     7.2420     9.0390    24.5560 
  113.2500   -31.4500     2.2040    72.2320     8.8620     7.3040     8.7430    24.5860 
  113.3750   -31.1580     2.1790    72.7310     9.0810     7.4290     8.6150    24.6010 
  113.5000   -30.8530     2.1570    72.3350     9.3000     7.5850     8.5870    24.6020 
  113.6250   -30.5440     2.1510    70.8810     9.4990     7.7520     8.7780    24.5980 
  113.7500   -30.2450     2.1610    69.3290     9.6400     7.8980     9.2250    24.6010 
  113.8750   -29.9570     2.1820    68.4930     9.6780     7.9910     9.6570    24.6040 
  114.0000   -29.6910     2.2050    67.8560     9.5910     8.0070     9.9530    24.5590 
  114.1250   -29.4640     2.2210    66.6140     9.3950     7.9390    10.2810    24.4920 
  114.2500   -29.2750     2.2280    65.5240     9.1680     7.8250    10.4520    24.4860 
  114.3750   -29.1210     2.2300    65.2110     8.9600     7.6930    10.3250    24.5460 
  114.5000   -29.0070     2.2300    65.0460     8.7980     7.5670    10.0890    24.6050 
  114.6250   -28.9230     2.2300    65.2010     8.6930     7.4710    10.0280    24.6030 
  114.7500   -28.8590     2.2300    64.9810     8.6330     7.4160     9.9740    24.5840 
  114.8750   -28.7950     2.2290    64.2450     8.6350     7.4180     9.8350    24.5710 
  115.0000   -28.7190     2.2270    62.7130     8.7370     7.4890     9.6780    24.5870 
  115.1250   -28.5910     2.2230    62.7560     8.9670     7.6280     9.3780    24.6370 
  115.2500   -28.4110     2.2240    64.7420     9.2120     7.7590     9.3410    24.6770 
  115.3750   -28.1770     2.2350    66.5690     9.2670     7.7520     9.8980    24.7000 
  115.5000   -27.9000     2.2560    66.3860     8.8970     7.4600    11.0140    24.7350 
  115.6250   -27.6030     2.2820    65.9200     7.9620     6.7870    11.4500    24.7950 
  115.7500   -27.3210     2.3010    69.1510     6.8260     5.9510     9.6040    24.8530 
  115.8750   -27.0780     2.3090    75.1210     5.8650     5.1910     7.0330    24.9030 
  116.0000   -26.9260     2.3090    77.8400     5.3540     4.6970     4.9770    24.9330 
  116.1250   -26.9250     2.3060    73.7840     5.4880     4.6400     5.0670    24.8730 
  116.2500   -27.0710     2.3050    68.2710     6.1130     4.9560     6.5190    24.7440 
  116.3750   -27.3400     2.3050    65.4260     7.0550     5.5630     8.4420    24.6280 
  116.5000   -27.6820     2.3010    64.7030     8.0380     6.3030     9.4410    24.5800 
  116.6250   -28.0480     2.2920    62.4540     8.6750     6.9190     9.6570    24.5850 
  116.7500   -28.3950     2.2820    59.7710     8.8620     7.2630     9.9140    24.5920 
  116.8750   -28.6920     2.2790    58.1500     8.7230     7.3470    10.5010    24.5980 
  117.0000   -28.9150     2.2910    57.7100     8.4880     7.2910    11.2330    24.6010 
  117.1250   -29.0520     2.3220    59.6780     8.3480     7.2200    10.9800    24.6070 
  117.2500   -29.1730     2.3540    63.6140     8.3250     7.1900    10.2040    24.5970 
  117.3750   -29.3030     2.3710    67.8490     8.3870     7.1990    10.0750    24.5370 
