~V
VERS. 2.00: Ver 2.00
~W
STRT.M 50.0000:
STOP.M 207.0000:
STEP.M 0.1250:
NULL. -999.2500:
UWI. F10134:
~C
DEPT.M :
SP.MV :
DEN.GM/CC :
GR.API :
RML.OHMM :
RI. :
RXO.OHMM :
CALI.CM :
~A
# ...
   72.5000    -3.8750     2.1400    59.7020     8.5630     5.8510     7.3400    24.8960 
   72.6250    -3.2740     2.1760    64.7490     8.1880     5.6540     6.8130    24.9800 
   72.7500    -2.6520     2.2330    71.5940     7.6000     5.3570     5.7670    25.0690 
   72.8750    -2.0280     2.2830    78.5110     7.0250     5.0530     4.7980    25.1100 
   73.0000    -1.4250     2.3020    83.2830     6.6730     4.8470     4.5820    25.0420 
   73.1250    -0.8920     2.2820    82.2330     6.7040     4.8390     4.9140    24.8470 
   73.2500    -0.4560     2.2480    76.9980     7.0100     5.0060     5.6350    24.6480 
   73.3750    -0.1190     2.2200    71.6790     7.4550     5.3000     6.3770    24.5330 
   73.5000     0.1400     2.2030    68.0720     7.8890     5.6410     6.7900    24.5030 
   73.6250     0.3420     2.2010    66.6990     8.1800     5.9280     6.9030    24.5080 
   73.7500     0.5430     2.2030    68.1490     8.3420     6.1140     6.9800    24.5390 
   73.8750     0.7990     2.2010    71.0300     8.4090     6.1920     7.0000    24.6380 
   74.0000     1.1600     2.1930    73.5170     8.3810     6.1650     6.9480    24.8440 
   74.1250     1.6780     2.1850    75.4630     8.1920     6.0120     6.8580    25.1100 
   74.2500     2.3190     2.1850    77.3540     7.8470     5.7580     6.6860    25.3090 
   74.3750     3.0560     2.1970    78.0520     7.3900     5.4350     6.2520    25.3890 
   74.5000     3.8420     2.2210    79.2630     6.9030     5.0930     5.3940    25.3960 
   74.6250     4.6110     2.2520    85.2780     6.4780     4.7920     4.7870    25.3920 
   74.7500     5.2840     2.2870    93.3360     6.1360     4.5480     4.6210    25.3780 
   74.8750     5.7990     2.3170    97.5760     5.8690     4.3620     4.7100    25.3410 
   75.0000     6.1060     2.3320    97.5440     5.7190     4.2470     4.7550    25.3040 
   75.1250     6.1620     2.3200    97.6400     5.9040     4.3120     4.6180    25.2920 
   75.2500     5.9960     2.3000    99.7350     6.5890     4.6500     4.7170    25.2800 
   75.3750     5.6350     2.3050    98.6200     7.9180     5.3530     5.5190    25.2310 
   75.5000     5.1100     2.3670    90.6870     9.9340     6.4610     8.4020    25.1440 
   75.6250     4.4400     2.4770    81.4900    12.4560     7.9230    15.5680    25.0590 
   75.7500     3.6820     2.5530    76.4270    14.7060     9.3480    21.2290    25.0090 
   75.8750     2.8570     2.5340    74.0230    15.9000    10.2930    16.2330    25.0370 
   76.0000     1.9910     2.4290    72.5460    15.6870    10.4810    12.6070    25.1650 
   76.1250     1.1120     2.2930    70.8620    14.4270     9.9730    20.1610    25.3220 
   76.2500     0.2650     2.1820    66.5430    13.1460     9.3130    40.6270    25.3580 
   76.3750    -0.5020     2.1170    59.6140    12.3400     8.8160    43.5230    25.1780 
   76.5000    -1.1490     2.1000    57.8710    12.1050     8.6040    22.5480    24.8520 
   76.6250    -1.6380     2.1210    66.0410    12.2610     8.6360    11.0690    24.6260 
   76.7500    -1.9840     2.1460    71.0430    12.4270     8.6980     8.4630    24.6070 
   76.8750    -2.2010     2.1560    68.7580    12.3810     8.6460     8.3480    24.6450 
   77.0000    -2.3220     2.1500    64.9320    12.0070     8.4060     8.5420    24.5390 
   77.1250    -2.3600     2.1360    64.0120    11.3120     7.9710     8.3110    24.3340 
   77.2500    -2.3630     2.1260    63.5760    10.5430     7.4790     7.8210    24.2190 
   77.3750    -2.3540     2.1220    62.8900     9.9030     7.0450     7.3070    24.2050 
   77.5000    -2.3500     2.1260    63.2770     9.5150     6.7490     7.1420    24.2130 
   77.6250    -2.3470     2.1340    64.0000     9.4220     6.6390     7.1690    24.2050 
   77.7500    -2.3750     2.1460    64.1220     9.4820     6.6490     7.2010    24.2080 
   77.8750    -2.4510     2.1580    63.6500     9.6040     6.7270     7.1710    24.2140 
   78.0000    -2.5780     2.1670    61.7990     9.7400     6.8320     7.2860    24.2200 
   78.1250    -2.7500     2.1680    59.2170     9.8830     6.9420     7.4130    24.2340 
   78.2500    -2.9570     2.1630    58.8590    10.0300     7.0450     7.4880    24.2530 
   78.3750    -3.1770     2.1540    61.8090    10.1600     7.1330     7.6050    24.2630 
   78.5000    -3.3860     2.1430    65.8950    10.2410     7.1960     7.7940    24.2620 
   78.6250    -3.5320     2.1370    67.0060    10.2210     7.2110     7.9040    24.2590 
   78.7500    -3.6050     2.1350    63.9860    10.1200     7.1800     7.7400    24.2610 
   78.8750    -3.5920     2.1360    60.5330     9.9890     7.1130     7.5390    24.2650 
   79.0000    -3.4970     2.1400    59.7460     9.8750     7.0270     7.4560    24.2770 
   79.1250    -3.3150     2.1440    62.1910     9.8210     6.9430     7.4080    24.3050 
   79.2500    -3.0580     2.1460    64.4690     9.8090     6.8690     7.2160    24.3380 
   79.3750    -2.7330     2.1450    65.0040     9.7800     6.7860     7.0920    24.3580 
   79.5000    -2.3370     2.1410    64.5180     9.6680     6.6670     7.0370    24.3690 
   79.6250    -1.8700     2.1400    64.2850     9.4400     6.4940     6.9910    24.3870 
   79.7500    -1.3410     2.1490    64.9000     9.1870     6.3060     6.7880    24.4420 
   79.8750    -0.7750     2.1800    67.8360     9.0250     6.1570     6.3010    24.5790 
   80.0000    -0.2150     2.2310    73.2360     9.0780     6.1110     5.8650    24.7870 
   80.1250     0.2810     2.2800    77.5680     9.4900     6.2550     5.8880    24.9610 
   80.2500     0.6740     2.3050    77.2100    10.1510     6.5640     6.6710    25.0990 
   80.3750     0.9350     2.3060    75.8210    10.8890     6.9770     7.7320    25.2940 
   80.5000     1.0570     2.2940    76.9550    11.5090     7.3970     9.2220    25.5680 
   80.6250     1.0320     2.2770    77.4830    11.7970     7.6830    11.5690    25.6890 
   80.7500     0.9020     2.2600    75.9890    11.7660     7.7830    10.8130    25.4710 
   80.8750     0.6930     2.2420    75.4630    11.5190     7.7080     8.5980    25.0040 
   81.0000     0.4250     2.2230    76.1120    11.1830     7.5230     7.3360    24.5540 
   81.1250     0.1030     2.2110    73.2680    10.8380     7.2960     7.1310    24.3560 
   81.2500    -0.2510     2.2080    67.3960    10.4990     7.0780     7.2100    24.3350 
   81.3750    -0.6310     2.2070    63.7210    10.1740     6.8880     7.0910    24.3710 
   81.5000    -1.0340     2.1990    65.1130     9.8760     6.7340     6.9720    24.4080 
   81.6250    -1.4510     2.1870    68.4080     9.6340     6.6230     7.0820    24.4190 
   81.7500    -1.8500     2.1750    69.3140     9.4800     6.5570     7.2200    24.4130 
   81.8750    -2.2180     2.1630    67.4770     9.4310     6.5370     7.4370    24.3920 
   82.0000    -2.5390     2.1480    65.3040     9.4570     6.5520     7.6040    24.3510 
   82.1250    -2.8170     2.1350    64.0560     9.5180     6.5790     7.5750    24.2760 
   82.2500    -3.0560     2.1300    63.7440     9.6070     6.6140     7.5260    24.1850 
   82.3750    -3.2560     2.1340    63.3730     9.7520     6.6710     7.5170    24.1080 
   82.5000    -3.4130     2.1440    62.4460     9.9780     6.7680     7.5910    24.0690 
   82.6250    -3.5300     2.1490    61.9270    10.2600     6.8970     7.5950    24.0900 
   82.7500    -3.6090     2.1430    63.3040    10.4850     7.0110     7.5760    24.1750 
   82.8750    -3.6570     2.1280    65.2840    10.5450     7.0560     7.5970    24.3020 
   83.0000    -3.6650     2.1090    65.8690    10.3710     6.9890     7.6450    24.4220 
   83.1250    -3.6220     2.0980    64.6720     9.9740     6.7980     7.5470    24.4840 
   83.2500    -3.5460     2.0950    63.5100     9.5520     6.5730     7.4700    24.4840 
   83.3750    -3.4620     2.0980    62.6710     9.2850     6.4150     7.6060    24.4650 
   83.5000    -3.3650     2.1040    62.0790     9.3010     6.4160     7.9880    24.4880 
   83.6250    -3.2700     2.1110    61.0710     9.6590     6.6390     8.2000    24.5840 
