~V
VERS. 2.00: Ver 2.00
~W
STRT.M 49.0000:
STOP.M 223.0000:
STEP.M 0.1250:
NULL. -999.2500:
UWI. F10156:
~C
DEPT.M :
SP.MV :
GR.API :
RML.OHMM :
RI. :
RXO.OHMM :
CALI.CM :
DEN.GM/CC :
~A
# ...
   82.7500   -19.3880    66.1450     8.9600     6.6330     8.6580    22.5650     2.1690 
   82.8750   -19.3690    66.8640     9.1520     6.7620     8.3270    22.4980     2.1580 
   83.0000   -19.3470    63.7860     9.2590     6.8530     8.0760    22.4030     2.1540 
   83.1250   -19.2750    61.1740     9.1960     6.8430     8.2120    22.3510     2.1600 
   83.2500   -19.1530    63.6320     8.8880     6.6810     8.4510    22.3260     2.1770 
   83.3750   -19.0060    67.2720     8.4260     6.4130     8.3300    22.2990     2.1990 
   83.5000   -18.8050    70.4190     7.9380     6.1050     7.5800    22.2830     2.2180 
   83.6250   -18.6160    73.7380     7.5760     5.8350     6.5220    22.2700     2.2350 
   83.7500   -18.4170    77.8350     7.4930     5.6930     6.0470    22.2420     2.2460 
   83.8750   -18.2770    80.6800     7.6660     5.6890     6.5590    22.2130     2.2490 
   84.0000   -18.1730    82.1240     8.0330     5.8090     6.9720    22.2290     2.2480 
   84.1250   -18.0720    81.6380     8.4950     6.0190     7.3080    22.2940     2.2470 
   84.2500   -18.0600    75.8970     8.9080     6.2540     7.6230    22.2960     2.2440 
   84.3750   -18.0940    69.1640     9.1830     6.4450     7.7830    22.1650     2.2400 
   84.5000   -18.1460    67.2210     9.3050     6.5660     7.9410    22.0090     2.2370 
   84.6250   -18.2070    69.8840     9.3150     6.6180     8.2340    21.9960     2.2330 
   84.7500   -18.2820    71.3240     9.2760     6.6190     8.4970    22.2190     2.2300 
   84.8750   -18.3680    70.7120     9.2520     6.6070     8.9650    22.5580     2.2260 
   85.0000   -18.4280    69.6150     9.2590     6.6020     9.5930    22.8690     2.2210 
   85.1250   -18.5180    67.9450     9.2780     6.6010     9.8870    23.0310     2.2180 
   85.2500   -18.5670    68.2920     9.2740     6.5860     9.6320    23.0000     2.2170 
   85.3750   -18.5880    69.7560     9.2320     6.5480     9.3690    22.8490     2.2180 
   85.5000   -18.6370    69.4910     9.1540     6.4860     9.2370    22.6530     2.2170 
   85.6250   -18.6220    65.4720     9.0480     6.4120     9.1320    22.4880     2.2180 
   85.7500   -18.6030    60.5440     8.9410     6.3430     8.9830    22.4500     2.2180 
   85.8750   -18.5670    59.8080     8.8660     6.2980     8.8130    22.4910     2.2170 
   86.0000   -18.5300    63.2470     8.8610     6.2960     8.7580    22.5480     2.2150 
   86.1250   -18.4450    67.5610     8.9560     6.3520     8.8120    22.5390     2.2150 
   86.2500   -18.3200    67.0270     9.1520     6.4780     8.9530    22.5560     2.2150 
   86.3750   -18.1980    62.6500     9.3700     6.6340     9.2050    22.6530     2.2140 
   86.5000   -18.0480    60.3370     9.5410     6.7810     9.7150    22.7320     2.2130 
   86.6250   -17.9320    62.9690     9.6210     6.8860    10.2020    22.6310     2.2120 
   86.7500   -17.7610    66.1780     9.6080     6.9320     9.6360    22.4370     2.2060 
   86.8750   -17.5450    66.0320     9.5640     6.9430     8.8650    22.2910     2.1970 
   87.0000   -17.2960    63.9200     9.5050     6.9310     8.5830    22.2080     2.1880 
   87.1250   -17.0410    61.5470     9.3920     6.8840     8.8290    22.1060     2.1870 
   87.2500   -16.8000    60.0460     9.1180     6.7550     9.0400    22.0430     2.2000 
   87.3750   -16.4920    61.8550     8.6780     6.5420     8.6440    22.1990     2.2210 
   87.5000   -16.1560    66.4650     8.1500     6.2770     7.6610    22.3670     2.2400 
   87.6250   -15.8080    69.3840     7.6830     6.0290     6.5670    22.5100     2.2520 
   87.7500   -15.5030    71.0290     7.4660     5.8940     5.7460    22.6870     2.2590 
   87.8750   -15.2650    76.5570     7.4940     5.8820     5.6930    22.7760     2.2650 
   88.0000   -15.0450    84.2590     7.6670     5.9590     6.1830    22.6840     2.2680 
   88.1250   -14.8560    87.6600     7.8250     6.0430     6.7710    22.5360     2.2670 
   88.2500   -14.6960    85.3810     7.7860     6.0250     6.6820    22.5270     2.2700 
   88.3750   -14.5930    84.0810     7.5260     5.8680     5.9970    23.0220     2.2840 
   88.5000   -14.5600    84.4560     7.0980     5.5950     5.3850    24.0930     2.3070 
   88.6250   -14.5570    84.0520     6.5800     5.2490     5.0290    25.0900     2.3320 
   88.7500   -14.5900    83.6740     6.0260     4.8670     4.8050    25.2180     2.3500 
   88.8750   -14.6090    87.0900     5.5190     4.5050     4.6730    24.9770     2.3620 
   89.0000   -14.6820    92.0440     5.1960     4.2420     4.6590    24.6940     2.3730 
   89.1250   -14.8070    93.2530     5.2320     4.1730     4.7060    24.4170     2.3840 
   89.2500   -14.9610    91.4150     5.8720     4.4300     4.7770    24.4250     2.3910 
   89.3750   -15.1950    88.0990     7.0750     5.0110     6.2760    24.4060     2.3940 
   89.5000   -15.4330    79.7980     8.6840     5.8890    10.1730    24.2190     2.4010 
   89.6250   -15.6980    68.5210    10.3250     6.9210    14.3800    23.8540     2.4010 
   89.7500   -15.9510    63.5050    11.3280     7.7460    11.7680    23.5720     2.3650 
   89.8750   -16.1860    65.5770    11.4030     8.0680    10.0210    23.3760     2.3020 
   90.0000   -16.3890    68.0420    10.6440     7.8410     8.8080    23.1790     2.2480 
   90.1250   -16.5160    68.4700     9.4850     7.2780     8.0880    23.0510     2.2290 
   90.2500   -16.6410    68.1180     8.5090     6.7210     7.7660    22.9870     2.2390 
   90.3750   -16.6930    69.7690     8.0160     6.3850     7.6140    22.9270     2.2560 
   90.5000   -16.7270    73.9340     8.0800     6.3340     7.4250    22.8970     2.2710 
   90.6250   -16.7600    78.9680     8.6780     6.5800     7.4410    22.9200     2.2850 
   90.7500   -16.7920    78.3750     9.7410     7.1340     8.7830    22.8810     2.2900 
   90.8750   -16.8520    73.4220    10.9140     7.8370    10.1510    22.7590     2.2830 
   91.0000   -16.9020    70.0850    11.8560     8.5000    10.2070    22.6590     2.2650 
   91.1250   -17.0100    69.1560    12.2820     8.9210     9.8430    22.6570     2.2440 
   91.2500   -17.0990    67.1900    12.0190     8.9260     9.6970    22.6920     2.2270 
   91.3750   -17.1870    63.7000    11.3690     8.6440     9.4140    22.6860     2.2140 
   91.5000   -17.2810    61.8450    10.6220     8.2330     8.9970    22.6630     2.2080 
   91.6250   -17.3340    62.6350    10.0070     7.8380     8.5910    22.6480     2.2130 
   91.7500   -17.3640    65.6950     9.7050     7.5840     8.3620    22.6460     2.2280 
   91.8750   -17.3950    68.4590     9.7450     7.5140     8.4000    22.6550     2.2420 
   92.0000   -17.4210    68.1160    10.1410     7.6550     8.6470    22.6970     2.2480 
   92.1250   -17.4320    65.1040    10.8240     7.9920     8.9010    22.7990     2.2480 
   92.2500   -17.4410    62.3420    11.5970     8.4460     9.0040    22.8940     2.2400 
   92.3750   -17.4650    60.0570    12.1560     8.8390     9.1400    22.9240     2.2250 
   92.5000   -17.4940    58.4050    12.2930     9.0240     9.1250    22.8530     2.2040 
   92.6250   -17.5170    60.0040    11.9550     8.9290     8.9080    22.7070     2.1810 
   92.7500   -17.5550    64.1740    11.2730     8.5850     8.4300    22.6140     2.1660 
   92.8750   -17.5720    65.5140    10.5780     8.1830     8.1920    22.5740     2.1610 
   93.0000   -17.6120    65.3720    10.0590     7.8400     8.0980    22.5950     2.1630 
   93.1250   -17.6330    66.6440     9.7960     7.6210     8.1100    22.6340     2.1670 
   93.2500   -17.6540    67.8240     9.7960     7.5520     8.1080    22.6410     2.1720 
   93.3750   -17.6450    64.8510     9.9240     7.5700     7.9400    22.5910     2.1820 
   93.5000   -17.6040    61.2660    10.0870     7.6290     7.7310    22.4910     2.1970 
   93.6250   -17.5840    61.2860    10.2090     7.6860     7.6870    22.4000     2.2130 
   93.7500   -17.5490    61.7930    10.2200     7.7000     7.9070    22.3950     2.2240 
   93.8750   -17.5110    60.7850    10.1250     7.6600     8.0470    22.4630     2.2300 
