~V
VERS. 2.00: Ver 2.00
~W
STRT.M 52.0000:
STOP.M 322.0000:
STEP.M 0.1250:
NULL. -999.2500:
UWI. F10105:
~C
DEPT.M :
GR.API :
RML.OHMM :
RI. :
RXO.OHMM :
CALI.CM :
DEN.GM/CC :
SP.MV :
~A
# ...
  243.2500    73.7720    44.3490    40.4730    49.3460    26.8550     2.2660   -16.0610 
  243.3750    76.3250    45.9680    42.0510    44.9030    26.8340     2.2580   -16.1750 
  243.5000    76.7900    47.5770    43.5310    42.8520    26.8220     2.2530   -16.2860 
  243.6250    73.7470    49.3640    45.1450    47.1030    26.8520     2.2530   -16.2460 
  243.7500    70.9630    51.2700    46.9640    53.0020    26.9160     2.2540   -16.1170 
  243.8750    70.7140    53.0030    48.8230    54.9020    26.9580     2.2540   -16.0890 
  244.0000    71.4290    54.0740    50.2910    53.9020    26.9710     2.2520   -16.1810 
  244.1250    70.9850    53.7390    50.5100    52.8980    26.9710     2.2490   -16.2110 
  244.2500    71.5280    52.0210    49.2280    53.0370    26.9710     2.2450   -16.1750 
  244.3750    72.8370    49.2540    46.6570    52.9260    26.9750     2.2420   -16.1440 
  244.5000    74.0080    46.1160    43.4750    50.8050    26.9820     2.2450   -16.0520 
  244.6250    75.6050    43.5610    40.6550    44.9370    26.9830     2.2570   -15.9270 
  244.7500    75.4000    42.1380    38.8580    38.8200    26.9680     2.2760   -15.8480 
  244.8750    71.3640    42.0170    38.3660    37.3200    26.9830     2.2950   -15.8020 
  245.0000    67.1440    42.9970    39.1080    40.7610    27.0000     2.3060   -15.7250 
  245.1250    68.1130    44.5630    40.7330    46.7900    26.9920     2.3030   -15.6190 
  245.2500    70.6040    45.9110    42.3970    50.4250    26.9880     2.2930   -15.4600 
  245.3750    71.2820    46.5810    43.4920    50.5540    27.0070     2.2820   -15.2550 
  245.5000    71.7820    46.4740    43.7170    49.8470    27.0240     2.2750   -15.1330 
  245.6250    74.7080    45.8910    43.2020    47.5840    27.0300     2.2730   -15.1640 
  245.7500    76.6150    45.5170    42.6780    48.7520    27.0350     2.2720   -15.2070 
  245.8750    76.0230    45.8320    42.6930    48.8200    27.0500     2.2730   -15.2040 
  246.0000    73.8180    47.0960    43.5950    50.2640    27.0790     2.2740   -15.2070 
  246.1250    72.7670    49.4120    45.6380    53.0930    27.0930     2.2750   -15.2780 
  246.2500    73.4840    52.2460    48.4220    58.2790    27.1050     2.2730   -15.4510 
  246.3750    73.9680    55.0140    51.4410    64.2800    27.1240     2.2640   -15.6790 
  246.5000    72.3600    57.0250    53.9560    66.7820    27.1270     2.2520   -15.9100 
  246.6250    69.8320    57.4490    54.9130    64.5850    27.0950     2.2430   -16.1510 
  246.7500    69.4540    56.4110    54.1890    60.9690    27.0390     2.2410   -16.3850 
  246.8750    70.5530    54.3430    52.1340    58.1160    26.9590     2.2470   -16.5730 
  247.0000    71.3730    51.9670    49.4940    55.0280    26.8760     2.2560   -16.7610 
  247.1250    70.7880    50.2020    47.2310    51.5820    26.8430     2.2630   -16.9730 
  247.2500    69.3800    49.5340    45.9520    51.9230    26.8380     2.2650   -17.1120 
  247.3750    68.5990    50.1670    45.9320    53.7860    26.8460     2.2640   -17.1910 
  247.5000    68.9960    52.0840    47.2100    52.4450    26.8620     2.2630   -17.2480 
  247.6250    69.8320    55.2160    49.8220    52.8460    26.8460     2.2620   -17.2880 
  247.7500    69.6380    58.9510    53.2790    58.0750    26.8380     2.2620   -17.2910 
  247.8750    68.9270    62.7020    57.1180    69.3380    26.8340     2.2590   -17.2850 
  248.0000    67.9410    65.7150    60.6400    74.4510    26.8360     2.2520   -17.3160 
  248.1250    66.7190    66.8440    62.6680    71.7630    26.8590     2.2400   -17.3910 
  248.2500    66.6340    65.8300    62.6550    70.8420    26.8990     2.2250   -17.4970 
  248.3750    67.5670    62.7950    60.4980    75.7710    26.9150     2.2100   -17.5900 
  248.5000    69.1610    58.3710    56.7180    73.3550    26.8600     2.2010   -17.6120 
  248.6250    71.4210    53.4690    52.1990    58.7390    26.7600     2.2010   -17.6020 
  248.7500    73.4200    48.9520    47.8680    48.4220    26.6270     2.2110   -17.6390 
  248.8750    74.2480    45.1760    44.1030    45.3020    26.5300     2.2280   -17.7180 
  249.0000    74.6850    42.2450    41.0490    45.1710    26.4820     2.2470   -17.7410 
  249.1250    75.8480    40.2520    38.8300    42.6380    26.4510     2.2620   -17.7090 
  249.2500    74.8760    39.0060    37.2730    39.2560    26.4380     2.2720   -17.6580 
  249.3750    72.3860    38.5160    36.3760    37.8710    26.4350     2.2780   -17.5980 
  249.5000    72.9450    38.8320    36.2110    38.3280    26.4430     2.2800   -17.5870 
  249.6250    74.7710    40.1310    36.9810    39.4320    26.4650     2.2780   -17.6100 
  249.7500    73.4290    42.2420    38.5140    42.4520    26.5010     2.2730   -17.6150 
  249.8750    70.9190    45.1010    40.7240    46.9000    26.5440     2.2660   -17.5360 
  250.0000    71.5590    48.6780    43.5500    53.2230    26.6030     2.2550   -17.4270 
  250.1250    74.7860    53.1850    47.1120    51.1020    26.6320     2.2420   -17.3260 
  250.2500    76.0000    58.7170    51.4720    42.0990    26.6660     2.2300   -17.2200 
  250.3750    74.2540    65.5600    56.9560    38.2560    26.7380     2.2210   -17.0630 
  250.5000    70.1330    73.9390    63.9090    57.5900    26.8500     2.2170   -16.8290 
  250.6250    66.2350    84.0370    72.6660    85.6650    26.9190     2.2170   -16.5770 
  250.7500    65.0200    94.9870    82.5050    99.3240    26.9680     2.2180   -16.3760 
  250.8750    65.1680   105.7110    92.4790    99.2070    27.0090     2.2180   -16.1780 
  251.0000    63.9040   114.8610   101.3330   104.4540    27.0450     2.2130   -15.9410 
  251.1250    61.6080   120.6320   107.4630   115.2560    27.0700     2.2050   -15.6940 
  251.2500    59.7300   122.9920   110.7340   114.6310    27.0510     2.1970   -15.4790 
  251.3750    58.5440   122.5360   111.3520   109.7450    27.0040     2.1930   -15.2440 
  251.5000    58.7980   120.7900   110.3020   107.5080    26.9520     2.1960   -14.9610 
  251.6250    60.9810   119.8000   109.9000   108.0680    26.9560     2.2000   -14.5540 
  251.7500    63.8430   119.2920   111.5780   105.5800    27.0020     2.2010   -14.0020 
  251.8750    66.3830   115.6290   113.0160    98.5580    27.0510     2.1980   -13.4270 
  252.0000    66.3860   103.8870   107.4010   102.2690    27.0410     2.2030   -12.8590 
  252.1250    63.2060    81.5810    86.3630   130.5860    26.9170     2.2460   -12.1570 
  252.2500    62.0600    56.2010    58.4730   161.8170    26.7150     2.3450   -11.3550 
  252.3750    65.2650    34.6460    34.6450    97.7500    26.5180     2.4970   -10.5470 
  252.5000    68.2540    20.2370    19.3700    31.1290    26.3180     2.6710    -9.7460 
  252.6250    67.5170    12.7270    11.9950    12.0320    26.0740     2.8040    -8.9690 
  252.7500    67.0110     8.6080     8.3500     6.2370    25.8320     2.8540    -8.3180 
  252.8750    67.4770     6.5860     6.6900     4.9460    25.6630     2.8170    -7.7930 
  253.0000    66.6150     5.9980     6.1290     5.0000    25.5720     2.7190    -7.3040 
  253.1250    66.3150     6.2800     6.2970     5.3990    25.5470     2.6090    -6.9020 
  253.2500    68.8670     6.6880     6.7500     5.6480    25.5530     2.5260    -6.6320 
  253.3750    72.0420     7.0190     7.2370     5.9670    25.5840     2.4820    -6.5250 
  253.5000    75.5340     7.2120     7.5930     6.2990    25.6210     2.4710    -6.6080 
  253.6250    79.8730     7.2580     7.7480     6.4700    25.6540     2.4810    -6.8000 
  253.7500    82.2810     7.2620     7.7840     6.6750    25.6750     2.4930    -6.9930 
  253.8750    81.5750     7.3070     7.7850     7.0250    25.7180     2.5050    -7.2270 
  254.0000    80.6950     7.4530     7.8260     7.5500    25.8090     2.5180    -7.5510 
  254.1250    83.7100     7.7480     7.9690     7.8020    25.9310     2.5340    -7.9690 
  254.2500    87.5620     8.1470     8.1970     7.9430    26.1120     2.5460    -8.4330 
  254.3750    90.8550     8.5840     8.4680     8.3780    26.3760     2.5480    -8.8960 
