~V
VERS. 2.00: Ver 2.00
~W
STRT.M 58.0000:
STOP.M 213.0000:
STEP.M 0.1250:
NULL. -999.2500:
UWI. F10138:
~C
DEPT.M :
GR.API :
RML.OHMM :
RI. :
RXO.OHMM :
CALI.CM :
DEN.GM/CC :
SP.MV :
~A
# ...
  114.2500    60.3060     8.8760     7.4940    10.7250    26.4700     2.1610   -18.5210 
  114.3750    55.4210     9.4760     7.9300    11.6070    26.4020     2.1580   -18.6680 
  114.5000    55.4830    10.2220     8.5440    12.4860    26.5760     2.1590   -18.8490 
  114.6250    57.7760    10.8300     9.1270    13.8750    26.7010     2.1620   -19.0420 
  114.7500    59.0520    11.0430     9.4440    15.6260    26.7800     2.1680   -19.1780 
  114.8750    58.2370    10.7460     9.3630    16.3180    26.9370     2.1720   -19.2710 
  115.0000    57.6190    10.0340     8.9120    14.7310    27.0330     2.1730   -19.3650 
  115.1250    61.2760     9.2050     8.2740    12.5240    27.0920     2.1700   -19.4200 
  115.2500    66.3420     8.6020     7.7310    10.9800    27.2960     2.1660   -19.4100 
  115.3750    68.3170     8.3970     7.4520     9.9910    27.6730     2.1640   -19.3500 
  115.5000    65.7820     8.6310     7.5160     9.9560    27.7220     2.1670   -19.3020 
  115.6250    64.3530     9.2390     7.9370    11.2050    27.6380     2.1730   -19.3060 
  115.7500    65.2540     9.9140     8.5030    13.8530    27.7990     2.1750   -19.3400 
  115.8750    65.2830    10.3720     8.9850    17.4370    27.9450     2.1720   -19.3610 
  116.0000    63.1440    10.3900     9.1630    18.5610    28.0150     2.1640   -19.3790 
  116.1250    61.5930     9.8980     8.8960    15.3320    27.9290     2.1580   -19.4770 
  116.2500    61.9920     9.2130     8.3990    12.4100    27.7800     2.1580   -19.6120 
  116.3750    63.7030     8.5860     7.8800    11.3690    27.6820     2.1630   -19.7060 
  116.5000    65.3770     8.1540     7.4770    11.1430    27.6570     2.1700   -19.7360 
  116.6250    65.2950     7.9420     7.2510    11.0320    27.6710     2.1730   -19.7110 
  116.7500    64.5610     7.8240     7.1240    10.6760    27.7360     2.1720   -19.6400 
  116.8750    64.1690     7.7190     7.0320     9.9940    27.8780     2.1690   -19.4820 
  117.0000    65.0460     7.5980     6.9390     9.0790    27.9370     2.1680   -19.2270 
  117.1250    68.2950     7.4910     6.8550     8.5240    27.8910     2.1720   -18.8860 
  117.2500    70.3420     7.4550     6.8220     8.3850    27.8600     2.1750   -18.4930 
  117.3750    68.7950     7.5480     6.8920     8.5940    27.7430     2.1730   -18.0590 
  117.5000    64.6170     7.8290     7.1240     8.7220    27.5820     2.1650   -17.5820 
  117.6250    61.9590     8.4260     7.6290     8.8630    27.5040     2.1610   -17.0640 
  117.7500    61.4960     9.3660     8.4320     9.2140    27.6200     2.1730   -16.5340 
  117.8750    60.3740    11.5940     9.5420    10.1600    27.5870     2.2100   -16.0180 
  118.0000    59.0880    13.4300    10.8690    12.3450    27.4080     2.2670   -15.5110 
  118.1250    60.0420    14.6450    12.1140    15.7910    27.1500     2.3220   -15.0100 
  118.2500    61.3780    15.1380    12.8800    18.4290    26.8980     2.3510   -14.5600 
  118.3750    60.0680    14.7550    12.9180    18.3920    26.5670     2.3460   -14.1800 
  118.5000    55.1910    13.6550    12.2480    15.7410    26.2890     2.3140   -13.7930 
  118.6250    52.3600    12.1640    11.0870    12.1190    26.0840     2.2730   -13.3150 
  118.7500    56.1240    10.6280     9.7930    10.2790    25.9880     2.2360   -12.7910 
  118.8750    63.7280     9.1770     8.5200     9.4820    26.0540     2.2070   -12.2120 
  119.0000    68.5610     7.9380     7.3830     8.9140    26.2340     2.1830   -11.5260 
  119.1250    67.7920     7.1830     6.5750     8.0960    26.3600     2.1680   -10.7070 
  119.2500    66.8140     7.0660     6.2100     7.0210    26.3190     2.1670    -9.8250 
  119.3750    67.7900     7.7320     6.4100     6.2650    26.1630     2.1950    -8.9330 
  119.5000    67.2550     9.1990     7.2490     7.0960    26.0630     2.2580    -8.0750 
  119.6250    62.8720    11.2460     8.7370    11.0290    25.9550     2.3470    -7.3100 
  119.7500    57.8540    12.9880    10.3200    17.1860    25.8440     2.4300    -6.6610 
  119.8750    55.1510    13.4220    11.1780    19.5360    25.7660     2.4780    -6.1670 
  120.0000    56.8300    12.0680    10.6660    15.2730    25.6510     2.4760    -5.8200 
  120.1250    64.1630     9.6970     9.0350     9.8350    25.5800     2.4340    -5.5910 
  120.2500    71.0240     7.8140     7.4710     6.8530    25.5010     2.3810    -5.4220 
  120.3750    73.0630     6.9690     6.5240     6.0770    25.4430     2.3380    -5.3080 
  120.5000    71.6070     7.2540     6.3780     6.2760    25.4370     2.3190    -5.2380 
  120.6250    69.4640     8.9150     7.2830     7.7320    25.4080     2.3370    -5.1730 
  120.7500    63.8520    11.8440     9.2190    11.6010    25.5760     2.3840    -5.1110 
  120.8750    53.7030    15.8970    12.2340    18.6800    25.7820     2.4460    -5.0630 
  121.0000    43.8460    20.4160    16.0410    24.3160    25.8730     2.5030    -5.0400 
  121.1250    38.9070    23.9050    19.5860    24.0540    25.9570     2.5320    -5.0390 
  121.2500    37.0040    25.4960    21.7500    22.2920    26.0560     2.5350    -5.0600 
  121.3750    37.4980    25.4420    22.3690    21.3470    26.0020     2.5220    -5.1080 
  121.5000    39.6020    24.7730    22.1140    21.2420    25.8760     2.5060    -5.1900 
  121.6250    40.7060    24.5370    21.8430    21.0340    25.8120     2.4970    -5.3140 
  121.7500    41.5100    24.9530    21.9350    21.8760    25.8190     2.4960    -5.4140 
  121.8750    43.0930    25.8650    22.3780    23.3880    25.7990     2.5030    -5.4910 
  122.0000    43.7010    27.0360    23.0520    25.9970    25.7690     2.5110    -5.6080 
  122.1250    42.5730    28.2310    23.8230    28.5900    25.7840     2.5150    -5.7450 
  122.2500    42.4240    29.2830    24.5630    29.3890    25.8250     2.5160    -5.8420 
  122.3750    44.1750    30.1420    25.2190    27.6810    25.8830     2.5150    -5.8980 
  122.5000    44.7690    30.8370    25.7890    26.3870    25.8570     2.5180    -5.9780 
  122.6250    43.0610    31.4510    26.3100    27.0300    25.6970     2.5250    -6.0610 
  122.7500    40.9980    32.1460    26.8780    27.9820    25.6660     2.5300    -6.1260 
  122.8750    39.4540    33.0940    27.6180    28.7430    25.7830     2.5300    -6.1770 
  123.0000    38.7760    34.4150    28.6490    27.6370    25.8560     2.5250    -6.2010 
  123.1250    40.4920    36.0520    30.0070    27.1370    25.8960     2.5220    -6.2040 
  123.2500    44.4150    37.5370    31.3880    27.8490    25.8200     2.5260    -6.2030 
  123.3750    47.6110    38.3400    32.3860    31.3320    25.5940     2.5370    -6.2070 
  123.5000    48.3510    38.0270    32.5900    37.0300    25.3030     2.5500    -6.1980 
  123.6250    47.1980    36.4200    31.6820    36.9050    25.1110     2.5550    -6.1890 
  123.7500    46.0950    34.3120    30.1700    30.7050    25.2110     2.5490    -6.1880 
  123.8750    46.2300    32.4100    28.6020    26.6870    25.4970     2.5350    -6.2100 
  124.0000    48.8290    31.1820    27.4270    25.9680    25.6800     2.5190    -6.2630 
  124.1250    51.4980    30.8150    26.9370    25.8950    25.8290     2.5070    -6.3650 
  124.2500    49.6690    30.8860    26.9200    26.9870    25.9470     2.5020    -6.4880 
  124.3750    45.2850    31.0080    27.1040    28.3820    25.9850     2.5060    -6.5920 
  124.5000    44.0150    30.8890    27.2170    28.2920    26.1510     2.5150    -6.6750 
  124.6250    47.6870    30.4340    27.0990    28.1730    26.1850     2.5200    -6.7950 
  124.7500    49.7510    29.8530    26.8360    28.0020    26.2490     2.5150    -6.9460 
  124.8750    47.9640    29.3100    26.5370    25.9410    26.4050     2.5020    -7.0460 
  125.0000    46.6920    28.9040    26.2850    24.9360    26.4020     2.4890    -7.0880 
  125.1250    49.5150    28.6460    26.1070    25.7360    26.2750     2.4850    -7.1420 
  125.2500    51.8030    28.4280    25.9410    24.7920    25.8950     2.4910    -7.2150 
  125.3750    50.3800    28.1710    25.7300    24.2490    25.6970     2.4990    -7.2780 
