~V
VERS. 2.00: Ver 2.00
~W
STRT.M 56.0000:
STOP.M 214.0000:
STEP.M 0.1250:
NULL. -999.2500:
UWI. F10128:
~C
DEPT.M :
SP.MV :
GR.API :
RML.OHMM :
RI. :
RXO.OHMM :
CALI.CM :
DEN.GM/CC :
~A
# ...
  146.0000   -20.7680    72.1260    77.2510    69.7510    57.1200    24.4580     2.2230 
  146.1250   -20.8640    75.7320    75.2880    68.1270    53.2660    24.4130     2.2310 
  146.2500   -20.9710    74.3160    74.2320    67.5250    59.7550    24.4180     2.2390 
  146.3750   -21.0800    70.2020    72.9590    66.8000    66.6250    24.4310     2.2440 
  146.5000   -21.1530    70.5670    70.7690    65.0850    64.6070    24.4330     2.2460 
  146.6250   -21.2070    75.5870    67.7970    62.3800    59.6420    24.4500     2.2480 
  146.7500   -21.2500    80.7280    64.8620    59.4350    53.0910    24.4600     2.2510 
  146.8750   -21.3010    81.3030    63.4600    57.7070    48.9000    24.4560     2.2560 
  147.0000   -21.3260    79.5220    64.3290    58.0460    45.4440    24.4550     2.2590 
  147.1250   -21.2670    78.8010    67.6650    60.7310    49.1590    24.4610     2.2590 
  147.2500   -21.1300    78.9640    73.0370    65.4390    65.4690    24.4600     2.2540 
  147.3750   -20.8710    78.6360    79.5200    71.4090    73.3560    24.4500     2.2480 
  147.5000   -20.5880    77.8960    85.6520    77.1800    76.3320    24.4510     2.2470 
  147.6250   -20.2050    76.4150    90.5600    81.7130    73.9210    24.4330     2.2530 
  147.7500   -19.7330    73.8470    93.9610    84.5650    69.1050    24.4210     2.2650 
  147.8750   -19.2010    71.4610    96.0750    86.0070    73.6430    24.4800     2.2790 
  148.0000   -18.6590    71.4800    97.6980    87.0480    84.5350    24.6590     2.2870 
  148.1250   -18.1760    73.2530    99.0600    88.0440    94.4920    24.9230     2.2870 
  148.2500   -17.7370    73.8580   100.0040    88.8990    99.3160    25.0820     2.2770 
  148.3750   -17.4110    70.6970   100.0110    89.1170    92.9000    24.8780     2.2590 
  148.5000   -17.1620    67.8580    99.0650    88.5220    92.7360    24.3600     2.2390 
  148.6250   -16.9720    68.0770    97.4910    87.3530    88.3910    23.9190     2.2220 
  148.7500   -16.8260    70.3850    96.0060    86.2870    81.0550    23.8580     2.2120 
  148.8750   -16.6860    71.5630    95.7590    86.4440    75.3210    24.1120     2.2090 
  149.0000   -16.5700    71.7920    97.1180    88.3210    74.2630    24.4340     2.2070 
  149.1250   -16.4930    72.8370    99.5950    91.7560    80.6800    24.7530     2.2050 
  149.2500   -16.4130    73.6640   101.5430    95.3560    96.0790    24.9150     2.2010 
  149.3750   -16.2840    72.0180    99.7900    95.6680   105.9580    24.9050     2.1950 
  149.5000   -16.0770    69.0950    93.2750    90.6860   106.2630    24.9900     2.1880 
  149.6250   -15.8310    67.9840    82.8140    80.8930   104.8130    25.1920     2.1830 
  149.7500   -15.5550    70.1450    70.8790    69.1200    87.9540    25.3180     2.1810 
  149.8750   -15.2840    75.1010    60.7090    59.0170    60.8970    25.3000     2.1880 
  150.0000   -15.0360    80.0580    53.6870    52.0290    41.1620    25.2440     2.2000 
  150.1250   -14.7680    82.1820    49.9540    48.2280    34.1820    25.2280     2.2150 
  150.2500   -14.6100    80.3020    49.0670    47.1460    33.0890    25.2930     2.2270 
  150.3750   -14.5140    75.7700    50.7910    48.5620    40.0800    25.4410     2.2320 
  150.5000   -14.5870    71.9300    54.3980    51.7690    43.1360    25.6130     2.2330 
  150.6250   -14.8650    69.4120    59.8830    56.7500    46.3590    25.6810     2.2310 
  150.7500   -15.2760    67.9960    67.4110    63.7090    53.4790    25.6710     2.2300 
  150.8750   -15.8880    68.5010    77.3400    73.2050    69.5560    25.6320     2.2260 
  151.0000   -16.5560    69.3380    88.6370    84.4160    85.2230    25.6330     2.2200 
  151.1250   -17.2350    69.4540    99.8230    95.8800   103.4680    25.6520     2.2120 
  151.2500   -17.9430    68.3920   108.9960   105.3670   119.6960    25.6840     2.2030 
  151.3750   -18.6990    67.4990   114.0690   110.2430   134.5150    25.6890     2.1990 
  151.5000   -19.3840    67.9320   115.7320   111.2450   119.6820    25.6680     2.2010 
  151.6250   -20.0290    68.8030   115.2320   109.9880    96.0500    25.6370     2.2090 
  151.7500   -20.6510    68.8010   113.8440   108.0780    81.8010    25.6140     2.2190 
  151.8750   -21.2150    68.1560   111.9980   106.0970    92.4550    25.6330     2.2230 
  152.0000   -21.8390    68.0300   109.3960   103.5780   103.7240    25.6950     2.2180 
  152.1250   -22.5420    68.0880   105.7750   100.0270   115.2280    25.7330     2.2110 
  152.2500   -23.3190    68.8690   101.6230    95.6900   112.2450    25.6920     2.2080 
  152.3750   -24.2290    70.6170    98.7460    92.2320    90.5670    25.5180     2.2200 
  152.5000   -25.2580    71.2530    99.0070    91.6430    73.8350    25.3070     2.2390 
  152.6250   -26.3630    69.9570   103.7850    95.3790    75.6750    25.1260     2.2580 
  152.7500   -27.5370    68.5390   113.5450   104.0760    84.1860    25.0020     2.2650 
  152.8750   -28.7610    68.8110   127.7150   117.6070   115.7300    24.8990     2.2580 
  153.0000   -29.9820    69.1960   142.5480   132.3670   160.3370    24.8600     2.2450 
  153.1250   -31.2470    68.8370   154.5300   144.4810   186.0320    24.9070     2.2330 
  153.2500   -32.4930    67.5930   161.2570   150.9720   180.4510    24.9750     2.2290 
  153.3750   -33.7370    66.6690   162.3720   151.3020   147.2730    24.8990     2.2300 
  153.5000   -34.9610    65.7530   161.6870   149.7820   129.3610    24.8100     2.2310 
  153.6250   -36.2250    63.5870   161.9050   149.5040   141.1950    24.7930     2.2280 
  153.7500   -37.5630    61.1320   164.1410   151.8210   158.2460    24.8650     2.2210 
  153.8750   -38.9160    61.6350   167.7280   156.1210   168.0040    25.0470     2.2140 
  154.0000   -40.2940    64.8210   170.7700   160.2040   158.6040    25.3030     2.2110 
  154.1250   -41.6110    67.7810   172.2950   162.9470   138.5920    25.5000     2.2130 
  154.2500   -42.7980    67.9650   172.2980   164.2550   124.2220    25.5400     2.2170 
  154.3750   -43.8730    66.0910   171.4400   164.8440   119.1020    25.4640     2.2200 
  154.5000   -44.8270    64.1570   170.4680   165.5810   126.2380    25.3930     2.2220 
  154.6250   -45.5980    63.7070   169.0840   166.2550   147.1690    25.3300     2.2230 
  154.7500   -46.1650    64.5180   166.1480   165.6150   162.2610    25.2220     2.2220 
  154.8750   -46.5290    64.7150   159.5800   161.0490   152.1240    25.1630     2.2200 
  155.0000   -46.7670    64.0290   149.3590   151.9220   139.5270    25.2850     2.2160 
  155.1250   -46.8700    63.6690   136.6230   139.1130   134.1620    25.5610     2.2110 
  155.2500   -46.8970    65.4280   123.6680   125.1930   122.8510    25.8350     2.2080 
  155.3750   -46.8120    68.8960   113.8260   113.9320   105.9380    25.8390     2.2120 
  155.5000   -46.6300    70.7770   108.8960   107.4470    86.3810    25.6600     2.2180 
  155.6250   -46.2990    69.8820   110.2200   107.1610    76.5520    25.4230     2.2230 
  155.7500   -45.7320    68.2090   118.9640   114.2760    81.1960    25.3260     2.2230 
  155.8750   -44.9440    66.9600   138.2120   131.7380   119.0370    25.4120     2.2160 
  156.0000   -43.8630    65.4970   168.5710   159.7820   158.3720    25.4760     2.2080 
  156.1250   -42.7320    64.3320   212.2400   199.9680   199.2050    25.3930     2.2020 
  156.2500   -41.6810    62.4560   270.5810   253.1820   255.7000    25.2770     2.1990 
  156.3750   -40.7710    58.0140   340.4400   317.5450   365.5090    25.1940     2.2000 
  156.5000   -40.0570    53.7870   402.9380   377.0460   519.3410    25.1830     2.2040 
  156.6250   -39.4740    52.0170   436.1800   409.0290   623.5220    25.1930     2.2150 
  156.7500   -39.0790    52.0950   427.3190   397.5860   603.0980    25.1610     2.2310 
  156.8750   -38.8770    52.5050   381.5970   350.0420   490.2360    25.1100     2.2460 
  157.0000   -38.7800    54.9440   330.1750   300.1070   372.4030    25.0900     2.2540 
  157.1250   -38.6590    59.2160   290.9920   264.1360   242.9290    25.1250     2.2530 
