~V
VERS. 2.00: Ver 2.00
~W
STRT.M 44.0000:
STOP.M 255.0000:
STEP.M 0.1250:
NULL. -999.2500:
UWI. F10191:
~C
DEPT.M :
DEN.GM/CC :
SP.MV :
GR.API :
RML.OHMM :
RI. :
RXO.OHMM :
CALI.CM :
~A
# ...
  179.0000     2.2410   -37.5980    58.7890   143.8160   131.9250   132.4570    25.2060 
  179.1250     2.2380   -37.3850    55.0140   143.3540   131.4620   132.4100    25.2040 
  179.2500     2.2320   -37.1400    55.2740   142.0520   130.2490   130.8650    25.1920 
  179.3750     2.2270   -36.8530    57.8580   140.1690   128.5210   126.7700    25.1630 
  179.5000     2.2240   -36.5170    59.5140   138.0400   126.6000   123.9630    25.1400 
  179.6250     2.2240   -36.1720    59.7830   135.6840   124.6460   121.4110    25.1320 
  179.7500     2.2280   -35.8030    59.8600   132.0970   121.8890   111.7150    25.1320 
  179.8750     2.2280   -35.4110    60.5750   125.5530   116.7770    95.2610    25.1380 
  180.0000     2.2200   -35.0830    60.7000   115.0060   108.1090    81.7060    25.1490 
  180.1250     2.2130   -34.7520    59.9140   101.2760    96.1160    90.6260    25.1550 
  180.2500     2.2180   -34.4150    60.3160    87.7970    83.7880    73.9850    25.1390 
  180.3750     2.2360   -34.2100    62.3420    76.8830    73.3900    47.5500    25.1240 
  180.5000     2.2560   -34.0450    64.2660    69.7180    66.2510    37.2160    25.1090 
  180.6250     2.2630   -33.8770    65.2460    66.8800    63.0990    47.8690    25.0830 
  180.7500     2.2610   -33.8470    66.5700    66.8190    62.6110    60.3620    25.0630 
  180.8750     2.2570   -33.8850    69.1730    68.3330    63.7630    65.5470    25.0620 
  181.0000     2.2510   -33.9050    71.2390    70.1070    65.3990    63.6130    25.1100 
  181.1250     2.2330   -34.0160    71.3750    70.7860    66.2330    64.5550    25.2510 
  181.2500     2.2040   -34.1890    70.6860    70.2080    65.9020    61.8880    25.3590 
  181.3750     2.1790   -34.2880    69.5620    68.8460    64.7210    58.1100    25.3540 
  181.5000     2.1720   -34.3930    67.6100    67.2720    63.2010    54.8470    25.2270 
  181.6250     2.1880   -34.5370    64.0520    65.6950    61.5780    55.1460    25.0250 
  181.7500     2.2120   -34.5820    62.4680    63.9460    59.7740    56.8360    24.8400 
  181.8750     2.2320   -34.6010    63.9370    61.7790    57.6030    56.4920    24.7020 
  182.0000     2.2450   -34.6250    66.2470    59.0420    54.9420    51.6310    24.6040 
  182.1250     2.2530   -34.5380    67.9420    55.8690    51.8980    45.1530    24.5020 
  182.2500     2.2590   -34.4150    70.1790    52.9940    49.0840    39.1090    24.3490 
  182.3750     2.2670   -34.2820    72.6170    51.2060    47.1650    33.8030    24.1590 
  182.5000     2.2790   -34.0940    72.3930    51.1950    46.7200    30.2700    24.0230 
  182.6250     2.2920   -33.8790    70.3160    53.8080    48.5040    29.3690    23.9300 
  182.7500     2.3040   -33.6360    68.8250    58.6830    52.3590    30.0480    23.8560 
  182.8750     2.3170   -33.3210    66.8580    65.1740    57.9600    30.7170    23.7100 
  183.0000     2.3220   -33.0080    64.7470    71.8030    64.2570    27.9970    23.4560 
  183.1250     2.3050   -32.7610    65.8390    75.5290    68.7690    22.2870    23.1530 
  183.2500     2.2820   -32.4520    67.1980    74.3570    69.2740    18.0000    22.9010 
  183.3750     2.2720   -32.1720    65.0400    68.0260    64.9020    16.2600    22.7760 
  183.5000     2.2830   -31.9760    61.3360    58.4650    56.9280    16.6630    22.7720 
  183.6250     2.3030   -31.7580    62.0800    48.8320    48.2070    17.8100    22.8750 
  183.7500     2.3160   -31.5980    66.0360    40.4600    41.0320    17.7610    23.0320 
  183.8750     2.3130   -31.5610    70.6270    34.6990    35.9230    17.0180    23.2140 
  184.0000     2.2880   -31.5430    73.8090    31.6730    32.5990    17.5240    23.3990 
  184.1250     2.2480   -31.5140    73.4770    29.7860    30.5130    19.3040    23.5790 
  184.2500     2.2210   -31.5890    72.6390    28.1130    28.7780    20.2950    23.7040 
  184.3750     2.2160   -31.7050    73.3950    26.3750    27.0870    19.4780    23.7300 
  184.5000     2.2240   -31.7930    75.6240    24.8020    25.5750    16.8150    23.6970 
  184.6250     2.2270   -31.9750    75.4570    24.2520    24.9090    15.1240    23.6200 
  184.7500     2.2260   -32.1900    73.4300    25.2710    25.5530    13.6390    23.4270 
  184.8750     2.2280   -32.3450    72.2680    28.1180    27.8630    12.5450    23.1290 
  185.0000     2.2260   -32.5380    72.0070    32.5150    31.8620    12.6060    22.9690 
  185.1250     2.2140   -32.7860    70.0460    37.2660    36.7920    17.4230    23.2950 
  185.2500     2.2070   -32.9800    67.4690    40.3030    40.4470    28.5160    23.8770 
  185.3750     2.2130   -33.1790    67.6320    40.2410    41.0250    37.5590    24.4600 
  185.5000     2.2280   -33.3740    70.3570    37.2970    38.4730    38.6490    24.8540 
  185.6250     2.2390   -33.5360    72.2300    33.3240    34.5890    28.7270    25.0090 
  185.7500     2.2430   -33.7000    73.1090    30.4630    31.5310    24.9370    25.0440 
  185.8750     2.2410   -33.8560    73.0590    29.5300    30.1040    27.2950    25.0350 
  186.0000     2.2300   -34.0090    71.3190    30.5790    30.4650    28.0300    25.0190 
  186.1250     2.1990   -34.1520    70.4540    33.3380    32.5760    33.0350    25.0370 
  186.2500     2.1620   -34.2860    71.9620    36.7440    35.5540    35.6600    25.0270 
  186.3750     2.1420   -34.4250    73.2820    40.0250    38.6450    39.2170    24.9580 
  186.5000     2.1480   -34.5890    72.8960    42.6000    41.1710    41.8550    24.8220 
  186.6250     2.1710   -34.7140    71.5880    44.2000    42.7110    40.9110    24.6490 
  186.7500     2.1900   -34.8510    68.5980    45.4120    43.7280    37.9280    24.4360 
  186.8750     2.1990   -35.0660    66.5030    46.9460    44.8280    34.8070    24.1540 
  187.0000     2.2060   -35.2600    68.3240    49.5530    46.6890    31.1180    23.8310 
  187.1250     2.2180   -35.4480    71.1450    54.1680    50.1840    28.0170    23.5760 
  187.2500     2.2310   -35.7450    69.8820    60.7640    55.4120    29.7870    23.5640 
  187.3750     2.2370   -36.0700    67.0180    69.0940    62.2420    37.6790    23.7900 
  187.5000     2.2390   -36.3770    66.0150    78.3960    70.0860    51.3030    24.0780 
  187.6250     2.2450   -36.7660    65.3560    87.1390    77.7180    65.3750    24.2750 
  187.7500     2.2560   -37.1580    65.4830    93.8720    83.8810    70.7750    24.3750 
  187.8750     2.2610   -37.4680    67.6700    97.8530    87.8980    69.1740    24.4130 
  188.0000     2.2510   -37.7930    68.6580    99.1370    89.7060    67.6440    24.4380 
  188.1250     2.2300   -38.1480    65.3190    98.2040    89.5460    69.7100    24.4510 
  188.2500     2.2110   -38.3970    63.9040    96.4530    88.5460    69.3900    24.4230 
  188.3750     2.2030   -38.6140    67.2110    94.8110    87.5220    66.4610    24.3710 
  188.5000     2.2100   -38.8430    70.4960    94.0860    87.2220    68.0190    24.3370 
  188.6250     2.2290   -38.9540    68.2810    95.2370    88.5690    73.0230    24.3950 
  188.7500     2.2430   -39.0380    64.9190    98.1300    91.5950    82.7440    24.4980 
  188.8750     2.2400   -39.1400    63.8460   101.9390    95.7230    96.0240    24.6930 
  189.0000     2.2180   -39.1780    63.8780   104.8450    99.4270   110.6340    24.9440 
  189.1250     2.1940   -39.1750    61.8630   103.7240    99.8290   114.8590    25.1220 
  189.2500     2.1820   -39.1780    59.4430    97.9130    95.8110   102.3540    25.1850 
  189.3750     2.1800   -39.1310    59.8840    88.8360    88.1060    77.1270    25.2210 
  189.5000     2.1770   -39.1050    62.8630    79.6210    79.3170    60.0030    25.3060 
  189.6250     2.1720   -39.1510    63.8390    74.2380    73.2230    53.0630    25.4820 
  189.7500     2.1700   -39.1540    62.7270    74.3480    71.9250    50.1390    25.5990 
  189.8750     2.1740   -39.1940    61.3870    81.2990    77.0970    51.8210    25.6140 
  190.0000     2.1830   -39.3130    59.4410    96.6070    90.6970    61.0550    25.5590 
  190.1250     2.1840   -39.3970    56.6600   124.1160   116.9840   109.1010    25.5320 
