~V
VERS. 2.00: Ver 2.00
~W
STRT.M 64.0000:
STOP.M 235.0000:
STEP.M 0.1250:
NULL. -999.2500:
UWI. F10178:
~C
DEPT.M :
GR.API :
RML.OHMM :
RI. :
RXO.OHMM :
CALI.CM :
DEN.GM/CC :
SP.MV :
~A
# ...
  199.0000    59.6510   109.8040   108.5680   135.9970    25.1010     2.1900   -21.8980 
  199.1250    61.7250   109.6970   108.2810   136.2470    25.0740     2.1900   -21.9380 
  199.2500    62.2470   109.0370   107.4550   126.8310    25.0270     2.1910   -22.1960 
  199.3750    61.1220   108.2330   106.5020   117.2740    25.0000     2.1960   -22.4060 
  199.5000    61.3810   107.6570   105.8180   108.9880    24.9550     2.2040   -22.4490 
  199.6250    61.9480   107.5280   105.6860   115.3290    24.9140     2.2120   -22.4040 
  199.7500    60.1180   107.6260   105.8640   123.4510    24.9210     2.2160   -22.3050 
  199.8750    58.6050   107.7190   106.0500   127.2750    24.9740     2.2150   -22.2920 
  200.0000    60.7770   107.7320   106.0950   126.6520    25.0100     2.2100   -22.4750 
  200.1250    64.7930   107.9480   106.2180   124.6960    25.0480     2.2040   -22.6650 
  200.2500    65.9900   108.7980   106.8780   121.1760    25.1000     2.2000   -22.7370 
  200.3750    64.4180   110.5670   108.4570   119.7340    25.1510     2.1990   -22.8530 
  200.5000    63.0240   113.1610   110.9760   122.6010    25.1540     2.1990   -23.1160 
  200.6250    63.1700   115.9450   113.8500   131.0240    25.1000     2.1960   -23.4660 
  200.7500    64.2590   117.9810   116.0320   137.1100    25.0210     2.1910   -23.8330 
  200.8750    66.3770   118.6940   116.8630   144.9610    24.9410     2.1850   -24.1230 
  201.0000    68.5570   117.9350   116.2040   143.4500    24.8890     2.1820   -24.2630 
  201.1250    68.2200   115.6900   114.1430   126.8530    24.8720     2.1860   -24.3350 
  201.2500    66.3700   112.3950   111.1120   116.2700    24.8780     2.1930   -24.4930 
  201.3750    64.4260   108.1570   107.1310   121.5950    24.8810     2.1990   -24.6760 
  201.5000    62.7290   103.1660   102.2860   124.1680    24.8810     2.2020   -24.8590 
  201.6250    62.8680    97.9670    97.0450   114.7060    24.8820     2.2030   -25.1330 
  201.7500    64.4040    93.4850    92.3920    94.9290    24.8890     2.2060   -25.4960 
  201.8750    66.6900    90.4960    89.1810    80.8290    24.8960     2.2130   -25.8890 
  202.0000    68.8510    89.4690    87.9540    80.8750    24.9060     2.2230   -26.2620 
  202.1250    69.5750    90.6450    89.0010    88.6890    24.9700     2.2290   -26.5300 
  202.2500    68.0210    93.0340    91.3410    96.1920    25.1280     2.2270   -26.6180 
  202.3750    64.8170    95.7210    94.0090   103.4910    25.2700     2.2200   -26.5140 
  202.5000    62.9000    97.8280    95.9690   107.2400    25.1540     2.2120   -26.1980 
  202.6250    63.6200    98.7100    96.3640    97.9410    25.0600     2.2150   -25.6740 
  202.7500    64.6760    98.8080    95.6930    95.7270    25.0160     2.2280   -25.0570 
  202.8750    65.6530    98.8540    94.7410    96.3140    25.0110     2.2470   -24.4120 
  203.0000    66.6130    99.7770    94.4450    92.9910    24.9990     2.2610   -23.7310 
  203.1250    67.1850   103.0050    96.1950    99.9820    25.0280     2.2590   -23.0240 
  203.2500    66.0840   109.2370   100.7410   105.0730    25.0810     2.2410   -22.4300 
  203.3750    63.4840   119.1050   108.7580   111.4320    25.0890     2.2180   -21.9750 
  203.5000    61.4010   132.5270   120.3360   122.9910    24.7150     2.2000   -21.5580 
  203.6250    60.8220   147.7390   134.1860   158.8840    24.6200     2.2050   -21.0540 
  203.7500    60.3080   160.1650   145.9960   208.0040    24.6490     2.2300   -20.4750 
  203.8750    59.3530   165.5020   151.2650   228.1060    24.7570     2.2640   -19.9110 
  204.0000    58.7290   161.6310   147.4350   201.2000    24.6870     2.2930   -19.4240 
  204.1250    59.2350   149.4400   135.4020   150.3580    24.6100     2.2990   -19.0170 
  204.2500    59.8810   134.7870   121.2810   114.0460    24.5870     2.2900   -18.5400 
  204.3750    60.8950   121.0300   108.4280   101.5510    24.6030     2.2840   -17.9810 
  204.5000    62.6850   109.5780    98.0990    90.3400    24.5640     2.2950   -17.5080 
  204.6250    63.9880   100.7820    90.4750    80.4560    24.4000     2.3220   -17.2500 
  204.7500    63.4910    93.9320    84.7270    77.3910    24.2300     2.3430   -17.0820 
  204.8750    61.7480    88.9630    80.8130    76.1370    24.1880     2.3460   -16.8700 
  205.0000    61.5640    85.7350    78.7970    68.3230    24.2960     2.3390   -16.6110 
  205.1250    62.8680    83.4050    78.1740    68.0810    24.2990     2.3560   -16.3420 
  205.2500    60.5580    79.9050    76.6980    75.6090    24.1480     2.4150   -16.1080 
  205.3750    55.6200    73.4570    71.9920    92.1280    23.9820     2.5060   -15.9070 
  205.5000    53.1990    63.3600    62.5800   106.6470    23.9790     2.5980   -15.6750 
  205.6250    55.9510    50.5490    49.1410    80.3030    24.0450     2.6490   -15.4110 
  205.7500    59.4490    37.6830    35.7510    45.3820    24.0510     2.6530   -15.1620 
  205.8750    62.9050    26.3290    24.9050    24.9250    24.0390     2.6170   -14.9620 
  206.0000    68.8000    17.4750    17.3000    17.4430    24.0700     2.5580   -14.7910 
  206.1250    75.7970    12.0200    12.7350    13.5280    24.0190     2.4920   -14.6770 
  206.2500    78.5470     8.9770     9.9070     8.8030    23.9240     2.4320   -14.6560 
  206.3750    75.7490     7.3890     8.2400     6.8480    23.8290     2.3880   -14.7360 
  206.5000    69.4220     6.5220     7.3240     6.2550    23.6740     2.3640   -14.8800 
  206.6250    64.8750     6.1530     6.9320     6.3950    23.7490     2.3580   -15.0970 
  206.7500    65.1970     6.0230     6.8120     6.4660    23.9330     2.3620   -15.4190 
  206.8750    71.3890     6.0770     6.9030     6.1640    24.1190     2.3670   -15.8900 
  207.0000    80.9020     6.3110     7.1910     5.8530    24.2270     2.3680   -16.5020 
  207.1250    88.1270     6.7580     7.7250     6.5200    24.2930     2.3580   -17.1220 
  207.2500    88.8050     7.3350     8.4390     8.6420    24.3640     2.3380   -17.6620 
  207.3750    85.0710     7.9290     9.2130    10.5010    24.4140     2.3140   -18.1300 
  207.5000    82.9030     8.3980     9.8520    10.5600    24.4270     2.2940   -18.5590 
  207.6250    85.4680     8.5940    10.0990     9.1570    24.3890     2.2860   -18.9020 
  207.7500    88.7950     8.5560     9.9760     7.9660    24.3520     2.2920   -19.0750 
  207.8750    89.2670     8.3770     9.6150     7.5320    24.4060     2.3080   -19.0460 
  208.0000    88.0430     8.1690     9.1920     7.8910    24.5810     2.3300   -18.8730 
  208.1250    88.9330     8.0220     8.8390     8.1920    24.7670     2.3490   -18.6740 
  208.2500    91.9430     7.9360     8.5660     8.5340    24.8520     2.3630   -18.4730 
  208.3750    94.7050     7.8830     8.3440     8.5780    24.9180     2.3700   -18.2270 
  208.5000    95.3440     7.8370     8.1440     8.4680    25.0250     2.3740   -17.9440 
  208.6250    96.3040     7.8000     7.9590     8.3860    25.1670     2.3760   -17.6990 
  208.7500    98.9400     7.8170     7.8210     8.4840    25.0540     2.3800   -17.5140 
  208.8750   101.5160     7.9650     7.7990     8.7340    24.9070     2.3860   -17.3880 
  209.0000   102.0390     8.3400     7.9790     8.9310    24.8810     2.3920   -17.3290 
  209.1250   101.0840     9.0980     8.4990     9.7960    24.8030     2.3980   -17.3060 
  209.2500    99.3460    10.2440     9.3780    12.5550    24.7410     2.3990   -17.2800 
  209.3750    97.9490    11.7670    10.6350    16.8580    24.6760     2.3940   -17.2500 
  209.5000    98.0020    13.5910    12.2330    19.1450    24.6430     2.3820   -17.2840 
  209.6250    96.9740    15.6130    14.0840    19.5460    24.6550     2.3640   -17.3750 
  209.7500    92.4710    17.6760    15.9930    20.2560    24.6910     2.3450   -17.4890 
  209.8750    85.6120    19.7090    17.8440    22.0050    24.9030     2.3290   -17.6170 
  210.0000    80.5460    21.6780    19.5860    25.0590    25.2750     2.3150   -17.7130 
  210.1250    78.0650    23.5450    21.1980    28.5170    25.7250     2.3050   -17.7610 
