~V
VERS. 2.00: Ver 2.00
~W
STRT.M 49.0000:
STOP.M 290.0000:
STEP.M 0.1250:
NULL. -999.2500:
UWI. F10103:
~C
DEPT.M :
DEN.GM/CC :
SP.MV :
GR.API :
RML.OHMM :
RI. :
RXO.OHMM :
CALI.CM :
~A
# ...
   94.0000     2.1680   -10.9160    55.0400     9.2100     7.9410     9.9270    23.8960 
   94.1250     2.1620   -10.8230    54.2820     9.1850     7.9200    10.0510    23.9370 
   94.2500     2.1610   -10.6860    52.1510     9.2640     7.9850    10.5320    23.9740 
   94.3750     2.1620   -10.5070    49.9790     9.3860     8.0920    10.8590    24.0060 
   94.5000     2.1640   -10.2550    49.7870     9.4870     8.1920    10.8950    24.0550 
   94.6250     2.1660    -9.9140    52.3540     9.5060     8.2330    10.7200    24.1390 
   94.7500     2.1650    -9.4390    55.3600     9.3670     8.1510    10.4750    24.2360 
   94.8750     2.1660    -8.8360    55.0460     9.0750     7.9450    10.2530    24.3070 
   95.0000     2.1690    -8.1150    53.6690     8.6480     7.6220     9.9440    24.3590 
   95.1250     2.1750    -7.2920    54.8050     8.1320     7.2140     9.3810    24.4020 
   95.2500     2.1850    -6.4060    60.5840     7.6050     6.7760     8.6220    24.3890 
   95.3750     2.1980    -5.5340    67.8110     7.1700     6.3920     7.9250    24.3780 
   95.5000     2.2100    -4.7330    74.2150     6.9160     6.1330     7.3870    24.4000 
   95.6250     2.2210    -4.0480    78.7760     6.9040     6.0570     7.3300    24.4940 
   95.7500     2.2260    -3.5470    79.4300     7.1580     6.2060     7.1210    24.5670 
   95.8750     2.2270    -3.2050    76.0910     7.5310     6.4900     7.4470    24.5400 
   96.0000     2.2260    -2.9820    71.4130     7.8770     6.8090     7.9970    24.4220 
   96.1250     2.2230    -2.8400    68.1570     8.0600     7.0520     8.5040    24.2550 
   96.2500     2.2230    -2.7500    67.8200     7.9670     7.1080     8.2120    24.0680 
   96.3750     2.2270    -2.6840    69.3450     7.6910     7.0000     7.4600    24.0110 
   96.5000     2.2320    -2.6120    72.4710     7.3530     6.7960     6.8970    24.1460 
   96.6250     2.2390    -2.5000    76.2270     7.0690     6.5750     7.0580    24.2850 
   96.7500     2.2440    -2.3040    77.8640     6.8960     6.3940     7.3380    24.2170 
   96.8750     2.2480    -2.0510    75.8270     6.7770     6.2410     7.0660    24.0730 
   97.0000     2.2520    -1.7990    73.0530     6.6510     6.0830     6.5300    24.0150 
   97.1250     2.2550    -1.5900    73.3470     6.4800     5.8950     6.2040    24.0690 
   97.2500     2.2590    -1.4310    77.6410     6.2710     5.6760     5.9890    24.2200 
   97.3750     2.2630    -1.2940    81.1580     6.0780     5.4640     5.8330    24.3550 
   97.5000     2.2680    -1.2000    82.0650     5.9440     5.2950     5.8190    24.4180 
   97.6250     2.2730    -1.1810    82.0960     5.9030     5.2020     5.8630    24.4160 
   97.7500     2.2770    -1.2840    81.0500     6.0190     5.2370     5.9670    24.3730 
   97.8750     2.2780    -1.4770    79.2430     6.3260     5.4230     6.2190    24.3050 
   98.0000     2.2770    -1.7360    76.8920     6.8770     5.8020     6.7560    24.1770 
   98.1250     2.2780    -2.0520    74.0130     7.7030     6.4090     7.7640    23.9910 
   98.2500     2.2900    -2.4440    71.0480     8.8280     7.2920     9.1520    23.9000 
   98.3750     2.3170    -2.9100    68.4610    10.1170     8.3660    11.1200    23.9760 
   98.5000     2.3560    -3.4370    66.1640    11.4130     9.5220    13.6140    24.1660 
   98.6250     2.3960    -4.0300    63.9140    12.5040    10.5860    15.8470    24.3540 
   98.7500     2.4180    -4.7240    61.9830    13.0730    11.2690    18.0050    24.4160 
   98.8750     2.4110    -5.5050    60.3800    13.0530    11.4520    20.8630    24.4020 
   99.0000     2.3760    -6.3530    59.0090    12.4810    11.1230    24.1010    24.3510 
   99.1250     2.3220    -7.2340    59.2980    11.5400    10.4130    19.5550    24.3050 
   99.2500     2.2640    -8.1000    60.2140    10.5130     9.5400    12.7120    24.2790 
   99.3750     2.2150    -8.9110    58.0250     9.6650     8.7520    10.1700    24.2730 
   99.5000     2.1800    -9.6470    54.7930     9.1110     8.1680     9.7810    24.2980 
   99.6250     2.1600   -10.2960    54.3210     8.8570     7.8250     9.9900    24.3710 
   99.7500     2.1530   -10.8080    55.2510     8.8560     7.7220    10.2500    24.4510 
   99.8750     2.1510   -11.1930    54.5010     8.9480     7.7470    10.5480    24.5020 
  100.0000     2.1530   -11.4540    53.2720     9.0350     7.8200    10.8040    24.5190 
  100.1250     2.1540   -11.6150    53.4670     9.0520     7.8750    10.8580    24.5220 
  100.2500     2.1550   -11.6770    54.5700     8.9740     7.8680    10.7870    24.5160 
  100.3750     2.1550   -11.6630    55.8310     8.8410     7.8100    10.5850    24.4860 
  100.5000     2.1540   -11.5910    55.5470     8.6830     7.7160    10.4390    24.3960 
  100.6250     2.1520   -11.4550    55.2920     8.5280     7.6060    10.4190    24.2230 
  100.7500     2.1500   -11.2410    57.0270     8.4000     7.5010    10.4410    24.0210 
  100.8750     2.1470   -10.9790    57.0880     8.3000     7.4130    10.2830    23.8970 
  101.0000     2.1450   -10.6780    54.6940     8.2320     7.3470     9.9910    23.8410 
  101.1250     2.1430   -10.3360    53.9530     8.1960     7.3060     9.8600    23.8240 
  101.2500     2.1420    -9.9300    55.6840     8.1940     7.2880     9.8250    23.8410 
  101.3750     2.1420    -9.4630    54.7700     8.2010     7.2790     9.7570    23.8620 
  101.5000     2.1420    -8.9130    51.7840     8.1800     7.2530     9.6550    23.8940 
  101.6250     2.1420    -8.2760    52.6400     8.0890     7.1810     9.5730    23.9360 
  101.7500     2.1440    -7.5290    57.5530     7.8780     7.0210     9.3360    23.9720 
  101.8750     2.1520    -6.6840    61.1980     7.5720     6.7850     8.9730    23.9900 
  102.0000     2.1720    -5.7670    64.2530     7.2090     6.4950     8.3050    24.0030 
  102.1250     2.2080    -4.8400    69.3690     6.8390     6.1810     7.5100    24.0310 
  102.2500     2.2590    -4.0010    75.3310     6.5280     5.8920     7.1330    24.1300 
  102.3750     2.3110    -3.2870    77.7450     6.3120     5.6640     7.3040    24.3440 
  102.5000     2.3500    -2.7390    76.9970     6.2110     5.5240     6.8510    24.6270 
  102.6250     2.3690    -2.3750    75.5570     6.2280     5.4880     6.5610    24.7970 
  102.7500     2.3630    -2.2380    70.3960     6.3640     5.5690     6.6330    24.7540 
  102.8750     2.3430    -2.2630    63.8310     6.5610     5.7220     7.0660    24.5580 
  103.0000     2.3170    -2.3940    60.4490     6.7670     5.9060     7.4350    24.2610 
  103.1250     2.2900    -2.5610    62.2880     6.9290     6.0760     7.4280    23.9680 
  103.2500     2.2700    -2.7030    65.4450     6.9920     6.1760     7.2920    23.8750 
  103.3750     2.2580    -2.8060    67.2810     6.9640     6.1980     7.2200    23.9240 
  103.5000     2.2560    -2.8670    66.8300     6.8700     6.1500     7.1380    24.0560 
  103.6250     2.2630    -2.9000    63.8710     6.7520     6.0580     7.0100    24.2370 
  103.7500     2.2760    -2.9090    62.7000     6.6500     5.9540     6.8770    24.4200 
  103.8750     2.2890    -2.9330    67.3790     6.5830     5.8620     6.8710    24.4850 
  104.0000     2.3000    -3.0140    74.6750     6.5610     5.7940     7.0430    24.4510 
  104.1250     2.3080    -3.1750    78.1500     6.5810     5.7550     7.4150    24.3960 
  104.2500     2.3130    -3.4440    76.4730     6.6420     5.7490     8.0810    24.3580 
  104.3750     2.3150    -3.8150    75.3990     6.7300     5.7690     8.6330    24.3240 
  104.5000     2.3120    -4.2710    75.5540     6.8400     5.8180     7.7200    24.2870 
  104.6250     2.3010    -4.7850    73.9360     6.9830     5.9040     7.1470    24.1960 
  104.7500     2.2790    -5.3370    70.5270     7.1910     6.0530     7.0530    24.0310 
  104.8750     2.2530    -5.8840    67.7230     7.4830     6.2760     7.2320    23.8710 
  105.0000     2.2280    -6.3930    65.6800     7.8780     6.5880     7.4610    23.7650 
  105.1250     2.2100    -6.8490    63.6940     8.3790     6.9950     7.7740    23.7040 
