~V
VERS. 2.00: Ver 2.00
~W
STRT.M 50.0000:
STOP.M 237.0000:
STEP.M 0.1250:
NULL. -999.2500:
UWI. F10163:
~C
DEPT.M :
DEN.GM/CC :
GR.API :
RML.OHMM :
RI. :
RXO.OHMM :
CALI.CM :
SP.MV :
~A
# ...
   83.7500     2.1950    60.7460     7.7380     6.1110     9.9790    24.1430   -30.5180 
   83.8750     2.1910    57.8450     7.6890     6.0780     9.8930    24.4700   -30.1640 
   84.0000     2.1820    58.7470     7.6890     6.0850     9.7330    24.8140   -29.7790 
   84.1250     2.1710    62.4740     7.7440     6.1430     9.3180    24.9890   -29.3320 
   84.2500     2.1600    62.2970     7.8380     6.2530     9.2160    24.8460   -28.8540 
   84.3750     2.1500    59.1060     7.9590     6.4110     9.7320    24.7480   -28.3220 
   84.5000     2.1440    58.0440     8.1020     6.6070    10.2360    24.8380   -27.6920 
   84.6250     2.1410    61.4140     8.2620     6.8210    10.3390    24.8340   -26.9070 
   84.7500     2.1400    64.3070     8.3960     7.0110    10.3600    24.6230   -25.9920 
   84.8750     2.1420    65.2490     8.4380     7.1220    10.6130    24.4250   -24.9480 
   85.0000     2.1440    65.1830     8.3200     7.0980    10.7240    24.3810   -23.7850 
   85.1250     2.1480    66.8640     7.9960     6.8870    10.6890    24.4780   -22.5160 
   85.2500     2.1540    72.2310     7.5400     6.5470    10.2240    24.6320   -21.2010 
   85.3750     2.1630    78.1680     7.0090     6.1280     9.1110    24.9940   -19.9040 
   85.5000     2.1730    80.9250     6.4550     5.6850     7.5820    25.1930   -18.6950 
   85.6250     2.1840    80.1770     5.9430     5.2780     6.6470    25.2850   -17.6590 
   85.7500     2.1960    80.3570     5.5460     4.9540     6.2750    25.3120   -16.7910 
   85.8750     2.2080    82.4880     5.3380     4.7560     5.8400    25.2640   -16.1470 
   86.0000     2.2190    85.8930     5.3820     4.7220     5.4390    24.8900   -15.7650 
   86.1250     2.2210    87.0890     5.7600     4.9120     5.7360    24.6860   -15.6830 
   86.2500     2.2130    84.8090     6.3840     5.2880     6.5720    24.5620   -15.7650 
   86.3750     2.1980    80.9470     7.1110     5.7830     7.8060    24.5110   -15.8980 
   86.5000     2.1820    76.9070     7.7010     6.2560     8.6660    24.4840   -15.9850 
   86.6250     2.1760    74.8800     7.7830     6.4470     8.8710    24.3650   -16.0020 
   86.7500     2.1820    78.0820     7.3170     6.2580     8.5420    24.3320   -15.9760 
   86.8750     2.1980    84.6640     6.4900     5.7490     7.5950    24.3320   -15.9000 
   87.0000     2.2190    89.8430     5.6670     5.1330     5.9320    24.3130   -15.8510 
   87.1250     2.2460    92.8210     5.2730     4.7040     5.1150    24.2570   -15.9060 
   87.2500     2.2810    94.6210     5.4020     4.6020     4.9820    24.2250   -16.0710 
   87.3750     2.3300    93.0990     6.0600     4.8830     5.4350    24.1720   -16.3860 
   87.5000     2.3880    86.9230     7.1690     5.5480     7.0380    24.0420   -16.8890 
   87.6250     2.4300    79.4470     8.4990     6.5330    11.2970    23.8310   -17.5190 
   87.7500     2.4310    73.4320     9.5620     7.5030    15.0870    23.6050   -18.1520 
   87.8750     2.3860    68.5290     9.9720     8.1230    13.1880    23.4450   -18.7030 
   88.0000     2.3160    66.0110     9.6340     8.1950    10.6040    23.4020   -19.0370 
   88.1250     2.2530    66.2750     8.7700     7.7400     9.8180    23.4250   -18.9820 
   88.2500     2.2140    69.4960     7.8490     7.1000     9.3700    23.5850   -18.6280 
   88.3750     2.1980    77.0800     7.0870     6.4800     8.1640    23.9080   -18.0730 
   88.5000     2.1950    83.0580     6.5550     5.9880     6.4940    24.0800   -17.3710 
   88.6250     2.1940    81.9590     6.2810     5.6880     5.6720    23.8280   -16.6340 
   88.7500     2.1880    80.7240     6.2230     5.5690     5.6050    23.6430   -15.9730 
   88.8750     2.1800    83.0150     6.3650     5.6320     5.7330    23.5790   -15.4180 
   89.0000     2.1720    85.5120     6.6630     5.8490     5.9800    23.5730   -14.9720 
   89.1250     2.1740    84.0270     7.0300     6.1610     6.5670    23.6440   -14.6760 
   89.2500     2.1880    82.4830     7.3240     6.4440     7.3920    23.8980   -14.4350 
   89.3750     2.2140    82.6540     7.4390     6.6010     7.8940    24.0530   -14.1430 
   89.5000     2.2430    83.8990     7.3340     6.5840     7.7620    24.1310   -13.7940 
   89.6250     2.2660    85.5390     7.0310     6.3860     7.3040    24.3080   -13.3700 
   89.7500     2.2760    85.2660     6.6630     6.1040     6.7780    24.4540   -12.8750 
   89.8750     2.2760    85.2080     6.3190     5.8090     6.0290    24.4980   -12.3440 
   90.0000     2.2730    89.2480     6.0520     5.5570     5.6430    24.4860   -11.8040 
   90.1250     2.2720    95.1720     5.8880     5.3920     5.6610    24.4670   -11.2640 
   90.2500     2.2720    97.1830     5.7930     5.2970     5.7300    24.5200   -10.8190 
   90.3750     2.2720    95.4970     5.7530     5.2610     5.6630    24.6420   -10.5330 
   90.5000     2.2680    95.2400     5.7540     5.2670     5.5680    24.7520   -10.3460 
   90.6250     2.2600    97.1930     5.7660     5.2910     5.4960    24.7770   -10.2230 
   90.7500     2.2520    97.7480     5.7650     5.3130     5.4410    24.8130   -10.1410 
   90.8750     2.2470    96.1950     5.7420     5.3220     5.3960    24.8530   -10.0680 
   91.0000     2.2460    93.8140     5.7000     5.3110     5.3770    24.8960    -9.9980 
   91.1250     2.2510    92.0800     5.6400     5.2710     5.3380    24.9770    -9.9790 
   91.2500     2.2590    90.2130     5.5690     5.2110     5.2540    25.0140   -10.0130 
   91.3750     2.2670    89.8340     5.4920     5.1430     5.1360    24.9900   -10.0600 
   91.5000     2.2720    92.6110     5.4240     5.0810     5.0510    25.0420   -10.1750 
   91.6250     2.2720    97.6880     5.3990     5.0410     5.0230    25.1110   -10.3820 
   91.7500     2.2680   100.8760     5.4330     5.0300     5.0370    25.1190   -10.6450 
   91.8750     2.2600    98.1930     5.5250     5.0510     5.1030    25.1160   -10.9760 
   92.0000     2.2490    90.1290     5.6560     5.1020     5.1910    25.1160   -11.4010 
   92.1250     2.2370    82.4570     5.8110     5.1810     5.2890    25.1130   -11.9200 
   92.2500     2.2240    79.0780     5.9750     5.2800     5.4050    25.0810   -12.4940 
   92.3750     2.2100    78.3110     6.1470     5.3940     5.5770    24.9010   -13.1360 
   92.5000     2.1960    77.9920     6.3330     5.5240     5.8470    24.5300   -13.7880 
   92.6250     2.1800    79.5950     6.5390     5.6830     6.2620    24.3690   -14.4040 
   92.7500     2.1660    82.0000     6.7760     5.8830     6.6620    24.3480   -15.0210 
   92.8750     2.1620    83.2840     7.0850     6.1490     7.0090    24.3460   -15.6420 
   93.0000     2.1790    82.4370     7.5390     6.5220     7.4950    24.3030   -16.2230 
   93.1250     2.2370    81.1680     8.2520     7.0740     8.1240    24.1020   -16.7660 
   93.2500     2.3280    80.0680     9.1900     7.7960     8.6570    23.7530   -17.3220 
   93.3750     2.4380    77.5720    10.2370     8.6420     9.1090    23.4490   -17.8910 
   93.5000     2.5380    73.3210    11.1660     9.4790     9.5940    23.4510   -18.4820 
   93.6250     2.5890    69.7830    11.5940    10.0180    10.0040    23.7050   -19.1030 
   93.7500     2.5820    67.8140    11.4110    10.0990    10.0620    23.8440   -19.7360 
   93.8750     2.5250    65.9420    10.7130     9.7210     9.8150    23.8450   -20.3870 
   94.0000     2.4380    63.8810     9.7750     9.0480     9.5620    23.6670   -21.0880 
   94.1250     2.3460    64.7100     8.9400     8.3270     9.5220    23.5460   -21.7840 
   94.2500     2.2690    67.4870     8.3770     7.7480     9.6590    23.5330   -22.3940 
   94.3750     2.2110    68.6800     8.1020     7.3650     9.8350    23.7560   -22.9400 
   94.5000     2.1740    68.9540     8.0420     7.1670     9.8560    24.1360   -23.4500 
   94.6250     2.1550    70.6730     8.0780     7.1140     9.8910    24.3000   -23.9010 
   94.7500     2.1470    70.5300     8.0800     7.1220    10.0130    24.3300   -24.3160 
   94.8750     2.1460    67.3690     8.0040     7.1440    10.1430    24.3320   -24.6580 
