~V
VERS. 2.00: Ver 2.00
~W
STRT.M 45.0000:
STOP.M 252.0000:
STEP.M 0.1250:
NULL. -999.2500:
UWI. F10190:
~C
DEPT.M :
GR.API :
RML.OHMM :
RI. :
RXO.OHMM :
CALI.CM :
SP.MV :
DEN.GM/CC :
~A
# ...
  225.0000    80.1930     9.7310     9.2330     9.2970    24.5500   -29.4990     2.3750 
  225.1250    81.8930     9.9790     9.5670     9.4770    24.5300   -30.3340     2.3710 
  225.2500    78.9420    10.2760     9.9690    10.0800    24.5120   -31.0540     2.3610 
  225.3750    73.6950    10.5980    10.4050    11.2080    24.4880   -31.5910     2.3480 
  225.5000    68.7120    10.8720    10.7960    11.8130    24.4570   -31.9260     2.3410 
  225.6250    66.0410    11.0670    11.1090    11.8040    24.3580   -32.1710     2.3430 
  225.7500    66.4670    11.1950    11.3620    11.7270    24.1380   -32.3390     2.3480 
  225.8750    69.5030    11.2930    11.5950    11.9280    23.9420   -32.4030     2.3510 
  226.0000    73.1320    11.3890    11.8390    11.9550    23.9620   -32.2950     2.3530 
  226.1250    74.7110    11.4790    12.0760    12.0830    24.2050   -32.0190     2.3540 
  226.2500    74.3720    11.5410    12.2680    12.3950    24.5000   -31.6650     2.3540 
  226.3750    73.8450    11.5700    12.3990    12.6940    24.6880   -31.2680     2.3570 
  226.5000    74.0600    11.6000    12.5120    12.5400    24.7180   -30.7830     2.3660 
  226.6250    74.4260    11.6960    12.6980    12.3720    24.6790   -30.1850     2.3780 
  226.7500    75.1730    11.9110    13.0230    12.8920    24.6290   -29.5270     2.3940 
  226.8750    75.5140    12.2720    13.4950    14.7110    24.6090   -28.8330     2.4100 
  227.0000    74.3620    12.7790    14.0610    15.5840    24.6030   -28.0440     2.4080 
  227.1250    74.1520    13.3550    14.6180    15.2090    24.5680   -27.2490     2.3810 
  227.2500    75.8790    13.9430    15.1150    15.1580    24.5380   -26.4630     2.3460 
  227.3750    77.8580    14.5060    15.5470    15.4350    24.5280   -25.6590     2.3220 
  227.5000    78.5050    15.0210    15.9420    16.0420    24.5510   -24.8460     2.3170 
  227.6250    78.4400    15.4870    16.3110    16.0360    24.6050   -24.0900     2.3270 
  227.7500    77.2640    15.8560    16.6000    16.2640    24.6760   -23.3760     2.3500 
  227.8750    74.5230    16.0390    16.7080    16.5210    24.7630   -22.7230     2.3810 
  228.0000    73.0030    15.8370    16.4400    16.4840    24.8450   -22.1540     2.4030 
  228.1250    74.4340    15.1690    15.7190    15.9720    24.8680   -21.6370     2.4080 
  228.2500    77.2760    14.0180    14.5290    14.9770    24.8210   -21.1420     2.3980 
  228.3750    79.5620    12.5360    13.0080    13.0980    24.7700   -20.7330     2.3840 
  228.5000    81.9530    11.0380    11.4810    11.4400    24.7550   -20.4660     2.3710 
  228.6250    85.4540    10.0930    10.0720     9.3600    24.7640   -20.2390     2.3610 
  228.7500    88.7260     9.7210     9.1630     8.1720    24.7540   -20.0390     2.3560 
  228.8750    89.9910     9.7540     9.0250     8.2410    24.7220   -19.8670     2.3550 
  229.0000    86.9500    10.3850     9.4580     9.9400    24.7150   -19.7640     2.3540 
  229.1250    81.6300    11.3510    10.2610    13.5030    24.7760   -19.7290     2.3550 
  229.2500    77.3610    12.5100    11.3270    18.7950    24.8780   -19.7260     2.3630 
  229.3750    77.2770    13.7800    12.5750    19.1590    24.9820   -19.6960     2.3730 
  229.5000    79.6460    15.1580    13.9680    15.2800    25.0300   -19.6000     2.3780 
  229.6250    81.0470    16.5210    15.3540    16.8940    25.0450   -19.4300     2.3780 
  229.7500    80.4110    17.5060    16.3820    22.7490    25.0130   -19.1970     2.3780 
  229.8750    77.1820    17.5580    16.5220    30.3780    24.9590   -18.8960     2.3760 
  230.0000    73.3840    16.1070    15.2540    28.7250    24.9730   -18.5060     2.3590 
  230.1250    71.2440    13.7580    13.1660    18.9600    24.9950   -18.0170     2.3140 
  230.2500    70.1360    11.3060    10.9570    10.4370    24.9800   -17.4970     2.2380 
  230.3750    68.5770     9.4180     9.1730     7.4900    24.9580   -17.0100     2.1550 
  230.5000    66.3910     8.4860     8.1460     8.0150    24.9470   -16.5400     2.1030 
  230.6250    65.0150     8.2390     7.7170    10.2270    24.9490   -16.1370     2.0870 
  230.7500    66.3500     8.4280     7.7300    14.0730    24.9710   -15.8030     2.0990 
  230.8750    71.9940     8.7980     7.9940    16.0220    25.0450   -15.5510     2.1320 
  231.0000    76.8430     9.1190     8.3060    14.6020    25.0760   -15.3910     2.1900 
  231.1250    74.6060     9.2880     8.5190    11.8730    24.9510   -15.3130     2.2540 
  231.2500    67.4380     9.3000     8.5930     8.1960    24.7350   -15.2490     2.2920 
  231.3750    61.9850     9.1960     8.5400     7.0740    24.6200   -15.1730     2.2900 
  231.5000    61.2860     9.0340     8.3910    10.3900    24.6690   -15.1700     2.2790 
  231.6250    61.7900     8.8880     8.2140    16.1240    24.7410   -15.1850     2.2900 
  231.7500    60.4680     8.8010     8.0540    18.3670    24.8100   -15.1910     2.3260 
  231.8750    57.7040     8.7970     7.9490    12.5170    24.8830   -15.1490     2.3670 
  232.0000    56.4780     8.9040     7.9400     9.4190    24.9320   -15.0860     2.3880 
  232.1250    56.5420     9.1030     8.0260     8.5820    24.9490   -15.0570     2.3890 
  232.2500    55.6960     9.3810     8.2050     9.0500    24.9530   -15.0330     2.3780 
  232.3750    54.7300     9.7060     8.4600     9.6840    24.9530   -14.9660     2.3690 
  232.5000    56.2630    10.0250     8.7530    10.2010    24.9410   -14.8010     2.3760 
  232.6250    58.6020    10.2850     9.0240    10.4620    24.9150   -14.5870     2.3910 
  232.7500    59.6220    10.4570     9.2320    10.4520    24.8890   -14.3870     2.4020 
  232.8750    59.6850    10.5360     9.3520    10.4600    24.8790   -14.2090     2.4010 
  233.0000    60.0340    10.5250     9.3680     9.9580    24.8790   -14.0120     2.3920 
  233.1250    60.1800    10.4580     9.3110     9.5030    24.8790   -13.7450     2.3850 
  233.2500    60.3470    10.3600     9.2080     9.2760    24.8790   -13.4820     2.3810 
  233.3750    61.1410    10.2500     9.0860     9.6590    24.8790   -13.2630     2.3750 
  233.5000    60.7150    10.1400     8.9670     9.6690    24.8790   -13.0960     2.3700 
  233.6250    59.1650    10.0360     8.8580     9.5990    24.8790   -12.9610     2.3740 
  233.7500    58.8820     9.9420     8.7640     9.5920    24.8790   -12.8250     2.3920 
  233.8750    60.5550     9.8610     8.6880     9.8040    24.8790   -12.7130     2.4160 
  234.0000    62.3090     9.8040     8.6390    10.1280    24.8790   -12.5990     2.4290 
  234.1250    62.9290     9.7780     8.6210    10.2390    24.8790   -12.5300     2.4310 
  234.2500    61.8540     9.7900     8.6380    10.4960    24.8790   -12.5030     2.4290 
  234.3750    58.7480     9.8410     8.6850    10.5140    24.8790   -12.5300     2.4310 
  234.5000    56.5790     9.9110     8.7440    10.4280    24.8790   -12.5730     2.4340 
  234.6250    57.6250     9.9560     8.7830    10.1400    24.8790   -12.6550     2.4260 
  234.7500    59.2840     9.9380     8.7680     9.8900    24.8790   -12.7560     2.4080 
  234.8750    59.0060     9.8350     8.6800     9.2970    24.8790   -12.8720     2.3860 
  235.0000    56.8070     9.6550     8.5180     8.6300    24.8790   -13.0760     2.3700 
  235.1250    55.3930     9.4650     8.3370     8.1600    24.8820   -13.2660     2.3600 
  235.2500    54.8590     9.3270     8.1930     8.1680    24.8960   -13.4230     2.3580 
  235.3750    55.7510     9.3020     8.1410     8.5970    24.9270   -13.5250     2.3660 
  235.5000    57.6780     9.4490     8.2350     9.0820    24.9430   -13.5940     2.3870 
  235.6250    59.1710     9.7200     8.4440     9.4760    24.9440   -13.6200     2.4090 
  235.7500    59.8720    10.0500     8.7160     9.9750    24.9310   -13.6180     2.4200 
  235.8750    60.5920    10.3450     8.9800    10.5830    24.9000   -13.5620     2.4160 
  236.0000    62.0210    10.4970     9.1490    10.2420    24.8840   -13.4410     2.3960 
  236.1250    62.7950    10.5070     9.2060     9.4460    24.8820   -13.3210     2.3680 
