~V
VERS. 2.00: Ver 2.00
~W
STRT.M 63.0000:
STOP.M 308.0000:
STEP.M 0.1250:
NULL. -999.2500:
UWI. F10102:
~C
DEPT.M :
DEN.GM/CC :
SP.MV :
GR.API :
RML.OHMM :
RI. :
RXO.OHMM :
CALI.CM :
~A
# ...
  209.2500     2.2220   -28.7590    53.0560   173.6190   174.2770    73.7370    23.5230 
  209.3750     2.2500   -28.6820    54.1340   152.8370   154.4160    73.4330    23.5950 
  209.5000     2.2860   -28.5310    57.5280   125.3490   125.6460    76.6100    23.9870 
  209.6250     2.3210   -28.3100    59.9610   100.0550    98.4400    67.5380    24.5960 
  209.7500     2.3460   -28.0010    60.9550    82.2170    78.4860    47.0690    25.1040 
  209.8750     2.3510   -27.7140    64.9820    74.4950    68.4630    37.6140    25.2740 
  210.0000     2.3410   -27.5080    71.1110    74.6980    66.2350    38.4640    25.3070 
  210.1250     2.3220   -27.3380    73.1740    82.1130    71.2040    46.7850    25.3130 
  210.2500     2.3010   -27.2240    68.7210    96.1560    83.0760    62.9880    25.3210 
  210.3750     2.2870   -27.3300    61.3420   116.4860   102.0450    88.4040    25.2740 
  210.5000     2.2830   -27.4580    56.5220   139.5200   124.6150    94.2540    25.1050 
  210.6250     2.2850   -27.5440    55.9860   161.5150   146.8200    81.8670    24.7980 
  210.7500     2.2860   -27.7600    59.7350   178.4210   164.1960    78.0170    24.3790 
  210.8750     2.2750   -27.9650    62.4650   185.9610   171.9300    81.7260    23.9700 
  211.0000     2.2550   -27.9950    60.8540   185.6600   171.1100    83.4790    23.7870 
  211.1250     2.2340   -27.9640    58.9840   180.3260   164.2350    78.1130    23.7280 
  211.2500     2.2180   -27.8470    60.9180   173.9920   155.3330    62.2530    23.6620 
  211.3750     2.2130   -27.5090    63.1850   171.5780   149.5540    56.2600    23.5560 
  211.5000     2.2100   -27.1750    61.7270   175.2710   149.8030    53.2150    23.4650 
  211.6250     2.2060   -26.8450    57.8960   185.3990   157.1800    55.0560    23.4200 
  211.7500     2.1990   -26.3670    53.9290   200.2460   170.8910    60.2110    23.4250 
  211.8750     2.1970   -25.8620    49.9820   215.9650   188.2950    62.7030    23.3610 
  212.0000     2.2020   -25.4610    47.4300   228.3880   204.6100    65.8110    23.2600 
  212.1250     2.2120   -25.1250    47.7190   236.0390   217.3520    66.1510    23.2600 
  212.2500     2.2240   -24.8010    50.4040   239.8950   226.8030    67.5410    23.3890 
  212.3750     2.2310   -24.4140    53.1040   241.4380   235.1970    74.2120    23.4590 
  212.5000     2.2350   -23.9660    53.8930   239.6070   242.9780    89.9000    23.4690 
  212.6250     2.2380   -23.5960    53.8150   229.0280   245.0200   106.3880    23.4390 
  212.7500     2.2420   -23.3460    54.6130   204.0680   231.2810   123.4820    23.4790 
  212.8750     2.2480   -23.0740    56.6080   163.3970   191.3460   121.3040    23.5200 
  213.0000     2.2580   -22.6340    59.3880   119.1380   139.8550    96.7170    23.4280 
  213.1250     2.2720   -22.0980    61.8160    81.5800    93.8300    64.0140    23.2080 
  213.2500     2.2850   -21.7250    63.9210    56.2520    62.1530    37.9650    23.0210 
  213.3750     2.2880   -21.7140    67.7780    45.1370    46.5870    19.9780    23.0130 
  213.5000     2.2750   -21.8610    73.2070    44.1530    41.5520    13.0930    23.1890 
  213.6250     2.2480   -22.0400    77.2120    52.5800    45.9030    14.7300    23.5850 
  213.7500     2.2170   -22.2610    75.2970    71.2960    60.9710    34.9840    24.1240 
  213.8750     2.1960   -22.6360    67.0810   104.5530    93.0370   109.5760    24.6050 
  214.0000     2.1890   -23.1890    59.1130   150.1640   142.1550   195.4540    24.9600 
  214.1250     2.1900   -23.8120    55.6920   201.6860   202.0890   180.5600    25.1610 
  214.2500     2.1950   -24.4560    56.3150   247.4370   255.4740   146.7630    25.2230 
  214.3750     2.1970   -25.0450    56.8870   274.7260   282.5670   155.8790    25.1940 
  214.5000     2.2000   -25.5470    56.5740   287.2720   291.9450   196.0870    25.1380 
  214.6250     2.2030   -25.9520    57.6240   292.3900   294.7980   221.9330    25.0760 
  214.7500     2.2100   -26.3610    59.7550   295.2580   296.0400   209.0890    25.0360 
  214.8750     2.2190   -26.8340    59.6440   295.1830   294.0740   196.7650    25.0600 
  215.0000     2.2270   -27.2730    58.4100   289.3080   286.5020   221.6050    25.0930 
  215.1250     2.2350   -27.6340    58.5910   275.5830   271.5270   215.6290    25.1020 
  215.2500     2.2420   -27.8770    59.9870   254.5240   249.3420   195.3430    25.0870 
  215.3750     2.2470   -28.0730    60.3350   229.8800   223.0500   172.9760    25.0460 
  215.5000     2.2490   -28.2690    59.9950   208.3560   199.2160   154.3560    24.9970 
  215.6250     2.2470   -28.5200    59.7240   194.7560   182.8130   123.1520    24.9360 
  215.7500     2.2420   -28.7400    58.7210   192.0070   177.3400   105.9920    24.8910 
  215.8750     2.2330   -28.9080    57.6230   202.7230   186.5470   128.9350    24.8210 
  216.0000     2.2230   -29.1560    57.7730   222.8350   207.0890   178.3590    24.7340 
  216.1250     2.2140   -29.5710    57.5180   247.4550   234.6220   213.2570    24.6840 
  216.2500     2.2080   -29.9860    56.2120   269.3750   261.5800   210.9220    24.6940 
  216.3750     2.2120   -30.2610    56.1950   279.3410   276.5010   214.8030    24.7760 
  216.5000     2.2230   -30.5440    58.1820   276.8700   276.8800   188.4910    24.8140 
  216.6250     2.2390   -30.8580    60.4300   265.6000   266.7910   148.5660    24.7230 
  216.7500     2.2530   -31.1380    61.9880   250.9610   253.0770   150.7040    24.5570 
  216.8750     2.2590   -31.2060    63.0430   236.9960   240.3110   185.4680    24.5470 
  217.0000     2.2590   -31.1540    63.2280   224.4530   228.8900   197.1250    24.6140 
  217.1250     2.2550   -31.0640    62.6120   212.8940   218.3480   165.1220    24.5790 
  217.2500     2.2500   -30.9840    62.8970   201.9380   208.4360   132.2120    24.5990 
  217.3750     2.2450   -30.9030    63.3710   191.3850   198.8630   131.1590    24.9160 
  217.5000     2.2380   -30.8980    61.4660   181.0290   189.1090   134.6830    25.1790 
  217.6250     2.2250   -30.9720    58.0100   171.0540   179.1990   142.0100    25.2930 
  217.7500     2.2040   -31.0640    56.6840   162.1600   169.8210   151.2270    25.2910 
  217.8750     2.1780   -31.1430    59.7160   156.0980   162.8860   135.5320    25.1830 
  218.0000     2.1590   -31.2150    62.2580   153.7210   159.9110   100.2700    24.9820 
  218.1250     2.1560   -31.2000    62.0660   155.2050   161.7920    71.0930    24.6140 
  218.2500     2.1730   -31.1140    60.1340   159.2610   167.6330    62.1520    24.0440 
  218.3750     2.2050   -31.0180    58.5200   162.6030   173.6980    59.4940    23.6270 
  218.5000     2.2380   -30.8830    58.4230   162.0510   175.1400    58.8570    23.4320 
  218.6250     2.2650   -30.7700    60.4980   156.6750   169.7920    53.2290    23.3280 
  218.7500     2.2830   -30.7320    64.2130   148.2050   159.2380    45.0330    23.2070 
  218.8750     2.2880   -30.8150    67.4840   140.8970   148.7860    40.0690    23.0600 
  219.0000     2.2820   -30.8360    67.5020   138.3440   143.5150    40.4140    22.9650 
  219.1250     2.2610   -30.9000    64.1490   142.0820   145.5480    43.4630    23.0450 
  219.2500     2.2290   -31.1750    58.7030   151.8440   154.7720    52.6670    23.3480 
  219.3750     2.1960   -31.6650    55.9920   165.8830   169.5460    77.9270    23.7470 
  219.5000     2.1730   -32.0910    56.3460   179.6380   184.6870   114.4650    24.1480 
  219.6250     2.1670   -32.2670    57.1250   189.3940   195.6780   145.3320    24.5630 
  219.7500     2.1780   -32.3280    57.6290   192.8320   199.5230   154.7630    24.9620 
  219.8750     2.1960   -32.4960    58.2010   189.1720   195.4020   140.9640    25.2040 
  220.0000     2.2110   -32.7470    60.1420   181.5290   187.1600   135.6410    25.2900 
  220.1250     2.2180   -32.8320    62.7880   171.5900   176.7970   134.6310    25.3060 
  220.2500     2.2200   -32.8400    64.0240   160.1300   164.9420   134.1200    25.3060 
  220.3750     2.2210   -32.8690    62.7980   147.4340   151.3390   126.5660    25.2980 
