~V
VERS. 2.00: Ver 2.00
~W
STRT.M 59.0000:
STOP.M 216.0000:
STEP.M 0.1250:
NULL. -999.2500:
UWI. F10129:
~C
DEPT.M :
GR.API :
RML.OHMM :
RI. :
RXO.OHMM :
CALI.CM :
DEN.GM/CC :
SP.MV :
~A
# ...
  205.2500    82.4680    14.1280    13.5630    13.8120    24.5480     2.3660    -5.1810 
  205.3750    82.4680    14.2440    13.6820    14.2050    24.4950     2.3430    -5.1770 
  205.5000    82.4680    14.3290    13.7760    14.2390    24.4120     2.3290    -5.2130 
  205.6250    82.4680    14.3540    13.8240    14.2220    24.4080     2.3230    -5.2390 
  205.7500    82.4680    14.3310    13.8300    13.9210    24.4380     2.3200    -5.2880 
  205.8750    82.4680    14.2790    13.8060    13.3870    24.4720     2.3220    -5.3810 
  206.0000    82.4680    14.2290    13.7760    12.5540    24.4670     2.3340    -5.4810 
  206.1250    82.4680    14.2160    13.7680    11.7710    24.4390     2.3620    -5.5060 
  206.2500    82.4680    14.2480    13.7930    11.8260    24.4800     2.3950    -5.5430 
  206.3750    82.4680    14.3090    13.8380    12.2790    24.5540     2.4220    -5.5900 
  206.5000    82.4680    14.3630    13.8760    12.3520    24.6390     2.4380    -5.6510 
  206.6250    82.4680    14.3470    13.8510    11.7760    24.6770     2.4400    -5.7310 
  206.7500    82.4680    14.2260    13.7270    11.9840    24.6530     2.4360    -5.7620 
  206.8750    82.4680    13.9890    13.4850    11.9380    24.6420     2.4250    -5.7780 
  207.0000    82.4680    13.6560    13.1370    11.4830    24.6510     2.4090    -5.7950 
  207.1250    82.4680    13.2840    12.7310    10.4270    24.6850     2.3920    -5.8140 
  207.2500    82.4680    12.9520    12.3580     9.5320    24.7290     2.3800    -5.8110 
  207.3750    82.4680    12.7230    12.0900     8.8080    24.7250     2.3760    -5.8170 
  207.5000    82.4680    12.6340    11.9730     8.8950    24.6710     2.3750    -5.8400 
  207.6250    82.4680    12.7150    12.0450     9.5620    24.6400     2.3700    -5.8810 
  207.7500    82.4680    12.9020    12.2430    10.2890    24.6320     2.3600    -5.9510 
  207.8750    82.4680    13.1340    12.5010    10.7020    24.6300     2.3510    -6.0120 
  208.0000    82.4680    13.3470    12.7510    10.5120    24.6230     2.3480    -6.0690 
  208.1250    82.4680    13.4810    12.9200    10.2750    24.6410     2.3550    -6.1210 
  208.2500    82.4680    13.5390    13.0050    10.6990    24.6490     2.3600    -6.1770 
  208.3750    82.4680    13.5420    13.0270    11.8020    24.6640     2.3590    -6.1880 
  208.5000    82.4680    13.5150    13.0150    12.4540    24.6870     2.3540    -6.1210 
  208.6250    82.4680    13.4790    12.9870    12.4530    24.7560     2.3540    -6.0020 
  208.7500    82.4680    13.4340    12.9460    12.8250    24.8390     2.3650    -5.8570 
  208.8750    82.4680    13.3720    12.8780    13.3650    24.9760     2.3860    -5.6920 
  209.0000    82.4680    13.2880    12.7760    13.1350    25.0390     2.4070    -5.5070 
  209.1250    82.4680    13.1830    12.6340    11.9150    24.9400     2.4210    -5.3490 
  209.2500    82.4680    13.0700    12.4750    12.3260    24.8420     2.4290    -5.1870 
  209.3750    82.4680    12.9430    12.3030    12.8240    24.8960     2.4340    -5.0790 
  209.5000    82.4680    12.7840    12.1080    12.4720    25.0090     2.4330    -5.0240 
  209.6250    82.4680    12.5600    11.8650    11.3680    24.9770     2.4210    -4.9650 
  209.7500    82.4680    12.2880    11.5910    10.7500    24.8200     2.4030    -4.9000 
  209.8750    82.4680    12.0090    11.3260    10.9680    24.7470     2.3930    -4.8390 
  210.0000    82.4680    11.7730    11.1190    11.5580    24.9000     2.4050    -4.7760 
  210.1250    82.4680    11.6320    11.0100    13.8800    25.0630     2.4440    -4.6710 
  210.2500    82.4680    11.5650    10.9710    17.7980    25.0640     2.4910    -4.5600 
  210.3750    82.4680    11.5420    10.9680    20.4370    24.8600     2.5270    -4.4050 
  210.5000    82.4680    11.5360    10.9720    20.8120    24.6230     2.5410    -4.2660 
  210.6250    82.4680    11.5340    10.9720    21.1580    24.4610     2.5300    -4.1750 
  210.7500    82.4680    11.5340    10.9720    21.4340    24.3960     2.5070    -4.1260 
  210.8750    82.4680    11.5340    10.9720    22.0490    24.4170     2.4790    -4.0870 
  211.0000    82.4680    11.5340    10.9720    23.2370    24.4590     2.4550    -4.0180 
  211.1250    82.4680    11.5340    10.9720    25.0930    24.5510     2.4440    -3.9200 
  211.2500    82.4680    11.5340    10.9720    24.6890    24.6950     2.4490    -3.6980 
  211.3750    82.4680    11.5340    10.9720    21.7900    24.8010     2.4700    -3.2510 
  211.5000    82.4680    11.5340    10.9720    19.0750    24.7740     2.5000    -2.5680 
  211.6250    82.4680    11.5340    10.9720    19.1690    24.6830     2.5270    -1.7810 
  211.7500    82.4680    11.5340    10.9720    21.5420    24.6880     2.5420    -0.9420 
  211.8750    82.4680    11.5340    10.9720    22.6050    24.7150     2.5420    -0.1080 
  212.0000    82.4680    11.5340    10.9720    20.8280    24.6830     2.5310     0.6710 
  212.1250    82.4680    11.5340    10.9720    18.6330    24.6530     2.5130     1.3470 
  212.2500    82.4680    11.5340    10.9720    16.9740    24.6450     2.4970     1.7090 
  212.3750    82.4680    11.5340    10.9720    16.6300    24.6480     2.4820     2.0950 
  212.5000    82.4680    11.5340    10.9720    16.6320    24.6720     2.4670     2.3610 
  212.6250    82.4680    11.5340    10.9720    15.5090    24.7180     2.4500     2.5000 
  212.7500    82.4680    11.5340    10.9720    13.9700    24.7320     2.4380     2.5700 
  212.8750    82.4680    11.5340    10.9720    13.1960    24.6750     2.4320     2.5970 
  213.0000    82.4680    11.5340    10.9720    13.7510    24.6570     2.4340     2.6150 
  213.1250    82.4680    11.5340    10.9720    15.4240    24.7080     2.4370     2.6460 
  213.2500    82.4680    11.5340    10.9720    17.3590    24.7210     2.4410     2.6920 
  213.3750    82.4680    11.5340    10.9720    21.0900    24.7370     2.4480     2.7280 
  213.5000    82.4680    11.5340    10.9720    26.3670    24.7660     2.4630     2.7280 
  213.6250    82.4680    11.5340    10.9720    25.1970    24.7770     2.4870     2.7280 
  213.7500    82.4680    11.5340    10.9720    22.2540    24.7230     2.5120  -999.2500 
  213.8750    82.4680    11.5340    10.9720    19.7270    24.6700     2.5320  -999.2500 
  214.0000    82.4680    11.5340    10.9720    18.1190    24.6620     2.5430  -999.2500 
  214.1250    82.4680    11.5340    10.9720    17.4440    24.6710     2.5490  -999.2500 
  214.2500    82.4680    11.5340    10.9720    18.4150    24.6380     2.5480  -999.2500 
  214.3750    82.4680    11.5340    10.9720    19.3700    24.5440     2.5200  -999.2500 
  214.5000    82.4680    11.5340    10.9720    19.6130    24.2080     2.4430  -999.2500 
  214.6250    82.4680    11.5340    10.9720    13.5050    22.4440     2.2970  -999.2500 
  214.7500    82.4680    11.5340    10.9720     7.2320    19.1850     2.1130  -999.2500 
  214.8750    82.4680    11.5340    10.9720     4.7260    16.3450     1.9340  -999.2500 
  215.0000    82.4680    11.5340    10.9720     4.2240    15.1290     1.7970  -999.2500 
  215.1250    82.4680    11.5340    10.9720     4.2160    15.0130     1.7290  -999.2500 
  215.2500    82.4680    11.5340    10.9720     4.2160    15.0120     1.7030  -999.2500 
  215.3750    82.4680    11.5340    10.9720     4.2160    15.0120     1.6980  -999.2500 
  215.5000    82.4680    11.5340    10.9720     4.2160    15.0120     1.6980  -999.2500 
  215.6250  -999.2500  -999.2500  -999.2500  -999.2500  -999.2500     1.6960  -999.2500 
  215.7500  -999.2500  -999.2500  -999.2500  -999.2500  -999.2500     1.6880  -999.2500 
  215.8750  -999.2500  -999.2500  -999.2500  -999.2500  -999.2500     1.6890  -999.2500 
  216.0000  -999.2500  -999.2500  -999.2500  -999.2500  -999.2500  -999.2500  -999.2500 
