~V
VERS. 2.00: Ver 2.00
~W
STRT.M 50.0000:
STOP.M 294.0000:
STEP.M 0.1250:
NULL. -999.2500:
UWI. F10104:
~C
DEPT.M :
GR.API :
RML.OHMM :
RI. :
RXO.OHMM :
CALI.CM :
DEN.GM/CC :
SP.MV :
~A
# ...
  252.5000    85.2440    11.1940    11.2690    13.6070    23.0920     2.3040   -10.9230 
  252.6250    86.0770    10.7960    10.9650    11.7790    23.0600     2.3010   -11.0350 
  252.7500    86.4880    10.3600    10.5530    11.0450    23.0300     2.3010   -11.1810 
  252.8750    86.7320    10.0270    10.1490    10.2740    23.0200     2.3060   -11.3310 
  253.0000    87.0620     9.9670     9.9230    10.0340    23.0220     2.3120   -11.5170 
  253.1250    87.0600    10.4390    10.1160    10.6840    23.0190     2.3180   -11.7360 
  253.2500    85.2140    11.6200    10.8850    11.6240    23.0120     2.3190   -11.9980 
  253.3750    83.2720    13.9710    12.7120    12.2990    23.0110     2.3180   -12.2770 
  253.5000    82.7780    18.3240    16.9980    13.2450    23.0140     2.3140   -12.6060 
  253.6250    81.1440    28.2710    26.9830    18.2740    23.0160     2.3120   -12.9790 
  253.7500    74.3670    49.8480    42.1370    32.2570    23.0180     2.3110   -13.3670 
  253.8750    66.4410    82.7780    66.1060    53.3060    23.0210     2.2990   -13.7730 
  254.0000    63.5380   117.4230    93.8890    64.1570    23.0220     2.2670   -14.1830 
  254.1250    63.6620   124.9450   101.0320    60.0050    23.0180     2.2290   -14.5650 
  254.2500    62.8700   106.2000    87.6580    59.4380    23.0160     2.2050   -14.9220 
  254.3750    62.8220    82.4480    71.9990    56.8050    23.0160     2.1960   -15.2520 
  254.5000    65.7620    66.8270    62.4380    49.7160    23.0170     2.1960   -15.5400 
  254.6250    68.2140    61.1670    59.3110    44.2840    23.0180     2.1950   -15.7930 
  254.7500    67.7720    60.1540    59.5510    41.8700    23.0190     2.1920   -15.9890 
  254.8750    67.2590    61.0990    61.8030    40.7890    23.0170     2.1870   -16.1440 
  255.0000    69.9350    64.2230    65.1730    40.3910    23.0160     2.1830   -16.2430 
  255.1250    72.2860    66.5180    69.2890    41.1710    23.0160     2.1810   -16.3260 
  255.2500    71.2430    72.6490    74.0550    45.0410    23.0160     2.1810   -16.3730 
  255.3750    68.5270    78.4350    79.3910    49.3230    23.0160     2.1800   -16.4100 
  255.5000    66.1680    84.6630    84.4200    50.5430    23.0160     2.1770   -16.4290 
  255.6250    65.3450    86.9700    86.6440    50.3020    23.0220     2.1710   -16.4050 
  255.7500    64.6810    85.9730    84.8620    50.5430    23.0820     2.1680   -16.3780 
  255.8750    64.1690    82.4460    79.6480    49.6640    23.3280     2.1680   -16.3370 
  256.0000    65.6660    76.9620    72.9240    48.2690    23.7570     2.1700   -16.3020 
  256.1250    70.1180    71.0970    66.8910    46.0280    23.9900     2.1710   -16.2590 
  256.2500    74.3550    66.3030    62.7220    45.1190    23.7560     2.1700   -16.2270 
  256.3750    75.7830    63.6920    60.9590    47.6790    23.4850     2.1660   -16.1730 
  256.5000    75.5990    63.8880    61.7940    50.1220    23.3570     2.1580   -16.1340 
  256.6250    76.4550    67.4210    65.3640    51.3030    23.5510     2.1470   -16.0930 
  256.7500    76.8670    73.0320    70.4390    56.6110    24.6450     2.1370   -16.0640 
  256.8750    76.3320    79.1830    75.5850    72.3760    26.5560     2.1360   -16.0450 
  257.0000    77.1700    83.7110    78.7760    89.2930    26.4190     2.1450   -16.0320 
  257.1250    79.4490    83.7420    77.3170    77.3180    25.2410     2.1510   -16.0280 
  257.2500    79.7920    79.3490    71.8220    61.0180    24.6020     2.1450   -16.0330 
  257.3750    77.1550    72.0140    64.3370    48.7690    25.8090     2.1310   -16.0560 
  257.5000    73.9580    64.3400    57.5750    38.7030    27.4170     2.1240   -16.0640 
  257.6250    73.9860    59.6360    54.3520    33.5840    28.2530     2.1260   -16.0980 
  257.7500    75.1160    59.4690    55.4390    34.1480    28.6510     2.1240   -16.1260 
  257.8750    76.0380    64.6210    61.3790    41.2910    28.1280     2.1110   -16.1590 
  258.0000    77.4720    74.8130    72.2150    51.5490    26.8120     2.0950   -16.1820 
  258.1250    79.4350    88.3250    86.9870    47.6240    22.5650     2.0920   -16.2060 
  258.2500    80.6480   100.7670   101.0880    42.2040    19.9880     2.0990   -16.1990 
  258.3750    80.7150   109.0780   110.3580    41.3280    18.7480     2.1050   -16.1730 
  258.5000    80.8690   112.7560   113.7000    42.4940    18.0690     2.1060   -16.1230 
  258.6250    81.6460   113.2590   113.2030    40.8410    17.3290     2.1020   -16.0500 
  258.7500    81.6790   112.5660   111.8930    34.6500    16.5450     2.1010   -15.9590 
  258.8750    80.2400   110.8270   110.3710    28.5950    16.1270     2.1030   -15.8590 
  259.0000    77.2920   108.2330   108.9150    26.0640    16.0160     2.1070   -15.7530 
  259.1250    73.5240   108.6520   108.4600    25.0590    16.0540     2.1070   -15.6280 
  259.2500    71.2930   109.9080   109.4090    26.0520    16.2240     2.1020   -15.5370 
  259.3750    70.9420   111.1830   111.4250    29.1200    16.6450     2.0950   -15.4600 
  259.5000    71.3150   113.3340   113.5160    34.3130    17.3850     2.0950   -15.4130 
  259.6250    70.6990   113.3340   114.1260    41.6820    18.5170     2.1080   -15.3710 
  259.7500    69.8430   112.6440   112.6930    52.4430    19.8830     2.1210   -15.3620 
  259.8750    70.0720   110.6210   109.3250    66.5400    21.2680     2.1260   -15.3630 
  260.0000    70.7180   107.4580   104.4850    83.2500    22.3960     2.1200   -15.3790 
  260.1250    70.5960   103.1450    98.3900   101.6850    23.1880     2.1100   -15.4060 
  260.2500    70.4500    97.9150    91.3050   112.8080    23.6740     2.1030   -15.4380 
  260.3750    70.6370    91.4590    83.2160   111.6930    23.9080     2.1060   -15.4780 
  260.5000    70.1090    83.7180    74.4040    96.6360    23.9340     2.1220   -15.5330 
  260.6250    67.5500    75.3280    65.7630    68.4130    23.8230     2.1530   -15.5990 
  260.7500    65.2460    67.6560    58.3600    47.3860    23.7300     2.1860   -15.6740 
  260.8750    65.3600    61.7620    52.9910    39.6540    23.8780     2.2070   -15.7640 
  261.0000    67.5590    58.2930    50.0910    43.0130    24.3190     2.2120   -15.8530 
  261.1250    69.6480    57.8540    50.0490    51.4450    24.7910     2.2050   -15.9320 
  261.2500    70.2530    59.6840    51.9780    58.8480    25.0220     2.1940   -15.9730 
  261.3750    70.9940    63.0410    55.0650    68.4440    25.0790     2.1850   -15.9900 
  261.5000    73.3400    66.7690    58.1770    82.3120    25.0620     2.1790   -15.9520 
  261.6250    75.9660    69.0860    59.6850    85.3620    24.9810     2.1750   -15.8670 
  261.7500    76.4420    69.1380    59.1230    72.4080    24.8530     2.1720   -15.7060 
  261.8750    73.7550    67.1480    57.0290    60.6150    24.7600     2.1710   -15.4990 
  262.0000    70.6230    64.2380    54.5770    56.4390    24.7230     2.1730   -15.2520 
  262.1250    71.6050    61.8810    52.9530    59.8980    24.7150     2.1750   -14.9960 
  262.2500    75.5630    60.6220    52.2750    62.6830    24.7130     2.1740   -14.7280 
  262.3750    79.1330    60.2540    52.1680    59.6890    24.7120     2.1680   -14.4600 
  262.5000    79.1510    60.3120    52.1820    53.8180    24.7120     2.1550   -14.1860 
  262.6250    76.2730    60.5440    52.1760    50.1830    24.7130     2.1360   -13.8970 
  262.7500    74.3190    61.0800    52.4190    48.4030    24.7210     2.1120   -13.6170 
  262.8750    74.2280    62.1910    53.1950    49.4390    24.7540     2.0830   -13.3360 
  263.0000    75.7130    63.9600    54.5570    54.6380    24.8210     2.0600   -13.0590 
  263.1250    78.8820    66.1210    56.2400    61.4530    24.8510     2.0570   -12.7670 
  263.2500    83.0660    67.9780    57.6570    65.3080    24.8340     2.0660   -12.5080 
  263.3750    86.2430    68.9020    58.3020    66.6790    24.7540     2.0660   -12.2490 
  263.5000    86.1440    68.4500    57.8240    66.3670    24.6370     2.0430   -12.0300 
  263.6250    83.7040    66.3310    55.9780    65.9440    24.5780     2.0110   -11.8320 
