~V
VERS. 2.00: Ver 2.00
~W
STRT.M 55.0000:
STOP.M 248.0000:
STEP.M 0.1250:
NULL. -999.2500:
UWI. F10184:
~C
DEPT.M :
SP.MV :
GR.API :
RML.OHMM :
RI. :
RXO.OHMM :
CALI.CM :
DEN.GM/CC :
~A
# ...
  212.5000   -13.8480    62.5460    53.8250    48.8720    50.9000    24.0600     2.2060 
  212.6250   -13.7770    62.5650    61.3200    55.5830    54.4160    24.1180     2.1930 
  212.7500   -13.7600    63.4010    70.5870    64.3560    59.5750    24.1400     2.1830 
  212.8750   -13.7930    63.7740    79.8760    73.5000    63.4460    24.1430     2.1780 
  213.0000   -13.7390    64.9470    86.7490    80.6190    70.2420    24.1420     2.1800 
  213.1250   -13.7690    66.0510    87.8200    82.4450    72.6410    24.1280     2.1840 
  213.2500   -13.7940    65.3470    83.3420    78.9640    70.1400    24.1070     2.1870 
  213.3750   -13.6760    63.9350    75.1100    71.5820    63.8490    24.0910     2.1920 
  213.5000   -13.5980    64.8800    65.7310    62.6750    57.8610    24.0920     2.1980 
  213.6250   -13.6350    67.8260    57.4700    54.5360    52.6190    24.0920     2.2070 
  213.7500   -13.5830    67.9180    50.9730    48.0120    49.1280    24.0640     2.2190 
  213.8750   -13.5130    66.4810    46.3360    43.2550    46.4350    24.0630     2.2310 
  214.0000   -13.5130    66.5620    43.5660    40.2640    44.4000    24.1860     2.2380 
  214.1250   -13.4060    70.3440    43.0380    39.3720    41.2470    24.2670     2.2410 
  214.2500   -13.2940    72.8400    44.3690    40.2730    39.1390    24.3070     2.2450 
  214.3750   -13.2810    69.7800    47.2190    42.7790    42.2510    24.3130     2.2550 
  214.5000   -13.2630    62.9170    50.9110    46.3600    55.1810    24.2840     2.2730 
  214.6250   -13.1030    58.7660    54.3710    50.0320    69.1090    24.2200     2.3040 
  214.7500   -12.9730    58.8810    56.8690    52.8440    64.1360    24.1290     2.3400 
  214.8750   -12.8760    60.7880    58.6040    54.6420    49.6500    24.0740     2.3630 
  215.0000   -12.6590    62.3540    60.5380    56.1270    37.3430    24.0660     2.3590 
  215.1250   -12.4990    62.5520    62.9760    57.9130    34.0580    24.1420     2.3540 
  215.2500   -12.3480    62.3190    63.1360    58.0340    41.0090    24.1780     2.3850 
  215.3750   -12.0780    63.8740    56.9180    52.7880    48.7750    24.1360     2.4490 
  215.5000   -11.7680    66.6580    43.3010    40.8670    38.4980    24.0950     2.5210 
  215.6250   -11.6110    68.7940    27.7220    26.9350    32.0170    24.0880     2.5530 
  215.7500   -11.4780    71.3410    16.1750    16.3970    20.6360    24.0300     2.5280 
  215.8750   -11.3320    75.7050     9.4470     9.9870    10.2190    23.8460     2.4600 
  216.0000   -11.3650    80.1120     6.2240     6.6610     5.9190    23.6640     2.3870 
  216.1250   -11.4250    83.2250     5.1640     5.3560     5.7050    23.7320     2.3430 
  216.2500   -11.5240    85.0550     4.9810     4.9380     6.9320    24.0060     2.3180 
  216.3750   -11.7930    84.4440     5.2850     5.0730     7.9800    24.2600     2.2970 
  216.5000   -12.1530    81.9400     5.8080     5.5310     8.2320    24.3660     2.2830 
  216.6250   -12.4580    81.3270     6.2840     6.0580     8.1330    24.4000     2.2930 
  216.7500   -12.7540    84.2580     6.5650     6.4340     8.3670    24.4160     2.3180 
  216.8750   -13.1140    88.6380     6.6490     6.6020     8.8230    24.4210     2.3430 
  217.0000   -13.3800    92.1220     6.6050     6.6010     8.8180    24.3940     2.3610 
  217.1250   -13.6120    92.6440     6.5040     6.4950     8.6040    24.3810     2.3760 
  217.2500   -13.9050    90.9060     6.4120     6.3570     8.5660    24.4140     2.3840 
  217.3750   -14.1660    90.8310     6.3800     6.2240     8.5530    24.4710     2.3860 
  217.5000   -14.3450    93.3310     6.4620     6.1400     8.2170    24.5310     2.3830 
  217.6250   -14.5110    95.7040     6.7520     6.1880     8.0940    24.5120     2.3770 
  217.7500   -14.7540    93.8660     7.2710     6.4200     9.5090    24.4790     2.3640 
  217.8750   -14.9460    87.7500     8.0520     6.8840    12.1150    24.4480     2.3460 
  218.0000   -15.1380    80.0470     9.0960     7.6000    14.8850    24.4260     2.3300 
  218.1250   -15.3820    74.0060    10.3690    10.0700    16.0820    24.4180     2.3270 
  218.2500   -15.5080    72.3800    11.6860    11.2950    16.3840    24.4390     2.3330 
  218.3750   -15.5320    74.9120    12.8810    12.4440    16.5520    24.4530     2.3420 
  218.5000   -15.5660    78.5000    13.8250    13.3680    17.1940    24.4430     2.3490 
  218.6250   -15.6210    79.2790    14.4400    13.9540    17.9040    24.4440     2.3550 
  218.7500   -15.5350    79.1950    14.8450    14.2930    18.0880    24.4690     2.3580 
  218.8750   -15.4220    80.1370    15.1300    14.4780    18.2130    24.4920     2.3600 
  219.0000   -15.2850    80.6420    15.3590    14.5920    18.6790    24.4880     2.3630 
  219.1250   -14.9850    77.9070    15.5630    14.6880    18.8070    24.4580     2.3690 
  219.2500   -14.7110    73.9820    15.7620    14.7980    18.9200    24.4460     2.3730 
  219.3750   -14.4890    73.6710    15.9590    14.9230    19.2440    24.4470     2.3720 
  219.5000   -14.2600    77.1500    16.1520    15.0490    19.3910    24.4480     2.3650 
  219.6250   -13.8950    80.0720    16.3160    15.1620    19.3650    24.4430     2.3540 
  219.7500   -13.5150    81.0610    16.4290    15.2470    19.1670    24.4280     2.3440 
  219.8750   -13.1490    80.4770    16.4720    15.2840    19.2450    24.3960     2.3380 
  220.0000   -12.7280    80.0900    16.4410    15.2530    19.4400    24.3520     2.3330 
  220.1250   -12.2950    79.7540    16.3510    15.1490    19.1130    24.3010     2.3280 
  220.2500   -11.8580    80.2230    16.2570    15.0190    18.4520    24.2790     2.3270 
  220.3750   -11.4180    80.6950    16.2030    14.9110    17.8950    24.2860     2.3320 
  220.5000   -10.9340    78.6640    16.2110    14.8720    17.6330    24.3160     2.3420 
  220.6250   -10.4530    75.3790    16.3030    14.9440    17.9920    24.3240     2.3600 
  220.7500   -10.0210    72.8200    16.4900    15.1190    18.5060    24.3090     2.3830 
  220.8750    -9.5490    72.0080    16.7960    15.3990    18.8820    24.2870     2.4060 
  221.0000    -9.1030    73.8840    17.2010    15.7590    19.4490    24.2740     2.4230 
  221.1250    -8.8040    76.9740    17.5940    16.1160    19.8360    24.2600     2.4330 
  221.2500    -8.4960    76.5160    17.8240    16.3520    20.6390    24.2290     2.4410 
  221.3750    -8.1280    72.1900    17.7730    16.3760    21.8870    24.1710     2.4520 
  221.5000    -7.7480    70.0770    17.3790    16.1300    22.0000    24.1280     2.4600 
  221.6250    -7.4920    74.3540    16.6210    15.5610    18.6040    24.0940     2.4570 
  221.7500    -7.2810    78.2140    15.6760    14.7940    15.6730    24.0090     2.4440 
  221.8750    -7.0660    77.9590    14.7170    13.9600    14.3540    23.8610     2.4250 
  222.0000    -6.8940    77.3080    13.9170    13.2040    13.4510    23.7860     2.4020 
  222.1250    -6.6970    78.0910    13.4370    12.6830    12.3490    23.8970     2.3720 
  222.2500    -6.4820    77.0900    13.1940    12.3800    11.7910    24.0090     2.3420 
  222.3750    -6.2390    75.5860    13.0280    12.2000    11.9090    23.9790     2.3220 
  222.5000    -6.0150    76.9050    12.7300    11.9760    12.1860    23.8270     2.3190 
  222.6250    -5.8030    80.3970    12.0670    11.4710    11.8500    23.7270     2.3330 
  222.7500    -5.5390    80.2280    11.0840    10.6530    10.5250    23.7260     2.3510 
  222.8750    -5.2660    76.5300     9.9440     9.6280     8.9670    23.7610     2.3660 
  223.0000    -5.0210    75.5250     8.8620     8.5880     7.9010    23.7820     2.3810 
  223.1250    -4.7610    79.5910     8.0530     7.7480     7.3610    23.7910     2.3870 
  223.2500    -4.5020    85.8970     7.5280     7.1550     6.9990    23.7620     2.3800 
  223.3750    -4.2880    90.2450     7.2410     6.7850     6.9630    23.6990     2.3630 
  223.5000    -4.1420    91.1230     7.1010     6.5730     7.1200    23.7380     2.3430 
  223.6250    -3.9880    88.1070     7.0300     6.4640     6.6430    23.9370     2.3250 
