~V
VERS. 2.00: Ver 2.00
~W
STRT.M 50.0000:
STOP.M 211.0000:
STEP.M 0.1250:
NULL. -999.2500:
UWI. F10140:
~C
DEPT.M :
DEN.GM/CC :
GR.API :
RML.OHMM :
RI. :
RXO.OHMM :
CALI.CM :
SP.MV :
~A
# ...
   95.0000     2.1560    71.6840     9.0350     7.5210     8.9410    23.2530   -23.4210 
   95.1250     2.1560    74.9550     9.0710     7.5750     9.0200    22.9730   -23.4380 
   95.2500     2.1570    75.0330     9.0610     7.6200     9.1120    22.6450   -23.4070 
   95.3750     2.1580    74.7790     8.9400     7.6000     9.2380    22.3840   -23.3300 
   95.5000     2.1590    77.5270     8.6530     7.4480     9.3400    22.3180   -23.1680 
   95.6250     2.1620    80.8730     8.1760     7.1040     9.3100    22.4730   -22.8690 
   95.7500     2.1670    81.5470     7.6310     6.6560     8.9730    22.6730   -22.4880 
   95.8750     2.1710    82.5220     7.1500     6.2110     8.0590    22.7660   -22.0910 
   96.0000     2.1740    88.3890     6.8560     5.8800     7.0450    22.6350   -21.7390 
   96.1250     2.1750    95.6840     6.8670     5.7800     6.8180    22.3030   -21.5410 
   96.2500     2.1760    96.8240     7.1150     5.8920     7.6010    22.0280   -21.4930 
   96.3750     2.1770    93.1970     7.5040     6.1770     8.1870    21.9310   -21.6350 
   96.5000     2.1790    88.3000     7.9070     6.5500     8.5590    21.9630   -21.9780 
   96.6250     2.1810    82.7140     8.1650     6.8780     8.9420    22.0600   -22.4980 
   96.7500     2.1800    76.3920     8.2290     7.0630     9.1680    22.1810   -23.0760 
   96.8750     2.1740    72.6300     8.1150     7.0790     9.2410    22.3020   -23.6120 
   97.0000     2.1670    74.2960     7.8970     6.9720     9.2830    22.4110   -24.0570 
   97.1250     2.1620    80.1740     7.6610     6.8090     8.7810    22.4990   -24.3180 
   97.2500     2.1630    85.1680     7.4730     6.6570     8.3070    22.5660   -24.4090 
   97.3750     2.1710    86.5550     7.3590     6.5370     7.9630    22.6060   -24.3250 
   97.5000     2.1820    84.9130     7.3350     6.4690     7.8040    22.6450   -24.0840 
   97.6250     2.1920    81.8840     7.4280     6.4860     8.1220    22.7340   -23.7230 
   97.7500     2.1980    80.0560     7.6140     6.5930     8.4200    22.8730   -23.3320 
   97.8750     2.1980    81.2350     7.8520     6.7770     8.4140    23.0490   -22.9870 
   98.0000     2.1930    85.6970     8.0610     6.9850     9.5040    23.2640   -22.6690 
   98.1250     2.1860    88.6430     8.1150     7.1070    13.2830    23.5490   -22.3650 
   98.2500     2.1790    86.0420     7.9870     7.0750    15.3490    23.8710   -22.0810 
   98.3750     2.1720    81.3210     7.7290     6.8970    12.1670    24.1750   -21.8330 
   98.5000     2.1670    78.3000     7.4790     6.6630     9.0050    24.4170   -21.6300 
   98.6250     2.1620    78.2170     7.4540     6.5430     7.7920    24.5660   -21.4640 
   98.7500     2.1600    78.1340     7.8040     6.6680     7.8720    24.7190   -21.3190 
   98.8750     2.1630    77.4600     8.6190     7.1220     8.8740    24.9890   -21.1790 
   99.0000     2.1740    77.9670     9.8160     7.9280    10.0160    25.3600   -21.0830 
   99.1250     2.1960    79.3510    11.0950     9.0310    11.6060    25.6990   -21.0830 
   99.2500     2.2220    80.6230    12.0800    10.1350    14.5080    25.8250   -21.1850 
   99.3750     2.2440    78.8790    12.5510    10.9270    18.0240    25.5690   -21.3800 
   99.5000     2.2560    74.6250    12.4230    11.1580    19.0130    24.8830   -21.6710 
   99.6250     2.2520    71.7760    11.7060    10.7210    15.5740    23.9320   -22.0860 
   99.7500     2.2400    72.5700    10.7530     9.9410    12.3310    23.1110   -22.5770 
   99.8750     2.2240    75.6590     9.8130     9.0740    10.5860    22.6360   -23.1130 
  100.0000     2.2110    78.9870     9.0630     8.3080     9.9700    22.4590   -23.6530 
  100.1250     2.2040    81.2270     8.6160     7.7750     9.9150    22.4500   -24.1610 
  100.2500     2.2030    81.2300     8.4100     7.4590     9.8430    22.4960   -24.6480 
  100.3750     2.2050    80.9760     8.3830     7.3330     9.7670    22.5770   -25.1400 
  100.5000     2.2070    81.4180     8.4640     7.3490     9.9290    22.6870   -25.6290 
  100.6250     2.2070    79.5240     8.5830     7.4550    10.1320    22.8490   -26.0780 
  100.7500     2.2070    76.7250     8.6820     7.5820    10.2170    23.0570   -26.5040 
  100.8750     2.2080    76.3750     8.7380     7.6950    10.1980    23.3010   -26.8780 
  101.0000     2.2120    79.7370     8.7490     7.7770     9.9990    23.5530   -27.1810 
  101.1250     2.2180    82.2990     8.7130     7.8180     9.6020    23.7790   -27.3860 
  101.2500     2.2230    81.7620     8.6410     7.8230     9.1620    24.0100   -27.4710 
  101.3750     2.2250    80.4820     8.5270     7.7790     8.9840    24.2730   -27.3920 
  101.5000     2.2260    79.3630     8.3610     7.6660     9.1930    24.5800   -27.1330 
  101.6250     2.2270    79.1600     8.1330     7.4660     9.4800    24.9510   -26.6920 
  101.7500     2.2250    80.6200     7.8800     7.2120     9.4480    25.3470   -26.1280 
  101.8750     2.2160    83.2360     7.6480     6.9510     9.0400    25.6670   -25.5130 
  102.0000     2.2010    85.3270     7.4860     6.7340     8.4540    25.7850   -24.9520 
  102.1250     2.1850    85.6070     7.4530     6.6190     8.3460    25.6400   -24.5370 
  102.2500     2.1790    85.9010     7.5350     6.6130     8.4540    25.4640   -24.2410 
  102.3750     2.1840    85.8500     7.7090     6.7140     8.5210    25.4000   -24.0690 
  102.5000     2.1990    84.9870     7.9360     6.8970     8.5560    25.4620   -24.0430 
  102.6250     2.2130    83.7080     8.1570     7.1220     8.6440    25.5370   -24.1610 
  102.7500     2.2160    82.4890     8.3260     7.3290     9.4340    25.5150   -24.3740 
  102.8750     2.2070    79.5140     8.4210     7.4850    11.2710    25.3300   -24.6850 
  103.0000     2.1920    76.1130     8.4440     7.5750    13.3990    24.9490   -25.0610 
  103.1250     2.1810    77.5380     8.4200     7.6010    11.4880    24.4910   -25.4360 
  103.2500     2.1780    83.1420     8.3960     7.6000    10.3200    24.1670   -25.8100 
  103.3750     2.1820    87.5560     8.3980     7.5960    10.0550    24.0600   -26.2000 
  103.5000     2.1850    84.8690     8.4350     7.6060    10.0310    24.0460   -26.6000 
  103.6250     2.1850    78.7380     8.4950     7.6360     9.7880    23.9460   -27.0520 
  103.7500     2.1830    77.6000     8.5510     7.6710     9.5250    23.7740   -27.5390 
  103.8750     2.1830    80.1000     8.5810     7.7000     9.7500    23.6150   -28.0060 
  104.0000     2.1850    80.5610     8.5720     7.7080    10.1210    23.5180   -28.4040 
  104.1250     2.1900    77.7790     8.5160     7.6800    10.4570    23.4780   -28.7170 
  104.2500     2.1920    78.3470     8.4290     7.6170    10.5090    23.4940   -28.9540 
  104.3750     2.1920    82.8350     8.3310     7.5270    10.4780    23.5970   -29.1150 
  104.5000     2.1900    85.7590     8.2470     7.4330    10.3540    23.8030   -29.2040 
  104.6250     2.1880    83.7870     8.2110     7.3710    10.1300    24.0760   -29.2110 
  104.7500     2.1860    80.6840     8.2280     7.3610    10.0310    24.3120   -29.1700 
  104.8750     2.1830    79.0640     8.2850     7.4020    10.1280    24.4040   -29.1190 
  105.0000     2.1820    79.3840     8.3580     7.4760    10.3810    24.2740   -29.0880 
  105.1250     2.1870    78.5380     8.4140     7.5530    10.5250    23.9680   -29.1240 
  105.2500     2.1990    77.6310     8.4420     7.6100    10.5390    23.7050   -29.2070 
  105.3750     2.2130    78.0800     8.4480     7.6470    10.4850    23.5870   -29.3010 
  105.5000     2.2260    78.9880     8.4470     7.6740    10.5110    23.5650   -29.3820 
  105.6250     2.2330    78.6570     8.4560     7.7070    10.5410    23.5580   -29.3990 
  105.7500     2.2380    77.7020     8.4720     7.7480    10.7190    23.5450   -29.3650 
  105.8750     2.2390    76.7320     8.4840     7.7880    10.9490    23.5330   -29.2740 
  106.0000     2.2370    76.1950     8.4770     7.8110    11.0690    23.5280   -29.1150 
  106.1250     2.2320    77.3320     8.4490     7.8050    10.8230    23.5520   -28.8620 
