~V
VERS. 2.00: Ver 2.00
~W
STRT.M 49.0000:
STOP.M 245.0000:
STEP.M 0.1250:
NULL. -999.2500:
UWI. F10179:
~C
DEPT.M :
DEN.GM/CC :
GR.API :
RML.OHMM :
RI. :
RXO.OHMM :
CALI.CM :
SP.MV :
~A
# ...
  127.7500     2.3200    91.7840     6.2410     5.6240     5.2350    23.5170   -21.6600 
  127.8750     2.2720    88.1320     6.5240     5.7140     6.1330    23.3170   -21.7860 
  128.0000     2.2430    83.6510     7.3000     6.1960     7.6950    23.1200   -21.9240 
  128.1250     2.2380    80.2910     8.2740     6.9200     8.9040    23.0160   -22.0160 
  128.2500     2.2540    78.8330     9.0780     7.6310     8.5150    23.0520   -22.0600 
  128.3750     2.2830    79.0020     9.2630     7.9330     7.8160    23.3040   -22.1080 
  128.5000     2.3090    79.5740     8.8250     7.7140     6.9940    23.5540   -22.1650 
  128.6250     2.3280    81.8710     7.9730     7.0990     6.1780    23.5930   -22.1990 
  128.7500     2.3370    84.9610     7.0330     6.3500     5.2750    23.4580   -22.1780 
  128.8750     2.3330    86.5020     6.3330     5.7370     4.9210    23.3600   -22.0600 
  129.0000     2.3240    86.7700     5.9410     5.3460     4.8070    23.3610   -21.8930 
  129.1250     2.3150    87.1660     5.8060     5.1600     4.9160    23.4950   -21.7070 
  129.2500     2.3050    88.0230     5.8050     5.1100     5.1410    23.7760   -21.5400 
  129.3750     2.2960    87.6330     5.8390     5.1270     5.5750    24.1270   -21.4020 
  129.5000     2.2970    83.9360     5.9490     5.2050     5.7960    24.3260   -21.2570 
  129.6250     2.3120    80.2370     6.3120     5.4380     5.7850    24.4400   -21.0670 
  129.7500     2.3370    80.3640     7.1190     5.9490     5.7570    24.5280   -20.8830 
  129.8750     2.3750    80.3580     8.5140     6.8860     6.6550    24.5740   -20.8180 
  130.0000     2.4280    76.3600    10.1890     8.1190     9.8720    24.5140   -20.8600 
  130.1250     2.4800    72.5430    11.6890     9.3740    15.6510    24.4300   -20.9610 
  130.2500     2.4880    73.5340    12.4910    10.2340    19.0810    24.4570   -21.1300 
  130.3750     2.4130    76.2550    12.2050    10.2740    15.3720    24.6280   -21.3090 
  130.5000     2.3120    74.7530    11.3310     9.7640    11.3800    24.8340   -21.5060 
  130.6250     2.2350    69.4150    10.4040     9.0800     9.3360    24.9950   -21.7910 
  130.7500     2.1920    63.2710     9.7880     8.5200     9.2400    25.4330   -22.1390 
  130.8750     2.1630    59.6700     9.6090     8.2400     9.5450    26.4690   -22.4510 
  131.0000     2.1340    58.2330     9.6220     8.1420     9.7100    27.6650   -22.6930 
  131.1250     2.1090    59.4560     9.6310     8.1120     9.5480    28.5590   -22.8840 
  131.2500     2.0930    62.9020     9.5210     8.0620     9.2500    29.1210   -23.0330 
  131.3750     2.0900    65.5680     9.2910     7.9730     8.9970    29.0950   -23.1980 
  131.5000     2.1020    64.3630     9.0650     7.9070     8.7650    28.3050   -23.3390 
  131.6250     2.1240    60.8860     8.9440     7.9200     8.4970    27.2860   -23.3980 
  131.7500     2.1480    59.3940     8.9980     8.0460     8.5520    26.5370   -23.3770 
  131.8750     2.1570    63.1360     9.2770     8.3220     9.1130    26.3730   -23.3030 
  132.0000     2.1520    67.0860     9.7090     8.7080     9.6700    26.3320   -23.2080 
  132.1250     2.1430    66.9690    10.2150     9.1530     9.8690    26.1610   -23.0940 
  132.2500     2.1480    63.4900    10.6730     9.5610     9.7210    25.8020   -22.9650 
  132.3750     2.1800    63.1250    10.8340     9.7210     9.3950    25.3340   -22.7670 
  132.5000     2.2180    66.5000    10.5360     9.4920     9.1580    24.8060   -22.5020 
  132.6250     2.2390    69.4830     9.7280     8.8340     9.1860    24.1300   -22.1820 
  132.7500     2.2390    68.5550     8.5610     7.8800     9.1310    23.6000   -21.8010 
  132.8750     2.2430    69.1490     7.4080     6.9180     7.7820    23.3530   -21.3900 
  133.0000     2.2640    74.7380     6.6290     6.2110     6.1540    23.1310   -21.0150 
  133.1250     2.2960    80.8260     6.4120     5.8950     5.0860    22.8850   -20.7050 
  133.2500     2.3310    82.8050     6.8110     6.0260     5.3410    22.7110   -20.4180 
  133.3750     2.3510    81.8940     7.8530     6.6690     7.1080    22.7330   -20.2040 
  133.5000     2.3460    80.5180     9.2990     7.6910     9.5020    22.9370   -20.0870 
  133.6250     2.3250    78.4280    10.9710     8.9880    11.0720    23.2390   -20.0710 
  133.7500     2.3130    76.0550    12.7010    10.4270    11.6470    23.4580   -20.1710 
  133.8750     2.3340    73.5030    14.4200    11.9040    11.8820    23.5250   -20.3480 
  134.0000     2.3810    68.2400    16.1600    13.3990    12.8200    23.5000   -20.4830 
  134.1250     2.4410    63.1230    17.8490    14.8820    14.5360    23.4520   -20.5400 
  134.2500     2.4990    61.0700    19.2030    16.1710    16.8580    23.4820   -20.5580 
  134.3750     2.5390    58.3830    19.6820    16.8320    16.8790    23.5600   -20.5190 
  134.5000     2.5590    52.9000    19.2770    16.7630    17.0690    23.5750   -20.4580 
  134.6250     2.5630    48.5810    18.2810    16.1240    16.3480    23.5310   -20.3980 
  134.7500     2.5590    47.0530    17.2250    15.2980    14.0060    23.5260   -20.3100 
  134.8750     2.5470    47.7050    16.7020    14.7470    12.8020    23.5120   -20.1730 
  135.0000     2.5340    50.3110    16.8040    14.6390    13.2760    23.3720   -20.0790 
  135.1250     2.5260    54.3840    17.3980    14.9550    14.8540    23.2280   -20.0720 
  135.2500     2.5210    57.9280    18.2150    15.5580    16.5040    23.1570   -20.1540 
  135.3750     2.5130    58.5600    18.8820    16.2010    17.5270    23.2050   -20.3350 
  135.5000     2.5030    57.2370    19.1460    16.6160    16.7710    23.2430   -20.5430 
  135.6250     2.4980    56.4220    18.9510    16.6770    15.6450    23.2880   -20.7280 
  135.7500     2.4970    57.1500    18.4070    16.4040    14.2930    23.2550   -20.9070 
  135.8750     2.5020    57.3570    17.6880    15.9020    13.5420    23.1330   -21.1630 
  136.0000     2.5120    57.1960    16.9970    15.3610    13.0650    23.0510   -21.4490 
  136.1250     2.5230    58.5630    16.4370    14.8800    12.9720    23.1300   -21.7530 
  136.2500     2.5300    62.3200    16.0560    14.5200    12.6240    23.3430   -22.0510 
  136.3750     2.5260    66.8000    15.8830    14.3320    12.4460    23.5740   -22.3130 
  136.5000     2.5170    70.1700    15.8590    14.2930    12.3780    23.5940   -22.5710 
  136.6250     2.5070    69.6000    15.9560    14.3960    12.8050    23.4660   -22.8710 
  136.7500     2.4990    63.4510    16.1650    14.6290    13.3060    23.4010   -23.2250 
  136.8750     2.4950    56.9220    16.4890    14.9830    13.1040    23.4060   -23.6150 
  137.0000     2.4940    53.5310    16.8230    15.3520    13.4390    23.4120   -24.0170 
  137.1250     2.4950    53.1920    17.0090    15.5960    14.0620    23.4500   -24.4010 
  137.2500     2.4950    53.7860    16.8900    15.5700    14.6700    23.6750   -24.7540 
  137.3750     2.4970    54.7740    16.3480    15.1560    15.5430    23.9270   -25.1590 
  137.5000     2.4980    55.8430    15.5730    14.5100    15.1700    24.0430   -25.6190 
  137.6250     2.4940    57.3940    14.8130    13.8360    13.1320    23.9540   -26.1110 
  137.7500     2.4880    60.5410    14.3260    13.3420    11.4810    23.8100   -26.5990 
  137.8750     2.4840    62.6390    14.3050    13.1960    11.6870    23.7030   -27.0780 
  138.0000     2.4830    62.5380    14.6070    13.3300    12.5930    23.5330   -27.5440 
  138.1250     2.4810    60.1370    15.0370    13.6340    13.3350    23.3140   -27.9780 
  138.2500     2.4780    57.3640    15.3790    13.9490    13.4480    23.2650   -28.3840 
  138.3750     2.4750    55.1590    15.5030    14.1250    12.8150    23.4950   -28.6920 
  138.5000     2.4740    52.8370    15.5780    14.2180    12.3380    23.6540   -28.8980 
  138.6250     2.4740    51.8150    15.8440    14.3880    11.5950    23.6240   -29.0180 
  138.7500     2.4790    50.8910    16.4760    14.7980    11.7260    23.5120   -29.0400 
  138.8750     2.4940    48.2080    17.4980    15.5310    12.6560    23.5100   -28.9290 
