~V
VERS. 2.00: Ver 2.00
~W
STRT.M 50.0000:
STOP.M 200.0000:
STEP.M 0.1250:
NULL. -999.2500:
UWI. F10131:
~C
DEPT.M :
GR.API :
RML.OHMM :
RI. :
RXO.OHMM :
CALI.CM :
SP.MV :
DEN.GM/CC :
~A
# ...
  151.2500    85.2240    57.4620    52.3160    40.1220    22.1340   -14.2100     2.2870 
  151.3750    84.0720    62.6010    57.2370    40.1370    22.0500   -14.3590     2.2860 
  151.5000    82.2670    66.4880    61.2400    33.3020    21.8940   -14.5030     2.2850 
  151.6250    80.7120    68.8910    63.5810    25.3550    21.6370   -14.5350     2.2740 
  151.7500    78.2610    71.3180    65.4250    20.0050    21.4060   -14.4970     2.2510 
  151.8750    75.2250    75.2560    68.2270    18.5930    21.2740   -14.4220     2.2200 
  152.0000    75.8230    81.6010    73.0970    20.3050    21.1960   -14.3440     2.1920 
  152.1250    79.2260    90.3360    80.4220    21.9520    21.0170   -14.3380     2.1790 
  152.2500    79.2520    99.3470    88.4790    24.8480    20.8770   -14.3500     2.1770 
  152.3750    77.3120   106.2670    95.1440    31.2180    21.0290   -14.2850     2.1820 
  152.5000    76.3900   108.8860    98.2500    39.1020    21.5050   -14.1430     2.1890 
  152.6250    77.4680   105.4540    95.8490    45.3490    21.9290   -14.0280     2.1980 
  152.7500    77.2420    98.1540    89.5850    47.8330    22.2000   -14.0020     2.2110 
  152.8750    76.9730    89.3500    81.4720    48.2580    22.4490   -14.0450     2.2270 
  153.0000    77.9230    81.2850    73.6130    45.7720    22.7240   -14.0880     2.2380 
  153.1250    78.5850    75.7520    67.8240    44.1450    23.0580   -14.0210     2.2400 
  153.2500    79.0040    72.6260    64.2250    47.5260    23.3520   -13.9200     2.2350 
  153.3750    78.3370    71.5040    62.5370    45.4840    23.3210   -13.9020     2.2270 
  153.5000    77.7460    71.8640    62.3170    42.9590    22.9290   -13.9410     2.2240 
  153.6250    77.3990    73.3310    63.3050    43.9330    22.5760   -13.9520     2.2300 
  153.7500    75.5000    75.1790    64.9290    43.9180    22.4270   -13.9050     2.2400 
  153.8750    72.1700    76.6960    66.6680    47.1400    22.4810   -13.8480     2.2520 
  154.0000    69.9590    76.9350    67.7200    59.3750    22.6420   -13.8440     2.2630 
  154.1250    70.5890    74.5610    66.7720    64.9470    22.8130   -13.9140     2.2700 
  154.2500    70.8480    69.7940    63.6060    57.3400    22.7780   -13.9750     2.2730 
  154.3750    71.4520    63.4760    58.6660    45.6270    22.5000   -14.0090     2.2720 
  154.5000    75.8130    56.9390    53.0140    34.9180    22.2160   -14.1240     2.2660 
  154.6250    81.5910    51.5490    47.9400    27.5240    22.1600   -14.3440     2.2590 
  154.7500    83.7440    47.4860    43.9220    24.5330    22.2010   -14.5300     2.2550 
  154.8750    81.7060    44.4000    40.8110    25.4030    22.1920   -14.6250     2.2560 
  155.0000    79.0710    41.7690    38.1770    26.0110    22.1040   -14.6620     2.2620 
  155.1250    79.0970    39.2970    35.6830    23.8750    22.0010   -14.7010     2.2790 
  155.2500    78.6540    37.1660    33.3620    22.3280    21.9640   -14.7290     2.3050 
  155.3750    78.1050    35.9550    31.6120    22.0900    22.0040   -14.6740     2.3350 
  155.5000    78.9420    36.4150    31.0010    22.0390    21.9610   -14.5030     2.3570 
  155.6250    80.9350    39.8230    32.5480    22.4510    21.7760   -14.2800     2.3530 
  155.7500    81.9380    46.6590    36.6530    25.6620    21.6620   -14.0910     2.3210 
  155.8750    81.4940    56.0690    43.8300    31.2400    21.9400   -13.8970     2.2680 
  156.0000    81.5580    66.3300    54.2300    36.2670    22.6120   -13.6610     2.2110 
  156.1250    81.2630    77.2610    67.4810    36.6460    23.0480   -13.4840     2.1690 
  156.2500    79.4120    89.5220    81.3040    38.9830    23.0770   -13.3620     2.1480 
  156.3750    77.0460   101.9740    93.6610    43.3110    22.8110   -13.2350     2.1450 
  156.5000    74.9990   111.9890   103.0390    50.9570    22.4860   -13.1480     2.1580 
  156.6250    72.5660   117.4580   108.3530    62.3190    22.3560   -13.1050     2.1830 
  156.7500    70.7410   119.1750   110.3220    73.1550    22.3420   -13.0380     2.2100 
  156.8750    70.2990   116.7330   108.7830    80.6830    22.3410   -12.9940     2.2330 
  157.0000    70.9360   109.6710   103.2810    82.0760    22.3540   -13.0010     2.2510 
  157.1250    71.1230    98.0170    93.4390    77.9290    22.4150   -12.9600     2.2660 
  157.2500    71.6300    84.9240    81.7180    72.3630    22.4720   -12.8850     2.2830 
  157.3750    74.1770    73.3090    70.6800    66.5250    22.4080   -12.8750     2.2890 
  157.5000    77.8120    65.4400    62.6670    57.6750    22.3000   -12.8980     2.2680 
  157.6250    78.3670    62.9070    59.8130    49.7650    22.3220   -12.8200     2.2040 
  157.7500    75.3420    63.7960    61.0160    48.3820    22.6900   -12.7240     2.1240 
  157.8750    70.6970    65.4110    64.0640    52.5080    23.4840   -12.6780     2.0690 
  158.0000    67.2820    64.2480    65.3010    54.9290    24.2250   -12.6470     2.0750 
  158.1250    66.8660    56.8630    60.2480    62.2400    24.3050   -12.5500     2.1560 
  158.2500    70.5320    45.1860    49.7780    59.2960    23.9250   -12.4610     2.2660 
  158.3750    77.7970    32.6270    37.1320    37.5170    23.5450   -12.4320     2.3660 
  158.5000    84.5790    22.3450    25.9820    17.8180    23.2320   -12.3480     2.4240 
  158.6250    89.4070    16.1210    18.7850    11.2170    23.1150   -12.2490     2.4180 
  158.7500    94.4830    12.6430    14.5700     9.1790    23.2170   -12.1870     2.3650 
  158.8750    99.9670    10.8630    12.3120     8.9350    23.5670   -12.1190     2.2870 
  159.0000   101.8390    10.0150    11.1900     8.8510    24.1400   -12.0190     2.2130 
  159.1250    98.1510     9.6800    10.7340     8.9890    24.4850   -11.9700     2.1820 
  159.2500    94.4820     9.5400    10.5300     8.6810    24.0100   -11.9210     2.1980 
  159.3750    95.1890     9.5370    10.4600     8.3810    23.3370   -11.8450     2.2500 
  159.5000    98.4140     9.7350    10.5400     8.1730    22.9190   -11.7810     2.3170 
  159.6250    98.3980    10.4140    10.9980     8.1430    22.7750   -11.7840     2.3740 
  159.7500    94.1180    11.7760    12.0480    10.7740    22.7520   -11.8080     2.4010 
  159.8750    87.2790    14.0010    13.9330    17.0120    22.8190   -11.8100     2.3890 
  160.0000    80.8880    17.0700    16.7690    27.5420    22.8630   -11.8360     2.3330 
  160.1250    78.5530    20.6370    20.3950    38.4040    23.2220   -11.8600     2.2440 
  160.2500    80.7940    23.8970    23.9340    34.5120    24.4820   -11.9240     2.1530 
  160.3750    83.6480    26.3080    26.6170    23.3010    26.3760   -11.9930     2.0800 
  160.5000    82.5270    27.8300    28.1240    17.1410    27.7240   -12.0680     2.0370 
  160.6250    79.6920    29.1190    28.8630    15.7360    27.7470   -12.1300     2.0290 
  160.7500    78.7480    31.1870    29.9780    17.4360    26.6980   -12.1930     2.0480 
  160.8750    79.2940    34.6110    32.2610    19.5980    25.2340   -12.3010     2.0920 
  161.0000    79.1000    39.4300    36.0350    20.1640    23.9370   -12.4340     2.1540 
  161.1250    79.6330    45.0380    41.0480    20.9870    23.1300   -12.5860     2.2190 
  161.2500    82.0910    50.0220    45.9250    21.9200    22.7980   -12.7050     2.2640 
  161.3750    83.3380    53.1700    49.3420    21.5420    22.6730   -12.7920     2.2810 
  161.5000    80.8160    53.7580    50.3670    20.4530    22.5890   -12.8730     2.2710 
  161.6250    76.0920    51.6840    48.6320    20.9390    22.5470   -12.9660     2.2490 
  161.7500    74.6990    48.5590    45.5630    23.1200    22.5070   -13.0530     2.2360 
  161.8750    78.2880    45.7760    42.4310    28.6240    22.4760   -13.1220     2.2400 
  162.0000    83.0800    44.5530    40.3980    31.4330    22.5760   -13.1660     2.2560 
  162.1250    84.0730    46.2370    40.8150    33.5750    22.7870   -13.2230     2.2740 
  162.2500    82.8420    50.9010    44.0280    34.1380    22.9890   -13.3310     2.2830 
  162.3750    83.3140    58.5810    50.3440    35.0800    23.1490   -13.4760     2.2820 
