~V
VERS. 2.00: Ver 2.00
~W
STRT.M 52.0000:
STOP.M 236.0000:
STEP.M 0.1250:
NULL. -999.2500:
UWI. F10181:
~C
DEPT.M :
GR.API :
RML.OHMM :
RI. :
RXO.OHMM :
CALI.CM :
DEN.GM/CC :
SP.MV :
~A
# ...
  209.5000    62.0550    71.0790    63.2250    66.7030    23.8140     2.2400    -8.4080 
  209.6250    60.0910    72.2380    65.1100    70.9980    23.8550     2.2420    -8.3530 
  209.7500    58.2650    71.6620    65.4400    69.6560    23.8650     2.2550    -8.3160 
  209.8750    58.4560    68.0940    62.8140    67.8190    23.8470     2.2870    -8.2610 
  210.0000    60.2830    60.7820    56.3510    66.3790    23.7780     2.3430    -8.1570 
  210.1250    60.4700    49.7680    46.0310    69.5910    23.6910     2.4140    -8.0440 
  210.2500    55.7630    37.7070    34.6900    75.4910    23.6120     2.4770    -8.0230 
  210.3750    48.5850    26.8540    24.6900    55.9390    23.6020     2.5100    -8.0610 
  210.5000    43.8910    18.6170    17.2910    25.2880    23.6850     2.5060    -8.0780 
  210.6250    43.4070    13.5920    12.7960    11.9260    23.7170     2.4730    -8.0580 
  210.7500    45.1560    10.6310    10.0560     8.0490    23.6900     2.4360    -8.1050 
  210.8750    47.7000     9.0210     8.4730     6.5220    23.6480     2.4050    -8.2070 
  211.0000    51.6020     8.2110     7.6240     5.9290    23.6280     2.3820    -8.3210 
  211.1250    56.4620     7.8910     7.2890     5.8220    23.6130     2.3670    -8.4870 
  211.2500    61.8780     7.8100     7.2320     5.8500    23.5930     2.3560    -8.6690 
  211.3750    69.1930     7.9130     7.3880     5.8460    23.5990     2.3510    -8.8410 
  211.5000    77.2200     8.1780     7.7190     5.9310    23.6500     2.3530    -9.0100 
  211.6250    81.1860     8.5830     8.1950     6.5690    23.7420     2.3620    -9.1860 
  211.7500    79.8990     9.0230     8.7060     7.6760    23.7860     2.3710    -9.3460 
  211.8750    77.9270     9.4090     9.1510     8.5250    23.7970     2.3780    -9.4970 
  212.0000    80.2690     9.6720     9.4370     8.9390    23.7900     2.3820    -9.6570 
  212.1250    85.3620     9.7690     9.4850     8.8540    23.7840     2.3830    -9.7590 
  212.2500    91.0330     9.7500     9.3570     8.7370    23.7790     2.3850    -9.8030 
  212.3750    96.0150     9.6420     9.1210     8.6680    23.7770     2.3880    -9.8700 
  212.5000    98.4870     9.4760     8.8470     8.7770    23.7770     2.3930    -9.9800 
  212.6250    96.9610     9.2470     8.5830     8.9350    23.7770     2.3970   -10.0760 
  212.7500    94.0130     8.9720     8.3550     8.9580    23.7770     2.4000   -10.1170 
  212.8750    92.4360     8.7890     8.1920     8.8870    23.7770     2.4010   -10.1770 
  213.0000    92.9110     8.8970     8.1430     8.8460    23.7770     2.3990   -10.2480 
  213.1250    94.1870     9.1690     8.3260     8.9810    23.7770     2.3960   -10.3050 
  213.2500    95.1450     9.8840     8.8010     9.4760    23.7770     2.3930   -10.3610 
  213.3750    93.9030    11.1920     9.6340    10.4600    23.7770     2.3900   -10.3990 
  213.5000    90.8530    12.2610    10.8500    12.2020    23.7770     2.3890   -10.4060 
  213.6250    89.0250    14.1270    12.4440    15.0120    23.7770     2.3870   -10.3970 
  213.7500    89.2780    16.0710    14.2090    18.3840    23.7770     2.3830   -10.4460 
  213.8750    88.5590    17.8850    15.9520    20.9100    23.7770     2.3750   -10.4630 
  214.0000    84.4140    19.4180    17.4950    22.4340    23.7770     2.3650   -10.4490 
  214.1250    79.5560    20.5790    18.6880    23.7100    23.7790     2.3550   -10.4840 
  214.2500    76.3050    21.5240    19.6260    24.9250    23.7960     2.3470   -10.4940 
  214.3750    75.2710    22.4000    20.4330    26.1960    23.8360     2.3420   -10.4910 
  214.5000    74.8400    23.3280    21.2310    26.9610    23.8750     2.3400   -10.4670 
  214.6250    73.3700    24.3590    22.0910    27.6630    23.8900     2.3420   -10.4630 
  214.7500    71.2240    25.3950    22.9740    28.6990    23.8930     2.3460   -10.4180 
  214.8750    69.1050    26.2830    23.7700    30.0580    23.8930     2.3540   -10.3440 
  215.0000    68.7220    26.8370    24.3310    31.2750    23.8690     2.3650   -10.2400 
  215.1250    69.9500    26.8290    24.4490    31.8760    23.7900     2.3770   -10.0570 
  215.2500    72.1870    26.3490    24.1540    31.6150    23.6930     2.3860    -9.8920 
  215.3750    73.7190    25.5790    23.5690    30.5700    23.6430     2.3910    -9.6910 
  215.5000    72.6370    24.8230    22.9320    29.4290    23.6160     2.3920    -9.4950 
  215.6250    69.4230    24.4750    22.5810    28.4450    23.5880     2.3930    -9.2820 
  215.7500    65.3610    24.6500    22.6530    27.5220    23.5640     2.3970    -9.0800 
  215.8750    61.8070    25.2720    23.1310    27.3400    23.5350     2.4070    -8.8920 
  216.0000    60.6540    26.0690    23.8260    28.5960    23.5050     2.4190    -8.7260 
  216.1250    62.1560    26.5410    24.3520    31.6370    23.4750     2.4320    -8.6260 
  216.2500    62.5850    26.3560    24.3760    34.0320    23.4460     2.4400    -8.4970 
  216.3750    61.4920    25.4200    23.7540    33.9810    23.4320     2.4390    -8.3990 
  216.5000    60.5950    23.9220    22.5850    31.1830    23.4370     2.4260    -8.2860 
  216.6250    59.7870    22.2740    21.1800    27.0740    23.4680     2.4040    -8.1960 
  216.7500    60.5650    20.8930    19.9300    23.2720    23.5200     2.3810    -8.0900 
  216.8750    63.7090    19.9220    18.9950    21.1240    23.5540     2.3640    -7.9850 
  217.0000    67.9870    19.3120    18.3720    20.5930    23.5670     2.3580    -7.8890 
  217.1250    69.0120    18.9170    17.9690    20.5490    23.5710     2.3640    -7.7730 
  217.2500    67.5380    18.5450    17.6140    20.5010    23.5680     2.3740    -7.6750 
  217.3750    65.5160    18.1390    17.2370    20.2360    23.5590     2.3820    -7.5770 
  217.5000    62.3760    17.7100    16.8300    19.5650    23.5610     2.3800    -7.4850 
  217.6250    62.4300    17.2850    16.4020    18.6720    23.5730     2.3660    -7.3660 
  217.7500    66.7140    16.8380    15.9390    17.9420    23.5530     2.3460    -7.2170 
  217.8750    70.3140    16.3030    15.3920    17.8050    23.4700     2.3290    -7.0670 
  218.0000    69.1290    15.6380    14.7260    18.4220    23.4360     2.3190    -6.9230 
  218.1250    63.7010    14.8740    13.9640    18.3850    23.5100     2.3200    -6.7490 
  218.2500    59.7690    14.1800    13.2480    16.7370    23.6090     2.3240    -6.5970 
  218.3750    60.3150    13.7320    12.7300    14.8410    23.6700     2.3260    -6.3890 
  218.5000    64.8130    13.6490    12.5270    14.3880    23.6940     2.3260    -6.1720 
  218.6250    67.7910    13.9910    12.7280    15.2330    23.7050     2.3220    -5.9710 
  218.7500    67.9320    14.5810    13.2120    16.2840    23.7240     2.3180    -5.8270 
  218.8750    68.7130    15.2670    13.8650    17.4500    23.7470     2.3130    -5.6930 
  219.0000    71.0680    15.9010    14.5440    18.7230    23.7440     2.3110    -5.5680 
  219.1250    71.3120    16.3080    15.0620    19.3920    23.7270     2.3150    -5.4500 
  219.2500    70.0000    16.3880    15.2840    19.6900    23.7340     2.3270    -5.3260 
  219.3750    70.3740    16.0250    15.0810    20.1650    23.7380     2.3490    -5.2530 
  219.5000    71.8410    15.1370    14.3660    20.3380    23.7140     2.3760    -5.2130 
  219.6250    72.3500    13.7110    13.1060    18.0430    23.6610     2.4000    -5.1610 
  219.7500    71.7480    12.0710    11.6010    14.8020    23.6560     2.4140    -5.0760 
  219.8750    69.4630    10.5190    10.1310    11.7630    23.7010     2.4160    -4.9900 
  220.0000    65.4020     9.3170     8.9370     8.2610    23.8150     2.4110    -4.9010 
  220.1250    62.6990     8.6730     8.2200     7.0250    23.8830     2.4010    -4.8600 
  220.2500    62.3990     8.4560     7.8970     6.6880    23.9370     2.3910    -4.8310 
  220.3750    61.6950     8.5260     7.8730     6.8420    23.9890     2.3800    -4.8200 
  220.5000    59.6290     8.7310     8.0300     7.1320    24.0220     2.3700    -4.8090 
  220.6250    59.3080     8.9340     8.2500     7.3500    24.0330     2.3640    -4.8400 
