~V
VERS. 2.00: Ver 2.00
~W
STRT.M 49.0000:
STOP.M 245.0000:
STEP.M 0.1250:
NULL. -999.2500:
UWI. F10179:
~C
DEPT.M :
DEN.GM/CC :
GR.API :
RML.OHMM :
RI. :
RXO.OHMM :
CALI.CM :
SP.MV :
~A
# ...
   71.5000     2.1570    57.3260    11.1460     8.5110     9.3590    25.2220   -39.4570 
   71.6250     2.1440    60.5470    10.8160     8.2920     9.3570    25.3100   -40.1780 
   71.7500     2.1310    63.5850    10.2080     7.8980     9.3130    25.3450   -40.8560 
   71.8750     2.1340    67.8420     9.4260     7.3680     8.2850    25.4440   -41.4490 
   72.0000     2.1600    72.7630     8.7400     6.8580     6.6600    25.3930   -41.9500 
   72.1250     2.2050    76.6140     8.3550     6.5080     5.5250    24.7680   -42.3730 
   72.2500     2.2510    77.2230     8.3900     6.4170     5.5100    23.6350   -42.7930 
   72.3750     2.2720    74.1490     8.8980     6.6560     6.5260    22.5140   -43.3070 
   72.5000     2.2650    68.3320     9.6490     7.1130     8.1560    22.0400   -43.9420 
   72.6250     2.2350    62.7180    10.4120     7.6610     9.7640    22.4750   -44.7010 
   72.7500     2.1920    60.1240    10.9600     8.1330    10.9490    23.5670   -45.5610 
   72.8750     2.1570    59.4380    11.1170     8.3540    11.5840    24.6660   -46.5330 
   73.0000     2.1430    57.7300    11.0030     8.3540    12.0220    25.2080   -47.5700 
   73.1250     2.1520    54.0700    10.7780     8.2230    12.2670    25.4900   -48.6070 
   73.2500     2.1690    50.3780    10.5870     8.0680    12.2320    25.7930   -49.5490 
   73.3750     2.1750    50.5980    10.5210     7.9700    12.2040    26.0890   -50.2960 
   73.5000     2.1680    52.1740    10.5440     7.9310    12.3430    26.3140   -50.8710 
   73.6250     2.1570    53.7830    10.6080     7.9230    12.5450    26.4010   -51.2730 
   73.7500     2.1530    54.7290    10.6630     7.9100    12.6250    26.3500   -51.5170 
   73.8750     2.1560    55.8930    10.6650     7.8690    12.5840    26.2040   -51.5900 
   74.0000     2.1600    56.9100    10.6150     7.8150    12.2950    26.0310   -51.4840 
   74.1250     2.1620    56.3580    10.5320     7.7690    11.8710    25.8950   -51.2270 
   74.2500     2.1620    54.0090    10.4540     7.7440    11.6020    25.7570   -50.8900 
   74.3750     2.1550    51.8170    10.4110     7.7430    11.6850    25.6070   -50.5030 
   74.5000     2.1460    51.2780    10.3970     7.7470    11.7640    25.4970   -50.0490 
   74.6250     2.1430    52.8600    10.3880     7.7370    11.6470    25.3200   -49.5590 
   74.7500     2.1520    54.9130    10.3610     7.7030    11.4980    24.9710   -49.1050 
   74.8750     2.1710    56.9110    10.3160     7.6480    11.3700    24.6630   -48.6860 
   75.0000     2.1870    58.5180    10.2830     7.6000    11.3830    24.4890   -48.3460 
   75.1250     2.1930    59.6980    10.2840     7.5770    11.3570    24.4310   -48.1160 
   75.2500     2.1910    61.7030    10.3110     7.5760    11.1570    24.4200   -48.0020 
   75.3750     2.1850    62.0760    10.3140     7.5710    11.1180    24.4150   -47.9660 
   75.5000     2.1810    58.7210    10.2520     7.5260    11.2950    24.3930   -47.9120 
   75.6250     2.1820    55.2350    10.1210     7.4350    11.5020    24.3490   -47.8490 
   75.7500     2.1860    56.0040     9.9570     7.3190    11.3010    24.2940   -47.7300 
   75.8750     2.1890    59.7670     9.8490     7.2350    10.3920    24.2950   -47.5110 
   76.0000     2.1910    60.6770     9.8600     7.2160     9.6950    24.3390   -47.2310 
   76.1250     2.1930    59.9730    10.0020     7.2670     9.8630    24.3860   -46.9010 
   76.2500     2.1960    59.7170    10.2220     7.3700    10.5390    24.3730   -46.5120 
   76.3750     2.2010    58.7730    10.4140     7.4870    11.1190    24.2260   -46.0880 
   76.5000     2.2070    57.6380    10.4950     7.5690    11.3190    24.0430   -45.7050 
   76.6250     2.2120    58.7210    10.4380     7.5930    11.0780    24.0190   -45.3570 
   76.7500     2.2130    59.9710    10.2780     7.5590    10.6000    24.0140   -45.0620 
   76.8750     2.2050    59.0960    10.0980     7.4910    10.1900    23.9750   -44.8430 
   77.0000     2.1910    59.7390     9.9690     7.4260    10.3190    23.9780   -44.6300 
   77.1250     2.1760    63.0910     9.9050     7.3840    10.7310    24.0740   -44.3570 
   77.2500     2.1660    64.6560     9.8900     7.3660    11.0400    24.2010   -44.0020 
   77.3750     2.1630    61.5260     9.8950     7.3690    10.8450    24.2300   -43.5410 
   77.5000     2.1610    58.1780     9.8990     7.3810    10.5340    24.2280   -42.9690 
   77.6250     2.1600    59.0610     9.9300     7.4050    10.3270    24.1000   -42.2650 
   77.7500     2.1610    63.8160    10.0080     7.4450    10.1200    23.7960   -41.4350 
   77.8750     2.1660    67.2220    10.0840     7.4770     9.9730    23.5670   -40.5100 
   78.0000     2.1710    65.4590    10.0320     7.4360     9.8530    23.3650   -39.5350 
   78.1250     2.1780    62.9550     9.7440     7.2480     9.8240    23.2480   -38.4970 
   78.2500     2.1890    65.4200     9.1830     6.8710     9.7160    23.3130   -37.3610 
   78.3750     2.2110    74.1890     8.3990     6.3150     8.8450    23.7820   -36.1090 
   78.5000     2.2420    85.0490     7.5980     5.7170     7.2360    24.0290   -34.8570 
   78.6250     2.2760    96.6060     6.9360     5.1860     5.7720    24.0180   -33.7140 
   78.7500     2.3060   104.0250     6.5410     4.8180     5.3050    23.9220   -32.7310 
   78.8750     2.3210   101.1400     6.5640     4.7250     5.2820    23.9000   -31.9320 
   79.0000     2.3250    94.3010     6.9610     4.9040     5.4060    23.9710   -31.3310 
   79.1250     2.3160    90.7810     7.6660     5.3440     5.7060    24.1210   -31.0240 
   79.2500     2.3090    89.8320     8.5500     5.9850     6.2670    24.1670   -31.0360 
   79.3750     2.3230    81.9830     9.4070     6.7060     7.8060    23.9930   -31.5020 
   79.5000     2.3380    69.3610    10.0320     7.3210     9.9760    23.7420   -32.2890 
   79.6250     2.3190    60.4930    10.3170     7.7040    11.1460    23.6580   -33.1670 
   79.7500     2.2570    58.7480    10.2810     7.8230    11.2430    23.7460   -33.9870 
   79.8750     2.1970    59.0430    10.0310     7.7180    10.9920    23.9460   -34.6960 
   80.0000     2.1700    58.7640     9.7380     7.5130    10.7420    24.1940   -35.2420 
   80.1250     2.1690    60.4870     9.4450     7.2460    10.5940    24.3190   -35.5280 
   80.2500     2.1810    63.7750     9.1000     6.9030    10.1760    24.3470   -35.5210 
   80.3750     2.1990    68.1850     8.5680     6.4270     8.9620    24.3210   -35.1250 
   80.5000     2.2220    74.8870     7.8830     5.8670     7.6340    24.2250   -34.4120 
   80.6250     2.2490    83.9610     7.2200     5.3410     6.4940    24.0470   -33.5150 
   80.7500     2.2810    91.6940     6.8480     5.0010     5.7640    23.8780   -32.5640 
   80.8750     2.3160    93.4290     7.1530     5.0550     5.1910    23.9510   -31.6150 
   81.0000     2.3530    90.2270     8.1810     5.5320     5.1450    24.1610   -30.7400 
   81.1250     2.3960    86.5370     9.8090     6.4180     5.9470    24.3060   -30.0160 
   81.2500     2.4460    84.9620    11.6230     7.5530     8.0550    24.3070   -29.4780 
   81.3750     2.4830    81.5140    12.7740     8.4850    10.7470    24.2060   -29.1990 
   81.5000     2.4760    75.0720    12.7680     8.7800    11.9410    24.0660   -29.1430 
   81.6250     2.4200    72.2760    11.7050     8.3710    10.4840    23.7920   -29.3030 
   81.7500     2.3450    76.2090    10.2140     7.5730     8.4250    23.4300   -29.6020 
   81.8750     2.2870    79.3340     9.0670     6.8290     7.6710    23.2540   -29.9680 
   82.0000     2.2520    78.1600     8.4870     6.3430     7.7180    23.1830   -30.3150 
   82.1250     2.2310    75.9060     8.3730     6.1210     8.0840    23.2990   -30.5660 
   82.2500     2.2120    75.0120     8.5110     6.0960     8.2850    23.7570   -30.7100 
   82.3750     2.1910    73.2570     8.6840     6.1800     8.2300    24.3240   -30.6970 
   82.5000     2.1760    71.5140     8.7670     6.2790     8.0950    24.5040   -30.5370 
   82.6250     2.1790    72.0140     8.7510     6.3600     7.9420    24.2410   -30.2490 
