~V
VERS. 2.00: Ver 2.00
~W
STRT.M 44.0000:
STOP.M 255.0000:
STEP.M 0.1250:
NULL. -999.2500:
UWI. F10191:
~C
DEPT.M :
DEN.GM/CC :
SP.MV :
GR.API :
RML.OHMM :
RI. :
RXO.OHMM :
CALI.CM :
~A
# ...
   55.2500     2.4800   128.8880    44.6460     0.2080     1.3230     0.0470    25.6840 
   55.3750     2.4340   128.4220    46.8290     0.2370     1.3190     0.0540    25.6840 
   55.5000     2.4020   128.0580    47.2680     0.2060     1.3060     0.0480    25.6840 
   55.6250     2.3980   127.7810    45.1300     0.1320     1.2950     0.0440    25.6840 
   55.7500     2.4050   127.6060    44.1660     0.0610     1.2910     0.0490    25.6840 
   55.8750     2.4160   127.5450    46.0100     0.0180     1.2930     0.0600    25.6840 
   56.0000     2.4320   127.6000    48.6870     0.0020     1.2980     0.0750    25.6830 
   56.1250     2.4510   127.8000    48.9050     0.0000     1.3010     0.0970    25.6820 
   56.2500     2.4590   127.9960    46.5600     0.0000     1.3020     0.1070    25.6800 
   56.3750     2.4430   128.2020    43.6360     0.0000     1.3030     0.0990    25.6800 
   56.5000     2.4070   128.3570    41.1090     0.0000     1.3020     0.0910    25.6820 
   56.6250     2.3710   128.3610    38.7850     0.0000     1.2940     0.1010    25.6830 
   56.7500     2.3540   128.1800    36.9010     0.0000     1.2840     0.0960    25.6830 
   56.8750     2.3600   127.7510    35.6720     0.0000     1.2770     0.0840    25.6820 
   57.0000     2.3810   127.0500    35.5160     0.0000     1.2760     0.0630    25.6830 
   57.1250     2.3940   126.0160    35.4190     0.0000     1.2790     0.0540    25.6840 
   57.2500     2.3960   124.6730    35.5970     0.0000     1.2830     0.0410    25.6840 
   57.3750     2.4010   122.9920    36.4040     0.0010     1.2860     0.0380    25.6840 
   57.5000     2.4140   120.9590    37.4820     0.0090     1.2880     0.0470    25.6820 
   57.6250     2.4290   118.4830    37.7300     0.0280     1.2900     0.0710    25.6810 
   57.7500     2.4340   115.5420    37.8900     0.0490     1.2830     0.0910    25.6810 
   57.8750     2.4300   112.0210    40.2110     0.0630     1.2560     0.1090    25.6830 
   58.0000     2.4240   107.7510    44.2410     0.0610     1.1960     0.1300    25.6840 
   58.1250     2.4360   102.4530    47.7570     0.0410     1.0720     0.1480    25.6840 
   58.2500     2.4660    96.1670    49.4010     0.0170     0.8650     0.1570    25.6840 
   58.3750     2.5140    88.8040    48.4780     0.0070     0.5960     0.1650    25.6820 
   58.5000     2.5780    80.2120    44.6270     0.0090     0.3430     0.2090    25.6770 
   58.6250     2.6570    70.0880    39.7450     0.0110     0.1810     0.3330    25.6670 
   58.7500     2.7200    58.6490    38.5510     0.0120     0.0980     0.6280    25.6560 
   58.8750     2.7230    46.0510    41.1350     0.0110     0.0860     1.5380    25.6530 
   59.0000     2.6450    32.8250    44.7160     0.0120     0.1590     2.7490    25.6630 
   59.1250     2.5260    19.7720    47.3210     0.0420     0.4010     4.5420    25.7200 
   59.2500     2.4290     7.6350    49.6240     0.1780     0.8820     5.9780    25.7830 
   59.3750     2.3770    -3.1650    53.0400     0.5850     1.6580     6.3110    25.8220 
   59.5000     2.3640   -12.2440    56.8100     1.3760     2.6490     5.8750    25.8350 
   59.6250     2.3690   -18.9210    60.7890     2.2120     3.5540     5.6560    25.8830 
   59.7500     2.3640   -23.3760    65.3730     2.7100     4.1860     5.7350    26.1180 
   59.8750     2.3280   -25.7350    69.6810     2.9600     4.5950     5.9570    26.7620 
   60.0000     2.2600   -26.4460    72.3440     3.1170     4.8960     6.1440    28.0020 
   60.1250     2.1840   -26.1600    71.5700     3.2500     5.1360     6.2960    29.9620 
   60.2500     2.1330   -25.6260    68.2860     3.3880     5.3510     6.2250    31.4710 
   60.3750     2.1270   -25.1510    65.9060     3.5740     5.6610     6.5930    31.0810 
   60.5000     2.1790   -24.9510    67.1500     3.8840     6.2650     6.9730    28.7280 
   60.6250     2.2920   -25.3330    70.5350     4.4800     7.4680     7.7420    26.6420 
   60.7500     2.4310   -26.2360    70.8370     5.4400     9.2470    10.0290    25.7490 
   60.8750     2.5540   -27.5830    67.6770     6.7700    11.3390    16.9930    25.5600 
   61.0000     2.6150   -29.2480    63.1880     8.0920    13.0530    34.2630    25.5310 
   61.1250     2.5570   -31.0030    60.7100     8.4280    13.2640    36.6640    25.4720 
   61.2500     2.4220   -32.7450    61.5140     7.8460    12.1400    22.4440    25.3680 
   61.3750     2.2890   -34.4150    63.7100     7.1030    10.4430    13.0900    25.2840 
   61.5000     2.2050   -35.9500    64.3250     6.7030     8.8980    10.5460    25.2520 
   61.6250     2.1770   -37.2590    63.9730     6.7080     7.9310    10.5430    25.2420 
   61.7500     2.1740   -38.3240    64.2830     6.9080     7.4620    10.5800    25.2310 
   61.8750     2.1770   -39.1330    63.6810     7.1770     7.3440    10.4220    25.2460 
   62.0000     2.1780   -39.6670    62.2750     7.4200     7.4010    10.0250    25.2900 
   62.1250     2.1800   -39.9640    61.8740     7.5680     7.4940     9.9500    25.3000 
   62.2500     2.1840   -40.0630    61.9920     7.6270     7.5640    10.2350    25.2820 
   62.3750     2.1850   -39.9470    62.4480     7.6090     7.6000    10.4280    25.2770 
   62.5000     2.1810   -39.6300    63.6060     7.5390     7.6060    10.5920    25.3010 
   62.6250     2.1780   -39.0300    65.2380     7.4970     7.6290    10.6440    25.3210 
   62.7500     2.1860   -38.2630    65.9360     7.6060     7.7800    10.8230    25.3410 
   62.8750     2.2100   -37.2980    66.1380     7.9710     8.1750    10.9980    25.3750 
   63.0000     2.2530   -36.1450    65.9500     8.6350     8.8560    11.4590    25.4230 
   63.1250     2.3200   -34.8240    63.7190     9.5170     9.7150    13.3760    25.5320 
   63.2500     2.4000   -33.3860    63.1520    10.2480    10.3970    18.3690    25.7060 
   63.3750     2.4660   -31.9630    68.4080    10.4160    10.5610    23.0740    25.9070 
   63.5000     2.4790   -30.6460    78.0300     9.8380    10.0490    17.9110    26.0600 
   63.6250     2.4200   -29.5470    85.6960     8.7880     9.0090     9.1880    26.1520 
   63.7500     2.3480   -28.6320    89.8630     7.8290     7.9240     6.7550    26.1910 
   63.8750     2.3010   -27.9220    92.9400     7.1740     7.0430     6.7050    26.2180 
   64.0000     2.2860   -27.4350    96.2210     6.8350     6.4610     6.5610    26.2680 
   64.1250     2.2890   -27.2580    99.6480     6.7470     6.1960     5.8710    26.3800 
   64.2500     2.2910   -27.3680   102.2750     6.7460     6.0980     5.5310    26.4660 
   64.3750     2.2890   -27.6790   103.1390     6.7810     6.0860     5.4990    26.5230 
   64.5000     2.2820   -28.1620   103.5390     6.8950     6.1550     5.5510    26.5260 
   64.6250     2.2770   -28.7750   102.9000     7.2340     6.4010     5.6180    26.4750 
   64.7500     2.2760   -29.5350    98.8090     7.8330     6.8600     5.8250    26.4290 
   64.8750     2.2790   -30.3910    92.3820     8.6560     7.5060     6.3670    26.3980 
   65.0000     2.2840   -31.3350    87.2920     9.5530     8.2200     7.6980    26.3550 
   65.1250     2.2910   -32.2040    85.5530    10.1670     8.7210     9.4170    26.3250 
   65.2500     2.2930   -32.9010    85.9350    10.2410     8.7970    10.6700    26.3560 
   65.3750     2.2870   -33.4750    87.6920     9.7760     8.4150     9.8560    26.5080 
   65.5000     2.2700   -33.8930    89.5850     9.0450     7.7460     8.2620    26.7080 
   65.6250     2.2500   -34.2010    90.2980     8.4270     7.0720     7.2750    26.8180 
   65.7500     2.2380   -34.3930    92.6180     8.1250     6.5980     6.3260    26.8490 
   65.8750     2.2440   -34.5310    94.7930     8.2310     6.4200     6.0240    26.8530 
   66.0000     2.2730   -34.6130    92.5800     8.8310     6.6160     6.4140    26.8530 
   66.1250     2.3320   -34.7200    86.4320    10.1390     7.3530     7.2690    26.8530 
   66.2500     2.4160   -34.9700    82.6440    12.1050     8.6090     8.4560    26.8530 
   66.3750     2.5130   -35.3580    81.9540    14.5650    10.3120    11.3120    26.8530 
