~V
VERS. 2.00: Ver 2.00
~W
STRT.M 50.0000:
STOP.M 207.0000:
STEP.M 0.1250:
NULL. -999.2500:
UWI. F10134:
~C
DEPT.M :
SP.MV :
DEN.GM/CC :
GR.API :
RML.OHMM :
RI. :
RXO.OHMM :
CALI.CM :
~A
# ...
  106.2500    -2.8210     2.1610    64.9270     9.4860     6.7630     8.0680    24.4300 
  106.3750    -2.9200     2.1690    64.9460     9.4580     6.7580     7.9470    24.3630 
  106.5000    -2.9450     2.1770    65.6880     9.3900     6.7020     7.8650    24.3350 
  106.6250    -2.8700     2.1780    65.4600     9.2850     6.6130     7.7570    24.3320 
  106.7500    -2.7400     2.1730    65.2810     9.1630     6.5230     7.5760    24.3330 
  106.8750    -2.5830     2.1630    66.5330     9.0610     6.4550     7.4690    24.3340 
  107.0000    -2.4200     2.1530    67.4380     9.0280     6.4280     7.6600    24.3380 
  107.1250    -2.2850     2.1520    65.9390     9.1040     6.4590     7.9000    24.3380 
  107.2500    -2.1960     2.1590    63.8090     9.2490     6.5310     8.0450    24.3350 
  107.3750    -2.1610     2.1700    63.4030     9.4060     6.6190     8.0830    24.3320 
  107.5000    -2.1660     2.1800    63.8120     9.5180     6.6990     8.1420    24.3320 
  107.6250    -2.2060     2.1830    62.2490     9.5410     6.7380     8.0830    24.3320 
  107.7500    -2.2730     2.1780    60.7220     9.4730     6.7280     7.9340    24.3290 
  107.8750    -2.3580     2.1670    62.2140     9.3220     6.6740     7.8050    24.3280 
  108.0000    -2.4640     2.1520    66.4130     9.1150     6.5840     7.8630    24.3290 
  108.1250    -2.5880     2.1360    68.9160     8.8990     6.4700     7.8550    24.3240 
  108.2500    -2.7010     2.1210    68.0840     8.7160     6.3580     7.6480    24.3060 
  108.3750    -2.7740     2.1100    65.9580     8.5780     6.2610     7.5610    24.2870 
  108.5000    -2.8040     2.1040    63.9660     8.4760     6.1830     7.5690    24.2780 
  108.6250    -2.7590     2.1020    62.0710     8.4050     6.1230     7.5900    24.2800 
  108.7500    -2.6560     2.1030    61.7090     8.3600     6.0750     7.6170    24.2790 
  108.8750    -2.4890     2.1050    64.0080     8.3520     6.0440     7.5910    24.2830 
  109.0000    -2.2550     2.1100    68.0460     8.3930     6.0470     7.5210    24.3120 
  109.1250    -1.9520     2.1190    71.2880     8.4910     6.1130     7.4580    24.3780 
  109.2500    -1.6020     2.1330    70.6930     8.6400     6.2350     7.4700    24.4460 
  109.3750    -1.2160     2.1490    68.0210     8.8310     6.3960     7.5170    24.4850 
  109.5000    -0.7840     2.1620    66.6470     9.0340     6.5680     7.7600    24.4920 
  109.6250    -0.2840     2.1680    67.5110     9.1720     6.6960     7.7340    24.4900 
  109.7500     0.2820     2.1690    66.9630     9.1610     6.7360     7.4590    24.4880 
  109.8750     0.9240     2.1650    65.4200     8.9300     6.6450     7.2480    24.4870 
  110.0000     1.6470     2.1610    68.0340     8.4600     6.4070     7.1400    24.5230 
  110.1250     2.4630     2.1600    74.9440     7.7880     6.0260     6.6180    24.7300 
  110.2500     3.3480     2.1690    79.5440     7.0720     5.5870     5.6560    25.1300 
  110.3750     4.2460     2.1900    81.5950     6.4230     5.1520     4.7680    25.5840 
  110.5000     5.1050     2.2190    85.7860     5.9040     4.7670     4.5690    25.8890 
  110.6250     5.8240     2.2500    91.2420     5.5630     4.4770     4.7400    25.9540 
  110.7500     6.3600     2.2730    92.2940     5.3950     4.3010     4.9750    25.9320 
  110.8750     6.6610     2.2900    89.3930     5.4460     4.2740     5.0160    25.9060 
  111.0000     6.6850     2.3130    86.8310     5.7540     4.4250     4.8880    25.8870 
  111.1250     6.3640     2.3440    83.1910     6.3840     4.7810     5.4560    25.8590 
  111.2500     5.7650     2.3680    76.2180     7.2350     5.2740     7.4790    25.7670 
  111.3750     4.9310     2.3650    69.2530     8.1400     5.8200    10.9090    25.5110 
  111.5000     3.9250     2.3310    64.7420     8.8490     6.2990    10.1000    25.0600 
  111.6250     2.8250     2.2780    61.1710     9.0850     6.5650     8.3300    24.5860 
  111.7500     1.7500     2.2290    57.5090     8.9450     6.6360     7.4000    24.3040 
  111.8750     0.7740     2.1950    56.0830     8.6390     6.5850     7.3780    24.2260 
  112.0000    -0.0430     2.1710    57.9060     8.4020     6.5140     7.4270    24.2420 
  112.1250    -0.6150     2.1500    60.8870     8.4000     6.5030     7.4670    24.2270 
  112.2500    -0.9730     2.1280    61.9420     8.5480     6.5500     7.5720    24.1720 
  112.3750    -1.1260     2.1070    60.5530     8.7210     6.6130     7.5790    24.1530 
  112.5000    -1.1090     2.0910    60.0080     8.8300     6.6550     7.4110    24.2330 
  112.6250    -0.9350     2.0810    61.8880     8.8390     6.6650     7.2470    24.3790 
  112.7500    -0.6610     2.0770    62.5590     8.8000     6.6580     7.1290    24.5030 
  112.8750    -0.2840     2.0800    62.6020     8.7490     6.6430     7.0730    24.5970 
  113.0000     0.1950     2.0900    64.9700     8.6840     6.6130     6.9330    24.6800 
  113.1250     0.7950     2.1040    68.7740     8.5110     6.5090     6.6760    24.7200 
  113.2500     1.4900     2.1190    69.8970     8.1370     6.2750     6.5380    24.7270 
  113.3750     2.2720     2.1360    69.7080     7.5110     5.8800     6.4110    24.7550 
  113.5000     3.1160     2.1620    71.1470     6.6830     5.3460     5.9250    24.8940 
  113.6250     3.9770     2.2010    76.2130     5.8470     4.7750     5.0220    25.1800 
  113.7500     4.7750     2.2430    83.0460     5.2530     4.3230     4.2750    25.4540 
  113.8750     5.4390     2.2780    88.7810     5.0590     4.1070     4.0390    25.5980 
  114.0000     5.9020     2.3000    91.1310     5.3500     4.2010     3.9830    25.6130 
  114.1250     6.0850     2.3070    88.9820     6.2220     4.6830     4.2160    25.5150 
  114.2500     6.0060     2.2990    83.5060     7.4690     5.4340     5.1520    25.2610 
  114.3750     5.6680     2.2750    76.4610     8.7900     6.2860     6.3670    24.8480 
  114.5000     5.1090     2.2340    70.8880     9.7510     6.9920     6.9620    24.4230 
  114.6250     4.3780     2.1870    68.9260     9.9250     7.2740     6.6790    24.1980 
  114.7500     3.5940     2.1510    68.1610     9.5520     7.2030     6.5350    24.1420 
  114.8750     2.8230     2.1350    67.3600     9.0050     6.9510     6.6120    24.1460 
  115.0000     2.1210     2.1370    66.5580     8.6010     6.7000     6.6460    24.1440 
  115.1250     1.5460     2.1490    66.4930     8.5010     6.5690     6.6080    24.1510 
  115.2500     1.1030     2.1590    67.3690     8.5740     6.5300     6.5670    24.1710 
  115.3750     0.7900     2.1650    68.5100     8.6950     6.5300     6.5980    24.1890 
  115.5000     0.5920     2.1670    69.1820     8.7830     6.5320     6.6650    24.2000 
  115.6250     0.4810     2.1650    70.6250     8.7960     6.5170     6.6670    24.2140 
  115.7500     0.4210     2.1640    73.3470     8.7430     6.4840     6.6070    24.2540 
  115.8750     0.3990     2.1660    75.0070     8.6430     6.4330     6.5680    24.3150 
  116.0000     0.4150     2.1700    72.6570     8.5270     6.3650     6.5690    24.3710 
  116.1250     0.4700     2.1780    67.2710     8.4350     6.2880     6.5080    24.3930 
  116.2500     0.5560     2.1900    65.1540     8.3890     6.2180     6.4090    24.3950 
  116.3750     0.6760     2.2040    67.3020     8.3970     6.1740     6.3370    24.3950 
  116.5000     0.8170     2.2160    72.0080     8.4560     6.1660     6.3670    24.3940 
  116.6250     0.9610     2.2170    74.3620     8.5860     6.2200     6.5230    24.3780 
  116.7500     1.0890     2.2090    72.6130     8.8260     6.3560     6.8670    24.3550 
  116.8750     1.1790     2.1950    69.1550     9.2390     6.6030     7.4370    24.3350 
  117.0000     1.2140     2.1820    66.3110     9.8500     6.9810     8.2180    24.3240 
  117.1250     1.1840     2.1740    65.0830    10.6060     7.4770     8.9060    24.3190 
  117.2500     1.1100     2.1690    65.0210    11.2920     7.9660     9.9670    24.3150 
  117.3750     1.0040     2.1660    66.4000    11.6820     8.3040    12.3700    24.3170 
