~V
VERS. 2.00: Ver 2.00
~W
STRT.M 55.0000:
STOP.M 224.0000:
STEP.M 0.1250:
NULL. -999.2500:
UWI. F10137:
~C
DEPT.M :
DEN.GM/CC :
SP.MV :
GR.API :
RML.OHMM :
RI. :
RXO.OHMM :
CALI.CM :
~A
# ...
  133.7500     2.4890   -20.2890    48.3630    20.3530    19.4900    21.5980    27.3090 
  133.8750     2.4970   -20.3310    48.5410    20.6300    19.7840    22.6360    27.3870 
  134.0000     2.5030   -20.3750    48.9150    20.6130    19.8070    22.0110    27.4410 
  134.1250     2.5070   -20.4300    48.4770    20.3970    19.6220    20.8030    27.4910 
  134.2500     2.5150   -20.4840    47.9980    20.1450    19.3570    20.0290    27.5730 
  134.3750     2.5270   -20.5200    48.5890    20.0280    19.1650    20.1220    27.6690 
  134.5000     2.5410   -20.5380    49.4780    20.1220    19.1410    20.4570    27.7520 
  134.6250     2.5520   -20.5470    49.6930    20.4180    19.3090    20.9810    27.8000 
  134.7500     2.5590   -20.5490    49.1640    20.8810    19.6570    21.9860    27.8290 
  134.8750     2.5620   -20.5450    48.3760    21.4810    20.1680    23.2110    27.8980 
  135.0000     2.5630   -20.5210    48.2540    22.1800    20.7950    24.2930    27.9800 
  135.1250     2.5630   -20.4750    48.6350    22.8900    21.4580    25.7590    28.0230 
  135.2500     2.5600   -20.4130    48.9730    23.4430    22.0180    26.0970    28.0330 
  135.3750     2.5500   -20.3430    48.5460    23.5570    22.2350    25.1180    28.0460 
  135.5000     2.5330   -20.2810    46.9490    23.1040    21.9770    23.8200    28.0800 
  135.6250     2.5150   -20.2390    44.7640    22.1620    21.2800    22.5090    28.1320 
  135.7500     2.5010   -20.2280    42.9680    20.9320    20.2890    20.9390    28.1940 
  135.8750     2.4950   -20.2230    42.7170    19.7040    19.2330    19.0230    28.2490 
  136.0000     2.4940   -20.1970    44.0690    18.7010    18.3170    17.7660    28.2940 
  136.1250     2.4960   -20.1430    45.8790    17.9930    17.6330    17.4130    28.3330 
  136.2500     2.5010   -20.0890    46.8220    17.5420    17.1750    16.8620    28.3640 
  136.3750     2.5050   -20.0720    46.7160    17.2740    16.9000    16.3910    28.3810 
  136.5000     2.5080   -20.0920    46.5500    17.1010    16.7370    16.7670    28.3880 
  136.6250     2.5080   -20.1200    46.9720    16.9640    16.6260    17.5520    28.3930 
  136.7500     2.5060   -20.1280    48.0820    16.8430    16.5300    17.6280    28.4080 
  136.8750     2.5020   -20.0960    49.9440    16.7270    16.4280    17.1320    28.4340 
  137.0000     2.4980   -20.0480    52.1980    16.5950    16.2990    17.3310    28.4470 
  137.1250     2.4950   -20.0200    54.2090    16.4560    16.1500    17.8330    28.4480 
  137.2500     2.4960   -20.0190    55.7250    16.3790    16.0420    17.6280    28.4800 
  137.3750     2.4980   -20.0340    56.1590    16.5150    16.1040    16.9180    28.5210 
  137.5000     2.4960   -20.0460    54.4320    16.9680    16.4280    16.2890    28.5360 
  137.6250     2.4910   -20.0460    50.5270    17.7440    17.0350    16.9990    28.5370 
  137.7500     2.4890   -20.0430    46.0310    18.7400    17.8750    19.8440    28.5330 
  137.8750     2.4950   -20.0410    43.8680    19.6820    18.7510    22.7160    28.5280 
  138.0000     2.5030   -20.0460    45.3200    20.2540    19.3820    23.4320    28.5290 
  138.1250     2.5000   -20.0560    48.1400    20.2760    19.5610    22.4270    28.5290 
  138.2500     2.4860   -20.0690    49.2220    19.7830    19.2600    20.9960    28.5290 
  138.3750     2.4710   -20.0600    48.6020    18.9970    18.6270    19.8210    28.5460 
  138.5000     2.4610   -20.0250    48.3690    18.2250    17.9260    19.1120    28.5590 
  138.6250     2.4550   -19.9720    49.0450    17.6560    17.3540    18.6020    28.5480 
  138.7500     2.4520   -19.9180    49.6660    17.3240    16.9720    18.0940    28.5180 
  138.8750     2.4530   -19.8910    49.5860    17.1740    16.7650    17.8450    28.5050 
  139.0000     2.4560   -19.8950    48.7910    17.0890    16.6460    17.9130    28.5200 
  139.1250     2.4550   -19.9020    48.1920    16.9670    16.5320    17.7120    28.5280 
  139.2500     2.4530   -19.8750    48.8670    16.7700    16.3790    17.2120    28.5080 
  139.3750     2.4540   -19.8140    50.6000    16.5280    16.1940    16.8430    28.4460 
  139.5000     2.4630   -19.7510    52.7720    16.3130    16.0220    16.6520    28.3620 
  139.6250     2.4750   -19.7070    55.3820    16.1830    15.9110    16.7560    28.3120 
  139.7500     2.4860   -19.6820    57.4150    16.1580    15.8770    17.2680    28.3160 
  139.8750     2.4880   -19.6730    57.4320    16.2170    15.9060    17.7800    28.3320 
  140.0000     2.4790   -19.6750    56.4520    16.2960    15.9490    18.3260    28.3410 
  140.1250     2.4670   -19.6830    55.7690    16.3310    15.9560    18.6470    28.3480 
  140.2500     2.4590   -19.6910    54.6410    16.2850    15.8940    18.3090    28.3600 
  140.3750     2.4560   -19.7030    52.7340    16.1490    15.7580    17.4990    28.3720 
  140.5000     2.4560   -19.7330    51.2910    15.9630    15.5820    16.9240    28.3810 
  140.6250     2.4600   -19.7750    50.8390    15.7780    15.4110    16.7220    28.3960 
  140.7500     2.4710   -19.8210    51.1740    15.6210    15.2630    16.9530    28.4240 
  140.8750     2.4860   -19.8700    52.2720    15.4860    15.1340    16.8330    28.4520 
  141.0000     2.4970   -19.9160    53.6960    15.3510    15.0070    16.6910    28.4780 
  141.1250     2.4990   -19.9590    55.3300    15.2090    14.8770    16.5610    28.4970 
  141.2500     2.4910   -20.0050    57.1070    15.0900    14.7680    16.0310    28.5050 
  141.3750     2.4810   -20.0540    57.8560    15.0590    14.7360    15.7760    28.5080 
  141.5000     2.4760   -20.1030    56.9670    15.1620    14.8170    16.2420    28.5100 
  141.6250     2.4760   -20.1630    55.8470    15.3990    15.0120    16.7210    28.5190 
  141.7500     2.4790   -20.2310    56.0360    15.7300    15.2890    16.7970    28.5290 
  141.8750     2.4800   -20.2900    57.0300    16.0590    15.5750    17.1850    28.5450 
  142.0000     2.4780   -20.3230    57.1900    16.2740    15.7760    17.7830    28.5640 
  142.1250     2.4750   -20.3300    55.8470    16.3040    15.8260    18.0610    28.5650 
  142.2500     2.4740   -20.3520    54.5440    16.1600    15.7250    17.7530    28.5210 
  142.3750     2.4780   -20.4240    55.1950    15.9310    15.5380    16.7490    28.4350 
  142.5000     2.4850   -20.5000    56.9770    15.7580    15.3750    15.3640    28.3640 
  142.6250     2.4910   -20.5350    57.8290    15.7540    15.3310    14.6760    28.3430 
  142.7500     2.4930   -20.5370    57.6760    15.9580    15.4480    15.4700    28.3430 
  142.8750     2.4910   -20.5200    57.1280    16.3450    15.7240    16.9260    28.3320 
  143.0000     2.4860   -20.5080    55.7760    16.8060    16.0890    17.7780    28.3200 
  143.1250     2.4810   -20.5270    54.3300    17.2210    16.4480    17.8660    28.3310 
  143.2500     2.4780   -20.5630    54.2380    17.5060    16.7290    17.8350    28.3650 
  143.3750     2.4780   -20.5830    55.2840    17.6270    16.8890    18.2350    28.4280 
  143.5000     2.4770   -20.5860    55.6930    17.6360    16.9510    18.6860    28.4750 
  143.6250     2.4750   -20.5800    55.1410    17.6120    16.9720    18.7240    28.4920 
  143.7500     2.4690   -20.5670    54.7040    17.6190    17.0050    18.4280    28.4910 
  143.8750     2.4620   -20.5510    54.6580    17.6870    17.0760    18.4530    28.4780 
  144.0000     2.4590   -20.5420    54.4240    17.7790    17.1630    18.7740    28.4660 
  144.1250     2.4620   -20.5430    53.6970    17.8280    17.2190    19.0490    28.4580 
  144.2500     2.4680   -20.5330    53.1070    17.7790    17.2030    18.9650    28.4510 
  144.3750     2.4760   -20.4900    52.9980    17.5850    17.0730    18.4350    28.4380 
  144.5000     2.4840   -20.4300    52.3570    17.2590    16.8250    17.3550    28.4260 
  144.6250     2.4930   -20.3810    51.2630    16.8470    16.4850    16.9820    28.4300 
  144.7500     2.5010   -20.3590    51.4710    16.3890    16.0820    17.5630    28.4390 
  144.8750     2.5080   -20.3650    53.1730    15.9370    15.6590    17.2970    28.4350 
