~V
VERS. 2.00: Ver 2.00
~W
STRT.M 47.0000:
STOP.M 242.0000:
STEP.M 0.1250:
NULL. -999.2500:
UWI. F10188:
~C
DEPT.M :
SP.MV :
DEN.GM/CC :
GR.API :
RML.OHMM :
RI. :
RXO.OHMM :
CALI.CM :
~A
# ...
  114.5000   -22.1330     2.2550    98.6740     5.7480     5.1030     5.6740    23.9380 
  114.6250   -22.7420     2.2430    96.4640     5.9670     5.2560     6.3300    23.9940 
  114.7500   -23.3560     2.2210    89.9800     6.3010     5.4960     7.2010    24.1020 
  114.8750   -23.9540     2.1900    83.5970     6.8280     5.8720     8.0870    24.1570 
  115.0000   -24.0700     2.1710    83.4560     7.6610     6.4780     8.4210    24.0420 
  115.1250   -24.6470     2.1850    84.3370     8.7420     7.3100     8.2560    23.8400 
  115.2500   -25.1960     2.2380    79.9340     9.9120     8.2930     8.0730    23.6970 
  115.3750   -25.6630     2.3190    72.6180    10.8490     9.2140     8.1940    23.6500 
  115.5000   -26.0610     2.3930    71.5050    11.0170     9.6380     8.0470    23.6180 
  115.6250   -26.4590     2.4180    74.7530    10.4050     9.4230     7.5730    23.4980 
  115.7500   -26.8030     2.3690    78.0790     9.0730     8.7140     7.1670    23.2380 
  115.8750   -27.0730     2.2780    82.0210     7.9500     7.8420     7.1490    22.8530 
  116.0000   -27.2820     2.2080    86.8940     7.2820     7.1400     7.3430    22.5900 
  116.1250   -27.4080     2.1740    88.6410     6.9700     6.7040     7.5220    22.5390 
  116.2500   -27.4340     2.1640    85.5950     6.9140     6.5100     7.3970    22.7110 
  116.3750   -27.3600     2.1620    80.3000     6.9690     6.4670     7.0210    23.0140 
  116.5000   -27.0860     2.1620    78.4750     6.9700     6.4550     6.8730    23.2670 
  116.6250   -26.5570     2.1620    79.7580     6.8350     6.3780     6.8540    23.4290 
  116.7500   -25.8440     2.1650    82.2500     6.5740     6.2100     6.8020    23.6090 
  116.8750   -25.0280     2.1760    86.1450     6.2460     5.9700     6.3960    23.7770 
  117.0000   -24.1770     2.1960    89.6700     5.9290     5.7080     5.8800    23.8960 
  117.1250   -23.3430     2.2210    90.2100     5.6780     5.4800     5.6300    23.9240 
  117.2500   -22.5700     2.2430    87.3880     5.5230     5.3190     5.8300    23.9070 
  117.3750   -21.9460     2.2540    84.9480     5.4850     5.2390     6.1860    23.8430 
  117.5000   -21.5600     2.2480    85.7550     5.5700     5.2490     6.4570    23.6730 
  117.6250   -21.4180     2.2350    88.1100     5.7090     5.3080     6.4840    23.3950 
  117.7500   -21.4770     2.2240    90.5130     5.8280     5.3690     6.5150    23.1240 
  117.8750   -21.6590     2.2160    92.6570     5.8520     5.3780     6.6410    22.9830 
  118.0000   -21.8560     2.2120    92.6750     5.7520     5.2940     5.4160    22.9590 
  118.1250   -22.0710     2.2130    89.5060     5.6450     5.1840     5.7200    22.9870 
  118.2500   -22.3130     2.2170    85.2410     5.6750     5.1540     5.7400    23.0200 
  118.3750   -22.5130     2.2260    83.5880     5.9580     5.3120     5.7620    23.0360 
  118.5000   -22.7700     2.2450    86.4010     6.5860     5.7690     6.0000    23.0270 
  118.6250   -23.1360     2.2680    87.8610     7.4190     6.4460     6.7080    22.9550 
  118.7500   -23.5800     2.2930    83.5500     8.2250     7.1840     7.4590    22.7760 
  118.8750   -24.1120     2.3150    76.0020     8.6840     7.7260     7.7420    22.4800 
  119.0000   -24.8330     2.3090    73.7190     8.4990     7.7630     6.9240    22.4100 
  119.1250   -25.6410     2.2680    78.2430     7.9210     7.3990     5.6810    22.6580 
  119.2500   -26.4040     2.2100    82.9680     7.2760     6.8550     5.2380    23.0240 
  119.3750   -27.1030     2.1610    82.4080     6.8080     6.3580     5.4080    23.1990 
  119.5000   -27.6010     2.1370    78.1890     6.6180     6.0660     5.8020    23.1430 
  119.6250   -27.9360     2.1300    77.0380     6.5890     5.9480     5.8960    22.9890 
  119.7500   -28.1350     2.1320    78.8430     6.6210     5.9440     5.8980    22.8100 
  119.8750   -28.1960     2.1410    79.2450     6.6370     5.9780     5.8590    22.6290 
  120.0000   -28.1730     2.1540    77.9550     6.6020     5.9890     5.7360    22.3650 
  120.1250   -28.1900     2.1650    79.0750     6.5470     5.9660     5.6510    21.9940 
  120.2500   -28.3390     2.1700    82.6890     6.5130     5.9290     5.3470    21.5200 
  120.3750   -28.6600     2.1680    83.9600     6.5280     5.9070     5.0450    21.1080 
  120.5000   -29.1590     2.1660    81.1960     6.6090     5.9320     5.1690    20.8810 
  120.6250   -29.7250     2.1670    79.4700     6.7410     6.0060     5.6670    20.8290 
  120.7500   -30.3730     2.1680    79.1050     6.9010     6.1210     6.2530    20.9080 
  120.8750   -31.0700     2.1680    77.6440     7.0540     6.2570     6.5590    21.1790 
  121.0000   -31.6580     2.1620    74.0830     7.1450     6.3700     6.4040    21.5880 
  121.1250   -32.0650     2.1510    70.8040     7.1490     6.4270     6.2880    21.9410 
  121.2500   -32.3030     2.1390    70.2450     7.0590     6.4040     6.4260    22.0700 
  121.3750   -32.3460     2.1350    73.9030     6.8940     6.3020     6.7650    22.0180 
  121.5000   -32.2480     2.1470    78.9610     6.6940     6.1380     6.5970    21.9760 
  121.6250   -32.1510     2.1640    80.0290     6.5090     5.9660     6.2150    22.0560 
  121.7500   -32.0160     2.1720    77.0860     6.3670     5.8220     5.8710    22.1910 
  121.8750   -31.8700     2.1670    74.7630     6.2840     5.7330     5.8590    22.2920 
  122.0000   -31.8260     2.1560    77.0490     6.2690     5.7160     6.1070    22.3960 
  122.1250   -31.9070     2.1480    80.3200     6.3050     5.7490     6.3020    22.6520 
  122.2500   -32.0330     2.1430    81.3320     6.3760     5.8140     6.4770    23.1410 
  122.3750   -32.1870     2.1400    79.3660     6.4610     5.8930     6.6460    23.7100 
  122.5000   -32.3130     2.1410    75.7130     6.5390     5.9840     6.9130    24.1610 
  122.6250   -32.3220     2.1440    71.8750     6.6020     6.0870     7.3440    24.5070 
  122.7500   -32.2350     2.1490    68.2660     6.6650     6.2080     7.6340    24.6750 
  122.8750   -32.0470     2.1540    64.7310     6.7530     6.3520     7.3790    24.6490 
  123.0000   -31.6580     2.1570    63.7960     6.8980     6.5260     6.8560    24.5900 
  123.1250   -31.0770     2.1560    65.5730     7.0970     6.7240     6.6400    24.7530 
  123.2500   -30.4080     2.1490    67.4230     7.3270     6.9340     6.6920    25.0330 
  123.3750   -29.6480     2.1380    67.3400     7.5410     7.1310     6.8350    25.1110 
  123.5000   -28.7590     2.1310    64.2040     7.6420     7.2380     6.4600    24.9070 
  123.6250   -27.7530     2.1320    60.9050     7.5590     7.1930     5.8280    24.6820 
  123.7500   -26.6380     2.1390    59.3180     7.2560     6.9570     5.2460    24.4910 
  123.8750   -25.4430     2.1520    60.7550     6.7610     6.5430     4.9580    24.3150 
  124.0000   -24.2560     2.1790    67.6640     6.1600     6.0120     4.9220    24.4870 
  124.1250   -23.1240     2.2110    76.1450     5.5900     5.4820     4.8350    24.9060 
  124.2500   -22.0510     2.2350    81.3420     5.1420     5.0360     4.6660    25.2310 
  124.3750   -21.1030     2.2430    81.2990     4.9100     4.7550     4.7980    25.2910 
  124.5000   -20.3070     2.2460    77.7720     5.0810     4.7870     5.3540    25.1100 
  124.6250   -19.6750     2.2590    73.5700     5.7330     5.2020     6.4730    24.8770 
  124.7500   -19.2080     2.2860    69.0340     7.2820     6.0970     7.9460    24.7840 
  124.8750   -18.8820     2.3310    65.1770     9.2630     7.5250     9.3100    24.9160 
  125.0000   -18.7000     2.3940    61.3110    11.4080     9.3770    10.5250    25.1400 
  125.1250   -18.6440     2.4530    55.9570    12.8020    10.9090    11.3750    25.2430 
  125.2500   -18.6190     2.4800    51.7310    12.4850    11.2320    11.5650    25.2100 
  125.3750   -18.5890     2.4650    51.8490    10.5210    10.0830    10.8180    25.1010 
  125.5000   -18.6350     2.4240    55.8660     8.2320     8.2540     9.5100    24.8750 
  125.6250   -18.7080     2.3880    61.3720     6.7560     6.8130     8.6130    24.5990 
