~V
VERS. 2.00: Ver 2.00
~W
STRT.M 50.0000:
STOP.M 251.0000:
STEP.M 0.1250:
NULL. -999.2500:
UWI. F10193:
~C
DEPT.M :
DEN.GM/CC :
GR.API :
RML.OHMM :
RI. :
RXO.OHMM :
CALI.CM :
SP.MV :
~A
# ...
  230.0000     2.4470    96.7060    11.4450     9.6260    10.3630    25.1970    -6.0060 
  230.1250     2.4390    99.2950    11.1810     9.4440    10.4450    25.2010    -5.5070 
  230.2500     2.4300    97.2760    11.1540     9.4400     9.9080    25.1970    -5.0120 
  230.3750     2.4220    90.0040    11.5000     9.7140     9.5220    25.1630    -4.5500 
  230.5000     2.4150    80.9390    12.2450    10.2720    10.0390    25.0960    -4.1280 
  230.6250     2.4000    75.4320    13.2230    10.9770    11.9710    25.1150    -3.7560 
  230.7500     2.3830    73.4330    14.0130    11.5320    14.3790    25.3680    -3.4390 
  230.8750     2.3770    71.0460    14.2870    11.7380    15.3340    25.7950    -3.2090 
  231.0000     2.3980    64.3040    13.9930    11.5830    13.7340    26.1730    -3.0950 
  231.1250     2.4560    56.1060    13.4700    11.2890    11.6280    26.2730    -3.1080 
  231.2500     2.5240    54.7150    13.2550    11.1820    10.8650    26.1110    -3.1800 
  231.3750     2.5600    61.5050    13.5550    11.3940    12.1900    25.7890    -3.2320 
  231.5000     2.5370    71.3490    14.2200    11.8700    14.0160    25.4340    -3.1840 
  231.6250     2.4630    78.0700    14.7960    12.3690    16.9230    25.1850    -2.9560 
  231.7500     2.3890    81.0500    14.9130    12.6140    17.2990    25.0300    -2.5760 
  231.8750     2.3540    83.2050    14.5340    12.5160    13.6410    24.9070    -2.0940 
  232.0000     2.3770    84.9880    13.8950    12.1760    11.2910    24.7950    -1.5810 
  232.1250     2.4500    82.6910    13.3100    11.7750    11.6000    24.7110    -1.1120 
  232.2500     2.5120    76.3680    12.8700    11.4150    12.4150    24.6910    -0.7240 
  232.3750     2.5290    69.8400    12.4760    11.0640    12.1660    24.7340    -0.4250 
  232.5000     2.5020    66.4170    12.0020    10.6690    10.0600    24.8940    -0.2040 
  232.6250     2.4600    67.2050    11.4380    10.2270     8.6750    25.2520    -0.0420 
  232.7500     2.4290    69.5960    10.9540     9.8470     8.0300    25.6850     0.1010 
  232.8750     2.4120    70.8330    10.7020     9.6360     7.6640    26.0520     0.2410 
  233.0000     2.4000    70.7620    10.7380     9.6500     7.1650    26.3020     0.3800 
  233.1250     2.3850    72.0470    11.0270     9.8770     7.0000    25.5420     0.5080 
  233.2500     2.3650    73.5150    11.3940    10.1740     7.2910    25.2190     0.6080 
  233.3750     2.3490    73.0360    11.7160    10.4390     7.6250    25.1030     0.6750 
  233.5000     2.3470    71.3330    11.9240    10.6200     7.7750    25.0820     0.7140 
  233.6250     2.3610    71.7290    12.0100    10.7140     7.8230    25.0640     0.7350 
  233.7500     2.3710    73.4470    12.0550    10.7690     8.4610    25.0660     0.7560 
  233.8750     2.3650    74.4770    12.1250    10.8200     9.4820    25.0660     0.7890 
  234.0000     2.3450    74.5670    12.2680    10.8950    10.2430    25.0680     0.8450 
  234.1250     2.3280    74.3700    12.4960    11.0090    10.6670    25.0660     0.9300 
  234.2500     2.3300    73.7560    12.7400    11.1410    11.1900    25.0390     1.0350 
  234.3750     2.3510    72.9670    12.9620    11.2570    11.7210    24.9890     1.1440 
  234.5000     2.3820    71.6500    13.1550    11.3190    11.7940    24.9440     1.2340 
  234.6250     2.4100    71.0570    13.3310    11.3100    11.8500    24.9310     1.2610 
  234.7500     2.4310    71.9210    13.4900    11.2730    12.0170    24.9330     1.2280 
  234.8750     2.4480    73.3220    13.6080    11.2540    12.1930    24.9330     1.1520 
  235.0000     2.4600    74.2020    13.6570    11.2790    12.3780    24.9330     1.0560 
  235.1250     2.4650    74.3340    13.5940    11.3470    13.1270    24.9330     0.9790 
  235.2500     2.4650    75.2350    13.4410    11.4160    16.0020    24.9330     0.9510 
  235.3750     2.4610    77.4770    13.2170    11.4450    21.8840    24.9330     0.9850 
  235.5000     2.4500    79.2820    12.9290    11.4000    20.5820    24.9330     1.0680 
  235.6250     2.4280    79.2950    12.5360    11.2480    15.2880    24.9330     1.1570 
  235.7500     2.4040    76.8140    12.0720    11.0170    12.6910    24.9350     1.2060 
  235.8750     2.3870    73.1830    11.6090    10.7450    12.1410    24.9250     1.2030 
  236.0000     2.3800    70.6200    11.2390    10.4820    12.4940    24.9140     1.1680 
  236.1250     2.3770    69.4350    11.0520    10.2830    14.0080    25.0690     1.1510 
  236.2500     2.3700    68.1110    11.0200    10.1620    18.2810    25.4000     1.1730 
  236.3750     2.3620    66.5610    11.0960    10.1230    21.5380    25.7320     1.2220 
  236.5000     2.3610    65.9370    11.2260    10.1540    15.2480    25.8900     1.2770 
  236.6250     2.3770    66.9710    11.3660    10.2230    11.7130    25.8590     1.3170 
  236.7500     2.4020    68.4090    11.4640    10.2760    10.2190    25.7620     1.3450 
  236.8750     2.4240    68.8050    11.4590    10.2770    10.1910    25.6030     1.3730 
  237.0000     2.4290    66.7090    11.3240    10.2170    10.0110    25.4310     1.4090 
  237.1250     2.4160    64.4380    11.1180    10.1260     9.7930    25.3440     1.4580 
  237.2500     2.3960    64.8770    11.0440    10.0850    10.5920    25.3280     1.5130 
  237.3750     2.3780    67.5360    11.2950    10.1870    11.7530    25.3340     1.5640 
  237.5000     2.3720    70.2730    11.9690    10.5120    12.6930    25.3380     1.6030 
  237.6250     2.3860    72.6100    13.0250    11.1270    12.2580    25.3110     1.6070 
  237.7500     2.4110    73.8390    14.1390    11.9140    12.8760    25.2410     1.5720 
  237.8750     2.4360    71.6280    15.0380    12.7030    14.4590    25.1850     1.4970 
  238.0000     2.4470    66.9890    15.5110    13.2680    17.3440    25.2080     1.3910 
  238.1250     2.4340    64.8580    15.4090    13.3470    21.4010    25.2860     1.2880 
  238.2500     2.4100    66.3570    14.9480    13.0260    26.5510    25.3310     1.2130 
  238.3750     2.3890    68.8400    14.3230    12.4800    24.8100    25.3340     1.1820 
  238.5000     2.3780    70.9970    13.7090    11.9160    16.6580    25.3300     1.1980 
  238.6250     2.3800    72.9130    13.2550    11.5180    13.4210    25.3530     1.2360 
  238.7500     2.3900    72.8580    12.9880    11.3190    12.4340    25.4000     1.2580 
  238.8750     2.4000    70.8150    12.8940    11.2920    12.4250    25.4470     1.2440 
  239.0000     2.3940    68.8790    12.9240    11.3820    12.4460    25.4690     1.1940 
  239.1250     2.3680    68.8730    13.0110    11.5350    12.4610    25.4680     1.1210 
  239.2500     2.3350    69.0510    13.0940    11.6860    12.6610    25.4680     1.0500 
  239.3750     2.3160    69.0510    13.1420    11.7970    12.2800    25.4640     1.0050 
  239.5000     2.3250    69.0510    13.1370    11.8460    11.6730    25.4430     0.9940 
  239.6250     2.3690    69.0510    13.0920    11.8170    11.6570    25.5800     1.0080 
  239.7500     2.4190    69.0510    13.0410    11.7370    11.8440    25.9760     1.0330 
  239.8750     2.4500    69.0510    12.9860    11.6330    11.5870    26.0920     1.0580 
  240.0000     2.4560    69.0510    12.9160    11.5250    11.1290    26.1410     1.0770 
  240.1250     2.4440    69.0510    12.8280    11.4230    12.2950    26.1360     1.1100 
  240.2500     2.4240    69.0510    12.7470    11.3240    15.7000    26.1280     1.1790 
  240.3750     2.4040    69.0510    12.6830    11.2260    18.1720    26.1140     1.2920 
  240.5000     2.3900    69.0510    12.6310    11.1330    15.7670    26.0890     1.4470 
  240.6250     2.3880    69.0510    12.5790    11.0570    11.4080    26.0620     1.6380 
  240.7500     2.3920    69.0510    12.5220    11.0060     9.6060    26.0220     1.8270 
  240.8750     2.3950    69.0510    12.4590    10.9750     9.7840    25.9280     1.9780 
  241.0000     2.3920    69.0510    12.4070    10.9520    10.4590    25.7700     2.0770 
  241.1250     2.3860    69.0510    12.3920    10.9150    10.8210    25.5840     2.1280 
