~V
VERS. 2.00: Ver 2.00
~W
STRT.M 52.0000:
STOP.M 236.0000:
STEP.M 0.1250:
NULL. -999.2500:
UWI. F10181:
~C
DEPT.M :
GR.API :
RML.OHMM :
RI. :
RXO.OHMM :
CALI.CM :
DEN.GM/CC :
SP.MV :
~A
# ...
  164.5000    66.5150   151.1060   135.5220   104.0490    23.8720     2.2450    -9.5640 
  164.6250    67.8750   149.6770   135.0610   111.7150    23.8690     2.2280    -9.5920 
  164.7500    67.6130   143.6190   130.5570   115.0680    23.8660     2.2090    -9.6740 
  164.8750    65.2230   134.2200   122.8950   115.5810    23.8600     2.1950    -9.7980 
  165.0000    65.1340   123.9780   114.0980   110.1380    23.8400     2.1850    -9.9610 
  165.1250    68.9930   115.9200   106.8390    97.2080    23.7940     2.1820   -10.1500 
  165.2500    71.0260   111.1070   102.3520    83.5520    23.7510     2.1860   -10.3510 
  165.3750    68.5760   109.4540   100.7650    75.5800    23.7330     2.1970   -10.5340 
  165.5000    65.2070   110.0600   101.3780    75.6760    23.7290     2.2160   -10.7110 
  165.6250    66.3530   111.6350   103.0080    74.3600    23.7280     2.2390   -10.8960 
  165.7500    71.2240   112.9110   104.3270    68.8280    23.7250     2.2590   -11.0710 
  165.8750    74.7840   113.5970   104.9190    63.4950    23.7060     2.2680   -11.2280 
  166.0000    72.5810   114.0970   105.0810    63.7010    23.6610     2.2660   -11.3700 
  166.1250    67.1280   115.3720   105.7740    64.9320    23.6150     2.2560   -11.4700 
  166.2500    63.0300   117.7440   107.5730    65.4780    23.6000     2.2450   -11.5370 
  166.3750    60.2710   120.7800   110.2940    63.9650    23.6150     2.2380   -11.6000 
  166.5000    58.9800   123.5240   113.1110    63.1980    23.6610     2.2360   -11.6500 
  166.6250    60.1800   124.8280   114.8060    62.0790    23.7080     2.2380   -11.6590 
  166.7500    61.3870   124.7510   115.0950    62.4200    23.7280     2.2430   -11.6500 
  166.8750    60.9770   123.9360   114.3600    63.1750    23.7310     2.2510   -11.6770 
  167.0000    60.8550   123.3280   113.4370    62.4910    23.7290     2.2600   -11.7230 
  167.1250    64.0370   123.8800   113.3410    62.0120    23.7280     2.2640   -11.8240 
  167.2500    67.2030   125.5560   114.3030    65.6460    23.7280     2.2640   -11.9700 
  167.3750    65.8670   128.0690   116.1710    74.0120    23.7270     2.2610   -12.1670 
  167.5000    61.4090   131.2020   118.7360    83.1050    23.7190     2.2580   -12.4240 
  167.6250    59.9040   135.3340   122.2580    89.2600    23.6970     2.2570   -12.7690 
  167.7500    61.3270   140.9880   127.1300    88.0010    23.6740     2.2550   -13.1380 
  167.8750    62.0490   148.7320   133.8780    82.3560    23.6630     2.2500   -13.4940 
  168.0000    61.5350   158.6150   142.6460    80.0650    23.6610     2.2440   -13.8520 
  168.1250    61.6910   169.7690   152.8390    83.5870    23.6320     2.2440   -14.1790 
  168.2500    61.4920   180.0390   162.5480    87.9580    23.5440     2.2510   -14.4870 
  168.3750    61.1690   187.5970   170.0610    96.3240    23.4160     2.2590   -14.7580 
  168.5000    63.5310   191.3740   174.2340    97.9160    23.3310     2.2610   -14.9630 
  168.6250    67.5130   191.3810   174.7340    91.9970    23.2920     2.2480   -15.1100 
  168.7500    69.5730   190.2450   173.7380    87.9590    23.2640     2.2280   -15.2280 
  168.8750    69.0560   190.0700   173.1420    87.5460    23.2370     2.2100   -15.3360 
  169.0000    67.8830   192.2760   174.3930    87.7170    23.1930     2.2000   -15.4260 
  169.1250    67.5830   197.6040   178.4520    87.7210    23.1530     2.1980   -15.5280 
  169.2500    66.1720   204.5710   184.2880    90.3940    23.1500     2.1990   -15.6360 
  169.3750    62.9590   211.3300   190.4400    93.7130    23.1770     2.2010   -15.7490 
  169.5000    58.9340   215.7530   195.0500    93.4500    23.2080     2.2040   -15.8470 
  169.6250    57.8760   215.4670   195.8490    95.5050    23.2400     2.2090   -15.8820 
  169.7500    59.2850   211.2270   193.0120    99.2780    23.2560     2.2160   -15.8860 
  169.8750    62.3330   205.0470   187.9030   100.0990    23.2720     2.2260   -15.8400 
  170.0000    64.6820   200.0240   183.0610    97.0690    23.2960     2.2360   -15.7670 
  170.1250    64.8320   199.8750   182.1110    93.3500    23.3150     2.2430   -15.6540 
  170.2500    64.2650   204.7550   186.4980    86.7750    23.3220     2.2450   -15.4980 
  170.3750    64.1100   215.0550   196.5310    83.4510    23.3220     2.2400   -15.3060 
  170.5000    63.4630   229.6880   211.1130    85.7040    23.3220     2.2290   -15.0950 
  170.6250    60.6080   244.2810   227.7400    94.1320    23.3230     2.2160   -14.8780 
  170.7500    57.0530   261.8830   242.7200   101.4280    23.3240     2.2040   -14.6280 
  170.8750    54.4860   274.8270   253.7880   105.2850    23.3330     2.1950   -14.3500 
  171.0000    53.4600   282.3170   260.2940   105.1880    23.3640     2.1900   -14.0690 
  171.1250    55.1440   285.6320   263.2220   106.2850    23.4620     2.1850   -13.7950 
  171.2500    57.3740   288.4320   265.5590   112.4940    23.6050     2.1800   -13.5620 
  171.3750    58.1700   292.2770   268.6580   125.1370    23.7330     2.1750   -13.3720 
  171.5000    56.9890   296.7140   272.2510   138.2470    23.7900     2.1730   -13.1780 
  171.6250    56.3920   298.7550   273.9160   154.5780    23.7880     2.1750   -12.9370 
  171.7500    58.0690   295.4780   271.1540   162.2580    23.7720     2.1790   -12.6650 
  171.8750    60.3940   285.1590   262.3640   163.3430    23.7620     2.1850   -12.3840 
  172.0000    60.8860   268.4030   247.8140   160.3000    23.7600     2.1910   -12.1270 
  172.1250    60.5960   248.6330   230.0750   152.3500    23.7540     2.1980   -11.9320 
  172.2500    62.2060   231.2970   213.9320   139.5620    23.7450     2.2060   -11.7850 
  172.3750    63.7550   219.5250   202.4020   126.1440    23.7370     2.2130   -11.6800 
  172.5000    63.7060   214.3480   196.7180   114.9190    23.7260     2.2180   -11.6450 
  172.6250    64.7850   215.6110   196.8740   109.8410    23.7250     2.2180   -11.7260 
  172.7500    68.5090   220.1820   199.9120   110.4940    23.7310     2.2130   -11.9190 
  172.8750    71.7900   226.1230   203.9430   114.5680    23.7250     2.2050   -12.2140 
  173.0000    72.3310   232.1130   207.7680   118.4290    23.7020     2.1980   -12.5290 
  173.1250    70.5710   237.4780   210.9390   122.5210    23.7000     2.1930   -12.8040 
  173.2500    68.4190   242.1390   213.6080   129.3730    23.7150     2.1940   -13.0210 
  173.3750    66.8470   245.6640   215.4920   139.5620    23.7480     2.1990   -13.1870 
  173.5000    65.3340   247.1230   215.7270   155.1220    23.8450     2.2060   -13.3220 
  173.6250    65.2030   244.8660   212.7780   175.8320    23.9470     2.2090   -13.4410 
  173.7500    65.8610   238.9870   206.8050   183.2440    23.9860     2.2070   -13.5300 
  173.8750    65.6600   229.8820   198.4100   180.6630    23.9930     2.1990   -13.5720 
  174.0000    64.4200   218.5690   188.7200   172.7900    23.9920     2.1890   -13.5600 
  174.1250    64.1070   206.9530   179.5750   162.5890    23.9910     2.1860   -13.5020 
  174.2500    64.7290   197.4690   172.8440   140.5250    23.9690     2.1920   -13.4040 
  174.3750    65.0850   191.9830   170.0270    96.3880    23.8960     2.2040   -13.2700 
  174.5000    65.3080   191.4540   171.9770    61.1550    23.8020     2.2180   -13.1260 
  174.6250    65.2470   195.1980   178.5040    61.3260    23.7970     2.2240   -12.9860 
  174.7500    62.8020   198.1640   185.3040    87.8790    23.8400     2.2250   -12.8510 
  174.8750    59.7300   194.7370   187.1290   128.7990    23.8690     2.2230   -12.7080 
  175.0000    59.2000   180.0670   178.8230   160.6160    23.8690     2.2220   -12.5890 
  175.1250    61.9360   151.6010   156.2390   154.9060    23.8380     2.2280   -12.4850 
  175.2500    64.4480   118.0210   125.9070   139.3400    23.7960     2.2370   -12.3990 
  175.3750    66.6670    87.9090    95.7210   114.4330    23.7740     2.2490   -12.3320 
  175.5000    69.0580    66.1270    71.8860    80.4000    23.7930     2.2640   -12.2710 
  175.6250    71.5940    54.0330    57.4540    51.5120    23.8440     2.2790   -12.2020 
