~V
VERS. 2.00: Ver 2.00
~W
STRT.M 52.0000:
STOP.M 236.0000:
STEP.M 0.1250:
NULL. -999.2500:
UWI. F10181:
~C
DEPT.M :
GR.API :
RML.OHMM :
RI. :
RXO.OHMM :
CALI.CM :
DEN.GM/CC :
SP.MV :
~A
# ...
  153.2500    56.2850   245.5590   248.5720   163.0400    24.3410     2.2080   -24.8510 
  153.3750    56.4010   255.4890   258.9810   161.9170    24.3470     2.2110   -25.0280 
  153.5000    57.1550   268.2630   272.6730   162.2940    24.3500     2.2150   -25.1930 
  153.6250    58.1050   285.5520   288.6930   171.7910    24.3540     2.2190   -25.3350 
  153.7500    59.2750   303.1790   304.8390   176.8720    24.3560     2.2200   -25.4920 
  153.8750    60.9790   319.5390   319.5760   177.1840    24.3570     2.2180   -25.6260 
  154.0000    62.0820   333.6100   331.9860   179.2980    24.3570     2.2150   -25.6750 
  154.1250    62.3040   344.9190   341.7270   183.6510    24.3570     2.2110   -25.6530 
  154.2500    60.8180   354.6660   350.0410   189.6930    24.3570     2.2060   -25.5920 
  154.3750    57.6220   363.7580   357.8540   198.5390    24.3570     2.2010   -25.5080 
  154.5000    54.0060   372.9000   365.8600   210.0580    24.3570     2.1960   -25.4240 
  154.6250    51.2230   382.7580   374.6820   227.9840    24.3570     2.1890   -25.3520 
  154.7500    49.8260   393.6790   384.5970   245.5030    24.3570     2.1820   -25.3200 
  154.8750    49.7890   405.7440   395.7550   255.8280    24.3580     2.1750   -25.3750 
  155.0000    52.2030   418.5050   407.9150   258.5220    24.3580     2.1690   -25.4970 
  155.1250    56.1380   430.6100   420.1430   257.1970    24.3510     2.1660   -25.6620 
  155.2500    59.0550   440.3090   430.8190   251.8780    24.3480     2.1650   -25.8320 
  155.3750    59.1370   445.6720   438.0470   248.5700    24.3470     2.1650   -25.9710 
  155.5000    56.1880   444.8200   439.7670   249.4420    24.3480     2.1660   -26.0520 
  155.6250    54.7250   435.2340   433.0460   247.0420    24.3470     2.1670   -26.0670 
  155.7500    56.8000   418.6710   418.9920   237.8600    24.3270     2.1670   -25.9720 
  155.8750    60.0470   397.8310   399.6990   220.5790    24.2660     2.1670   -25.7630 
  156.0000    62.2950   377.4760   379.3930   197.6360    24.1850     2.1690   -25.4290 
  156.1250    64.5430   365.0950   365.1940   182.0970    24.1470     2.1710   -24.9020 
  156.2500    65.2930   364.3100   361.4430   181.4430    24.1400     2.1710   -24.1960 
  156.3750    62.6230   376.3400   369.8020   191.6070    24.1420     2.1680   -23.3430 
  156.5000    58.4340   399.0390   388.3380   202.1790    24.1430     2.1610   -22.3460 
  156.6250    55.3550   426.0160   410.6680   218.6650    24.1400     2.1520   -21.2730 
  156.7500    54.1060   446.4070   426.3280   245.3940    24.1360     2.1440   -20.2190 
  156.8750    54.7970   451.4950   427.4920   269.7020    24.1350     2.1400   -19.1870 
  157.0000    56.1050   436.5420   410.7550   269.4240    24.1340     2.1410   -18.1890 
  157.1250    57.2000   400.9320   377.0790   251.7520    24.1350     2.1460   -17.3070 
  157.2500    57.6160   355.8750   336.6660   240.8830    24.1360     2.1550   -16.5840 
  157.3750    56.6400   309.7140   296.2060   243.6480    24.1390     2.1680   -16.0480 
  157.5000    54.1110   268.8380   260.2620   254.3040    24.1400     2.1860   -15.6990 
  157.6250    53.2100   238.9680   232.8680   234.2080    24.1370     2.2080   -15.4380 
  157.7500    56.2350   220.3850   214.3700   187.5920    24.1350     2.2280   -15.2100 
  157.8750    60.8380   213.2860   205.4320   147.2080    24.1340     2.2410   -15.0240 
  158.0000    63.3590   216.8580   205.8890   132.2910    24.1340     2.2450   -14.8740 
  158.1250    62.6570   230.0340   215.3890   141.5620    24.1340     2.2410   -14.7200 
  158.2500    62.3420   246.8840   229.1270   158.7310    24.1340     2.2310   -14.4960 
  158.3750    61.3560   261.4480   242.2360   177.4450    24.1340     2.2190   -14.2070 
  158.5000    57.8310   267.0950   248.9730   192.3970    24.1340     2.2050   -13.8670 
  158.6250    53.5640   256.3440   242.3790   196.0490    24.1340     2.1920   -13.4680 
  158.7500    53.2970   232.2690   223.7470   192.2740    24.1340     2.1840   -13.0090 
  158.8750    57.5320   200.8840   197.1510   184.6900    24.1340     2.1830   -12.5360 
  159.0000    61.8760   169.6450   168.7460   164.0450    24.1340     2.1880   -12.0900 
  159.1250    63.5040   145.0880   144.9070   134.3170    24.1340     2.1980   -11.6990 
  159.2500    63.9530   127.7670   127.3970   109.1160    24.1340     2.2080   -11.3730 
  159.3750    64.2400   116.7340   115.8620    97.1520    24.1340     2.2160   -11.1010 
  159.5000    63.3190   110.3330   108.9200    93.3690    24.1290     2.2230   -10.8810 
  159.6250    59.5510   107.1180   105.2400    90.8180    24.1150     2.2280   -10.7310 
  159.7500    57.8410   105.2380   102.9430    89.1850    24.0960     2.2330   -10.6670 
  159.8750    60.4730   104.1790   101.4440    88.0890    24.0860     2.2380   -10.6440 
  160.0000    64.5640   104.0640   100.7880    88.2690    24.0830     2.2430   -10.6610 
  160.1250    65.8360   105.6650   101.6800    88.8820    24.0800     2.2470   -10.7160 
  160.2500    64.7660   109.0910   104.2780    88.5420    24.0820     2.2480   -10.8100 
  160.3750    64.2870   114.1310   108.4530    87.9060    24.0850     2.2460   -10.9000 
  160.5000    64.0430   119.9780   113.5100    92.1960    24.0860     2.2410   -10.9840 
  160.6250    62.6330   125.1230   118.0850    99.8660    24.0860     2.2350   -11.0630 
  160.7500    61.7850   128.3290   120.9720   102.7410    24.0840     2.2310   -11.1150 
  160.8750    62.2020   128.9710   121.5390   100.7520    24.0800     2.2290   -11.1440 
  161.0000    62.5940   127.0870   119.7710    97.3740    24.0770     2.2270   -11.1060 
  161.1250    62.5470   122.9470   115.8990    94.3720    24.0760     2.2260   -11.0190 
  161.2500    63.4740   117.5070   110.8350    91.8780    24.0760     2.2260   -10.9010 
  161.3750    64.2250   111.1720   104.9830    88.9000    24.0760     2.2280   -10.7560 
  161.5000    63.2170   104.3530    98.7200    85.3220    24.0760     2.2320   -10.5800 
  161.6250    63.0580    97.7150    92.6280    81.4010    24.0760     2.2370   -10.3740 
  161.7500    65.0410    91.9170    87.2900    76.7030    24.0760     2.2420   -10.1620 
  161.8750    66.6660    87.3990    83.1070    71.9640    24.0770     2.2450    -9.9680 
  162.0000    66.4120    84.3500    80.2590    70.4580    24.0790     2.2460    -9.8230 
  162.1250    66.4660    82.8940    78.8680    76.6500    24.0840     2.2480    -9.6960 
  162.2500    67.9240    82.5100    78.4570    75.2620    24.0850     2.2500    -9.5820 
  162.3750    70.4270    82.8970    78.7430    69.6630    24.0840     2.2540    -9.4630 
  162.5000    72.8290    83.8190    79.4900    66.0740    24.0800     2.2570    -9.3340 
  162.6250    74.1830    85.2420    80.6310    67.1590    24.0810     2.2600    -9.2500 
  162.7500    73.4540    87.1480    82.1460    70.5090    24.0840     2.2610    -9.2000 
  162.8750    70.5420    89.6570    84.1410    72.9460    24.0810     2.2600    -9.1450 
  163.0000    67.7300    92.8660    86.7130    74.0920    24.0690     2.2570    -9.0960 
  163.1250    68.0100    96.8980    89.9720    74.9540    24.0450     2.2540    -9.0930 
  163.2500    70.7110   101.4670    93.6890    79.5080    24.0240     2.2510    -9.1110 
  163.3750    72.3100   106.2690    97.6080    85.0230    24.0110     2.2480    -9.1750 
  163.5000    69.6580   110.9660   101.4270    89.9850    24.0060     2.2450    -9.3090 
  163.6250    63.3440   115.3200   104.9030    93.1540    24.0030     2.2430    -9.4360 
  163.7500    58.9440   119.5510   108.2160    94.6540    24.0040     2.2430    -9.5350 
  163.8750    58.4680   124.0620   111.7390    94.8110    24.0010     2.2470    -9.6060 
  164.0000    61.0340   129.2710   115.8970    94.0230    23.9730     2.2530    -9.6320 
  164.1250    64.5260   135.4690   121.0680    95.4120    23.9110     2.2590    -9.6150 
  164.2500    66.9080   142.0100   126.7660    97.3190    23.8690     2.2610    -9.5890 
  164.3750    67.0510   147.7530   132.0450    99.7410    23.8660     2.2570    -9.5770 
