~V
VERS. 2.00: Ver 2.00
~W
STRT.M 60.0000:
STOP.M 241.0000:
STEP.M 0.1250:
NULL. -999.2500:
UWI. F10158:
~C
DEPT.M :
SP.MV :
DEN.GM/CC :
GR.API :
RML.OHMM :
RI. :
RXO.OHMM :
CALI.CM :
~A
   60.0000   161.6230     2.0080    50.9130    21.8690     1.1270     1.9460    25.4420 
   60.1250   158.6750     1.9750    49.3170    21.7990     0.9180     1.9520    25.4780 
   60.2500   155.3190     2.0130    47.9230    16.0090     0.6490     1.9550    25.6060 
   60.3750   151.4530     2.1670    49.8270     8.6450     0.4070     1.9570    25.8670 
   60.5000   146.9690     2.3810    52.7620     3.4950     0.2450     1.9570    26.1330 
   60.6250   141.6210     2.4770    53.9460     1.2200     0.1730     1.9810    26.4010 
   60.7500   135.4290     2.4470    57.5800     0.5160     0.1580     2.0020    26.6330 
   60.8750   128.3940     2.3550    66.1070     0.9440     0.2050     2.0210    26.8190 
   61.0000   120.6560     2.2560    76.9760     2.4520     0.3440     2.1210    26.9620 
   61.1250   112.5030     2.2010    86.0300     5.2500     0.6580     2.3740    27.0640 
   61.2500   104.4460     2.2000    89.9970     8.2750     1.1810     2.9200    27.1230 
   61.3750    96.8930     2.2270    88.7360     9.8390     1.9420     4.1670    27.1190 
   61.5000    90.1830     2.2410    84.0530     9.5610     2.9140     4.6790    27.0340 
   61.6250    84.7170     2.2300    78.6940     8.9270     4.0100     5.5600    26.7790 
   61.7500    80.3530     2.2310    74.2120     8.8150     5.0760     7.0370    26.3630 
   61.8750    76.9510     2.2600    74.1230     9.1050     5.9670     9.5150    26.1320 
   62.0000    74.2730     2.3010    79.5220     9.2690     6.5260    13.0850    25.8600 
   62.1250    72.1100     2.3130    83.9390     8.6000     6.6190    14.4390    25.5880 
   62.2500    70.2140     2.2870    83.0400     7.5870     6.4900    11.6550    25.3650 
   62.3750    68.5080     2.2410    77.8690     6.9030     6.3990     8.5160    25.2210 
   62.5000    66.9500     2.2010    73.1870     6.8570     6.5280     8.3850    25.4010 
   62.6250    65.5570     2.1820    72.1940     7.5810     6.9550    10.7090    25.2920 
   62.7500    64.3170     2.1770    72.7620     8.7370     7.5280    12.0590    25.2260 
   62.8750    63.2430     2.1770    72.7830     9.8780     8.0570    11.6860    25.2100 
   63.0000    62.3580     2.1770    71.6110    10.4560     8.3540    10.9780    25.2110 
   63.1250    61.7390     2.1720    70.1620    10.0080     8.2810    10.7270    25.2450 
   63.2500    61.3870     2.1610    69.8620     9.0810     7.9500    10.4130    25.3190 
   63.3750    61.3110     2.1480    72.0780     8.2370     7.4750    10.1330    25.3930 
   63.5000    61.4890     2.1370    76.3120     7.8210     6.9770     9.8990    25.4290 
   63.6250    61.8590     2.1320    77.5230     8.0620     6.5980     9.4270    25.4240 
   63.7500    62.2820     2.1320    74.9530     8.7760     6.4230     8.8450    25.3900 
   63.8750    62.6690     2.1350    72.0550     9.7260     6.5190     8.4360    25.3320 
   64.0000    62.9670     2.1410    71.3770    10.6740     6.9120     8.4030    25.2800 
   64.1250    63.1430     2.1650    73.1600    11.4890     7.5650     8.7260    25.2630 
   64.2500    63.2430     2.2150    74.5290    11.8840     8.2220     9.1700    25.2650 
   64.3750    63.3190     2.2840    74.9060    11.2740     8.5930     9.6480    25.3100 
   64.5000    63.4280     2.3470    76.8730     9.5010     8.4560     9.8670    25.4250 
   64.6250    63.5940     2.3680    83.1230     7.5690     7.7740     8.8640    25.5660 
   64.7500    63.7870     2.3480    90.6010     7.4480     6.9110     7.0560    25.6440 
   64.8750    63.9600     2.3100    95.4690     7.5670     6.1340     5.5620    25.6370 
   65.0000    64.0410     2.2790    95.8330     7.6870     5.6110     5.1250    25.5760 
   65.1250    63.9460     2.2650    92.1430     7.7880     5.4830     5.7020    25.4910 
   65.2500    63.6660     2.2610    87.6220     7.9630     5.7100     6.1410    25.4080 
   65.3750    63.2160     2.2620    83.3930     8.5810     6.2660     6.0620    25.3330 
   65.5000    62.6250     2.2630    79.5360     9.5650     7.0890     6.1540    25.2540 
   65.6250    61.9590     2.2570    75.4120    10.7230     8.0340     7.3440    25.1840 
   65.7500    61.3210     2.2430    71.8640    11.5790     8.8000     8.9050    25.1460 
   65.8750    60.7930     2.2230    69.4520    11.6740     9.0960     9.6830    25.1410 
   66.0000    60.4540     2.2040    69.0720    10.8400     8.7470     9.5830    25.1510 
   66.1250    60.3860     2.1970    73.3680     9.3090     7.7780     9.3010    25.2080 
   66.2500    60.5420     2.2000    79.3580     7.7530     6.6310     8.5570    25.3530 
   66.3750    60.8550     2.2080    85.1360     6.5740     5.6260     6.9230    25.5450 
   66.5000    61.2320     2.2160    92.4650     5.9770     4.9780     5.1810    25.6850 
   66.6250    61.5650     2.2320    99.8420     6.1300     4.8700     4.3360    25.7160 
   66.7500    61.7650     2.2610    99.8290     6.9030     5.2530     4.3110    25.7130 
   66.8750    61.7610     2.2940    89.7380     8.1900     6.0860     5.3040    25.6980 
   67.0000    61.5180     2.3100    76.4190     9.7090     7.2230     7.8770    25.6460 
   67.1250    61.0340     2.2860    67.0670    10.8770     8.3220    11.6570    25.5670 
   67.2500    60.4160     2.2390    62.1420    11.3340     9.0390    13.0600    25.5220 
   67.3750    59.7360     2.1890    60.7070    11.1470     9.2750    11.2900    25.5450 
   67.5000    59.0730     2.1540    61.0160    10.6360     9.1410     9.5880    25.6160 
   67.6250    58.5160     2.1410    61.7360    10.0960     8.8130     9.3220    25.6800 
   67.7500    58.1160     2.1420    63.3790     9.6010     8.4320     9.3330    25.7080 
   67.8750    57.8970     2.1490    66.7930     9.0620     7.9940     9.4020    25.7110 
   68.0000    57.8410     2.1600    69.9540     8.4050     7.4720     9.3090    25.7150 
   68.1250    57.8850     2.1730    72.1980     7.7160     6.9170     8.7580    25.6820 
   68.2500    57.9170     2.1820    76.8160     7.2240     6.4710     8.0980    25.5800 
   68.3750    57.8740     2.1890    83.6670     7.1110     6.2570     7.4310    25.4470 
   68.5000    57.7140     2.1940    87.8720     7.4810     6.3650     6.8080    25.3580 
   68.6250    57.3790     2.2000    84.6390     8.4040     6.8860     6.6120    25.3510 
   68.7500    56.8900     2.2070    77.1730     9.6240     7.7000     7.2910    25.3640 
   68.8750    56.2980     2.2150    70.7800    10.8380     8.6350     8.7850    25.3610 
   69.0000    55.6730     2.2220    67.1670    11.6980     9.4380    10.2080    25.3670 
   69.1250    55.0750     2.2210    64.8130    11.8730     9.7910    10.8530    25.4140 
   69.2500    54.5290     2.2100    63.6660    11.5250     9.7010    11.0500    25.4790 
   69.3750    54.0500     2.1920    63.7830    10.9080     9.3110    10.8560    25.5360 
   69.5000    53.6460     2.1710    64.2600    10.2790     8.8220    10.2330    25.5750 
   69.6250    53.3370     2.1540    63.6230     9.8120     8.3990     9.5540    25.5990 
   69.7500    53.0990     2.1440    63.2310     9.5040     8.0890     9.3450    25.6070 
   69.8750    52.9010     2.1360    63.7720     9.3710     7.9160     9.4100    25.5900 
   70.0000    52.7060     2.1240    63.1660     9.5070     7.9450     9.3880    25.5270 
   70.1250    52.5300     2.1130    60.8600    10.1510     8.3430     9.4240    25.4120 
   70.2500    52.3840     2.1200    59.1320    11.2930     9.1280     9.5740    25.3140 
   70.3750    52.2660     2.1640    57.5220    12.7760    10.2370     9.9200    25.2620 
   70.5000    52.1640     2.2420    55.4020    14.1910    11.4310    11.0290    25.2280 
   70.6250    52.0610     2.3110    54.8280    14.7620    12.1500    14.1880    25.1710 
   70.7500    51.9490     2.3280    57.0200    14.2330    12.0700    17.4410    25.0790 
   70.8750    51.8120     2.2900    60.3730    12.8920    11.2810    16.9020    24.9610 
   71.0000    51.6490     2.2270    63.1440    11.3970    10.2020    13.2500    24.8510 
   71.1250    51.4520     2.1730    66.7250    10.4130     9.3120    10.9470    24.8020 
