~V
VERS. 2.00: Ver 2.00
~W
STRT.M 40.0000:
STOP.M 206.0000:
STEP.M 0.1250:
NULL. -999.2500:
UWI. F10149:
~C
DEPT.M :
SP.MV :
DEN.GM/CC :
GR.API :
RML.OHMM :
RI. :
RXO.OHMM :
CALI.CM :
~A
# ...
  163.7500   -26.5260     2.2250    67.7910    91.6130    88.8110    75.7770    25.0580 
  163.8750   -26.4620     2.2330    69.1910    85.0130    82.4930    56.2350    25.0030 
  164.0000   -26.3490     2.2380    66.6270    79.6020    77.0290    51.3950    24.9500 
  164.1250   -26.2180     2.2420    61.3240    75.3230    72.5160    49.3050    24.9280 
  164.2500   -26.0770     2.2500    59.0180    71.5520    68.5200    45.0830    24.9110 
  164.3750   -25.9320     2.2600    62.3600    67.9770    64.8070    46.5360    24.8890 
  164.5000   -25.7870     2.2720    67.5570    64.5400    61.2510    49.7140    24.8690 
  164.6250   -25.6480     2.2830    70.9430    61.4780    57.9340    48.3410    24.8520 
  164.7500   -25.5000     2.2900    71.3340    59.0330    55.0900    45.3610    24.8460 
  164.8750   -25.3620     2.2960    68.4930    57.5070    53.0370    44.9550    24.8450 
  165.0000   -25.2680     2.3000    64.9890    57.2230    52.0930    44.3290    24.8450 
  165.1250   -25.2010     2.3020    63.8730    58.8850    52.8510    42.7670    24.8450 
  165.2500   -25.1430     2.3000    64.7020    62.5310    55.3160    43.6580    24.8450 
  165.3750   -25.0900     2.2920    64.0810    67.9960    59.3600    51.3170    24.8420 
  165.5000   -25.0430     2.2800    62.6130    74.3720    64.2910    67.0550    24.8310 
  165.6250   -25.0000     2.2660    64.6480    79.3660    68.4190    74.9530    24.7980 
  165.7500   -24.9660     2.2560    66.3120    80.8000    70.0070    78.4810    24.7280 
  165.8750   -24.9050     2.2530    64.7740    77.8390    68.2000    81.7780    24.6040 
  166.0000   -24.8050     2.2580    61.6580    71.6880    63.6390    79.6100    24.4600 
  166.1250   -24.6780     2.2740    60.4550    65.1310    58.2970    66.4220    24.3640 
  166.2500   -24.5330     2.2940    62.4260    60.3870    54.1170    56.5750    24.3230 
  166.3750   -24.3970     2.3140    65.8370    57.8700    51.6310    47.8420    24.3250 
  166.5000   -24.2490     2.3290    68.4050    56.9080    50.5150    47.8140    24.3330 
  166.6250   -24.0870     2.3390    67.2330    55.8490    49.6530    54.2630    24.2590 
  166.7500   -23.9230     2.3490    65.5910    52.8140    47.4190    58.8450    24.1110 
  166.8750   -23.7810     2.3620    67.0070    46.9650    42.8570    52.3710    23.9810 
  167.0000   -23.6570     2.3760    70.3170    38.9740    36.2810    40.4590    23.9670 
  167.1250   -23.5490     2.3850    74.7960    30.8720    29.2940    29.6660    23.9750 
  167.2500   -23.4710     2.3870    79.5690    24.3730    23.4780    22.9660    23.9240 
  167.3750   -23.3890     2.3860    81.6400    20.0000    19.3570    17.7790    23.8530 
  167.5000   -23.2970     2.3880    79.0440    17.6380    16.8860    15.6340    23.8000 
  167.6250   -23.2210     2.3920    77.1150    17.1040    15.9550    16.2700    23.7540 
  167.7500   -23.1510     2.3930    78.8600    17.6560    16.0010    17.6300    23.7240 
  167.8750   -23.0990     2.3880    79.6700    18.8750    16.7460    19.3990    23.7140 
  168.0000   -23.0650     2.3770    77.5830    20.3080    17.8610    21.2740    23.7130 
  168.1250   -23.0510     2.3650    74.1410    21.3920    18.8890    22.6760    23.7130 
  168.2500   -23.0470     2.3600    72.4890    21.8550    19.4850    22.6260    23.7130 
  168.3750   -23.0700     2.3630    73.1060    21.7620    19.6040    22.5970    23.7130 
  168.5000   -23.1510     2.3740    75.2130    21.4930    19.4600    22.5900    23.7130 
  168.6250   -23.2620     2.3860    75.8190    21.7010    19.5250    23.5680    23.7130 
  168.7500   -23.4040     2.3900    73.7590    22.7990    20.2300    23.2450    23.7150 
  168.8750   -23.5640     2.3810    72.0880    24.9140    21.8330    24.0150    23.7310 
  169.0000   -23.6940     2.3610    72.1540    27.8320    24.3260    26.0920    23.8390 
  169.1250   -23.7840     2.3360    71.3340    30.8870    27.2760    31.9480    24.1600 
  169.2500   -23.8710     2.3150    68.8400    33.1610    29.7280    39.5120    24.6440 
  169.3750   -23.9620     2.3030    67.7630    34.0550    30.9550    44.4850    25.0270 
  169.5000   -24.0360     2.3020    70.2800    33.4170    30.6810    38.9710    25.2040 
  169.6250   -24.0980     2.3160    73.4300    31.3610    29.0050    30.2620    25.2080 
  169.7500   -24.1700     2.3410    73.9760    28.5390    26.6100    27.0230    25.1060 
  169.8750   -24.2510     2.3690    71.6650    25.2140    23.7630    28.4790    24.9540 
  170.0000   -24.3650     2.3890    68.9370    21.6130    20.6430    29.7570    24.9110 
  170.1250   -24.5250     2.3850    68.0690    18.1520    17.5770    22.3080    24.9790 
  170.2500   -24.6760     2.3630    69.9590    15.2490    14.9500    16.6270    24.9800 
  170.3750   -24.7950     2.3400    74.7470    13.1780    13.0230    13.7860    24.8490 
  170.5000   -24.8840     2.3320    80.1040    12.0810    11.9450    12.6390    24.5410 
  170.6250   -24.9510     2.3450    83.1140    12.1100    11.8970    12.4440    24.1700 
  170.7500   -24.9510     2.3660    84.5940    12.9580    12.6320    12.6910    23.9970 
  170.8750   -24.8730     2.3760    86.3150    14.3480    13.9220    14.1500    24.0930 
  171.0000   -24.7370     2.3690    88.1600    15.8220    15.3830    17.4020    24.3510 
  171.1250   -24.5620     2.3500    86.4700    16.6470    16.3680    20.3870    24.4300 
  171.2500   -24.3900     2.3360    83.8610    16.5420    16.5170    18.3930    24.3680 
  171.3750   -24.2310     2.3360    83.0970    15.6960    15.8920    14.7970    24.2710 
  171.5000   -24.1030     2.3530    83.5850    14.6040    14.8840    12.3990    24.1640 
  171.6250   -24.0220     2.3810    84.9570    13.7970    13.9540    11.8380    23.9830 
  171.7500   -24.0050     2.4060    87.0050    13.3990    13.3020    11.8130    23.8100 
  171.8750   -24.0520     2.4250    88.7280    13.2960    12.8900    12.0690    23.6980 
  172.0000   -24.1580     2.4330    87.5170    13.3330    12.6120    12.5190    23.6670 
  172.1250   -24.2890     2.4310    82.5680    13.5570    12.4710    12.8990    23.6970 
  172.2500   -24.4320     2.4220    79.1210    14.2630    12.6320    13.0010    23.7350 
  172.3750   -24.5990     2.4080    80.3200    15.9190    13.3910    13.4980    23.7980 
  172.5000   -24.7680     2.3950    83.5140    19.1380    15.1870    15.9470    23.9130 
  172.6250   -24.9010     2.3880    80.9840    25.1630    19.0810    24.1060    24.0190 
  172.7500   -25.0150     2.3840    73.4120    34.4860    25.7590    40.8950    24.0670 
  172.8750   -25.1340     2.3730    65.6160    47.7500    36.0510    57.4930    24.0730 
  173.0000   -25.2560     2.3440    60.6780    65.0560    50.2620    68.3130    24.1000 
  173.1250   -25.3490     2.2930    58.0830    85.3500    67.5580    96.2290    24.2490 
  173.2500   -25.4060     2.2330    57.1730   105.0570    84.6840   119.2200    24.5190 
  173.3750   -25.4260     2.1790    57.9240   122.0030    99.6360   118.9340    24.7230 
  173.5000   -25.4270     2.1420    58.8480   136.5280   112.3390   109.3040    24.7990 
  173.6250   -25.4150     2.1320    58.4600   150.7580   124.1470   116.7070    24.8030 
  173.7500   -25.3630     2.1410    57.8840   166.5100   136.7130   132.6530    24.7950 
  173.8750   -25.2380     2.1600    58.5770   184.4460   150.7700   157.7680    24.7680 
  174.0000   -25.0180     2.1780    59.9130   203.8180   165.9270   200.0380    24.7390 
  174.1250   -24.7070     2.1860    59.5070   221.3470   179.8730   202.7850    24.7530 
  174.2500   -24.3620     2.1840    57.9480   234.3500   190.4890   182.3120    24.8100 
  174.3750   -23.9810     2.1720    56.3140   242.8120   197.5080   171.7290    24.8450 
  174.5000   -23.5410     2.1590    55.3050   249.3380   202.8510   174.3650    24.8250 
  174.6250   -23.0530     2.1570    55.7200   259.1990   211.0030   180.6030    24.7580 
  174.7500   -22.5190     2.1810    55.7560   277.0590   226.2870   185.7030    24.6420 
  174.8750   -21.9530     2.2380    53.7240   306.4960   252.3660   199.9530    24.4590 
