~V
VERS. 2.00: Ver 2.00
~W
STRT.M 49.0000:
STOP.M 251.0000:
STEP.M 0.1250:
NULL. -999.2500:
UWI. F10165:
~C
DEPT.M :
GR.API :
RML.OHMM :
RI. :
RXO.OHMM :
CALI.CM :
SP.MV :
DEN.GM/CC :
~A
# ...
  206.5000    76.0680    12.2490     9.8250    12.2670    24.7400   -24.0130     2.2330 
  206.6250    73.7400    14.8650    11.8100    16.1520    24.7010   -24.0970     2.2160 
  206.7500    75.2720    17.4790    14.0420    19.5710    24.7000   -24.1930     2.2100 
  206.8750    76.0480    19.3350    15.9370    21.4070    24.7440   -24.2920     2.2130 
  207.0000    75.2640    19.9360    16.9560    21.9350    24.8130   -24.3670     2.2190 
  207.1250    75.2230    19.3440    16.9240    20.9600    24.8640   -24.4010     2.2240 
  207.2500    75.2970    18.4840    16.4900    18.3240    24.8720   -24.4250     2.2220 
  207.3750    73.9960    17.9450    16.1410    16.2220    24.8330   -24.4770     2.2110 
  207.5000    72.6030    17.9810    16.1540    16.6950    24.7810   -24.5520     2.1960 
  207.6250    71.8020    18.6050    16.6500    18.2060    24.7680   -24.5840     2.1870 
  207.7500    71.1900    19.4510    17.4200    19.4420    24.7770   -24.5840     2.1870 
  207.8750    71.3380    20.1840    18.2210    20.0210    24.7770   -24.6160     2.1930 
  208.0000    73.8270    20.5240    18.7850    20.0560    24.7810   -24.7080     2.2010 
  208.1250    77.9890    20.3210    18.8940    19.8990    24.8050   -24.8300     2.2100 
  208.2500    79.3520    19.8410    18.6960    19.3990    24.8200   -24.9290     2.2160 
  208.3750    78.3890    19.3230    18.3740    18.7560    24.8310   -24.9900     2.2120 
  208.5000    77.2830    18.9310    18.0780    17.7540    24.8510   -25.0430     2.1980 
  208.6250    75.0640    18.7340    17.8890    17.9700    24.8830   -25.1360     2.1830 
  208.7500    71.4690    18.6310    17.7550    18.8680    24.9140   -25.2340     2.1750 
  208.8750    68.4200    18.5300    17.6120    19.8060    24.9530   -25.3030     2.1690 
  209.0000    69.6010    18.4130    17.4500    19.9900    24.9920   -25.3550     2.1630 
  209.1250    74.0180    18.4200    17.3910    19.4410    25.0260   -25.4250     2.1620 
  209.2500    76.0030    18.7830    17.6220    18.7600    25.0400   -25.5170     2.1660 
  209.3750    74.1490    19.7650    18.3590    18.8560    25.0420   -25.6090     2.1700 
  209.5000    72.4820    21.6180    19.8120    20.2630    25.0310   -25.6900     2.1690 
  209.6250    73.3330    24.7280    22.3360    24.1930    24.9970   -25.7760     2.1720 
  209.7500    72.0630    29.0510    25.9450    29.8070    24.9760   -25.8680     2.1800 
  209.8750    67.8400    34.6530    30.7550    35.9310    25.0420   -25.9520     2.1870 
  210.0000    63.2100    41.4880    36.7860    43.9980    25.1990   -26.0230     2.1860 
  210.1250    60.3370    49.3040    43.8950    55.3220    25.3390   -26.0880     2.1730 
  210.2500    57.0120    57.0580    51.1690    69.5310    25.4100   -26.1470     2.1510 
  210.3750    54.9080    63.5660    57.5990    83.6020    25.4320   -26.1970     2.1270 
  210.5000    55.7840    67.6830    62.1730    88.5990    25.4370   -26.2360     2.1100 
  210.6250    58.2110    68.6080    64.0210    82.8410    25.4170   -26.2760     2.1060 
  210.7500    59.6730    67.8060    64.1410    73.2160    25.3300   -26.3430     2.1130 
  210.8750    59.5370    66.6690    63.6470    71.8840    25.2520   -26.4290     2.1260 
  211.0000    59.4600    66.2040    63.5210    75.0200    25.2080   -26.4920     2.1360 
  211.1250    61.2910    66.8970    64.4160    74.6910    25.1680   -26.4980     2.1340 
  211.2500    63.0050    68.2280    66.0530    74.2790    25.1510   -26.5010     2.1310 
  211.3750    62.8550    69.5980    67.9330    76.1130    25.1080   -26.5420     2.1370 
  211.5000    60.7480    70.5360    69.5600    78.4500    25.0620   -26.5990     2.1490 
  211.6250    57.9180    70.6330    70.8370    80.6860    25.0410   -26.6030     2.1550 
  211.7500    56.5500    71.1710    70.5880    82.7290    25.0220   -26.5700     2.1500 
  211.8750    58.4850    70.9200    69.5400    83.4550    24.9890   -26.5530     2.1430 
  212.0000    61.5900    69.5510    67.4180    82.6190    24.9630   -26.5630     2.1390 
  212.1250    62.9050    66.9770    64.3110    81.7790    24.9690   -26.5700     2.1410 
  212.2500    62.8590    64.1360    61.2420    75.9230    24.9350   -26.5640     2.1530 
  212.3750    63.3060    62.0750    59.2560    62.7020    24.8940   -26.5520     2.1730 
  212.5000    64.2130    61.8650    59.3480    51.6700    24.8570   -26.5370     2.1840 
  212.6250    63.0160    64.9270    62.8120    58.8980    24.8350   -26.5130     2.1690 
  212.7500    62.1880    71.3750    69.6340    77.3260    24.8410   -26.4710     2.1400 
  212.8750    63.0960    81.3520    79.9080    95.3260    24.8750   -26.4130     2.1190 
  213.0000    62.9980    94.3560    93.1190   109.5110    24.9240   -26.3590     2.1200 
  213.1250    59.7460   108.2860   107.0420   120.3380    24.9970   -26.3050     2.1550 
  213.2500    56.9850   118.9380   117.1060   131.6580    25.0500   -26.2140     2.2050 
  213.3750    57.2770   122.5680   119.1890   159.7440    25.0740   -26.0760     2.2520 
  213.5000    58.5320   117.5360   111.9970   203.2580    25.0510   -25.9360     2.2880 
  213.6250    58.0430   104.8770    97.8600   178.2900    24.9220   -25.8520     2.2940 
  213.7500    56.6830    90.1700    82.8940   116.7210    24.8130   -25.7880     2.2570 
  213.8750    54.8770    76.7950    70.1050    80.7510    24.8240   -25.6840     2.1970 
  214.0000    53.2780    66.3770    60.5330    69.4410    24.8710   -25.5300     2.1570 
  214.1250    54.9320    59.5730    54.4890    66.4370    24.8910   -25.3910     2.1590 
  214.2500    59.2180    55.3370    50.8500    63.9910    24.8870   -25.3040     2.1770 
  214.3750    62.8160    53.1410    49.0710    61.4000    24.8670   -25.2320     2.2000 
  214.5000    63.8770    52.5360    48.6990    58.4030    24.8150   -25.1170     2.2290 
  214.6250    63.4100    53.1170    49.2440    58.0040    24.7500   -24.9410     2.2690 
  214.7500    64.2220    53.6200    49.4380    61.8130    24.6990   -24.7620     2.3260 
  214.8750    65.8420    52.3510    47.7490    67.1720    24.6810   -24.6160     2.3990 
  215.0000    65.5860    47.6980    42.9580    72.1380    24.6780   -24.4810     2.4690 
  215.1250    62.4290    39.4740    35.2400    65.9410    24.6780   -24.3040     2.4980 
  215.2500    59.6510    30.6720    27.2410    49.0450    24.6780   -24.1070     2.4800 
  215.3750    58.5270    23.2810    20.6220    29.0640    24.6670   -23.9340     2.4310 
  215.5000    57.9920    18.0270    15.9980    16.1620    24.6030   -23.7910     2.3730 
  215.6250    56.6910    14.9800    13.4590    13.5070    24.4120   -23.6420     2.3310 
  215.7500    54.8810    13.3000    12.2200    12.9520    24.1930   -23.4750     2.3110 
  215.8750    52.7330    12.5860    11.8620    12.9600    24.1300   -23.3100     2.3090 
  216.0000    51.5680    12.5000    11.9990    13.9870    24.2600   -23.1590     2.3150 
  216.1250    52.6450    12.7340    12.2810    15.2830    24.5040   -23.0190     2.3180 
  216.2500    54.6470    12.9870    12.4640    15.9260    24.6790   -22.8920     2.3150 
  216.3750    57.3760    13.1920    12.5400    15.6320    24.7130   -22.7750     2.3120 
  216.5000    61.6770    13.3950    12.6090    14.2790    24.6120   -22.6660     2.3230 
  216.6250    65.7600    13.6830    12.7980    13.5940    24.5060   -22.5680     2.3490 
  216.7500    68.7060    14.0400    13.0950    14.9920    24.5120   -22.4580     2.3680 
  216.8750    72.9020    14.3580    13.3820    17.7400    24.6180   -22.3310     2.3700 
  217.0000    79.1260    14.4570    13.4740    18.8660    24.7330   -22.2190     2.3600 
  217.1250    84.1410    14.0910    13.1280    17.7780    24.8470   -22.1440     2.3600 
  217.2500    85.8310    13.2940    12.3660    16.3680    24.9320   -22.0290     2.3710 
  217.3750    83.5940    12.2010    11.3180    15.3160    25.0180   -21.8480     2.3800 
  217.5000    76.7660    11.0190    10.1900    12.8780    25.1250   -21.6420     2.3760 
  217.6250    67.0540     9.9450     9.1850    10.8490    25.2700   -21.4680     2.3570 
