~V
VERS. 2.00: Ver 2.00
~W
STRT.M 52.0000:
STOP.M 216.0000:
STEP.M 0.1250:
NULL. -999.2500:
UWI. F10126:
~C
DEPT.M :
DEN.GM/CC :
GR.API :
RML.OHMM :
RI. :
RXO.OHMM :
CALI.CM :
SP.MV :
~A
# ...
   63.2500     2.0410    66.9690    10.1580     7.9880    10.6350    26.5090   -14.8870 
   63.3750     2.0460    62.4630    11.5790     8.8050    11.4390    26.4820   -15.2720 
   63.5000     2.1170    58.8670    14.6030    10.9100    15.7500    26.1640   -15.5790 
   63.6250     2.2640    58.4260    20.3610    15.6990    34.3760    25.6330   -15.8460 
   63.7500     2.4470    59.6130    28.2650    23.7150    71.5490    24.9670   -16.1940 
   63.8750     2.6200    62.1180    36.3360    34.1440    94.3050    24.5130   -16.7260 
   64.0000     2.7320    66.1280    41.3710    42.6560    85.8180    24.3480   -17.4810 
   64.1250     2.7360    70.2540    39.9660    41.6700    81.8830    24.4930   -18.4620 
   64.2500     2.6470    70.5180    33.8880    33.7150    68.3090    24.8330   -19.5780 
   64.3750     2.4990    65.6240    26.0600    24.5580    39.4320    25.4530   -20.7810 
   64.5000     2.3410    60.6080    19.1620    17.5960    19.0200    26.4570   -22.0230 
   64.6250     2.2280    62.1340    14.7640    13.5890    14.3300    27.7380   -23.1930 
   64.7500     2.1730    66.9350    12.3050    11.3200    13.6050    28.4050   -24.2330 
   64.8750     2.1620    69.8370    11.2210    10.2100    13.3930    28.5880   -25.0980 
   65.0000     2.1680    70.0080    10.9790     9.8790    13.0970    28.5330   -25.7370 
   65.1250     2.1660    69.8030    11.1630    10.0440    13.1290    28.4010   -26.0700 
   65.2500     2.1510    69.6240    11.3710    10.3060    13.1510    28.2810   -26.1800 
   65.3750     2.1300    69.3780    11.4210    10.4490    12.6810    28.2690   -26.1100 
   65.5000     2.1210    71.1730    11.2290    10.3600    11.9870    27.9270   -25.9570 
   65.6250     2.1370    75.7840    10.8030    10.0050    10.9970    26.9400   -25.7850 
   65.7500     2.1700    79.0800    10.3160     9.5440    10.3040    25.7950   -25.6140 
   65.8750     2.2100    79.7730     9.9230     9.1300    10.1290    25.0160   -25.4710 
   66.0000     2.2450    78.7920     9.7420     8.8860    10.0510    24.5530   -25.3870 
   66.1250     2.2660    78.1370     9.8480     8.8920    10.1510    24.3780   -25.3790 
   66.2500     2.2750    77.5560    10.1210     9.0590    11.0590    24.5380   -25.4260 
   66.3750     2.2710    75.5560    10.4280     9.2740    11.6390    24.9360   -25.5310 
   66.5000     2.2570    73.6230    10.6300     9.4050    11.3310    25.4840   -25.6660 
   66.6250     2.2380    73.3180    10.6080     9.3350    11.2570    26.1620   -25.8580 
   66.7500     2.2240    71.5220    10.4120     9.1110    11.1320    27.0420   -26.1350 
   66.8750     2.2190    67.6230    10.1290     8.8200    11.0580    28.1170   -26.4740 
   67.0000     2.2190    65.1490     9.8560     8.5560    11.1680    29.1700   -26.8430 
   67.1250     2.2170    65.5480     9.6760     8.3990    11.3580    30.0670   -27.2380 
   67.2500     2.2100    64.8310     9.5810     8.3390    11.2720    30.9590   -27.6740 
   67.3750     2.2010    61.3610     9.5390     8.3380    11.4030    31.8270   -28.1500 
   67.5000     2.1960    57.8310     9.5060     8.3490    11.6290    32.4720   -28.6220 
   67.6250     2.1970    56.3610     9.4450     8.3300    11.8780    32.8380   -29.0300 
   67.7500     2.2030    56.4410     9.3430     8.2680    11.8410    33.0520   -29.3600 
   67.8750     2.2080    56.0510     9.2080     8.1610    11.6590    33.2120   -29.6070 
   68.0000     2.2070    54.1270     9.0590     8.0210    11.6100    33.3070   -29.7610 
   68.1250     2.1970    52.8050     8.9290     7.8740    11.2740    33.3420   -29.7980 
   68.2500     2.1800    53.4060     8.8350     7.7420    11.6060    33.3420   -29.7120 
   68.3750     2.1570    56.2740     8.7770     7.6340    12.0870    33.3420   -29.5200 
   68.5000     2.1280    61.5390     8.7410     7.5440    12.0180    33.3420   -29.2820 
   68.6250     2.0960    66.4860     8.7250     7.4670    11.4220    33.3420   -28.9310 
   68.7500     2.0700    67.0590     8.7530     7.4180    10.7710    33.3420   -28.4250 
   68.8750     2.0530    64.9330     8.8860     7.4350     9.9930    33.2970   -27.8120 
   69.0000     2.0530    65.0240     9.2040     7.5860     9.3070    32.9680   -27.1340 
   69.1250     2.0750    67.3500     9.8040     7.9750     8.9850    31.9580   -26.4010 
   69.2500     2.1230    68.9140    10.6000     8.5760     9.5400    30.5680   -25.6460 
   69.3750     2.1970    71.1570    11.4380     9.2920    10.9080    29.4030   -24.8810 
   69.5000     2.2880    76.1730    12.0930     9.9210    13.6450    28.5800   -24.1190 
   69.6250     2.3700    81.7280    12.2820    10.1480    19.2560    27.7260   -23.5060 
   69.7500     2.4190    83.9040    12.0110     9.9160    22.9310    26.5870   -23.1490 
   69.8750     2.4230    84.7650    11.3970     9.3350    16.6570    25.4490   -23.0490 
   70.0000     2.3880    86.7400    10.6540     8.6310    11.6970    24.6520   -23.2200 
   70.1250     2.3310    87.7530    10.0300     8.0390    10.3820    24.6160   -23.7150 
   70.2500     2.2730    86.3350     9.6310     7.6550    10.4860    24.9890   -24.4430 
   70.3750     2.2250    82.2090     9.4550     7.4910    10.9080    25.6240   -25.3310 
   70.5000     2.1880    75.3480     9.4320     7.4990    11.2160    26.4140   -26.2870 
   70.6250     2.1670    69.0970     9.4690     7.6030    11.7680    27.2710   -27.1880 
   70.7500     2.1590    67.1710     9.4770     7.7080    12.0290    28.2240   -27.9400 
   70.8750     2.1560    68.9030     9.4220     7.7770    11.7880    29.1330   -28.4730 
   71.0000     2.1510    70.7060     9.3040     7.7920    11.2530    29.7730   -28.7130 
   71.1250     2.1390    69.8990     9.1470     7.7490    11.6680    30.0460   -28.5110 
   71.2500     2.1290    68.4220     9.0040     7.6850    11.8490    30.1240   -27.9360 
   71.3750     2.1290    68.3040     8.9050     7.6340    11.6250    29.9700   -27.0470 
   71.5000     2.1360    71.0930     8.8470     7.6090    10.9960    29.3290   -25.8790 
   71.6250     2.1390    76.8350     8.7770     7.5590    10.2870    28.1370   -24.3490 
   71.7500     2.1320    81.3070     8.6240     7.4080    10.3130    27.1750   -22.4700 
   71.8750     2.1250    83.7070     8.3550     7.1220    10.1540    26.3900   -20.2600 
   72.0000     2.1410    88.9160     7.9880     6.7290     8.1770    25.5020   -17.8370 
   72.1250     2.2000   101.8220     7.5830     6.3020     6.4930    24.7990   -15.4550 
   72.2500     2.2850   115.1800     7.2270     5.9140     5.8830    24.3350   -13.3250 
   72.3750     2.3710   119.6660     6.9730     5.6110     6.2960    24.1840   -11.5630 
   72.5000     2.4340   115.1760     6.8610     5.4260     7.2690    24.2350   -10.3000 
   72.6250     2.4550   108.4530     6.9450     5.4120     6.9360    24.5580    -9.8550 
   72.7500     2.4400   102.1700     7.2100     5.5580     6.2240    24.9530   -10.2550 
   72.8750     2.3920    94.5260     7.6420     5.8590     6.7500    25.2420   -11.5030 
   73.0000     2.3200    85.2470     8.1890     6.2880     9.2060    25.3770   -13.3990 
   73.1250     2.2470    76.9310     8.7540     6.7920    11.0510    25.5330   -15.6340 
   73.2500     2.1990    71.8120     9.2170     7.2720    11.4370    25.6650   -17.8890 
   73.3750     2.1870    69.4180     9.5130     7.6440    11.6840    25.6280   -20.0130 
   73.5000     2.2050    68.9730     9.6290     7.8590    12.3580    25.3870   -21.8550 
   73.6250     2.2240    68.2180     9.5940     7.9170    13.3370    25.2720   -23.1830 
   73.7500     2.2100    66.9320     9.5020     7.9090    12.7240    25.4410   -23.9710 
   73.8750     2.1560    65.2660     9.4020     7.8800    11.9610    25.8450   -24.1810 
   74.0000     2.0800    64.0410     9.3210     7.8480    11.5340    26.3130   -23.8670 
   74.1250     2.0210    64.8050     9.2710     7.8170    11.3850    26.4690   -23.0970 
   74.2500     2.0060    68.0340     9.2310     7.7790    11.0790    26.0800   -21.9880 
   74.3750     2.0360    72.4050     9.1540     7.6990    10.6950    25.4110   -20.6060 
