~V
VERS. 2.00: Ver 2.00
~W
STRT.M 53.0000:
STOP.M 246.0000:
STEP.M 0.1250:
NULL. -999.2500:
UWI. F10192:
~C
DEPT.M :
DEN.GM/CC :
GR.API :
RML.OHMM :
RI. :
RXO.OHMM :
CALI.CM :
SP.MV :
~A
# ...
  176.7500     2.2150    60.8200   139.9360   127.8230    88.6610    24.8770   -33.1560 
  176.8750     2.2110    59.1620   156.4550   142.4400    99.3850    24.8180   -33.2950 
  177.0000     2.2130    58.9260   170.6110   155.3940   112.7930    24.8110   -33.4110 
  177.1250     2.2190    58.4730   178.9970   163.6170   126.4400    24.8510   -33.5270 
  177.2500     2.2200    59.2840   179.1720   164.5790   130.2150    24.9120   -33.6150 
  177.3750     2.2170    59.9820   174.4400   160.6820   126.1430    24.9680   -33.6640 
  177.5000     2.2130    58.9280   167.9030   154.5280   119.8960    24.9920   -33.7040 
  177.6250     2.2100    58.9400   161.8430   148.3680   115.4990    24.9960   -33.6970 
  177.7500     2.2090    61.2730   157.4860   143.6160   115.2980    24.9960   -33.6410 
  177.8750     2.2100    61.8480   154.6440   140.2890   116.2930    24.9960   -33.5630 
  178.0000     2.2120    58.9810   153.1360   138.2690   115.0820    24.9960   -33.4720 
  178.1250     2.2150    57.0720   152.7610   137.3810   112.2640    25.0050   -33.3740 
  178.2500     2.2130    59.5160   153.5280   137.6370   113.0280    25.0380   -33.2410 
  178.3750     2.2100    63.2570   155.2180   138.8130   116.3630    25.1030   -33.1150 
  178.5000     2.2140    65.2200   157.7850   140.8770   119.2970    25.1780   -32.9700 
  178.6250     2.2250    65.8800   161.0940   143.7350   118.5710    25.2270   -32.8430 
  178.7500     2.2290    64.8340   164.8160   147.1580   119.9070    25.2240   -32.7060 
  178.8750     2.2240    62.2770   168.2340   150.5070   126.8500    25.2060   -32.5960 
  179.0000     2.2150    60.6990   170.6590   153.1570   135.0390    25.1820   -32.5090 
  179.1250     2.2120    61.0000   171.5720   154.5860   139.8090    25.1700   -32.4710 
  179.2500     2.2130    61.6070   170.6800   154.3940   141.7600    25.1570   -32.4280 
  179.3750     2.2130    61.5640   168.8200   153.1900   138.8440    25.1190   -32.4250 
  179.5000     2.2060    61.1770   166.6980   151.5900   133.3280    25.1020   -32.4860 
  179.6250     2.1950    60.6020   164.6470   150.0130   127.6540    25.1320   -32.5380 
  179.7500     2.1940    60.6610   161.9420   148.0430   125.6670    25.1730   -32.5960 
  179.8750     2.2050    63.9240   157.3910   144.6310   123.7260    25.1600   -32.6510 
  180.0000     2.2170    68.3710   150.3970   139.0370   123.1470    25.1270   -32.7280 
  180.1250     2.2230    68.9750   141.7120   131.6060   119.6410    25.1110   -32.7940 
  180.2500     2.2210    65.9320   133.6450   124.0810   100.9360    25.0830   -32.9120 
  180.3750     2.2170    64.6440   128.4740   118.6610    80.9220    25.0400   -33.0320 
  180.5000     2.2140    64.6030   127.5660   116.8400    73.1330    24.9590   -33.1710 
  180.6250     2.2120    63.4480   131.3410   119.3190    82.1420    24.8510   -33.3980 
  180.7500     2.2110    61.9970   139.6680   126.3200   100.9290    24.7870   -33.6550 
  180.8750     2.2140    62.5790   150.0080   135.6340   116.4400    24.7470   -33.8930 
  181.0000     2.2160    63.9170   160.0900   145.2270   126.1100    24.7830   -34.1260 
  181.1250     2.2160    63.9310   167.7550   153.0610   143.6160    24.8960   -34.3990 
  181.2500     2.2130    62.9980   171.2630   157.3330   161.1730    25.0650   -34.6830 
  181.3750     2.2080    62.0290   171.8120   158.8290   164.3540    25.2050   -34.9270 
  181.5000     2.2040    60.8820   170.5740   158.5400   160.2450    25.2770   -35.1260 
  181.6250     2.2000    60.5920   168.2390   157.1700   152.6830    25.2780   -35.2840 
  181.7500     2.2020    63.2300   164.4960   154.5300   144.7410    25.1710   -35.4080 
  181.8750     2.2090    65.5020   159.0520   150.3350   139.8600    25.0250   -35.5500 
  182.0000     2.2150    64.8470   151.8030   144.3340   139.9230    24.8930   -35.6780 
  182.1250     2.2190    63.8710   143.4190   136.9040   133.2970    24.8020   -35.7360 
  182.2500     2.2250    65.8460   135.6660   129.4130   118.2870    24.7600   -35.8350 
  182.3750     2.2320    67.3540   130.2180   123.5800   103.1300    24.7370   -35.9560 
  182.5000     2.2340    66.5810   127.9700   120.4570    95.8990    24.7330   -36.0630 
  182.6250     2.2280    65.1290   128.9820   120.3220    97.2030    24.7530   -36.1880 
  182.7500     2.2200    64.3550   133.0050   123.0880   107.3120    24.7700   -36.3460 
  182.8750     2.2180    63.2480   138.7890   127.5660   116.1470    24.7850   -36.5140 
  183.0000     2.2210    63.1890   145.9750   133.3050   121.2400    24.8090   -36.6640 
  183.1250     2.2220    63.9900   154.8400   140.3920   118.2310    24.8320   -36.8350 
  183.2500     2.2190    63.1520   167.0010   150.1490   117.9590    24.8410   -36.9250 
  183.3750     2.2140    62.2420   183.3240   163.4530   130.2020    24.8390   -37.0150 
  183.5000     2.2070    63.5460   204.2770   180.7900   160.3340    24.8250   -37.0820 
  183.6250     2.2000    66.4260   229.0800   201.4690   196.0240    24.7920   -37.1030 
  183.7500     2.1930    66.5080   255.1090   223.2170   218.5530    24.7720   -37.1090 
  183.8750     2.1890    63.6150   277.9800   242.4060   232.7280    24.7580   -37.1150 
  184.0000     2.1860    60.3600   294.2950   256.2950   241.0930    24.7390   -37.1210 
  184.1250     2.1850    59.7280   302.5460   263.6140   243.1370    24.7120   -37.1280 
  184.2500     2.1850    61.4880   302.1060   263.7210   244.9620    24.6980   -37.1490 
  184.3750     2.1870    61.6010   295.9100   258.8970   239.6200    24.6910   -37.1550 
  184.5000     2.1900    58.5150   286.0930   250.6990   226.9870    24.6890   -37.2120 
  184.6250     2.1940    55.2890   275.3970   241.2170   215.6950    24.6890   -37.2440 
  184.7500     2.1970    55.7070   267.2370   233.3190   204.2290    24.6890   -37.2950 
  184.8750     2.1990    57.8670   263.1730   228.8320   196.7080    24.6890   -37.2980 
  185.0000     2.2020    60.3370   263.3190   228.3680   195.9650    24.6840   -37.2920 
  185.1250     2.2040    62.6710   266.2370   231.1300   202.0160    24.6610   -37.2070 
  185.2500     2.2060    63.2630   268.8260   234.8320   212.1140    24.6080   -37.0510 
  185.3750     2.2060    62.4680   268.0970   236.5280   222.9730    24.5640   -36.8290 
  185.5000     2.2060    63.2650   262.7640   234.5960   224.6020    24.5470   -36.5050 
  185.6250     2.2070    65.1270   253.0150   228.6440   208.3690    24.5490   -36.1690 
  185.7500     2.2060    64.3900   239.0910   218.4870   184.5670    24.5570   -35.7190 
  185.8750     2.2070    61.7570   222.2550   205.1990   172.7410    24.5670   -35.2720 
  186.0000     2.2110    61.9440   203.4230   189.4420   174.3620    24.5710   -34.7980 
  186.1250     2.2170    64.7270   184.2400   172.5010   172.1620    24.5620   -34.3320 
  186.2500     2.2260    63.8670   167.5820   156.8030   149.4710    24.5720   -33.8450 
  186.3750     2.2320    59.5150   155.2070   144.4260   123.0630    24.6060   -33.3800 
  186.5000     2.2340    56.3940   147.7730   136.4280   107.4560    24.6510   -32.9790 
  186.6250     2.2280    57.0800   144.7700   132.7140   109.4540    24.6700   -32.5440 
  186.7500     2.2170    59.1130   145.1510   132.6120   132.9190    24.6770   -32.2100 
  186.8750     2.2080    59.8460   146.6310   134.0080   158.2220    24.6790   -31.8820 
  187.0000     2.2060    60.1830   147.9190   135.6100   167.1740    24.6820   -31.5900 
  187.1250     2.2130    59.7720   148.4360   136.6470   145.2250    24.6860   -31.3110 
  187.2500     2.2200    57.9410   148.3330   136.9920   122.8010    24.6860   -31.0930 
  187.3750     2.2240    57.6830   147.9640   136.9080   118.2750    24.6830   -30.9050 
  187.5000     2.2270    60.7300   146.9600   136.0910   117.8000    24.6840   -30.7400 
  187.6250     2.2340    66.0900   144.6020   133.9110   123.0970    24.6870   -30.6400 
  187.7500     2.2430    66.8330   140.1480   129.6070   123.4770    24.6890   -30.5140 
  187.8750     2.2480    63.7090   134.4720   123.8940   116.6240    24.6980   -30.3980 
