~V
VERS. 2.00: Ver 2.00
~W
STRT.M 62.0000:
STOP.M 275.0000:
STEP.M 0.1250:
NULL. -999.2500:
UWI. F10141:
~C
DEPT.M :
GR.API :
RML.OHMM :
RI. :
RXO.OHMM :
CALI.CM :
DEN.GM/CC :
SP.MV :
~A
   62.0000    79.9050     0.0810     0.2920     4.0470    24.9000     2.4490    15.5530 
   62.1250    87.3560     0.8260     0.7070     5.6490    24.8520     2.4070    14.0070 
   62.2500    88.6930     2.1350     1.5490     7.8220    24.8380     2.4020    12.2020 
   62.3750    84.6710     4.0860     2.9890    11.8580    24.8190     2.4130    10.1490 
   62.5000    79.6790     6.2360     4.8810    18.1500    24.7340     2.4010     7.8600 
   62.6250    78.0140     7.3790     6.4350    13.8710    24.5130     2.3360     5.4270 
   62.7500    78.3920     7.4260     7.1690     9.9830    24.3220     2.2470     3.1020 
   62.8750    79.7020     6.9830     7.2370     8.4770    24.2490     2.1750     1.1400 
   63.0000    82.2270     6.5150     6.9820     7.9050    24.2600     2.1420    -0.3310 
   63.1250    84.8690     6.2360     6.6890     7.0580    24.2730     2.1410    -1.4120 
   63.2500    85.6020     6.1410     6.5210     6.9770    24.2780     2.1410    -2.3070 
   63.3750    84.4130     6.2120     6.5300     6.9520    24.2780     2.1260    -3.0440 
   63.5000    80.9890     6.4840     6.7590     7.2830    24.2810     2.1070    -3.6370 
   63.6250    76.0340     7.1390     7.3500     7.6810    24.2980     2.1160    -4.0960 
   63.7500    74.0050     8.2340     8.3320     8.0100    24.3300     2.1720    -4.4930 
   63.8750    73.7440     9.7350     9.6660     9.2370    24.3860     2.2660    -4.9050 
   64.0000    71.5020    11.3690    11.1130    14.1110    24.4660     2.3600    -5.3840 
   64.1250    67.0010    12.3830    12.0440    27.4090    24.5910     2.4020    -5.8670 
   64.2500    63.9540    12.2990    12.0440    26.8130    24.5650     2.3800    -6.3530 
   64.3750    63.3670    11.2800    11.1970    16.0060    24.4420     2.3080    -6.8390 
   64.5000    64.6440     9.9430     9.9730    10.2290    24.3050     2.2140    -7.3080 
   64.6250    68.4710     8.9240     8.9050     8.6780    24.2390     2.1330    -7.7530 
   64.7500    71.3420     8.3980     8.2160     8.1170    24.2140     2.0760    -8.1780 
   64.8750    69.9810     8.3140     7.9180     7.7390    24.2120     2.0470    -8.5660 
   65.0000    65.8160     8.5160     7.9170     7.6850    24.2420     2.0450    -8.9010 
   65.1250    63.1260     8.8400     8.0930     7.7200    24.2550     2.0650    -9.1870 
   65.2500    62.9980     9.1650     8.3180     7.7740    24.2770     2.0900    -9.4380 
   65.3750    63.6490     9.4660     8.5500     8.1150    24.3430     2.1090    -9.6100 
   65.5000    62.9760     9.7370     8.7720     8.6310    24.4450     2.1160    -9.6730 
   65.6250    60.7500     9.9460     8.9560     8.8550    24.5090     2.1100    -9.6330 
   65.7500    59.9000    10.0700     9.0810     8.8080    24.4840     2.1010    -9.5680 
   65.8750    61.4910    10.0900     9.1260     8.8240    24.4330     2.0920    -9.4920 
   66.0000    63.8850    10.0120     9.0860     9.1280    24.4660     2.0850    -9.4270 
   66.1250    64.9050     9.8640     8.9660     9.6830    24.5860     2.0800    -9.3710 
   66.2500    65.2200     9.7100     8.8160    10.0910    24.6770     2.0790    -9.3080 
   66.3750    64.2190     9.5890     8.6730    10.3760    24.7200     2.0830    -9.2920 
   66.5000    62.4420     9.5230     8.5640    10.6290    24.7240     2.0950    -9.3570 
   66.6250    62.1620     9.5160     8.5030    10.6130    24.6930     2.1130    -9.5120 
   66.7500    63.0850     9.5460     8.4760    10.6260    24.6320     2.1300    -9.6940 
   66.8750    64.2620     9.6000     8.4720    10.7960    24.5700     2.1420    -9.9030 
   67.0000    65.0290     9.6650     8.4820    10.8060    24.5430     2.1440   -10.1220 
   67.1250    65.9380     9.7220     8.4970    10.6510    24.5750     2.1370   -10.3330 
   67.2500    66.1060     9.7460     8.4990    10.5090    24.6270     2.1270   -10.5330 
   67.3750    64.9870     9.7210     8.4750    10.3400    24.6560     2.1180   -10.6960 
   67.5000    62.3980     9.6430     8.4160    10.2110    24.6770     2.1150   -10.8310 
   67.6250    59.7070     9.5250     8.3230     9.7910    24.6990     2.1170   -10.9490 
   67.7500    59.7060     9.4060     8.2190    10.3120    24.6860     2.1200   -11.0350 
   67.8750    61.9680     9.3130     8.1220    10.5780    24.6260     2.1190   -11.0840 
   68.0000    62.4650     9.2570     8.0460    10.4910    24.5870     2.1150   -11.0770 
   68.1250    60.2100     9.2380     7.9970    10.1920    24.5940     2.1070   -11.0190 
   68.2500    60.8630     9.2300     7.9630    10.1800    24.5950     2.1010   -10.9260 
   68.3750    64.3610     9.2070     7.9290    10.2760    24.5770     2.0980   -10.7860 
   68.5000    66.1520     9.1490     7.8820    10.3110    24.5390     2.0960   -10.6140 
   68.6250    65.1330     9.0600     7.8180    10.1200    24.5080     2.0860   -10.4420 
   68.7500    65.3580     9.0010     7.7740     9.9490    24.5160     2.0630   -10.2980 
   68.8750    66.2410     9.0420     7.7950     9.8330    24.5940     2.0370   -10.1850 
   69.0000    64.6640     9.2320     7.9170     9.7170    24.6800     2.0310   -10.1150 
   69.1250    61.9220     9.5770     8.1580    10.4200    24.7370     2.0800   -10.1290 
   69.2500    60.9860     9.9610     8.4440    14.5040    24.8170     2.1720   -10.1750 
   69.3750    60.9800    10.2630     8.6900    26.4660    24.8280     2.2710   -10.2630 
   69.5000    62.0610    10.3810     8.8130    36.9140    24.6780     2.3320   -10.3820 
   69.6250    65.6980    10.2570     8.7500    23.7710    24.3640     2.3210   -10.4940 
   69.7500    68.5800    10.0130     8.5740    13.0450    24.1140     2.2630   -10.5930 
   69.8750    68.7990     9.7720     8.3690     9.8630    24.0230     2.1950   -10.6590 
   70.0000    67.4960     9.6350     8.2160     9.3180    24.0960     2.1440   -10.6840 
   70.1250    65.5790     9.6750     8.1760     9.4360    24.2480     2.1220   -10.6700 
   70.2500    63.5470     9.8370     8.2290     9.5920    24.2990     2.1180   -10.6380 
   70.3750    62.2430    10.0520     8.3350     9.7210    24.2470     2.1230   -10.6120 
   70.5000    62.2770    10.2310     8.4350     9.7180    24.1970     2.1320   -10.5930 
   70.6250    61.5970    10.2650     8.4470     9.9460    24.1810     2.1460   -10.6080 
   70.7500    61.4440    10.1260     8.3440    10.1770    24.1740     2.1650   -10.6070 
   70.8750    64.6990     9.8450     8.1400    10.1300    24.1870     2.1890   -10.6000 
   71.0000    70.6970     9.5130     7.8920     9.5620    24.2260     2.2110   -10.6210 
   71.1250    74.9950     9.2830     7.6980     8.5980    24.3990     2.2220   -10.6540 
   71.2500    74.3180     9.2490     7.6270     8.3280    24.6900     2.2170   -10.7790 
   71.3750    68.9210     9.4260     7.6990     8.9790    24.9200     2.1940   -10.9770 
   71.5000    62.6040     9.7550     7.8900     9.8580    24.9430     2.1610   -11.2380 
   71.6250    60.9420    10.1080     8.1350    10.3110    24.8730     2.1290   -11.5160 
   71.7500    62.2340    10.3590     8.3390    10.4400    24.8170     2.1060   -11.8240 
   71.8750    62.0990    10.4500     8.4480    10.5440    24.7780     2.0940   -12.1540 
   72.0000    59.2540    10.3930     8.4480    10.6510    24.7340     2.0900   -12.4810 
   72.1250    57.0480    10.2430     8.3600    10.5610    24.7140     2.0910   -12.7350 
   72.2500    57.6010    10.0880     8.2470    10.1800    24.7470     2.0970   -12.8980 
   72.3750    58.8310     9.9720     8.1460     9.5090    24.8410     2.1080   -13.0140 
   72.5000    58.9690     9.9170     8.0810     8.8280    24.9150     2.1280   -13.0770 
   72.6250    59.6390     9.9390     8.0690     8.5870    24.9780     2.1490   -13.0650 
   72.7500    61.5040    10.0040     8.0950     8.7640    25.0500     2.1620   -13.0420 
   72.8750    62.2270    10.0770     8.1390     9.0530    25.0230     2.1590   -13.0300 
   73.0000    60.3180    10.1180     8.1720     9.0990    24.8020     2.1390   -13.0490 
   73.1250    57.7330    10.0860     8.1650     8.8190    24.6040     2.1110   -13.1600 
