~V
VERS. 2.00: Ver 2.00
~W
STRT.M 50.0000:
STOP.M 284.0000:
STEP.M 0.1250:
NULL. -999.2500:
UWI. F10107:
~C
DEPT.M :
DEN.GM/CC :
SP.MV :
GR.API :
RML.OHMM :
RI. :
RXO.OHMM :
CALI.CM :
~A
# ...
   95.0000     2.1620    -6.4900    51.8460     8.2730     7.2160     7.3120    22.6050 
   95.1250     2.1680    -6.3610    52.6460     8.2960     7.2180     7.4090    22.5870 
   95.2500     2.1670    -6.2370    52.5080     8.3200     7.2180     7.1660    22.5440 
   95.3750     2.1610    -6.1260    52.4390     8.3550     7.2260     6.9120    22.4800 
   95.5000     2.1530    -6.0360    52.7050     8.4030     7.2450     6.8340    22.4380 
   95.6250     2.1480    -5.9670    51.5670     8.4620     7.2760     6.8020    22.4270 
   95.7500     2.1470    -5.9120    50.3260     8.5150     7.3080     6.8220    22.4410 
   95.8750     2.1490    -5.8670    50.8940     8.5460     7.3280     6.8770    22.4820 
   96.0000     2.1530    -5.8110    53.1810     8.5460     7.3290     6.9350    22.5390 
   96.1250     2.1560    -5.7110    54.4260     8.5090     7.3030     6.9320    22.5710 
   96.2500     2.1580    -5.5690    52.7540     8.4510     7.2590     6.8440    22.5970 
   96.3750     2.1600    -5.3970    49.7530     8.3850     7.2070     6.7010    22.6180 
   96.5000     2.1620    -5.1970    47.5960     8.3250     7.1530     6.6460    22.6290 
   96.6250     2.1650    -4.9850    49.5670     8.2790     7.1070     6.6810    22.6210 
   96.7500     2.1700    -4.7730    52.9150     8.2420     7.0650     6.8170    22.6010 
   96.8750     2.1740    -4.5670    53.1090     8.2040     7.0250     7.0070    22.6260 
   97.0000     2.1740    -4.3710    50.3600     8.1580     6.9810     7.2450    22.7660 
   97.1250     2.1710    -4.1970    49.2130     8.0980     6.9290     7.5590    22.9670 
   97.2500     2.1650    -4.0360    49.7430     8.0290     6.8700     7.7750    23.0590 
   97.3750     2.1600    -3.8710    49.6160     7.9550     6.8090     7.8460    22.9790 
   97.5000     2.1570    -3.7040    49.7780     7.8820     6.7490     7.7190    22.7410 
   97.6250     2.1610    -3.5330    52.3490     7.8190     6.6980     7.6000    22.5280 
   97.7500     2.1680    -3.3650    55.2210     7.7770     6.6610     7.5330    22.3860 
   97.8750     2.1780    -3.2060    58.2530     7.7640     6.6440     7.4730    22.3180 
   98.0000     2.1880    -3.0630    62.2640     7.7820     6.6510     7.3450    22.3450 
   98.1250     2.1940    -2.9490    65.3390     7.8200     6.6750     7.1440    22.3690 
   98.2500     2.1980    -2.8530    66.0880     7.8420     6.6940     6.8710    22.2680 
   98.3750     2.2020    -2.7560    67.1180     7.8160     6.6840     6.5790    22.1270 
   98.5000     2.2090    -2.6400    70.5980     7.7160     6.6260     6.4080    22.0400 
   98.6250     2.2240    -2.4980    73.9620     7.5350     6.5040     6.4070    22.0190 
   98.7500     2.2440    -2.3370    75.3410     7.3180     6.3450     6.2450    22.0370 
   98.8750     2.2650    -2.1620    76.4480     7.1150     6.1820     5.8570    22.1320 
   99.0000     2.2820    -1.9910    79.8950     6.9710     6.0490     5.5540    22.3460 
   99.1250     2.2900    -1.8360    83.0980     6.9180     5.9780     5.5210    22.5810 
   99.2500     2.2910    -1.7090    82.9980     6.9180     5.9540     5.5560    22.8580 
   99.3750     2.2860    -1.6370    80.3400     6.9250     5.9480     5.6320    23.2040 
   99.5000     2.2800    -1.6450    78.5650     6.8880     5.9240     5.7070    23.5710 
   99.6250     2.2740    -1.7580    81.0050     6.7630     5.8430     5.8980    23.7480 
   99.7500     2.2700    -1.9580    85.2770     6.5710     5.7100     6.0120    23.8350 
   99.8750     2.2690    -2.2340    89.2280     6.3540     5.5470     6.0200    23.8560 
  100.0000     2.2710    -2.5680    89.9660     6.1670     5.3930     5.8630    23.8590 
  100.1250     2.2740    -2.9380    87.0570     6.0860     5.3040     5.6390    23.8510 
  100.2500     2.2740    -3.3330    83.9870     6.1290     5.3040     5.5680    23.8330 
  100.3750     2.2670    -3.7500    81.8020     6.2870     5.3970     5.6180    23.7910 
  100.5000     2.2470    -4.1820    78.9820     6.5180     5.5600     5.6530    23.7170 
  100.6250     2.2090    -4.6130    71.2310     6.7350     5.7510     5.7810    23.7020 
  100.7500     2.1590    -5.0180    59.9710     6.9080     5.9190     6.0060    24.0340 
  100.8750     2.1080    -5.3820    51.0810     7.0100     6.0380     6.0560    24.8140 
  101.0000     2.0710    -5.6780    50.1080     7.0220     6.1030     5.7180    25.5050 
  101.1250     2.0600    -5.8650    55.4200     7.1090     6.1280     5.4870    25.3430 
  101.2500     2.0690    -5.9490    58.1310     7.1440     6.1450     5.6600    24.8350 
  101.3750     2.0850    -5.9190    56.0250     7.1510     6.1690     5.8580    24.7420 
  101.5000     2.0910    -5.7690    52.9400     7.1820     6.1990     5.8360    25.1180 
  101.6250     2.0750    -5.4850    51.5730     7.2180     6.2220     5.6880    25.7280 
  101.7500     2.0470    -5.1200    51.1500     7.2680     6.2210     5.5470    26.2010 
  101.8750     2.0200    -4.7110    50.7650     7.3300     6.1870     5.4340    26.2310 
  102.0000     2.0080    -4.3020    50.2590     7.2590     6.1210     5.3610    26.2200 
  102.1250     2.0160    -3.9440    49.0490     7.1240     6.0200     5.6830    26.0860 
  102.2500     2.0320    -3.6340    48.4180     6.9680     5.8940     6.0030    25.7220 
  102.3750     2.0380    -3.3570    48.8400     6.7950     5.7480     6.1120    25.1810 
  102.5000     2.0220    -3.1080    50.1900     6.6110     5.5910     5.9520    24.7330 
  102.6250     1.9840    -2.8850    54.1580     6.4350     5.4370     5.5020    24.9270 
  102.7500     1.9520    -2.6650    60.5920     6.2910     5.3090     4.9660    26.2250 
  102.8750     1.9500    -2.4430    66.5640     6.2000     5.2250     4.6580    28.2040 
  103.0000     1.9880    -2.2130    68.5940     6.1720     5.1950     4.8230    29.6560 
  103.1250     2.0610    -1.9830    66.8180     6.2000     5.2150     5.1370    29.3500 
  103.2500     2.1400    -1.7880    65.6610     6.2400     5.2500     5.0790    27.3970 
  103.3750     2.2050    -1.6650    66.8320     6.2550     5.2700     4.7470    24.7550 
  103.5000     2.2440    -1.6250    69.6960     6.2250     5.2540     4.8010    22.8870 
  103.6250     2.2590    -1.6950    73.4620     6.1600     5.1960     4.9650    22.2110 
  103.7500     2.2640    -1.8690    76.1530     6.1140     5.1330     4.9010    22.1080 
  103.8750     2.2670    -2.1290    76.1320     6.1470     5.1100     4.8960    22.2510 
  104.0000     2.2680    -2.4600    72.6960     6.2950     5.1630     5.0640    22.3700 
  104.1250     2.2650    -2.8250    69.5160     6.5490     5.3020     5.1390    22.3680 
  104.2500     2.2570    -3.1830    69.2300     6.7990     5.4620     5.4500    22.2490 
  104.3750     2.2440    -3.5090    68.6820     6.9350     5.5690     5.9590    22.0670 
  104.5000     2.2310    -3.7980    66.0430     6.8950     5.5670     6.4230    21.9860 
  104.6250     2.2260    -4.0580    65.3080     6.7150     5.4550     6.4460    22.2300 
  104.7500     2.2350    -4.3050    67.5370     6.5920     5.3570     6.1950    22.7140 
  104.8750     2.2600    -4.5560    70.5680     6.6940     5.3880     6.1410    23.2580 
  105.0000     2.2960    -4.8120    71.3680     7.0990     5.6220     6.4870    23.6730 
  105.1250     2.3290    -5.0650    68.1650     7.7750     6.0780     8.1120    23.7160 
  105.2500     2.3440    -5.2960    63.8550     8.4780     6.6160    10.8280    23.4320 
  105.3750     2.3310    -5.4980    61.3840     9.0010     7.0940    12.0860    22.8820 
  105.5000     2.2940    -5.6710    60.2920     9.2070     7.3930     9.0770    22.3410 
  105.6250     2.2460    -5.8100    57.0420     9.0590     7.4320     7.3010    22.0630 
  105.7500     2.2070    -5.9010    53.2620     8.7530     7.3160     6.7770    21.9730 
  105.8750     2.1840    -5.9390    53.0340     8.4440     7.1490     6.7690    21.9790 
  106.0000     2.1740    -5.9330    56.2170     8.2270     7.0140     6.8250    22.0170 
  106.1250     2.1720    -5.8980    60.1930     8.1330     6.9520     6.9170    22.0650 
