~V
VERS. 2.00: Ver 2.00
~W
STRT.M 53.0000:
STOP.M 219.0000:
STEP.M 0.1250:
NULL. -999.2500:
UWI. F10171:
~C
DEPT.M :
SP.MV :
DEN.GM/CC :
GR.API :
RML.OHMM :
RI. :
RXO.OHMM :
CALI.CM :
~A
# ...
   75.5000   -35.6170     2.0420    58.9800     9.2120     6.7830     9.8100    25.6650 
   75.6250   -35.7650     2.0150    59.9970     9.0330     6.6170     9.7430    25.6600 
   75.7500   -35.8760     2.0000    60.2260     8.9000     6.4590     9.7130    25.5930 
   75.8750   -35.8980     2.0030    61.4490     8.8320     6.3400     9.3140    25.5810 
   76.0000   -35.8310     2.0220    63.9370     8.8270     6.2720     8.7880    25.6230 
   76.1250   -35.7090     2.0450    65.2360     8.8880     6.2650     8.6730    25.6770 
   76.2500   -35.5470     2.0620    63.3620     9.0070     6.3120     8.9600    25.6910 
   76.3750   -35.3470     2.0640    59.9450     9.1500     6.3920     9.3400    25.6310 
   76.5000   -35.1410     2.0660    59.6680     9.2580     6.4640     9.5600    25.5870 
   76.6250   -34.9070     2.0780    62.4320     9.2900     6.4960     9.6570    25.6230 
   76.7500   -34.5950     2.0980    65.6080     9.2400     6.4710     9.5090    25.6490 
   76.8750   -34.2410     2.1160    69.0420     9.1400     6.3950     9.2410    25.5980 
   77.0000   -33.9050     2.1320    71.7180     9.0560     6.3090     9.1410    25.6090 
   77.1250   -33.5600     2.1450    70.7330     9.0290     6.2460     9.1090    25.6730 
   77.2500   -33.2270     2.1550    64.9440     9.0710     6.2240     9.1170    25.7000 
   77.3750   -32.9420     2.1590    59.9340     9.1700     6.2520     9.2220    25.6680 
   77.5000   -32.7060     2.1490    60.0170     9.2720     6.3050     9.6380    25.6510 
   77.6250   -32.6110     2.1170    62.4090     9.3470     6.3670    10.4190    25.6360 
   77.7500   -32.6720     2.0750    62.9090     9.3870     6.4270    11.1440    25.5580 
   77.8750   -32.7730     2.0480    60.5350     9.3940     6.4770    10.4360    25.3990 
   78.0000   -32.9130     2.0470    58.5480     9.3850     6.5130    10.2330    25.2410 
   78.1250   -33.1360     2.0660    58.9520     9.3660     6.5320    10.2280    25.1400 
   78.2500   -33.3070     2.0870    60.7250     9.3320     6.5290    10.3060    25.0890 
   78.3750   -33.3600     2.0930    63.1400     9.2670     6.4950    10.0110    24.9540 
   78.5000   -33.4140     2.0900    66.2840     9.1720     6.4370     9.4250    24.6210 
   78.6250   -33.4170     2.0900    67.0940     9.0590     6.3680     9.2280    24.1720 
   78.7500   -33.3250     2.0980    63.2090     8.9510     6.3050     9.1900    23.8710 
   78.8750   -33.2490     2.1080    59.1990     8.8800     6.2710     9.0150    23.8020 
   79.0000   -33.1760     2.1110    60.8640     8.8580     6.2740     8.9520    23.9020 
   79.1250   -33.0020     2.0980    63.9880     8.8820     6.3190     9.1090    24.2400 
   79.2500   -32.7570     2.0680    62.3180     8.9480     6.4050     9.3380    24.8250 
   79.3750   -32.4370     2.0330    58.9990     9.0820     6.5400     9.2170    25.3280 
   79.5000   -31.9520     2.0200    58.9020     9.2990     6.7220     9.0050    25.3840 
   79.6250   -31.2420     2.0400    59.7460     9.5970     6.9430     9.2510    25.0710 
   79.7500   -30.3280     2.0830    59.9240     9.9110     7.1620     9.5120    24.6730 
   79.8750   -29.1690     2.1220    60.3250    10.0750     7.2700     9.4750    24.4680 
   80.0000   -27.7950     2.1440    60.6670     9.9540     7.1760     9.4200    24.4200 
   80.1250   -26.2620     2.1510    61.1510     9.4930     6.8350     9.1190    24.4960 
   80.2500   -24.6090     2.1530    65.7540     8.7720     6.2980     8.2070    24.6370 
   80.3750   -22.9340     2.1610    75.6440     7.9900     5.6990     6.4890    24.7330 
   80.5000   -21.4020     2.1720    83.9490     7.3440     5.1800     5.2750    24.7940 
   80.6250   -20.0850     2.1780    89.0740     6.9260     4.8160     4.8120    24.8460 
   80.7500   -19.0120     2.1890    91.3740     6.7980     4.6550     4.9950    24.9130 
   80.8750   -18.2920     2.2260    88.8400     7.1340     4.8240     5.6000    24.9590 
   81.0000   -17.8710     2.2800    81.7700     8.0720     5.4010     6.1570    24.9920 
   81.1250   -17.7660     2.3320    73.0610     9.8750     6.5630     7.3080    25.0460 
   81.2500   -18.0420     2.3760    66.5530    12.7870     8.5160    10.5400    25.0650 
   81.3750   -18.6970     2.4350    63.2060    16.9220    11.5280    18.6700    25.0120 
   81.5000   -19.5190     2.5000    59.9210    21.2150    15.0130    25.2140    24.9170 
   81.6250   -20.5570     2.5320    55.2530    23.9240    17.7290    26.0820    24.8220 
   81.7500   -21.8380     2.5090    51.7480    23.4240    18.1990    23.2900    24.6830 
   81.8750   -23.2240     2.4380    52.8070    19.7560    15.9960    18.0910    24.5050 
   82.0000   -24.6460     2.3500    55.8200    15.6090    13.0340    13.4390    24.3740 
   82.1250   -26.1050     2.2610    57.8970    12.3540    10.4260    10.6100    24.3400 
   82.2500   -27.5020     2.1850    58.8290    10.3390     8.5650     9.4500    24.3300 
   82.3750   -28.7170     2.1400    59.7800     9.5480     7.5500     9.1270    24.2810 
   82.5000   -29.7520     2.1210    60.8630     9.5000     7.1140     8.8760    24.2280 
   82.6250   -30.5940     2.1130    63.1770     9.9000     7.0990     8.7130    24.2300 
   82.7500   -31.2620     2.1140    66.5900    10.4410     7.3180     8.7540    24.3440 
   82.8750   -31.7670     2.1360    68.4490    10.7730     7.5420     9.0190    24.4800 
   83.0000   -32.1530     2.1670    67.2780    10.7470     7.6030     8.9370    24.4580 
   83.1250   -32.4520     2.1750    63.6170    10.3950     7.4660     8.5400    24.2850 
   83.2500   -32.6960     2.1460    60.1000     9.8780     7.1870     8.3330    24.0600 
   83.3750   -32.9020     2.1140    60.0840     9.4120     6.8760     8.4570    23.8570 
   83.5000   -33.0630     2.1060    61.8270     9.1180     6.6270     8.7430    23.7970 
   83.6250   -33.1730     2.1140    62.4420     9.0250     6.4820     9.0350    23.9120 
   83.7500   -33.2030     2.1250    60.8480     9.1080     6.4510     9.1800    24.1480 
   83.8750   -33.1240     2.1390    59.4130     9.3250     6.5240     9.2420    24.3250 
   84.0000   -32.9890     2.1550    61.3750     9.5870     6.6480     9.3910    24.4720 
   84.1250   -32.8140     2.1680    64.9430     9.8310     6.7860     9.7100    24.7080 
   84.2500   -32.5560     2.1700    65.6150     9.9900     6.8920    10.2460    25.0560 
   84.3750   -32.1930     2.1460    59.9660     9.9880     6.9160    10.5030    25.3450 
   84.5000   -31.8570     2.1050    53.0280     9.8620     6.8640    10.2340    25.4220 
   84.6250   -31.4990     2.0650    50.0990     9.6730     6.7650     9.8130    25.2570 
   84.7500   -31.0420     2.0420    51.3340     9.4890     6.6570     9.8420    25.0130 
   84.8750   -30.5770     2.0390    52.8370     9.3590     6.5760     9.7770    24.7880 
   85.0000   -30.0780     2.0450    54.5340     9.2700     6.5280     9.6220    24.5820 
   85.1250   -29.4740     2.0520    57.8810     9.2010     6.5050     9.3840    24.4120 
   85.2500   -28.8450     2.0610    61.8020     9.1460     6.5010     9.2640    24.3610 
   85.3750   -28.2730     2.0750    61.6970     9.1280     6.5230     9.5380    24.4390 
   85.5000   -27.6400     2.0980    59.1980     9.1660     6.5700     9.6800    24.5210 
   85.6250   -26.9840     2.1240    57.5700     9.2640     6.6410     9.5180    24.5650 
   85.7500   -26.3920     2.1390    56.9160     9.4040     6.7260     9.5950    24.5760 
   85.8750   -25.7540     2.1340    57.1350     9.5200     6.7830     9.7250    24.5760 
   86.0000   -25.0730     2.1150    59.5090     9.5220     6.7550     9.4340    24.5540 
   86.1250   -24.4430     2.1010    64.1050     9.3440     6.6000     8.9450    24.4990 
   86.2500   -23.8710     2.1100    68.2220     8.9660     6.3040     8.7290    24.4170 
   86.3750   -23.3210     2.1530    71.2120     8.4010     5.8800     7.5670    24.4820 
   86.5000   -22.8360     2.2100    77.1190     7.7790     5.4150     6.0900    24.5650 
   86.6250   -22.4650     2.2670    86.2190     7.2170     4.9870     5.2540    24.6290 
