~V
VERS. 2.00: Ver 2.00
~W
STRT.M 50.0000:
STOP.M 223.0000:
STEP.M 0.1250:
NULL. -999.2500:
UWI. F10135:
~C
DEPT.M :
SP.MV :
DEN.GM/CC :
GR.API :
RML.OHMM :
RI. :
RXO.OHMM :
CALI.CM :
~A
# ...
   83.7500   -12.3030     2.2010    84.2220     7.5050     6.4380     8.3410    26.2560 
   83.8750   -12.2980     2.1990    86.8770     7.5940     6.4470     8.2560    26.2800 
   84.0000   -12.3270     2.1990    86.8930     7.7180     6.4980     8.1870    26.2910 
   84.1250   -12.4090     2.2020    84.9880     7.8430     6.5710     8.2870    26.2900 
   84.2500   -12.5180     2.2050    81.2370     7.9220     6.6280     8.3510    26.2610 
   84.3750   -12.6090     2.2050    78.6670     7.9220     6.6390     8.3220    26.1510 
   84.5000   -12.7100     2.2010    79.4760     7.8340     6.5890     8.2740    25.9280 
   84.6250   -12.8480     2.1940    79.8450     7.6970     6.4850     8.3420    25.7700 
   84.7500   -12.9930     2.1860    77.2830     7.6100     6.3900     8.3270    25.7110 
   84.8750   -13.0780     2.1850    74.8900     7.6550     6.3660     8.3190    25.7040 
   85.0000   -13.0440     2.1990    75.8140     7.8710     6.4600     8.3400    25.7040 
   85.1250   -12.9600     2.2340    77.3860     8.2390     6.6900     8.6640    25.7050 
   85.2500   -12.8780     2.2740    77.1130     8.6140     6.9710    10.6980    25.7520 
   85.3750   -12.7700     2.3010    74.0120     8.8670     7.2120    16.9960    25.8730 
   85.5000   -12.5730     2.2980    68.9560     8.9070     7.3270    23.8840    25.9540 
   85.6250   -12.2760     2.2650    67.9380     8.7000     7.2530    17.0660    25.4670 
   85.7500   -11.9710     2.2260    73.6040     8.3830     7.0610    10.6960    24.7230 
   85.8750   -11.7110     2.1990    79.4600     8.0770     6.8310     8.5500    24.3250 
   86.0000   -11.5210     2.1910    80.7460     7.8800     6.6450     8.1260    24.3090 
   86.1250   -11.4110     2.1960    79.0470     7.8580     6.5750     8.1850    24.4980 
   86.2500   -11.3740     2.2030    76.6700     7.9540     6.6050     8.2760    24.5300 
   86.3750   -11.3740     2.2050    73.5450     8.0990     6.7010     8.4430    24.5510 
   86.5000   -11.4040     2.2020    70.2450     8.2180     6.8100     8.6960    24.6460 
   86.6250   -11.4780     2.1940    69.0690     8.2450     6.8780     8.8840    24.6620 
   86.7500   -11.5890     2.1850    69.4450     8.1870     6.8890     8.8940    24.6670 
   86.8750   -11.6960     2.1760    71.3930     8.0780     6.8500     8.8240    24.6670 
   87.0000   -11.7560     2.1700    75.0230     7.9640     6.7860     8.7540    24.6670 
   87.1250   -11.6830     2.1670    79.2640     7.8850     6.7240     8.7480    24.6650 
   87.2500   -11.4690     2.1700    81.7800     7.8270     6.6710     8.7790    24.6530 
   87.3750   -11.1720     2.1770    79.5220     7.7520     6.6070     8.9160    24.5770 
   87.5000   -10.7900     2.1910    76.7080     7.6110     6.4990     8.9200    24.5400 
   87.6250   -10.1770     2.2090    79.5140     7.3530     6.3040     8.5660    24.5330 
   87.7500    -9.3370     2.2280    85.2520     7.0070     6.0320     7.9140    24.5330 
   87.8750    -8.3510     2.2480    89.8210     6.6240     5.7150     7.0640    24.5330 
   88.0000    -7.3710     2.2660    93.1360     6.2750     5.4060     6.1920    24.5330 
   88.1250    -6.5390     2.2800    99.2320     6.0670     5.1800     5.9020    24.5330 
   88.2500    -5.8540     2.2860   102.8100     6.0360     5.0800     5.8800    24.5330 
   88.3750    -5.3280     2.2800   100.3500     6.2000     5.1290     5.9500    24.5330 
   88.5000    -5.0440     2.2620    94.5310     6.5350     5.3280     6.3760    24.5330 
   88.6250    -5.1830     2.2360    89.6650     6.9860     5.6610     7.3880    24.5330 
   88.7500    -5.6200     2.2100    86.0410     7.4440     6.0440     8.3160    24.5330 
   88.8750    -6.2180     2.1890    80.2840     7.8360     6.4140     8.5310    24.5330 
   89.0000    -6.8680     2.1770    74.9580     8.1220     6.7190     8.3840    24.5330 
   89.1250    -7.4910     2.1750    75.5370     8.2640     6.9060     8.3020    24.5330 
   89.2500    -8.0080     2.1800    78.6910     8.2750     6.9720     8.3290    24.5330 
   89.3750    -8.3600     2.1910    79.8400     8.1420     6.9020     8.3340    24.5280 
   89.5000    -8.4830     2.2090    77.4660     7.8560     6.6910     8.1240    24.5120 
   89.6250    -8.3320     2.2250    73.7480     7.4440     6.3470     8.0660    24.4180 
   89.7500    -8.0620     2.2290    74.3500     7.0430     5.9670     7.5510    24.4030 
   89.8750    -7.8000     2.2150    79.0930     6.8170     5.6620     6.5410    24.4000 
   90.0000    -7.5790     2.1910    82.7480     6.9310     5.5550     6.0390    24.4070 
   90.1250    -7.4470     2.1910    80.4240     7.5720     5.8130     6.4190    24.4440 
   90.2500    -7.4470     2.2410    75.9940     8.6210     6.4260     7.4570    24.5190 
   90.3750    -7.5610     2.3400    74.9600     9.8600     7.3190     8.8350    24.5320 
   90.5000    -7.7850     2.4510    76.7810    10.9340     8.2830    11.5490    24.5330 
   90.6250    -8.1580     2.5110    77.8340    11.3440     8.9300    17.0980    24.5330 
   90.7500    -8.6480     2.4990    77.5570    11.0310     9.0550    19.9440    24.5330 
   90.8750    -9.1550     2.4290    76.0550    10.1750     8.6670    14.5350    24.5330 
   91.0000    -9.5960     2.3420    75.4300     9.1270     7.9680    10.2030    24.5330 
   91.1250    -9.8170     2.2750    76.3260     8.2580     7.2410     8.9340    24.5330 
   91.2500    -9.8450     2.2350    78.3760     7.6790     6.6690     8.5710    24.5330 
   91.3750    -9.7780     2.2150    80.5220     7.3510     6.2860     8.1840    24.5330 
   91.5000    -9.6620     2.2050    80.8180     7.1760     6.0610     7.7090    24.5400 
   91.6250    -9.4190     2.1990    79.8230     7.0590     5.9400     7.2630    24.5880 
   91.7500    -8.9680     2.1990    79.5290     6.9370     5.8520     7.0870    24.7190 
   91.8750    -8.3530     2.2050    81.4190     6.7890     5.7630     6.9900    24.7880 
   92.0000    -7.6460     2.2190    84.4940     6.6100     5.6550     6.9380    24.8000 
   92.1250    -6.9040     2.2390    85.3880     6.4010     5.5200     6.8920    24.8000 
   92.2500    -6.1830     2.2580    83.9010     6.1930     5.3750     6.7300    24.8000 
   92.3750    -5.5410     2.2680    83.6450     6.0220     5.2460     6.1350    24.8000 
   92.5000    -4.9830     2.2680    86.9200     5.9240     5.1570     5.3820    24.7930 
   92.6250    -4.5140     2.2580    89.5780     5.9350     5.1380     5.2430    24.7460 
   92.7500    -4.1890     2.2460    88.6260     6.0220     5.1750     5.6420    24.6110 
   92.8750    -4.0290     2.2360    85.7680     6.1440     5.2510     6.1010    24.5280 
   93.0000    -4.0360     2.2300    84.0540     6.2570     5.3360     6.3160    24.4210 
   93.1250    -4.2230     2.2280    86.7480     6.3200     5.3990     6.3590    24.4070 
   93.2500    -4.4740     2.2280    91.0440     6.3430     5.4300     6.3910    24.4140 
   93.3750    -4.7620     2.2260    90.7730     6.3510     5.4360     6.3750    24.4940 
   93.5000    -5.1080     2.2220    84.1510     6.3750     5.4390     6.3690    24.5480 
   93.6250    -5.5510     2.2160    78.9200     6.4430     5.4640     6.4320    24.6490 
   93.7500    -6.0290     2.2100    79.4750     6.5500     5.5180     6.5390    24.6670 
   93.8750    -6.5130     2.2050    82.4680     6.6830     5.5970     6.7160    24.6840 
   94.0000    -7.0170     2.1980    82.7370     6.8290     5.6940     6.8770    24.7790 
   94.1250    -7.5800     2.1920    79.5240     6.9860     5.8070     6.9770    24.8050 
   94.2500    -8.2160     2.1860    76.0750     7.1580     5.9340     7.1580    24.8670 
   94.3750    -8.8290     2.1820    75.2540     7.3590     6.0830     7.5400    24.9230 
   94.5000    -9.3410     2.1810    76.7560     7.5990     6.2620     8.0100    24.9330 
   94.6250    -9.7620     2.1820    76.0920     7.8790     6.4800     8.2350    24.9230 
   94.7500   -10.1520     2.1810    73.5480     8.1610     6.7180     8.2690    24.8670 
   94.8750   -10.4560     2.1750    72.4470     8.4010     6.9440     8.2150    24.8100 
