~V
VERS. 2.00: Ver 2.00
~W
STRT.M 55.0000:
STOP.M 248.0000:
STEP.M 0.1250:
NULL. -999.2500:
UWI. F10184:
~C
DEPT.M :
SP.MV :
GR.API :
RML.OHMM :
RI. :
RXO.OHMM :
CALI.CM :
DEN.GM/CC :
~A
# ...
  100.0000    -5.6760    76.6630     7.8060     5.8730     6.3560    22.8970     2.1410 
  100.1250    -5.5730    69.3690     7.8010     5.8610     6.1780    22.9360     2.1320 
  100.2500    -5.4280    63.8340     7.8010     5.8390     6.2460    22.9610     2.1240 
  100.3750    -5.3480    64.4550     7.8140     5.8290     6.3670    22.8920     2.1190 
  100.5000    -5.2910    68.6150     7.8380     5.8360     6.3320    22.7750     2.1220 
  100.6250    -5.1070    70.7290     7.8430     5.8400     6.2200    22.7310     2.1310 
  100.7500    -4.9430    70.9370     7.7830     5.8050     6.2130    22.7720     2.1400 
  100.8750    -4.8170    69.7110     7.6130     5.6940     6.2040    22.9160     2.1490 
  101.0000    -4.5960    68.3600     7.3030     5.4830     6.0050    23.1350     2.1580 
  101.1250    -4.4350    69.4040     6.8650     5.1780     5.8000    23.2610     2.1680 
  101.2500    -4.3940    75.2200     6.4240     4.8600     5.5790    23.2420     2.1780 
  101.3750    -4.3440    82.5400     6.1090     4.6090     5.3500    23.1650     2.1860 
  101.5000    -4.3460    86.1980     6.0210     4.5010     5.3010    23.1290     2.1860 
  101.6250    -4.5910    86.5200     6.2510     4.6140     5.4730    23.1040     2.1760 
  101.7500    -4.9160    85.9920     6.7090     4.9080     5.9460    23.0670     2.1590 
  101.8750    -5.2870    82.2380     7.2780     5.3210     6.5650    23.0450     2.1380 
  102.0000    -5.8040    73.0170     7.8080     5.7580     6.9810    23.0250     2.1130 
  102.1250    -6.3580    63.1490     8.1280     6.0850     7.1840    22.9660     2.0930 
  102.2500    -6.8330    60.4510     8.2230     6.2510     7.3010    22.8580     2.0850 
  102.3750    -7.2530    63.9880     8.1430     6.2660     7.2900    22.7980     2.0850 
  102.5000    -7.6300    68.0410     7.9830     6.1900     7.1360    22.7860     2.0900 
  102.6250    -7.8800    67.1590     7.8440     6.0870     6.9730    22.8100     2.0940 
  102.7500    -7.9960    63.7770     7.7560     5.9980     7.0500    22.8220     2.1000 
  102.8750    -8.0710    61.2110     7.7080     5.9230     7.1090    22.8520     2.1100 
  103.0000    -8.0690    61.7490     7.6840     5.8600     7.0620    22.8750     2.1230 
  103.1250    -7.9170    64.9550     7.7020     5.8260     6.8640    22.9020     2.1430 
  103.2500    -7.7950    67.1670     7.7830     5.8450     6.7540    22.8970     2.1680 
  103.3750    -7.7780    68.9060     7.9410     5.9340     6.8220    22.8410     2.1910 
  103.5000    -7.7400    71.9200     8.1620     6.0920     7.0300    22.8290     2.2050 
  103.6250    -7.6190    73.1750     8.3980     6.2910     7.5550    22.9550     2.2050 
  103.7500    -7.5870    70.4710     8.5770     6.4740     7.8810    23.0340     2.1960 
  103.8750    -7.5650    66.7490     8.6590     6.6010     7.7280    22.9360     2.1810 
  104.0000    -7.4780    64.3830     8.6510     6.6550     7.5740    22.8690     2.1620 
  104.1250    -7.4900    62.8830     8.5870     6.6430     7.6450    22.8960     2.1460 
  104.2500    -7.4900    61.7790     8.5130     6.6010     7.8160    22.9630     2.1360 
  104.3750    -7.3430    61.4500     8.4340     6.5390     7.7710    23.0080     2.1280 
  104.5000    -7.1420    60.4370     8.3320     6.4570     7.6480    23.0260     2.1200 
  104.6250    -6.9640    57.9720     8.1800     6.3430     7.4510    22.9910     2.1120 
  104.7500    -6.6420    57.6220     8.0050     6.2120     7.1950    22.8960     2.1080 
  104.8750    -6.2510    61.2140     7.8730     6.1000     6.8470    22.7850     2.1110 
  105.0000    -5.9090    66.6340     7.8530     6.0530     6.5180    22.7220     2.1210 
  105.1250    -5.4350    68.5340     7.9690     6.0980     6.3650    22.7390     2.1400 
  105.2500    -4.8510    67.1380     8.1120     6.1800     6.5220    22.8360     2.1640 
  105.3750    -4.3070    66.7060     8.1570     6.2260     6.9630    23.0560     2.1890 
  105.5000    -3.8100    68.8570     7.9970     6.1570     7.3370    23.4100     2.2120 
  105.6250    -3.2470    72.6600     7.5710     5.9000     6.9390    23.8190     2.2310 
  105.7500    -2.7270    79.5350     7.0220     5.5240     6.0360    24.1020     2.2440 
  105.8750    -2.3250    88.5470     6.5040     5.1200     5.5350    24.2430     2.2490 
  106.0000    -1.9490    94.3880     6.1380     4.7850     5.3220    24.2910     2.2470 
  106.1250    -1.6750    93.0460     6.0390     4.6280     5.3150    24.3060     2.2400 
  106.2500    -1.6130    90.1090     6.1940     4.6660     5.3940    24.3130     2.2300 
  106.3750    -1.6740    87.9400     6.5810     4.9000     5.6290    24.2950     2.2110 
  106.5000    -1.7410    85.4320     7.1230     5.2860     5.9640    24.1820     2.1790 
  106.6250    -1.9030    82.2760     7.6600     5.7260     6.5860    23.9390     2.1460 
  106.7500    -2.1620    79.7070     7.9920     6.0670     7.2310    23.7560     2.1270 
  106.8750    -2.3120    77.8580     7.9860     6.1930     7.2030    23.7660     2.1310 
  107.0000    -2.4250    79.1460     7.6350     6.0680     6.6890    23.8600     2.1570 
  107.1250    -2.5460    85.6840     7.0900     5.7500     5.8940    23.9800     2.2000 
  107.2500    -2.5410    92.4360     6.6070     5.4140     5.6500    24.0370     2.2440 
  107.3750    -2.4720    94.9700     6.3190     5.1640     5.6300    24.0010     2.2720 
  107.5000    -2.4980    93.0680     6.2570     5.0540     5.5600    23.8220     2.2800 
  107.6250    -2.5750    89.6680     6.3950     5.0980     5.8220    23.6180     2.2730 
  107.7500    -2.5810    88.1930     6.5950     5.2160     6.0790    23.5090     2.2610 
  107.8750    -2.6650    87.8770     6.7650     5.3380     6.2380    23.5350     2.2520 
  108.0000    -2.8470    85.5990     6.8510     5.4120     6.1430    23.5470     2.2510 
  108.1250    -3.0460    80.5690     6.8220     5.3990     6.1630    23.4810     2.2530 
  108.2500    -3.2460    79.5290     6.7000     5.3120     6.0300    23.4770     2.2460 
  108.3750    -3.4690    82.1130     6.5060     5.1760     6.0200    23.4680     2.2340 
  108.5000    -3.6830    83.7260     6.3080     5.0430     6.1450    23.4600     2.2250 
  108.6250    -3.8230    84.1210     6.2860     5.0340     6.2400    23.4670     2.2290 
  108.7500    -4.0000    85.7070     6.5840     5.2450     6.3390    23.4870     2.2470 
  108.8750    -4.2460    85.7280     7.2760     5.7290     6.7400    23.5230     2.2800 
  109.0000    -4.4340    82.4840     8.3040     6.4640     8.3830    23.6310     2.3200 
  109.1250    -4.6430    78.2260     9.3890     7.2990    12.8610    23.8040     2.3540 
  109.2500    -5.0140    75.2850    10.0730     7.9300    17.8150    23.7500     2.3700 
  109.3750    -5.4210    72.6450    10.0740     8.1180    15.0380    23.3950     2.3590 
  109.5000    -5.7460    70.7400     9.4550     7.8380     9.4510    23.0400     2.3130 
  109.6250    -6.1260    68.5200     8.6270     7.3050     7.6340    22.9350     2.2520 
  109.7500    -6.5400    64.5580     8.0540     6.8580     7.2490    22.9700     2.2110 
  109.8750    -6.8340    62.3520     7.8960     6.6460     7.3820    23.0550     2.1980 
  110.0000    -7.1560    65.1420     8.1070     6.6900     7.6840    23.1410     2.1990 
  110.1250    -7.5170    71.5160     8.4920     6.9030     7.8760    23.0740     2.2000 
  110.2500    -7.7300    74.5020     8.7720     7.0930     7.5040    22.8580     2.1970 
  110.3750    -7.8570    72.3050     8.8230     7.1500     6.9800    22.6150     2.1900 
  110.5000    -8.0420    67.8750     8.6540     7.0500     6.6800    22.4450     2.1790 
  110.6250    -8.2230    64.3650     8.3790     6.8460     6.5300    22.3940     2.1690 
  110.7500    -8.3440    63.8660     8.1590     6.6590     6.5610    22.3880     2.1650 
  110.8750    -8.5470    65.4840     8.0570     6.5520     6.7370    22.4250     2.1670 
  111.0000    -8.7310    65.8590     8.0700     6.5370     6.9610    22.4860     2.1670 
  111.1250    -8.7850    64.7310     8.1370     6.5810     7.2060    22.4760     2.1620 
