~V
VERS. 2.00: Ver 2.00
~W
STRT.M 55.0000:
STOP.M 251.0000:
STEP.M 0.1250:
NULL. -999.2500:
UWI. F10189:
~C
DEPT.M :
DEN.GM/CC :
SP.MV :
GR.API :
RML.OHMM :
RI. :
RXO.OHMM :
CALI.CM :
~A
# ...
  212.5000     2.2090   -22.9250    64.9410    67.2430    66.6090    54.6470    24.2900 
  212.6250     2.2140   -23.3150    64.1900    64.1800    63.4940    52.4290    24.2920 
  212.7500     2.2210   -23.6720    62.7750    62.9120    61.9330    51.0960    24.3020 
  212.8750     2.2240   -23.9930    63.0100    63.7160    62.3640    52.1340    24.3220 
  213.0000     2.2210   -24.2680    65.4730    66.4200    64.9120    56.6730    24.3270 
  213.1250     2.2130   -24.4740    67.1200    69.9490    68.8740    63.5220    24.3100 
  213.2500     2.2040   -24.6370    66.2520    72.1360    72.0520    69.6770    24.3090 
  213.3750     2.1960   -24.7540    63.4800    71.5030    72.6580    73.1650    24.3100 
  213.5000     2.1940   -24.8290    60.4060    68.0920    70.1590    70.9720    24.2700 
  213.6250     2.2010   -24.8780    58.0170    63.6590    65.7430    62.8130    24.1850 
  213.7500     2.2130   -24.9050    59.6680    60.5140    61.9650    54.6450    24.0980 
  213.8750     2.2230   -24.9240    65.2100    59.7120    60.2840    51.5640    24.0570 
  214.0000     2.2330   -24.9270    68.5240    61.4600    61.2350    53.1460    24.0480 
  214.1250     2.2420   -24.9160    67.0310    65.6350    64.8370    57.7040    24.0460 
  214.2500     2.2510   -24.8870    66.6020    70.9100    69.7200    60.6240    24.0380 
  214.3750     2.2550   -24.8400    68.0400    76.1950    74.7830    62.4580    24.0240 
  214.5000     2.2530   -24.7740    66.0450    80.7410    79.2380    64.6150    24.0340 
  214.6250     2.2450   -24.6860    60.9980    84.6990    83.1550    68.9870    24.0510 
  214.7500     2.2350   -24.5640    59.2440    89.1660    87.5770    73.2680    24.0730 
  214.8750     2.2240   -24.4050    59.2890    94.7860    93.2280    75.7790    24.0780 
  215.0000     2.2150   -24.2430    57.2820   101.3800   100.0160    78.3290    24.0630 
  215.1250     2.2100   -24.0840    54.4010   107.3430   106.4780    81.7130    24.0640 
  215.2500     2.2080   -23.9470    54.3570   110.1020   110.1640    84.5560    24.1120 
  215.3750     2.2010   -23.8510    57.1960   107.5850   108.9270    86.1280    24.2020 
  215.5000     2.1900   -23.7850    61.2160    99.7010   102.1520    87.3480    24.2690 
  215.6250     2.1820   -23.7550    64.3650    88.6360    91.2640    84.6120    24.3040 
  215.7500     2.1850   -23.7700    63.5990    78.2420    80.1680    75.4950    24.3530 
  215.8750     2.2000   -23.8170    61.0710    70.5870    71.3040    65.6130    24.4310 
  216.0000     2.2220   -23.8770    59.7820    66.5900    66.0620    63.0020    24.4850 
  216.1250     2.2440   -23.9270    59.4850    66.9940    65.5400    68.6730    24.4800 
  216.2500     2.2570   -23.9470    59.0320    70.8790    68.7350    76.8530    24.4810 
  216.3750     2.2610   -23.9170    58.8660    77.6250    74.7800    82.5830    24.5110 
  216.5000     2.2680   -23.8650    58.8790    85.7980    82.0750    82.7780    24.5630 
  216.6250     2.2930   -23.7910    57.0420    92.0740    87.6400    80.8210    24.5380 
  216.7500     2.3220   -23.6910    54.3990    93.6900    89.2140    74.1210    24.4230 
  216.8750     2.3340   -23.5670    52.8470    90.2620    86.2660    62.8030    24.3230 
  217.0000     2.3220   -23.4250    53.9990    83.7740    80.1060    54.0240    24.2720 
  217.1250     2.2960   -23.2880    58.2900    76.9860    73.0690    51.5040    24.2880 
  217.2500     2.2710   -23.1480    62.8840    71.2040    66.9520    49.2490    24.2630 
  217.3750     2.2600   -23.0030    63.8690    66.0350    61.8710    45.2340    24.1370 
  217.5000     2.2750   -22.8520    60.8480    60.5570    57.0910    40.4910    23.9190 
  217.6250     2.3250   -22.6930    58.9260    54.1070    51.7270    37.5020    23.8370 
  217.7500     2.3800   -22.5520    60.4130    47.2200    45.7760    35.6910    23.8180 
  217.8750     2.4100   -22.4440    62.9160    40.6540    39.7610    33.7520    23.8300 
  218.0000     2.4170   -22.3330    63.6640    34.9950    34.3140    30.8510    23.9490 
  218.1250     2.4200   -22.1560    63.0320    30.5130    29.8940    27.3950    24.2370 
  218.2500     2.4230   -21.9300    62.2570    26.7020    26.1920    24.0320    24.3460 
  218.3750     2.4130   -21.6490    61.8220    23.1720    22.8750    21.3750    24.3010 
  218.5000     2.3960   -21.2890    61.9070    19.6570    19.6540    18.9640    24.2070 
  218.6250     2.3870   -20.8470    61.3370    16.1370    16.4280    16.5780    24.1760 
  218.7500     2.3810   -20.3090    60.7720    12.8470    13.3560    13.7810    24.1960 
  218.8750     2.3620   -19.6940    60.3020    10.0590    10.6630    10.6900    24.1870 
  219.0000     2.3170   -19.0550    57.7140     7.9340     8.5010     7.8170    24.1900 
  219.1250     2.2600   -18.4860    51.0900     6.5880     6.9950     6.1760    24.5040 
  219.2500     2.2220   -18.0180    46.0190     5.8120     5.9990     5.1410    25.2840 
  219.3750     2.2170   -17.6500    47.5730     5.4990     5.4350     4.7960    26.2240 
  219.5000     2.2450   -17.4070    53.3020     5.5380     5.2170     4.8690    26.8040 
  219.6250     2.2810   -17.3140    57.9320     5.8230     5.2820     4.8740    26.7260 
  219.7500     2.3030   -17.3430    59.2380     6.1730     5.4770     4.6580    26.3490 
  219.8750     2.3090   -17.4730    58.2840     6.4620     5.6920     4.6120    25.8010 
  220.0000     2.3060   -17.6640    55.2400     6.5930     5.8250     4.7330    25.3250 
  220.1250     2.3050   -17.8590    50.3570     6.4960     5.7870     4.7080    24.9620 
  220.2500     2.3100   -18.0510    45.8870     6.2510     5.6130     4.7460    24.7630 
  220.3750     2.3250   -18.2750    44.3780     5.9530     5.3720     4.9080    24.7330 
  220.5000     2.3480   -18.5240    45.9260     5.7070     5.1480     5.2420    24.6350 
  220.6250     2.3700   -18.8130    47.7170     5.6290     5.0460     5.6860    24.3290 
  220.7500     2.3850   -19.1310    47.8600     5.7610     5.1070     6.2000    24.1250 
  220.8750     2.3920   -19.4780    46.7770     6.1280     5.3600     6.7060    24.0770 
  221.0000     2.3940   -19.8850    46.3030     6.7270     5.8060     7.1340    24.0390 
  221.1250     2.3990   -20.3550    46.3360     7.4890     6.4080     7.4600    24.0680 
  221.2500     2.4060   -20.7820    45.5810     8.1740     7.0010     7.7700    24.1650 
  221.3750     2.4090   -21.1180    44.8610     8.5190     7.3860     7.9130    24.2760 
  221.5000     2.4020   -21.3810    45.5000     8.3230     7.3790     7.7340    24.3290 
  221.6250     2.3780   -21.5510    48.5140     7.5490     6.8630     7.2800    24.2790 
  221.7500     2.3430   -21.6670    51.6340     6.5900     6.0830     6.4340    24.0870 
  221.8750     2.3120   -21.7790    52.8960     5.7610     5.2720     5.5310    23.7870 
  222.0000     2.3000   -21.9120    53.6280     5.2520     4.6210     4.9980    23.4950 
  222.1250     2.3160   -22.0960    58.8790     5.1660     4.2900     5.3270    23.4970 
  222.2500     2.3460   -22.4030    68.1360     5.3980     4.2660     6.2210    23.6410 
  222.3750     2.3850   -22.8700    76.9620     5.8830     4.5300     7.5630    23.8610 
  222.5000     2.4270   -23.4740    84.5780     6.5360     5.0230     9.2540    23.9550 
  222.6250     2.4440   -24.2060    92.8590     7.2180     5.6290    10.7180    23.9110 
  222.7500     2.4260   -25.0060    98.6090     7.7730     6.1660    11.6570    23.8830 
  222.8750     2.3910   -25.7830    98.2740     8.1200     6.5360    11.3670    23.9530 
  223.0000     2.3640   -26.4770    91.9230     8.2560     6.7250    10.4700    23.9900 
  223.1250     2.3550   -27.0920    86.9280     8.2310     6.7870    10.3670    23.8070 
  223.2500     2.3530   -27.6370    86.9970     8.1510     6.8170    10.7040    23.6380 
  223.3750     2.3540   -28.1130    89.9960     8.0640     6.8460    11.3330    23.5710 
  223.5000     2.3550   -28.5520    91.7220     8.0010     6.8710    11.9500    23.5820 
  223.6250     2.3550   -28.9580    91.2750     8.0080     6.8890    11.9300    23.8430 
