~V
VERS. 2.00: Ver 2.00
~W
STRT.M 57.0000:
STOP.M 281.0000:
STEP.M 0.1250:
NULL. -999.2500:
UWI. F10139:
~C
DEPT.M :
SP.MV :
GR.API :
RML.OHMM :
RI. :
RXO.OHMM :
CALI.CM :
DEN.GM/CC :
~A
# ...
  102.0000   -23.5090    56.6040    10.1370     8.7060    10.5460    22.8060     2.0940 
  102.1250   -23.5790    57.3470    10.2520     8.8110    10.4940    22.7870     2.1140 
  102.2500   -23.7170    59.6220    10.3540     8.8800    10.4480    22.9070     2.1320 
  102.3750   -23.7470    61.5030    10.4270     8.9320    10.3830    23.1370     2.1480 
  102.5000   -23.5950    61.2900    10.4450     8.9660    10.2710    23.3640     2.1610 
  102.6250   -23.4300    61.1450    10.3920     8.9510    10.1990    23.5010     2.1710 
  102.7500   -23.4110    62.3990    10.3070     8.8780    10.3500    23.6380     2.1770 
  102.8750   -23.4950    62.4080    10.2390     8.7630    10.5700    23.7980     2.1760 
  103.0000   -23.6220    60.2270    10.2230     8.6490    10.6470    23.9560     2.1670 
  103.1250   -23.6760    59.1870    10.2700     8.5920    10.5650    24.0830     2.1500 
  103.2500   -23.6410    60.2420    10.3480     8.5990    10.4310    24.1750     2.1320 
  103.3750   -23.6310    59.9340    10.4160     8.6410    10.4330    24.2430     2.1160 
  103.5000   -23.6940    57.9550    10.4240     8.6610    10.6020    24.2810     2.1080 
  103.6250   -23.7010    58.3620    10.3210     8.6000    10.5570    24.2990     2.1100 
  103.7500   -23.6120    61.5690    10.1470     8.4680    10.2160    24.2990     2.1200 
  103.8750   -23.4680    64.8690     9.9590     8.3030     9.7210    24.3180     2.1310 
  104.0000   -23.2990    64.5890     9.7940     8.1420     9.3750    24.3280     2.1390 
  104.1250   -23.1090    60.0750     9.6610     8.0100     9.7770    24.3020     2.1370 
  104.2500   -22.9190    57.8570     9.5410     7.9030     9.9030    24.2150     2.1310 
  104.3750   -22.7150    60.9960     9.4250     7.8150     9.7500    24.0750     2.1250 
  104.5000   -22.4940    66.4220     9.3280     7.7490     9.4580    23.8980     2.1260 
  104.6250   -22.3260    67.7840     9.3100     7.7320     9.0610    23.6800     2.1350 
  104.7500   -22.2340    65.7110     9.4080     7.7910     9.1660    23.5170     2.1420 
  104.8750   -22.1810    62.6680     9.6200     7.9420     9.6510    23.4520     2.1420 
  105.0000   -22.0920    60.8000     9.9100     8.1750     9.9640    23.4360     2.1300 
  105.1250   -21.9360    61.4950    10.2310     8.4570    10.0350    23.4260     2.1070 
  105.2500   -21.7460    62.3610    10.5140     8.7200    10.1730    23.4410     2.0810 
  105.3750   -21.6010    60.8790    10.6990     8.9080    10.3360    23.4610     2.0600 
  105.5000   -21.5580    58.4440    10.7490     8.9820    10.3670    23.5040     2.0510 
  105.6250   -21.5680    58.9390    10.6130     8.8960    10.2240    23.5820     2.0570 
  105.7500   -21.4530    61.7250    10.3200     8.6750     9.9920    23.7180     2.0710 
  105.8750   -21.1500    64.6570     9.9100     8.3430     9.6980    23.8890     2.0840 
  106.0000   -20.7410    65.9350     9.4610     7.9460     9.2520    24.0450     2.0890 
  106.1250   -20.3850    64.7560     9.0630     7.5500     8.7170    24.1610     2.0840 
  106.2500   -20.1020    64.0850     8.7570     7.2160     8.3820    24.2030     2.0730 
  106.3750   -19.8330    65.0850     8.5660     6.9810     8.2220    24.2180     2.0620 
  106.5000   -19.5280    67.0050     8.4930     6.8550     8.2450    24.2320     2.0550 
  106.6250   -19.1690    68.1860     8.5180     6.8280     8.3520    24.2610     2.0620 
  106.7500   -18.8560    68.9980     8.5840     6.8480     8.4030    24.2970     2.0870 
  106.8750   -18.6660    69.9940     8.6700     6.8800     8.3400    24.3410     2.1250 
  107.0000   -18.6120    70.2410     8.7500     6.9020     8.3100    24.2980     2.1650 
  107.1250   -18.6320    69.5930     8.7840     6.9110     8.4140    24.1940     2.1890 
  107.2500   -18.6680    68.1570     8.7460     6.9210     8.5490    24.1340     2.1930 
  107.3750   -18.7290    65.9030     8.6380     6.9400     8.6430    24.1820     2.1800 
  107.5000   -18.8420    63.9020     8.5040     6.9720     8.7500    24.3100     2.1620 
  107.6250   -19.0070    62.6630     8.4160     7.0200     8.3310    24.4130     2.1460 
  107.7500   -19.1590    63.4310     8.4160     7.0800     8.3140    24.4300     2.1360 
  107.8750   -19.2660    65.4670     8.4970     7.1510     8.4360    24.3870     2.1280 
  108.0000   -19.3170    65.4880     8.6000     7.2250     8.3720    24.3210     2.1210 
  108.1250   -19.2480    63.0760     8.6270     7.2600     8.5110    24.2610     2.1120 
  108.2500   -18.9710    63.1310     8.5170     7.2120     8.7850    24.2720     2.1060 
  108.3750   -18.3380    67.0250     8.2470     7.0480     9.2660    24.4010     2.1140 
  108.5000   -17.2930    71.7590     7.8480     6.7770     9.4930    24.5740     2.1410 
  108.6250   -16.0310    74.6120     7.4140     6.4510     8.2690    24.6910     2.1850 
  108.7500   -14.8180    77.4910     7.0620     6.1560     7.1300    24.7520     2.2300 
  108.8750   -13.6400    80.8760     6.8570     5.9500     6.8240    24.8100     2.2610 
  109.0000   -12.4480    82.7750     6.8200     5.8690     6.8240    24.8470     2.2750 
  109.1250   -11.2950    83.8650     6.9500     5.9320     6.8340    24.8490     2.2750 
  109.2500   -10.3460    84.5790     7.1370     6.0730     6.8810    24.8300     2.2700 
  109.3750    -9.7720    84.7830     7.2780     6.2260     6.9300    24.8190     2.2640 
  109.5000    -9.6010    85.2930     7.2860     6.3180     6.9710    24.8260     2.2590 
  109.6250    -9.6220    84.6400     7.1000     6.2740     7.0230    24.7980     2.2580 
  109.7500    -9.6340    84.5790     6.7940     6.1090     6.9860    24.7380     2.2660 
  109.8750    -9.6850    84.6350     6.4610     5.8750     6.8040    24.6950     2.2810 
  110.0000    -9.8180    84.7370     6.2160     5.6530     6.4990    24.6910     2.2980 
  110.1250   -10.1450    83.4510     6.2040     5.5520     6.3950    24.6900     2.3040 
  110.2500   -10.7020    80.4440     6.4390     5.6070     6.4990    24.6460     2.2950 
  110.3750   -11.4760    77.4180     6.8850     5.8170     6.8050    24.5360     2.2730 
  110.5000   -12.4090    73.7050     7.4310     6.1340     7.3710    24.4020     2.2470 
  110.6250   -13.4850    69.9110     7.8810     6.4560     7.8650    24.2190     2.2230 
  110.7500   -14.6700    67.5680     8.1160     6.6900     8.2240    24.0020     2.2040 
  110.8750   -15.8890    68.8050     8.1360     6.8140     8.1620    23.8840     2.1920 
  111.0000   -17.1290    73.4010     8.0400     6.8640     8.1070    23.9520     2.1850 
  111.1250   -18.4090    75.9690     7.9870     6.9130     8.2180    24.0700     2.1880 
  111.2500   -19.6300    73.3810     8.0870     7.0250     8.3750    24.1110     2.1950 
  111.3750   -20.7030    66.7350     8.3690     7.2250     8.5860    24.1210     2.2010 
  111.5000   -21.5980    61.3690     8.7950     7.5090     9.3360    24.1300     2.2020 
  111.6250   -22.3360    62.1020     9.2800     7.8540     9.7270    24.0800     2.1900 
  111.7500   -22.9820    65.5230     9.7160     8.1950    10.0040    24.1070     2.1740 
  111.8750   -23.6430    66.6780    10.0390     8.4680    10.3130    24.1770     2.1630 
  112.0000   -24.3140    63.4430    10.2130     8.6240    10.9580    24.1930     2.1640 
  112.1250   -24.7570    60.4860    10.2120     8.6460    11.9070    24.2210     2.1790 
  112.2500   -24.9730    59.7370    10.1080     8.6010    12.0700    24.3290     2.1930 
  112.3750   -25.0800    59.0450     9.9770     8.5470    11.0640    24.3660     2.1970 
  112.5000   -25.2040    58.0770     9.9020     8.5270    10.3670    24.2150     2.1900 
  112.6250   -25.3880    58.5290     9.9430     8.5630    10.3490    24.0460     2.1750 
  112.7500   -25.5690    59.6340    10.0450     8.6250    10.4460    23.9890     2.1630 
  112.8750   -25.6570    62.0160    10.1340     8.6810    10.5170    23.9710     2.1550 
  113.0000   -25.6390    65.3360    10.1640     8.7130    10.3850    23.9290     2.1510 
  113.1250   -25.6350    66.4310    10.1300     8.7140    10.1780    23.8830     2.1450 
