~V
VERS. 2.00: Ver 2.00
~W
STRT.M 60.0000:
STOP.M 241.0000:
STEP.M 0.1250:
NULL. -999.2500:
UWI. F10158:
~C
DEPT.M :
SP.MV :
DEN.GM/CC :
GR.API :
RML.OHMM :
RI. :
RXO.OHMM :
CALI.CM :
~A
# ...
  206.2500    70.5220     2.1950    58.7360   110.6150   106.4350   146.4300    24.6450 
  206.3750    70.6820     2.2090    57.7090    96.2260    92.2040   144.8280    24.6440 
  206.5000    70.8600     2.2390    58.1280    80.7760    76.3440   127.9990    24.6320 
  206.6250    71.0560     2.2720    62.9550    67.3050    63.5990    91.3210    24.5600 
  206.7500    71.2470     2.2930    67.0850    57.2610    54.5330    59.8390    24.3880 
  206.8750    71.4240     2.2980    66.1070    50.5590    48.6780    46.4070    24.1770 
  207.0000    71.5900     2.2990    62.4140    46.4810    45.2220    53.2180    24.0320 
  207.1250    71.7370     2.3140    64.5740    44.5100    43.6200    70.6340    23.9490 
  207.2500    71.8620     2.3480    70.6360    43.8050    43.0580    68.2670    23.8450 
  207.3750    71.9710     2.3950    74.1620    43.9300    43.1140    51.0000    23.7520 
  207.5000    72.0760     2.4520    73.6110    44.3200    43.2860    41.2310    23.7660 
  207.6250    72.1920     2.5040    74.3880    44.2380    42.9140    47.8170    23.8680 
  207.7500    72.3320     2.5320    77.4730    43.2680    41.6290    60.5290    23.9240 
  207.8750    72.5070     2.5270    79.1020    41.2870    39.3190    65.9770    23.8990 
  208.0000    72.7080     2.4940    78.8380    38.4560    36.1720    57.4770    23.8360 
  208.1250    72.9430     2.4540    79.1080    34.9340    32.4320    43.7450    23.7960 
  208.2500    73.2060     2.4280    81.2710    30.9270    28.3360    34.6480    23.7730 
  208.3750    73.4960     2.4170    83.9980    26.4810    23.9210    29.4270    23.7580 
  208.5000    73.8280     2.4050    85.0560    21.8350    19.3770    26.4350    23.7900 
  208.6250    74.2330     2.3710    82.4980    17.5730    15.2560    22.9620    23.9280 
  208.7500    74.6970     2.3210    76.8900    14.1190    11.9770    17.0550    24.0990 
  208.8750    75.1960     2.2720    70.0640    11.6400     9.7090    11.7050    24.2170 
  209.0000    75.7090     2.2410    62.4220    10.0900     8.3800     8.8110    24.2550 
  209.1250    76.1930     2.2460    55.6200     9.4060     7.8650     8.4030    24.2470 
  209.2500    76.6300     2.2730    52.1410     9.2270     7.7710     8.6800    24.2290 
  209.3750    77.0120     2.3020    52.3270     9.3040     7.8420     8.6640    24.1990 
  209.5000    77.3370     2.3200    54.3370     9.3600     7.8350     8.4610    24.1230 
  209.6250    77.6210     2.3310    56.7300     9.1060     7.5320     8.3470    24.0080 
  209.7500    77.9060     2.3510    57.3990     8.5280     6.9670     8.0200    23.9750 
  209.8750    78.2080     2.3840    56.1670     7.7450     6.2670     7.3050    24.0690 
  210.0000    78.5130     2.4150    56.2170     6.9440     5.6030     6.3650    24.2150 
  210.1250    78.8020     2.4140    60.3530     6.3350     5.1640     5.5540    24.3310 
  210.2500    79.0580     2.3800    68.4210     5.9920     4.9990     5.0700    24.4280 
  210.3750    79.2650     2.3310    78.6610     5.9380     5.1130     5.1350    24.4980 
  210.5000    79.4260     2.2870    87.8700     6.1510     5.4690     5.8330    24.5100 
  210.6250    79.5620     2.2680    92.5340     6.5950     6.0080     6.9070    24.4960 
  210.7500    79.7140     2.2720    94.6080     7.1370     6.5900     7.7740    24.4940 
  210.8750    79.9090     2.2930    96.2900     7.6520     7.0930     8.2430    24.4980 
  211.0000    80.1550     2.3230    96.1840     7.9930     7.3870     8.5440    24.4910 
  211.1250    80.4510     2.3600    95.5520     8.0180     7.3670     8.9540    24.4400 
  211.2500    80.7650     2.3960    96.2630     7.8240     7.1610     9.3490    24.3430 
  211.3750    81.0820     2.4250    95.3850     7.5570     6.9220     9.2780    24.2370 
  211.5000    81.3730     2.4450    91.3270     7.3570     6.7930     8.4010    24.1680 
  211.6250    81.6040     2.4600    88.5460     7.3410     6.8790     7.4510    24.1510 
  211.7500    81.7720     2.4720    87.3830     7.4710     7.1080     7.7990    24.1500 
  211.8750    81.8880     2.4750    84.5440     7.6660     7.3710     9.5050    24.1480 
  212.0000    81.9610     2.4630    81.4500     7.8360     7.5630    11.0010    24.1430 
  212.1250    82.0130     2.4420    82.6550     7.8570     7.6890    10.4940    24.1440 
  212.2500    82.0630     2.4220    86.4550     7.8560     7.7100     9.3430    24.1410 
  212.3750    82.1150     2.3990    90.3670     7.8450     7.7070     8.7180    24.1200 
  212.5000    82.1760     2.3700    92.9140     7.8600     7.7080     9.0520    24.1170 
  212.6250    82.2490     2.3260    90.7260     7.8780     7.7060    10.6820    24.1960 
  212.7500    82.3230     2.2760    83.9640     7.8610     7.6720    11.8870    24.3110 
  212.8750    82.3870     2.2340    75.8940     7.8130     7.6060    11.4460    24.3840 
  213.0000    82.4390     2.2120    71.3260     7.7780     7.5370    10.7120    24.3990 
  213.1250    82.4690     2.2200    72.4770     7.8100     7.5090    10.8410    24.3770 
  213.2500    82.4910     2.2510    74.9910     7.9080     7.5310    10.1400    24.3070 
  213.3750    82.5170     2.2940    75.5110     8.0560     7.5960     8.6320    24.2030 
  213.5000    82.5590     2.3360    74.5940     8.2430     7.7020     8.3010    24.1500 
  213.6250    82.6180     2.3630    73.3400     8.4980     7.8700     9.2640    24.2000 
  213.7500    82.6810     2.3790    72.9500     8.8570     8.1240     9.5420    24.2610 
  213.8750    82.7370     2.3920    73.4770     9.3370     8.4820     9.0220    24.2700 
  214.0000    82.7720     2.4080    74.9230     9.9060     8.9260     8.7780    24.2410 
  214.1250    82.7660     2.4270    75.8880    10.4610     9.3850     9.3510    24.2150 
  214.2500    82.7130     2.4470    77.2880    10.8910     9.7630    10.1510    24.1910 
  214.3750    82.6190     2.4640    79.2730    11.1520    10.0090    10.9850    24.1380 
  214.5000    82.5080     2.4750    79.2170    11.2760    10.1290    11.8830    24.0410 
  214.6250    82.4100     2.4780    76.6860    11.3370    10.1690    12.3610    23.9410 
  214.7500    82.3440     2.4680    75.9510    11.4130    10.2020    12.1480    23.8810 
  214.8750    82.3230     2.4430    76.4970    11.5180    10.2540    12.5780    23.8460 
  215.0000    82.3440     2.4090    75.6350    11.6380    10.3260    14.2130    23.8080 
  215.1250    82.4130     2.3780    73.5100    11.7400    10.4030    13.9820    23.8230 
  215.2500    82.5200     2.3660    74.4320    11.8130    10.4680    11.6900    23.9420 
  215.3750    82.6550     2.3780    76.5640    11.8610    10.5160    10.2550    24.1100 
  215.5000    82.7970     2.4050    76.4030    11.8930    10.5490    11.0120    24.2290 
  215.6250    82.9330     2.4300    73.4090    11.9070    10.5660    13.0180    24.2520 
  215.7500    83.0660     2.4470    70.6420    11.8940    10.5640    14.0500    24.2410 
  215.8750    83.1940     2.4610    68.8000    11.8400    10.5360    14.2220    24.5090 
  216.0000    83.3160     2.4760    69.2060    11.7530    10.4860    14.1030    24.7370 
  216.1250    83.4250     2.4860    72.6100    11.6680    10.4330    13.8000    24.8510 
  216.2500    83.5180     2.4820    74.4290    11.6210    10.4010    13.4370    24.9090 
  216.3750    83.5950     2.4620    72.5700    11.6280    10.4020    13.9270    24.9280 
  216.5000    83.6630     2.4300    68.7060    11.6790    10.4310    18.7570    24.9240 
  216.6250    83.7140     2.3970    66.2000    11.7350    10.4660    28.8850    24.8980 
  216.7500    83.7460     2.3700    65.4950    11.7520    10.4770    32.2740    24.9240 
  216.8750    83.7660     2.3520    65.7930    11.7170    10.4520    25.2200    24.9290 
  217.0000    83.7790     2.3460    65.2750    11.6450    10.4010    17.6120    24.9310 
  217.1250    83.7800     2.3570    63.8530    11.5760    10.3500    14.2560    24.9310 
  217.2500    83.7710     2.3840    62.5750    11.5420    10.3250    12.0350    24.9280 
  217.3750    83.7510     2.4160    61.6050    11.5560    10.3400    10.4580    24.9150 
