~V
VERS. 2.00: Ver 2.00
~W
STRT.M 50.0000:
STOP.M 268.0000:
STEP.M 0.1250:
NULL. -999.2500:
UWI. F10199:
~C
DEPT.M :
GR.API :
RML.OHMM :
RI. :
RXO.OHMM :
CALI.CM :
DEN.GM/CC :
SP.MV :
~A
# ...
  106.2500    70.6860     6.5930     5.6770     6.2880    23.3620     2.2400   -13.9010 
  106.3750    66.5540     6.7730     5.7990     6.6020    23.3030     2.2100   -13.7730 
  106.5000    63.9670     6.8900     5.9050     6.9120    23.2520     2.1760   -13.6840 
  106.6250    66.4750     6.8670     5.9330     7.1160    23.2110     2.1520   -13.6310 
  106.7500    70.7210     6.7810     5.9000     7.2150    23.1650     2.1450   -13.5990 
  106.8750    72.4290     6.7480     5.8650     7.1760    23.1300     2.1570   -13.5940 
  107.0000    71.6980     6.9050     5.9170     7.1470    23.1100     2.1820   -13.5310 
  107.1250    70.2060     7.3760     6.1620     7.4040    23.0920     2.2080   -13.4520 
  107.2500    67.9650     8.0790     6.5900     7.6090    23.0890     2.2260   -13.4520 
  107.3750    65.4490     8.7970     7.1430     7.6870    23.1020     2.2340   -13.5070 
  107.5000    64.0370     9.4590     7.7090     7.7210    23.1090     2.2340   -13.4950 
  107.6250    64.4160     9.8290     8.1160     7.7640    23.1140     2.2270   -13.3740 
  107.7500    65.3830     9.8540     8.2830     7.7530    23.1190     2.2180   -13.1840 
  107.8750    66.6240     9.5930     8.2180     7.7250    23.1130     2.2100   -12.8650 
  108.0000    67.3850     9.2050     8.0130     7.7380    23.1120     2.2100   -12.4880 
  108.1250    66.0580     8.8580     7.7800     7.8410    23.1210     2.2250   -11.9570 
  108.2500    65.2210     8.5920     7.5720     7.9610    23.1310     2.2550   -11.2490 
  108.3750    66.6250     8.3430     7.3610     8.0110    23.1540     2.2920   -10.4630 
  108.5000    71.2700     8.0200     7.0910     8.0160    23.2020     2.3240    -9.6860 
  108.6250    77.7750     7.5560     6.7120     7.6670    23.2720     2.3360    -8.9650 
  108.7500    82.3270     7.0210     6.2690     7.0180    23.3730     2.3300    -8.2430 
  108.8750    82.5710     6.5130     5.8320     6.4000    23.4900     2.3130    -7.6030 
  109.0000    80.3990     6.1190     5.4710     6.1290    23.5910     2.2960    -7.0430 
  109.1250    80.8370     5.8920     5.2430     6.1510    23.6550     2.2890    -6.6350 
  109.2500    84.2560     5.7800     5.1210     6.2330    23.6780     2.2900    -6.3510 
  109.3750    88.2690     5.7390     5.0770     6.2080    23.6560     2.2940    -6.1360 
  109.5000    91.2470     5.7350     5.0780     6.0840    23.6210     2.2980    -6.0180 
  109.6250    93.4060     5.7540     5.1030     5.8340    23.5910     2.2980    -5.9950 
  109.7500    94.7550     5.7840     5.1350     5.7560    23.5530     2.2970    -6.0700 
  109.8750    93.4640     5.8080     5.1620     5.7870    23.5120     2.2970    -6.2270 
  110.0000    90.7150     5.7990     5.1690     5.8610    23.4740     2.3020    -6.4030 
  110.1250    89.6870     5.7400     5.1390     5.9180    23.4260     2.3130    -6.6210 
  110.2500    90.4520     5.6690     5.0930     5.8660    23.3810     2.3270    -6.9640 
  110.3750    93.1940     5.6500     5.0740     5.7620    23.3370     2.3420    -7.4360 
  110.5000    96.7340     5.7520     5.1320     5.7470    23.2770     2.3570    -8.0020 
  110.6250    97.1670     6.0340     5.3220     5.9090    23.2110     2.3710    -8.6150 
  110.7500    92.4380     6.4230     5.6050     6.2860    23.1380     2.3810    -9.2860 
  110.8750    85.0170     6.8200     5.9140     6.7790    23.0570     2.3810    -9.9580 
  111.0000    78.2210     7.1140     6.1620     7.2280    22.9970     2.3640   -10.6260 
  111.1250    74.2830     7.1980     6.2470     7.3320    22.9700     2.3330   -11.3130 
  111.2500    71.0120     7.1080     6.1760     7.1140    22.9560     2.3000   -11.9140 
  111.3750    68.7630     6.9130     5.9980     6.7290    22.9650     2.2740   -12.4280 
  111.5000    69.8760     6.7030     5.7920     6.4290    23.0100     2.2610   -12.8170 
  111.6250    71.7370     6.6080     5.6680     6.4160    23.0730     2.2610   -13.1300 
  111.7500    70.7460     6.7360     5.7120     6.5400    23.1440     2.2700   -13.3670 
  111.8750    67.7920     7.1940     6.0090     6.8380    23.2190     2.2860   -13.6030 
  112.0000    67.2700     8.0390     6.6100     7.4950    23.2900     2.3120   -13.8370 
  112.1250    69.1410     9.2260     7.5200     8.8910    23.3710     2.3440   -14.0780 
  112.2500    67.9320    10.4210     8.5140    10.6060    23.4670     2.3730   -14.4350 
  112.3750    65.1070    11.2770     9.3380    12.1290    23.5490     2.3830   -14.8970 
  112.5000    64.5440    11.4930     9.7290    12.7100    23.6130     2.3680   -15.4360 
  112.6250    66.9030    10.8710     9.4520    10.8740    23.6940     2.3270   -15.9800 
  112.7500    67.4090     9.8050     8.7410     8.9340    23.8060     2.2800   -16.5190 
  112.8750    63.9850     8.6990     7.8930     8.0270    23.9360     2.2370   -16.9980 
  113.0000    61.9270     7.8630     7.1720     7.8490    24.0600     2.2040   -17.4680 
  113.1250    63.3910     7.4610     6.7470     7.9200    24.1260     2.1840   -17.9060 
  113.2500    62.2190     7.3470     6.5550     7.9740    24.1410     2.1720   -18.2250 
  113.3750    57.4820     7.3890     6.5210     8.0210    24.1340     2.1680   -18.4200 
  113.5000    54.8490     7.4820     6.5650     8.0790    24.1020     2.1680   -18.5300 
  113.6250    58.3410     7.5660     6.6340     8.1390    24.0390     2.1730   -18.6290 
  113.7500    62.9200     7.6310     6.7020     8.1580    23.9620     2.1820   -18.7440 
  113.8750    65.5700     7.6810     6.7610     8.1400    23.8710     2.1900   -18.8810 
  114.0000    64.5870     7.7160     6.8090     8.1590    23.7920     2.1950   -19.0060 
  114.1250    62.1610     7.7330     6.8390     8.3330    23.7300     2.1880   -19.1050 
  114.2500    60.4390     7.7300     6.8490     8.6090    23.6660     2.1690   -19.1560 
  114.3750    59.4620     7.7110     6.8360     8.8500    23.6090     2.1440   -19.1790 
  114.5000    58.1860     7.6830     6.8020     8.9100    23.5540     2.1210   -19.2020 
  114.6250    56.6200     7.6590     6.7550     8.7690    23.4830     2.1110   -19.1940 
  114.7500    57.1780     7.6460     6.7080     8.4770    23.4060     2.1160   -19.1280 
  114.8750    59.8700     7.6470     6.6690     8.1390    23.3520     2.1310   -19.0080 
  115.0000    62.7310     7.6590     6.6390     7.8250    23.3030     2.1490   -18.8720 
  115.1250    64.9300     7.6770     6.6230     7.6210    23.2490     2.1620   -18.7260 
  115.2500    65.6730     7.6950     6.6150     7.5480    23.2090     2.1670   -18.6160 
  115.3750    64.9300     7.7130     6.6150     7.6050    23.1800     2.1660   -18.5100 
  115.5000    62.4960     7.7290     6.6180     7.7760    23.1540     2.1630   -18.3590 
  115.6250    59.9160     7.7420     6.6200     8.0000    23.1410     2.1640   -18.1610 
  115.7500    60.2920     7.7440     6.6110     8.1390    23.1220     2.1720   -17.9720 
  115.8750    62.9440     7.7260     6.5860     8.1300    23.1050     2.1850   -17.7920 
  116.0000    65.7260     7.6800     6.5380     8.0390    23.0860     2.1980   -17.6090 
  116.1250    67.0530     7.6080     6.4660     7.8790    23.0490     2.2050   -17.3950 
  116.2500    65.2960     7.5290     6.3810     7.6420    23.0090     2.2020   -17.1420 
  116.3750    63.6390     7.4620     6.2990     7.3730    22.9730     2.1920   -16.8470 
  116.5000    65.3730     7.4210     6.2340     7.1390    22.9270     2.1790   -16.5040 
  116.6250    68.9520     7.4090     6.2000     7.0310    22.8880     2.1690   -16.1220 
  116.7500    69.7810     7.4150     6.1950     6.9870    22.8680     2.1630   -15.7380 
  116.8750    68.4750     7.4350     6.2170     7.0100    22.8580     2.1600   -15.3350 
  117.0000    68.9350     7.4740     6.2640     7.0940    22.8680     2.1600   -14.8440 
  117.1250    71.6010     7.5360     6.3320     7.2970    22.9000     2.1660   -14.2610 
  117.2500    71.9800     7.5970     6.4010     7.5980    22.9270     2.1790   -13.6230 
  117.3750    69.3200     7.6180     6.4410     7.9310    22.9550     2.2000   -12.8890 
