~V
VERS. 2.00: Ver 2.00
~W
STRT.M 51.0000:
STOP.M 246.0000:
STEP.M 0.1250:
NULL. -999.2500:
UWI. F10182:
~C
DEPT.M :
SP.MV :
GR.API :
RML.OHMM :
RI. :
RXO.OHMM :
DEN.GM/CC :
CALI.CM :
~A
# ...
  219.7500   -14.0860    61.4370    18.7930    17.4910    22.9260     2.3600    24.1060 
  219.8750   -13.9990    61.0700    17.5660    16.3250    19.6230     2.3120    24.1390 
  220.0000   -13.8900    60.8580    16.7250    15.4270    19.4010     2.2820    24.2180 
  220.1250   -13.7840    63.7750    16.0400    14.6650    19.7330     2.2710    24.2750 
  220.2500   -13.7240    67.9890    15.2600    13.8770    18.4810     2.2780    24.3030 
  220.3750   -13.6410    69.3140    14.2850    12.9660    16.6640     2.2920    24.3340 
  220.5000   -13.5450    68.0210    13.1510    11.9360    14.8240     2.3030    24.3420 
  220.6250   -13.4790    67.6510    12.0100    10.8890    13.6890     2.3030    24.3330 
  220.7500   -13.3950    69.3960    11.1380    10.0400    12.7130     2.2940    24.3140 
  220.8750   -13.3010    69.3550    10.7200     9.5450    11.6640     2.2950    24.3070 
  221.0000   -13.2070    66.5000    10.9160     9.5370    11.2000     2.3310    24.2970 
  221.1250   -13.1230    64.0940    11.8300    10.1130    12.4890     2.4160    24.2840 
  221.2500   -13.0440    65.9040    13.5740    11.4170    15.2200     2.5300    24.2680 
  221.3750   -12.9610    68.8450    15.8150    13.2560    20.0630     2.6080    24.2350 
  221.5000   -12.8630    67.6950    18.0940    15.3180    27.7230     2.6130    24.2060 
  221.6250   -12.7920    62.2270    19.6940    16.9820    36.4420     2.5560    24.1950 
  221.7500   -12.7400    58.1680    19.5690    17.2020    31.7540     2.4790    24.1970 
  221.8750   -12.6460    58.9270    17.8580    15.9450    23.2170     2.4230    24.2060 
  222.0000   -12.5670    62.4470    15.2390    13.7820    19.1350     2.4040    24.2180 
  222.1250   -12.5200    66.1520    12.5890    11.4900    15.7720     2.4120    24.1980 
  222.2500   -12.4320    67.3680    10.6540     9.7030    11.9340     2.4240    24.1360 
  222.3750   -12.3630    65.7640     9.4980     8.5120     8.9560     2.4250    24.0560 
  222.5000   -12.3450    62.1350     8.9990     7.8510     8.1890     2.4170    24.0510 
  222.6250   -12.3030    57.6480     8.9520     7.5860     8.2330     2.4040    24.1240 
  222.7500   -12.2800    56.2970     9.1480     7.5870     8.1710     2.3960    24.2330 
  222.8750   -12.3250    58.5890     9.3340     7.6660     7.8830     2.3940    24.2750 
  223.0000   -12.3670    61.2300     9.3920     7.7340     7.7380     2.3950    24.2860 
  223.1250   -12.3970    60.6740     9.3130     7.7690     7.5570     2.4000    24.2870 
  223.2500   -12.4700    55.8430     9.1960     7.8080     7.5570     2.4130    24.2830 
  223.3750   -12.5330    51.1860     9.1670     7.8900     7.4970     2.4320    24.2800 
  223.5000   -12.5780    50.1200     9.2650     8.0220     7.9110     2.4490    24.2670 
  223.6250   -12.6340    52.5100     9.4480     8.1770     8.7640     2.4540    24.2270 
  223.7500   -12.6690    55.1960     9.6150     8.3020     9.8660     2.4440    24.2190 
  223.8750   -12.6850    55.0520     9.7050     8.3660    10.3450     2.4290    24.2450 
  224.0000   -12.6980    53.2330     9.7320     8.3650    10.2120     2.4200    24.2830 
  224.1250   -12.6770    52.3390     9.7340     8.3200     8.4820     2.4220    24.2850 
  224.2500   -12.6540    54.4190     9.7450     8.2630     7.5810     2.4300    24.2310 
  224.3750   -12.6490    57.3940     9.7600     8.2150     7.5950     2.4280    24.1650 
  224.5000   -12.6400    58.8690     9.7660     8.1680     7.3660     2.4120    24.1560 
  224.6250   -12.6290    57.5390     9.7550     8.1050     7.2280     2.3860    24.1750 
  224.7500   -12.6390    55.1850     9.7190     8.0110     7.1380     2.3620    24.1910 
  224.8750   -12.6400    54.0410     9.6720     7.9120     7.3850     2.3510    24.1850 
  225.0000   -12.6680    53.9750     9.6500     7.8550     7.7480     2.3590    24.1620 
  225.1250   -12.7270    53.6150     9.7190     7.8860     8.1880     2.3830    24.1230 
  225.2500   -12.7770    54.7260     9.9820     8.0680     8.7510     2.4160    24.1300 
  225.3750   -12.8270    57.9600    10.4240     8.3820     9.7690     2.4490    24.1630 
  225.5000   -12.8800    60.3220    10.9690     8.7900    11.7440     2.4760    24.1850 
  225.6250   -12.9380    59.7240    11.4830     9.2200    13.1040     2.4910    24.1850 
  225.7500   -12.9970    57.4940    11.8010     9.5600    12.7770     2.4920    24.1880 
  225.8750   -13.0560    56.4920    11.8910     9.7470    13.1070     2.4840    24.1860 
  226.0000   -13.0970    55.7290    11.7790     9.7660    13.2250     2.4760    24.1780 
  226.1250   -13.1530    53.9210    11.5350     9.6480    11.9560     2.4730    24.1410 
  226.2500   -13.1990    54.0870    11.2540     9.4470    10.1350     2.4770    24.0640 
  226.3750   -13.2410    55.8780    11.0050     9.2410     9.1390     2.4820    24.0420 
  226.5000   -13.2710    57.4460    10.8130     9.0700     8.6980     2.4850    24.1400 
  226.6250   -13.2910    58.1050    10.6970     8.9610     8.9770     2.4860    24.2190 
  226.7500   -13.3010    57.7280    10.6840     8.9280     9.3690     2.4840    24.2240 
  226.8750   -13.3020    56.7040    10.7510     8.9420     9.4600     2.4780    24.2040 
  227.0000   -13.2990    54.6470    10.8640     8.9710     9.4690     2.4690    24.1470 
  227.1250   -13.2740    53.0070    10.9770     8.9880    10.2390     2.4580    24.0830 
  227.2500   -13.2490    52.2810    11.0340     8.9710    11.8970     2.4500    24.0940 
  227.3750   -13.2380    52.2050    11.0420     8.9340    12.8230     2.4490    24.1420 
  227.5000   -13.2360    53.1730    11.0370     8.9000    10.9850     2.4540    24.1540 
  227.6250   -13.2670    54.3680    11.0570     8.8980     9.8570     2.4610    24.1510 
  227.7500   -13.3170    55.4210    11.1370     8.9600     9.8350     2.4710    24.1340 
  227.8750   -13.3940    57.4000    11.2790     9.0830    10.2830     2.4820    24.0820 
  228.0000   -13.4900    59.6220    11.4800     9.2520    11.0620     2.4930    24.0540 
  228.1250   -13.6190    59.8710    11.7270     9.4510    12.0670     2.5000    24.1370 
  228.2500   -13.7600    57.3580    12.0180     9.6800    12.7780     2.5000    24.2130 
  228.3750   -13.9010    55.1860    12.3610     9.9440    13.0290     2.4960    24.2650 
  228.5000   -14.0490    54.0870    12.7450    10.2450    13.1350     2.4920    24.2770 
  228.6250   -14.1980    54.6040    13.1290    10.5650    13.4030     2.4910    24.2680 
  228.7500   -14.3430    56.1390    13.4190    10.8580    13.3300     2.4930    24.2260 
  228.8750   -14.4760    56.8590    13.5530    11.0730    13.4250     2.4920    24.1540 
  229.0000   -14.6020    56.5870    13.5160    11.1780    13.6000     2.4860    24.1110 
  229.1250   -14.7060    56.8270    13.3540    11.1690    13.7820     2.4790    24.1480 
  229.2500   -14.8050    58.7920    13.1450    11.0620    13.7120     2.4770    24.1830 
  229.3750   -14.8940    60.0240    12.9520    10.9120    13.2480     2.4810    24.2080 
  229.5000   -14.9900    59.3130    12.7950    10.7550    13.0810     2.4850    24.2400 
  229.6250   -15.0470    58.2240    12.6820    10.6120    13.4080     2.4850    24.2590 
  229.7500   -15.0950    57.7520    12.6070    10.4990    13.1040     2.4760    24.2470 
  229.8750   -15.1390    56.5270    12.5450    10.4160    12.4640     2.4600    24.2230 
  230.0000   -15.1760    55.6980    12.4970    10.3700    11.7590     2.4410    24.2120 
  230.1250   -15.2050    57.4940    12.4790    10.3680    11.6040     2.4270    24.1680 
  230.2500   -15.1810    60.9690    12.5110    10.4130    11.0110     2.4260    24.1310 
  230.3750   -15.0980    62.1020    12.5580    10.4720    11.5010     2.4370    24.1870 
  230.5000   -14.9600    60.8860    12.5650    10.5030    11.9880     2.4530    24.2530 
  230.6250   -14.7710    59.4320    12.4820    10.4660    12.4900     2.4650    24.2810 
  230.7500   -14.5010    57.5260    12.2920    10.3280    12.1910     2.4600    24.2760 
  230.8750   -14.1410    54.9520    12.0640    10.1300    11.4300     2.4400    24.2820 
