~V
VERS. 2.00: Ver 2.00
~W
STRT.M 62.0000:
STOP.M 235.0000:
STEP.M 0.1250:
NULL. -999.2500:
UWI. F10157:
~C
DEPT.M :
SP.MV :
DEN.GM/CC :
GR.API :
RML.OHMM :
RI. :
RXO.OHMM :
CALI.CM :
~A
# ...
  219.5000    -5.1430     2.2610    68.4440     9.0530     7.8900     8.0400    24.7300 
  219.6250    -5.2910     2.2660    69.0560     9.0010     7.8880     7.4680    24.7290 
  219.7500    -5.4740     2.3000    70.7830     9.0630     7.9800     8.0850    24.7290 
  219.8750    -5.6870     2.3530    70.5300     9.2220     8.1330     9.4540    24.7290 
  220.0000    -5.9030     2.3930    69.3310     9.4440     8.3090    10.5450    24.7290 
  220.1250    -6.1500     2.3910    67.7260     9.6830     8.4790     7.8010    24.7290 
  220.2500    -6.4050     2.3670    65.3420     9.9080     8.6380     6.7870    24.7280 
  220.3750    -6.6540     2.3530    64.3020    10.1190     8.7990     6.8160    24.7270 
  220.5000    -6.8580     2.3570    64.3020    10.3260     8.9710     7.3860    24.7250 
  220.6250    -6.9880     2.3500    64.3020    10.5230     9.1480     7.9650    24.7120 
  220.7500    -7.0590     2.3130    64.3020    10.6870     9.3030     8.3540    24.6920 
  220.8750    -7.0710     2.2600    64.3020    10.7990     9.4140     8.2510    24.6720 
  221.0000    -7.0390     2.2210    64.3020    10.8620     9.4810     7.9590    24.6560 
  221.1250    -6.9910     2.2170    64.3020    10.8900     9.5140     7.8150    24.6440 
  221.2500    -6.9520     2.2250    64.3020    10.9030     9.5350     8.6500    24.6370 
  221.3750    -6.9480     2.2160    64.3020    10.9110     9.5520    10.4270    24.6350 
  221.5000    -6.9820     2.1790    64.3020    10.9420     9.5830    11.9700    24.6390 
  221.6250    -7.0340     2.1310    64.3020    11.0620     9.6750    12.4960    24.6470 
  221.7500    -7.0660     2.0960    64.3020    11.3000     9.8540    14.3850    24.6540 
  221.8750    -7.0620     2.0770    64.3020    11.6520    10.1310    19.7050    24.7570 
  222.0000    -7.0210     2.0790    64.3020    12.0730    10.4930    36.0350    24.8370 
  222.1250    -6.9520     2.1080    64.3020    12.4600    10.8830    54.8040    24.9060 
  222.2500    -6.8670     2.1630    64.3020    12.7220    11.2120    41.0730    24.9720 
  222.3750    -6.8110     2.2310    64.3020    12.8030    11.4090    24.4900    25.0190 
  222.5000    -6.7900     2.2880    64.3020    12.6980    11.4340    18.5440    25.0430 
  222.6250    -6.8180     2.3160    64.3020    12.4490    11.2840    22.0870    25.0440 
  222.7500    -6.8730     2.3280    64.3020    12.1720    11.0670    23.2970    25.0220 
  222.8750    -6.9340     2.3400    64.3020    11.9460    10.8650    18.2170    24.9850 
  223.0000    -6.9930     2.3630    64.3020    11.8190    10.7360    15.6120    24.9390 
  223.1250    -7.0440     2.3750    64.3020    11.7940    10.7070    20.0070    24.8930 
  223.2500    -7.0910     2.3580    64.3020    11.7960    10.7360    25.6380    24.8540 
  223.3750    -7.1450     2.3230    64.3020    11.7750    10.7870    24.4940    24.8300 
  223.5000    -7.2110     2.2950    64.3020    11.7230    10.8390    20.9750    24.8130 
  223.6250    -7.3080     2.2970    64.3020    11.6800    10.8970    13.5350    24.8030 
  223.7500    -7.4060     2.3150    64.3020    11.6970    10.9730    10.6120    24.8000 
  223.8750    -7.4850     2.3190    64.3020    11.8070    11.0910    11.4180    24.7970 
  224.0000    -7.5320     2.2800    64.3020    12.0140    11.2690    11.3460    24.7820 
  224.1250    -7.5170     2.1980    64.3020    12.2950    11.5110     8.9070    24.7540 
  224.2500    -7.4930     2.1210    64.3020    12.5730    11.7650     7.0720    24.7170 
  224.3750    -7.4630     2.0860    64.3020    12.7770    11.9780     6.8470    24.6790 
  224.5000    -7.4410     2.0980    64.3020    12.8430    12.0990     7.3650    24.6450 
  224.6250    -7.4550     2.1250    64.3020    12.7160    12.1010     7.8850    24.6210 
  224.7500    -7.5190     2.1300    64.3020    12.4940    12.0530     8.3270    24.6010 
  224.8750    -7.6160     2.1190    64.3020    12.3320    12.0200     8.9980    24.5860 
  225.0000    -7.7260     2.1150    64.3020    12.3690    12.0400    11.8920    24.5770 
  225.1250    -7.8000     2.1520    64.3020    12.6030    12.1130    15.2210    24.5190 
  225.2500    -7.8640     2.2160    64.3020    12.8550    12.1950    15.6250    24.5090 
  225.3750    -7.9260     2.2780    64.3020    13.0360    12.2570    14.9450    24.4980 
  225.5000    -7.9900     2.3230    64.3020    13.1300    12.2860    17.5750    24.4850 
  225.6250    -8.0330     2.3680    64.3020    13.1560    12.2800    24.9560    24.4710 
  225.7500    -8.0620     2.4210    64.3020    13.1600    12.2600    30.6220    24.4580 
  225.8750    -8.1040     2.4690    64.3020    13.1580    12.2380    49.7850    24.4470 
  226.0000    -8.1640     2.4920    64.3020    13.1560    12.2180    66.4770    24.4380 
  226.1250    -8.2430     2.4630    64.3020    13.1440    12.2010    46.8450    24.4280 
  226.2500    -8.3340     2.3950    64.3020    13.1330    12.1920    27.0290    24.4170 
  226.3750    -8.4290     2.3100    64.3020    13.1330    12.1920    16.5960    24.4060 
  226.5000    -8.5290     2.2300    64.3020    13.1330    12.1920    13.9330    24.3950 
  226.6250    -8.6410     2.1740    64.3020    13.1330    12.1920    14.0550    24.3780 
  226.7500    -8.7110     2.1550    64.3020    13.1330    12.1920    11.8430    24.3570 
  226.8750    -8.7340     2.1800    64.3020    13.1330    12.1920    14.0090    24.3320 
  227.0000    -8.7290     2.2420    64.3020    13.1330    12.1920    17.9430    24.3040 
  227.1250    -8.6910     2.3200    64.3020    13.1330    12.1920    10.5300    24.2760 
  227.2500    -8.6290     2.3850    64.3020    13.1330    12.1920     8.4480    24.2480 
  227.3750    -8.5670     2.4100    64.3020    13.1330    12.1920     8.1730    24.2160 
  227.5000    -8.5140     2.3860    64.3020    13.1330    12.1920     8.2680    24.1700 
  227.6250    -8.4800     2.3170    64.3020    13.1330    12.1920     7.9510    24.0840 
  227.7500    -8.5140     2.2210    64.3020    13.1330    12.1920     8.1470    23.9470 
  227.8750    -8.6970     2.1140    64.3020    13.1330    12.1920     8.1350    23.7320 
  228.0000    -8.9910     2.0110    64.3020    13.1330    12.1920     8.1790    23.4220 
  228.1250    -9.4150     1.9370    64.3020    13.1330    12.1920     8.4630    22.9710 
  228.2500    -9.9020     1.9020    64.3020    13.1330    12.1920    10.2500    22.3820 
  228.3750   -10.3980     1.9050    64.3020    13.1330    12.1920    13.0210    21.6900 
  228.5000   -10.8710     1.9300    64.3020    13.1330    12.1920    12.5580    20.9530 
  228.6250   -11.2260     1.9520    64.3020    13.1330    12.1920     8.0720    20.2350 
  228.7500   -11.3990     1.9620    64.3020    13.1330    12.1920     6.6960    19.5800 
  228.8750   -11.4080     1.9670    64.3020    13.1330    12.1920     6.4310    19.0100 
  229.0000   -11.4170     1.9810    64.3020    13.1330    12.1920     6.5300    18.5530 
  229.1250  -999.2500     2.0010    64.3020    13.1330    12.1920     6.8490    18.2360 
  229.2500  -999.2500     2.0300    64.3020    13.1330    12.1920     7.3230    18.0270 
  229.3750  -999.2500     2.0510    64.3020    13.1330    12.1920     7.7210    17.8860 
  229.5000  -999.2500     2.0590    64.3020    13.1330    12.1920     7.8560    17.7800 
  229.6250  -999.2500     2.0610    64.3020    13.1330    12.1920     7.7940    17.7100 
  229.7500  -999.2500     2.0610    64.3020    13.1330    12.1920     7.7360    17.6730 
  229.8750  -999.2500     2.0630    64.3020    13.1330    12.1920     7.7050    17.6640 
  230.0000  -999.2500     2.0660    64.3020    13.1330    12.1920     7.6910    17.6630 
  230.1250  -999.2500     2.0700    64.3020    13.1330    12.1920     7.6620    17.6630 
  230.2500  -999.2500     2.0710    64.3020    13.1330    12.1920     7.6310    17.6630 
  230.3750  -999.2500     2.0700    64.3020    13.1330    12.1920     7.6200    17.6630 
  230.5000  -999.2500     2.0660    64.3020    13.1330    12.1920     7.5250    17.6630 
  230.6250  -999.2500     2.0630    64.3020    13.1330    12.1920     7.3120    17.6630 
