~V
VERS. 2.00: Ver 2.00
~W
STRT.M 55.0000:
STOP.M 215.0000:
STEP.M 0.1250:
NULL. -999.2500:
UWI. F10125:
~C
DEPT.M :
GR.API :
RML.OHMM :
RI. :
RXO.OHMM :
CALI.CM :
DEN.GM/CC :
SP.MV :
~A
   55.0000    45.3890     2.0270     0.6080     0.7760    25.2580     1.9260    31.6360 
   55.1250    45.8050     1.7660     0.6200     0.7930    25.2670     1.9250    30.5790 
   55.2500    50.1940     1.6090     0.6250     0.8290    25.3160     1.9280    29.4790 
   55.3750    52.9660     1.5590     0.6220     0.8620    25.3720     1.9350    28.4520 
   55.5000    52.1360     1.6020     0.6180     0.8900    25.3900     1.9460    27.4800 
   55.6250    49.7510     1.7160     0.6200     0.9260    25.3980     1.9550    26.6020 
   55.7500    47.4350     1.8240     0.6300     0.9300    25.3990     1.9600    25.8550 
   55.8750    44.2210     1.8660     0.6420     0.9030    25.4010     1.9610    25.1530 
   56.0000    42.4780     1.8070     0.6480     0.9100    25.4100     1.9600    24.5090 
   56.1250    46.1110     1.6550     0.6420     0.9560    25.4170     1.9540    24.0030 
   56.2500    50.8640     1.4900     0.6340     0.9790    25.4310     1.9470    23.5330 
   56.3750    51.9050     1.3570     0.6340     0.9670    25.4460     1.9430    23.0550 
   56.5000    49.0110     1.2580     0.6440     0.9520    25.4630     1.9430    22.5510 
   56.6250    44.3040     1.1650     0.6580     0.9570    25.4850     1.9460    21.9750 
   56.7500    40.2110     1.0770     0.6660     0.9830    25.5160     1.9520    21.3460 
   56.8750    37.8720     1.0300     0.6630     1.0220    25.5450     1.9580    20.7640 
   57.0000    36.9300     1.0480     0.6520     1.0260    25.5660     1.9680    20.1600 
   57.1250    37.5890     1.1240     0.6460     1.0470    25.5840     1.9810    19.4920 
   57.2500    40.6480     1.1960     0.6520     1.0620    25.6050     1.9900    18.8610 
   57.3750    44.0450     1.2270     0.6640     1.0670    25.6150     1.9930    18.1970 
   57.5000    43.7930     1.2180     0.6710     1.0630    25.6160     1.9920    17.4450 
   57.6250    38.7840     1.2000     0.6670     1.1000    25.6260     1.9920    16.6140 
   57.7500    35.1240     1.2290     0.6540     1.1970    25.6570     1.9980    15.7030 
   57.8750    34.8160     1.3640     0.6430     1.3050    25.6890     2.0150    14.6550 
   58.0000    36.6440     1.6300     0.6410     1.3860    25.7180     2.0520    13.4790 
   58.1250    39.8720     1.8740     0.6260     1.4830    25.7670     2.1190    12.1850 
   58.2500    41.5530     1.7130     0.5630     1.5600    25.8040     2.2090    10.7120 
   58.3750    42.2970     0.9640     0.4430     1.6030    25.8270     2.3190     9.0960 
   58.5000    44.5920     0.0160     0.3050     1.7060    25.8430     2.4440     7.3400 
   58.6250    47.3970    -0.5870     0.2020     1.6800    25.8270     2.5560     5.3750 
   58.7500    49.2090    -0.8340     0.1510     1.5290    25.6710     2.6080     3.2120 
   58.8750    53.7480    -0.8180     0.1580     1.4790    25.1860     2.5730     0.8290 
   59.0000    66.0140    -0.5750     0.2450     1.8640    24.3330     2.4750    -1.7470 
   59.1250    81.3350    -0.0010     0.4830     3.2960    23.4590     2.3740    -4.5540 
   59.2500    89.2170     0.9810     0.9430     5.1880    22.8470     2.3110    -7.4130 
   59.3750    90.5050     2.3820     1.6920     6.3330    22.4750     2.2910   -10.1490 
   59.5000    92.9070     3.7960     2.6390     6.5450    22.3010     2.2970   -12.6400 
   59.6250   101.3070     4.2500     3.3800     6.4290    22.4790     2.3110   -14.7910 
   59.7500   111.2390     3.8960     3.7140     5.8210    22.9680     2.3230   -16.6100 
   59.8750   118.7290     3.3650     3.7730     4.9290    23.5820     2.3290   -17.9980 
   60.0000   122.3280     3.0240     3.7550     4.4710    24.2000     2.3240   -18.9560 
   60.1250   120.3900     2.9210     3.7580     4.4050    24.5980     2.3070   -19.4640 
   60.2500   117.2260     2.8980     3.7770     4.4090    24.8060     2.2900   -19.7030 
   60.3750   117.2310     2.8590     3.7770     4.4270    24.9310     2.2820   -19.8280 
   60.5000   118.9610     2.7960     3.7570     4.4440    25.0220     2.2810   -19.9070 
   60.6250   118.5970     2.8700     3.8150     4.4240    25.0800     2.2880   -19.9560 
   60.7500   118.8780     3.2580     4.0830     4.4640    25.1140     2.3100   -20.0040 
   60.8750   120.5550     4.0790     4.6670     5.0480    25.1330     2.3600   -20.0890 
   61.0000   118.6030     5.3380     5.5970     7.4400    25.1350     2.4350   -20.2170 
   61.1250   106.8480     6.7970     6.7220    13.5650    25.1240     2.4940   -20.3910 
   61.2500    94.3690     7.8200     7.5540    17.6560    25.1170     2.4920   -20.6160 
   61.3750    89.7750     7.9050     7.6810    12.7370    25.1140     2.4330   -20.8740 
   61.5000    96.3870     7.1390     7.1290     7.2600    25.1400     2.3580   -21.1560 
   61.6250   106.7100     6.2790     6.4010     5.5130    25.1650     2.3030   -21.5050 
   61.7500   108.6330     5.9710     6.0010     5.3370    25.1110     2.2670   -21.9060 
   61.8750   101.1280     6.3310     6.0810     5.9720    24.8960     2.2420   -22.3660 
   62.0000    87.6570     7.1860     6.6040     7.4380    24.5000     2.2290   -22.9000 
   62.1250    75.8100     8.1270     7.3530     9.3450    24.0630     2.2350   -23.4400 
   62.2500    70.3770     8.6720     7.9100    10.1880    23.8080     2.2560   -23.9490 
   62.3750    71.5640     8.6220     8.0130     9.4670    23.7920     2.2890   -24.4450 
   62.5000    75.3140     8.1090     7.6690     7.9670    23.9620     2.3210   -24.9380 
   62.6250    78.8880     7.5420     7.1460     7.4970    24.1200     2.3280   -25.3750 
   62.7500    84.4880     7.2990     6.7900     8.1120    24.2570     2.3030   -25.7730 
   62.8750    88.6510     7.5560     6.7690     8.4840    24.4340     2.2560   -26.1480 
   63.0000    87.1360     8.3440     7.1350     8.3810    24.6910     2.1970   -26.4810 
   63.1250    81.5520     9.5520     7.8570     9.2300    24.9160     2.1230   -26.8100 
   63.2500    77.3320    10.7390     8.6640    13.0110    25.0610     2.0620   -27.1700 
   63.3750    74.4170    11.5020     9.2790    18.3610    25.0800     2.0440   -27.5570 
   63.5000    72.1280    11.6020     9.4910    17.5510    24.9670     2.0740   -27.9260 
   63.6250    71.3310    11.0770     9.2470    11.9810    24.6270     2.1230   -28.2640 
   63.7500    72.3120    10.4500     8.8550     9.9690    24.3350     2.1540   -28.6000 
   63.8750    74.2490    10.0960     8.5670     9.6220    24.1480     2.1690   -28.9630 
   64.0000    74.5130    10.1980     8.5380    10.1570    24.1220     2.1810   -29.3410 
   64.1250    68.9640    10.7460     8.8360    11.1350    24.2610     2.1920   -29.6530 
   64.2500    60.3330    11.4240     9.2930    12.0740    24.4870     2.1990   -29.9350 
   64.3750    55.1150    11.9860     9.7460    12.6540    24.6800     2.2040   -30.1900 
   64.5000    57.4760    12.2770    10.0540    12.9480    24.7690     2.2080   -30.4380 
   64.6250    62.7480    12.2560    10.1330    12.9110    24.7910     2.2060   -30.6700 
   64.7500    64.0010    12.0890    10.0580    12.7300    24.8210     2.2000   -30.8770 
   64.8750    61.4610    11.8990     9.9040    12.5600    24.8520     2.1950   -30.9970 
   65.0000    59.8710    11.7490     9.7380    12.5060    24.8680     2.1940   -31.0230 
   65.1250    60.8150    11.6340     9.5990    12.6850    24.8500     2.1940   -31.0100 
   65.2500    60.5620    11.4950     9.4700    12.8940    24.8070     2.1920   -30.8970 
   65.3750    59.4190    11.2880     9.3160    12.7710    24.7300     2.1930   -30.6970 
   65.5000    61.5980    11.0180     9.1160    12.4900    24.6340     2.1960   -30.4720 
   65.6250    65.9660    10.7470     8.8880    12.5950    24.5460     2.2010   -30.2420 
   65.7500    66.9230    10.5670     8.6940    12.4150    24.4670     2.2030   -29.9440 
   65.8750    65.2850    10.5660     8.5960    11.7690    24.3600     2.2000   -29.6550 
   66.0000    64.3510    10.8040     8.6370    11.4350    24.2010     2.1920   -29.3970 
   66.1250    62.7730    11.3000     8.8210    11.5740    24.1180     2.1820   -29.1420 
