~V
VERS. 2.00: Ver 2.00
~W
STRT.M 54.0000:
STOP.M 236.0000:
STEP.M 0.1250:
NULL. -999.2500:
UWI. F10195:
~C
DEPT.M :
GR.API :
RML.OHMM :
RI. :
RXO.OHMM :
CALI.CM :
SP.MV :
DEN.GM/CC :
~A
# ...
  121.5000    46.5830    31.8910    27.4920    27.7200    22.3200   -10.5130     2.5930 
  121.6250    46.8430    31.6320    27.8190    24.6850    22.5140   -10.7190     2.5840 
  121.7500    47.3990    30.4460    27.2410    22.4970    22.7710   -10.8960     2.5670 
  121.8750    45.6260    29.2950    26.4960    21.3840    22.9400   -11.0370     2.5420 
  122.0000    41.4970    28.5160    25.9110    21.5210    22.9710   -11.1450     2.5130 
  122.1250    38.3090    28.0820    25.5460    23.2350    22.9260   -11.2320     2.4910 
  122.2500    41.2820    27.7370    25.2570    25.5700    22.8450   -11.2930     2.4830 
  122.3750    47.6920    27.2720    24.8810    24.8100    22.8010   -11.3570     2.4730 
  122.5000    51.1160    26.6780    24.4020    22.6510    22.7880   -11.4080     2.4530 
  122.6250    49.1670    26.0480    23.8880    20.6780    22.8480   -11.4400     2.4350 
  122.7500    46.5370    25.5420    23.4590    20.5680    22.9280   -11.4840     2.4500 
  122.8750    46.2170    25.2340    23.1920    22.1790    22.8610   -11.5190     2.4930 
  123.0000    46.5240    25.0960    23.0960    22.2580    22.6950   -11.5400     2.5370 
  123.1250    46.1030    25.0440    23.1200    19.3730    22.5910   -11.5370     2.5530 
  123.2500    45.3980    25.0150    23.1990    18.6330    22.5590   -11.5110     2.5360 
  123.3750    42.7980    24.9970    23.2760    20.2870    22.5380   -11.4670     2.5200 
  123.5000    38.7310    25.0080    23.3440    22.6410    22.4960   -11.4140     2.5170 
  123.6250    38.0800    25.0600    23.4200    22.6770    22.4380   -11.3730     2.5190 
  123.7500    44.5840    25.1660    23.5370    20.5240    22.4460   -11.3420     2.5120 
  123.8750    51.9120    25.3330    23.7060    19.7100    22.5370   -11.3110     2.5050 
  124.0000    54.1000    25.5610    23.9240    20.6090    22.6840   -11.2900     2.5150 
  124.1250    49.9020    25.7630    24.1400    21.6260    22.8730   -11.2810     2.5420 
  124.2500    43.2510    25.6590    24.1580    20.9990    23.0090   -11.2790     2.5670 
  124.3750    39.5930    25.0360    23.7840    19.8290    23.1610   -11.2690     2.5750 
  124.5000    40.4420    23.8730    22.9390    19.8830    23.3430   -11.2670     2.5730 
  124.6250    43.7440    22.4400    21.7870    19.6030    23.5020   -11.2810     2.5680 
  124.7500    47.4980    21.2470    20.7300    18.4290    23.5270   -11.2870     2.5600 
  124.8750    49.9460    20.6020    20.0830    16.5140    23.4140   -11.2870     2.5470 
  125.0000    49.7680    20.5860    19.9660    16.0300    23.3630   -11.2870     2.5360 
  125.1250    46.4000    21.0860    20.3330    18.1130    23.5850   -11.2930     2.5350 
  125.2500    43.2490    21.7760    20.9630    21.5160    24.0330   -11.3110     2.5410 
  125.3750    43.9890    22.1990    21.4260    22.5790    24.3590   -11.3480     2.5440 
  125.5000    47.6250    22.1340    21.4660    20.5070    24.4690   -11.3890     2.5390 
  125.6250    51.3670    21.6500    21.0740    19.0190    24.4000   -11.4150     2.5320 
  125.7500    53.2510    21.0540    20.4780    18.6700    24.1500   -11.4210     2.5320 
  125.8750    53.8370    20.6760    19.9940    17.9900    23.8940   -11.4120     2.5380 
  126.0000    51.9100    20.6180    19.7630    17.5800    23.7540   -11.3710     2.5470 
  126.1250    46.8550    20.8140    19.7900    18.8100    23.8550   -11.2930     2.5560 
  126.2500    43.5200    21.1050    19.9870    19.9570    23.9620   -11.1880     2.5620 
  126.3750    45.8140    21.3350    20.1860    19.5190    23.9070   -11.0920     2.5640 
  126.5000    51.3020    21.4600    20.3270    18.4130    23.7990   -11.0140     2.5610 
  126.6250    53.5900    21.4870    20.4040    18.1570    23.7780   -10.9510     2.5550 
  126.7500    51.3960    21.4200    20.4170    18.5840    23.8540   -10.8570     2.5440 
  126.8750    51.1960    21.2730    20.3570    18.4220    23.8930   -10.7530     2.5280 
  127.0000    53.5040    21.0420    20.2030    18.2890    23.8540   -10.6630     2.5160 
  127.1250    55.0550    20.7360    19.9560    18.5130    23.7730   -10.6160     2.5120 
  127.2500    54.2710    20.3850    19.6510    17.6800    23.6440   -10.6160     2.5130 
  127.3750    52.2520    20.0410    19.3590    17.2310    23.4510   -10.6100     2.5150 
  127.5000    50.0440    19.7020    19.0980    17.5980    23.2460   -10.5580     2.5170 
  127.6250    48.4390    19.3230    18.8300    18.3940    23.1550   -10.4450     2.5200 
  127.7500    48.9110    18.8380    18.4850    17.8290    23.3010   -10.3790     2.5130 
  127.8750    50.2570    18.2850    18.0660    17.0970    23.6450   -10.3530     2.4940 
  128.0000    52.2880    17.7410    17.6230    15.7520    24.0530   -10.3040     2.4700 
  128.1250    54.8770    17.2980    17.2260    14.6360    24.5440   -10.2070     2.4510 
  128.2500    56.4130    17.0480    16.9640    14.7800    24.9990   -10.0820     2.4410 
  128.3750    56.5490    16.9510    16.8320    15.2430    25.2440    -9.9900     2.4410 
  128.5000    56.5610    16.9330    16.7790    15.4980    25.1880    -9.9490     2.4520 
  128.6250    54.7460    16.8900    16.7110    15.4760    24.9980    -9.9440     2.4730 
  128.7500    49.6120    16.7230    16.5260    15.4040    25.1130    -9.8860     2.4960 
  128.8750    45.3630    16.4500    16.2500    14.9510    25.3370    -9.7920     2.5100 
  129.0000    45.4580    16.1340    15.9590    14.4810    25.4820    -9.7660     2.5150 
  129.1250    48.5590    15.8700    15.7420    14.0190    25.5050    -9.8280     2.5150 
  129.2500    49.1710    15.7800    15.6880    13.7760    25.4460    -9.8890     2.5100 
  129.3750    46.0130    15.8860    15.8090    13.8700    25.3900    -9.8680     2.5060 
  129.5000    42.7190    16.1770    16.1040    14.1650    25.3460    -9.8190     2.5080 
  129.6250    43.1650    16.6010    16.5390    14.6080    25.3550    -9.7980     2.5150 
  129.7500    45.4300    17.0540    17.0310    15.2620    25.5290    -9.8270     2.5140 
  129.8750    43.8580    17.4150    17.4530    15.6720    25.8100    -9.8770     2.5000 
  130.0000    40.4990    17.6080    17.7190    15.8100    25.9760    -9.8860     2.4780 
  130.1250    39.5950    17.6020    17.7880    16.5050    25.8760    -9.8160     2.4550 
  130.2500    41.4350    17.3480    17.6120    16.0460    25.6350    -9.7430     2.4390 
  130.3750    43.0360    16.8790    17.2250    15.0870    25.5750    -9.7280     2.4280 
  130.5000    45.0250    16.2030    16.6410    14.6230    25.8130    -9.7400     2.4180 
  130.6250    48.9900    15.3640    15.9040    14.7490    26.1290    -9.7730     2.4120 
  130.7500    52.7930    14.4640    15.0900    14.0220    26.1770    -9.8340     2.4240 
  130.8750    55.4040    13.6610    14.3140    12.3130    26.0680    -9.8830     2.4510 
  131.0000    57.1890    13.0610    13.6620    11.2030    25.9670    -9.9180     2.4770 
  131.1250    58.0650    12.7280    13.2020    10.8690    25.8890   -10.0180     2.4880 
  131.2500    58.3830    12.7170    13.0230    11.2900    25.9360   -10.1840     2.4890 
  131.3750    60.0350    12.9410    13.0960    12.0170    26.0830   -10.3290     2.4890 
  131.5000    64.1530    13.3310    13.3790    12.4920    26.3100   -10.4330     2.4880 
  131.6250    67.8690    13.7990    13.8020    12.6750    26.4650   -10.5120     2.4810 
  131.7500    69.7290    14.2250    14.2700    13.7440    26.5140   -10.6160     2.4680 
  131.8750    72.4590    14.5270    14.6720    14.6440    26.6430   -10.7410     2.4570 
  132.0000    75.3620    14.6960    14.9470    13.8030    26.8310   -10.8660     2.4510 
  132.1250    75.0000    14.7870    15.0970    12.3700    26.9530   -10.9700     2.4500 
  132.2500    71.0720    14.8890    15.1780    11.7060    26.8310   -11.0640     2.4540 
  132.3750    69.9310    15.0760    15.2950    12.4380    26.6120   -11.1860     2.4550 
  132.5000    72.2130    15.3860    15.5130    13.8950    26.5510   -11.3450     2.4500 
  132.6250    73.9470    15.8190    15.8450    15.4530    26.7310   -11.4880     2.4400 
