~V
VERS. 2.00: Ver 2.00
~W
STRT.M 57.0000:
STOP.M 281.0000:
STEP.M 0.1250:
NULL. -999.2500:
UWI. F10139:
~C
DEPT.M :
SP.MV :
GR.API :
RML.OHMM :
RI. :
RXO.OHMM :
CALI.CM :
DEN.GM/CC :
~A
# ...
  124.5000   -21.5450    65.2790     8.9010     8.1560    10.3700    22.1680     2.1350 
  124.6250   -21.6470    69.9810     8.6290     7.8890    10.6430    22.0170     2.1470 
  124.7500   -21.4760    71.2200     8.4250     7.7040    10.8790    21.8870     2.1550 
  124.8750   -21.2300    69.3640     8.4160     7.6870    10.7760    21.7380     2.1560 
  125.0000   -21.0570    67.0480     8.6770     7.8940    10.6040    21.5660     2.1500 
  125.1250   -20.9440    66.2150     9.2240     8.3620    10.6610    21.3680     2.1410 
  125.2500   -20.8500    65.1120     9.8850     8.9840    11.2620    21.2190     2.1350 
  125.3750   -20.8100    62.4980    10.4940     9.6330    11.5780    21.1400     2.1340 
  125.5000   -20.8530    60.2280    10.8870    10.1470    10.7170    21.1300     2.1350 
  125.6250   -20.8730    61.1200    10.8960    10.3110     9.7320    21.1890     2.1370 
  125.7500   -20.6780    63.5070    10.5550    10.0900     9.3840    21.2560     2.1410 
  125.8750   -20.1430    66.2190     9.8990     9.5020     9.2420    21.2640     2.1500 
  126.0000   -19.1790    70.0260     9.0150     8.6450     8.7800    21.2780     2.1660 
  126.1250   -17.8210    75.1500     8.0350     7.6870     7.9320    21.3940     2.1850 
  126.2500   -16.3010    79.2620     7.1330     6.8230     6.9530    21.6950     2.2040 
  126.3750   -14.7130    80.8640     6.4450     6.1620     6.3220    22.1660     2.2210 
  126.5000   -13.1740    79.2020     6.0720     5.7630     6.0940    22.7140     2.2340 
  126.6250   -11.8850    77.2320     6.0850     5.6740     6.2230    22.9720     2.2370 
  126.7500   -10.9360    76.0850     6.3110     5.7920     6.5330    23.0380     2.2280 
  126.8750   -10.3470    74.0810     6.6040     6.0310     6.9400    23.0140     2.2080 
  127.0000   -10.0820    71.3260     6.8810     6.3240     7.4130    22.9760     2.1840 
  127.1250   -10.0740    68.9350     7.2340     6.7110     7.7690    22.9560     2.1710 
  127.2500   -10.1180    67.0960     7.9120     7.3330     8.1530    23.0040     2.1820 
  127.3750   -10.0790    64.6470     9.2100     8.3900     8.8050    23.1320     2.2230 
  127.5000    -9.9040    60.4700    12.1380    10.1030    10.5390    23.3420     2.2880 
  127.6250    -9.5610    53.8550    15.5210    12.7730    14.3820    23.5210     2.3600 
  127.7500    -9.0500    47.7160    19.4200    16.0800    19.6170    23.6770     2.4210 
  127.8750    -8.4650    44.9760    22.7790    19.2350    22.6590    23.7690     2.4640 
  128.0000    -7.9460    44.3560    24.3040    21.0330    23.6610    23.8460     2.4890 
  128.1250    -7.5510    43.9960    23.1530    20.5310    21.6800    23.9160     2.5000 
  128.2500    -7.2510    45.1020    20.8390    18.8860    19.1630    23.9430     2.5030 
  128.3750    -7.0550    47.2530    18.8120    17.2390    16.2620    23.9470     2.4990 
  128.5000    -6.9510    47.3440    18.0320    16.3500    14.2800    23.9500     2.4920 
  128.6250    -6.9510    45.1420    19.0830    16.7600    14.6130    23.9510     2.4910 
  128.7500    -7.0790    43.8010    21.4460    18.2840    17.8440    23.9450     2.5030 
  128.8750    -7.2330    42.9600    24.4610    20.6020    21.6320    23.9240     2.5260 
  129.0000    -7.3400    41.3040    27.1430    23.0320    24.7860    23.8810     2.5550 
  129.1250    -7.4220    40.4000    28.2160    24.4740    26.6550    23.8010     2.5760 
  129.2500    -7.5280    42.3070    27.7260    24.6650    24.0100    23.6710     2.5840 
  129.3750    -7.7070    45.7430    26.4240    24.0490    19.5610    23.5100     2.5780 
  129.5000    -7.9730    48.3410    25.2210    23.3080    17.3810    23.3690     2.5610 
  129.6250    -8.3020    49.4600    24.6950    22.9300    17.0670    23.2590     2.5380 
  129.7500    -8.6420    49.6710    24.5950    22.8290    17.8020    23.2100     2.5190 
  129.8750    -9.0210    49.1470    24.4610    22.7020    18.2540    23.2140     2.5060 
  130.0000    -9.4230    47.8900    23.8240    22.1890    18.0790    23.2660     2.4990 
  130.1250    -9.8600    47.9830    22.3820    21.0100    16.9610    23.3480     2.4950 
  130.2500   -10.3260    48.9210    20.5440    19.4640    15.5780    23.2990     2.4880 
  130.3750   -10.7720    49.8360    18.7730    17.9240    14.2270    23.1090     2.4780 
  130.5000   -11.1830    50.9870    17.4500    16.7300    12.9820    22.9550     2.4700 
  130.6250   -11.5240    51.6590    16.9480    16.2200    12.4780    22.8920     2.4710 
  130.7500   -11.7790    51.5460    17.2490    16.3960    12.2620    22.8960     2.4840 
  130.8750   -11.9310    51.2910    18.2710    17.2180    12.9800    22.9550     2.5060 
  131.0000   -11.9870    51.6670    19.7290    18.4860    15.0270    23.0710     2.5290 
  131.1250   -11.9890    51.3720    21.0490    19.7440    17.6130    23.3320     2.5420 
  131.2500   -11.9570    48.0770    21.6930    20.4800    19.0970    23.7210     2.5420 
  131.3750   -11.9310    44.6460    21.4520    20.4530    19.1330    24.0870     2.5330 
  131.5000   -11.9080    44.3550    20.4950    19.7460    17.2800    24.2250     2.5210 
  131.6250   -11.8020    45.9100    19.2540    18.6680    16.0590    24.1640     2.5140 
  131.7500   -11.7000    46.1830    18.1910    17.6380    16.3540    24.0980     2.5100 
  131.8750   -11.6970    45.4430    17.5030    16.8590    17.6450    24.0780     2.5040 
  132.0000   -11.7430    45.1020    17.2620    16.4380    17.3800    24.0860     2.4920 
  132.1250   -11.6720    45.8620    17.5040    16.4690    15.6710    24.1400     2.4750 
  132.2500   -11.4890    47.4520    18.0660    16.8490    15.2590    24.2140     2.4650 
  132.3750   -11.2030    49.3110    18.8620    17.5080    16.3180    24.3000     2.4680 
  132.5000   -10.8200    49.7790    19.8060    18.3680    18.2820    24.3680     2.4870 
  132.6250   -10.4760    49.4240    20.7650    19.3220    18.8960    24.3940     2.5180 
  132.7500   -10.1640    49.3140    21.5940    20.2030    18.5570    24.4060     2.5460 
  132.8750    -9.8280    48.5090    22.2220    20.9150    18.6250    24.4180     2.5610 
  133.0000    -9.5020    47.1020    22.6580    21.4400    19.8180    24.4100     2.5540 
  133.1250    -9.2460    46.5260    22.9480    21.7900    21.3600    24.4020     2.5250 
  133.2500    -9.0370    46.3890    23.1540    22.0170    22.3750    24.3800     2.4890 
  133.3750    -8.8870    46.6570    23.2640    22.1200    21.3280    24.3390     2.4630 
  133.5000    -8.8100    48.3130    23.2580    22.0980    20.4340    24.2960     2.4600 
  133.6250    -8.7800    50.9590    23.1430    21.9760    20.8060    24.3120     2.4810 
  133.7500    -8.7670    52.5210    22.9890    21.8330    20.9500    24.3130     2.5110 
  133.8750    -8.7640    53.0760    22.8260    21.7060    20.3760    24.2930     2.5380 
  134.0000    -8.7700    53.0710    22.6580    21.6000    20.5920    24.2690     2.5560 
  134.1250    -8.7980    53.7940    22.4710    21.4910    20.9270    24.2510     2.5660 
  134.2500    -8.8490    54.5890    22.2760    21.3570    21.0840    24.2450     2.5730 
  134.3750    -8.9300    53.3790    22.1120    21.2050    21.0320    24.2570     2.5790 
  134.5000    -9.0210    50.7370    22.0340    21.0740    21.3830    24.2690     2.5850 
  134.6250    -9.0670    50.4320    22.1380    21.0860    21.1660    24.2820     2.5890 
  134.7500    -9.0310    52.4820    22.4510    21.3240    20.4200    24.3040     2.5950 
  134.8750    -8.9050    53.7210    22.9870    21.8230    20.7660    24.3220     2.6020 
  135.0000    -8.7900    53.6780    23.6980    22.5350    22.0930    24.3220     2.6090 
  135.1250    -8.7740    54.8550    24.4370    23.3140    24.0100    24.2880     2.6120 
  135.2500    -8.7830    56.1990    24.9990    23.9380    25.1500    24.2280     2.6090 
  135.3750    -8.7640    55.3050    25.2020    24.2360    24.8320    24.1780     2.6010 
  135.5000    -8.7310    52.7290    24.9000    24.0720    23.1300    24.1440     2.5890 
  135.6250    -8.7210    51.5820    23.9920    23.3330    22.8190    24.1340     2.5760 
