~V
VERS. 2.00: Ver 2.00
~W
STRT.M 53.0000:
STOP.M 219.0000:
STEP.M 0.1250:
NULL. -999.2500:
UWI. F10171:
~C
DEPT.M :
SP.MV :
DEN.GM/CC :
GR.API :
RML.OHMM :
RI. :
RXO.OHMM :
CALI.CM :
~A
# ...
  210.5000   -19.1590     2.2190   104.8840     8.5430     7.2610    10.5000    24.8660 
  210.6250   -19.0870     2.2250   104.8840     8.1590     6.9950     7.7970    24.8870 
  210.7500   -18.9700     2.2250   104.8840     7.6930     6.6640     6.3890    24.8940 
  210.8750   -18.8640     2.2090   104.8840     7.3200     6.3960     6.0200    24.8510 
  211.0000   -18.7870     2.1910   104.8840     7.0930     6.2340     5.5470    24.8060 
  211.1250   -18.7640     2.1910   104.8840     6.9980     6.1650     5.4740    24.7950 
  211.2500   -18.8050     2.2130   104.8840     6.9780     6.1510     5.7590    24.8100 
  211.3750   -18.9280     2.2370   104.8840     6.9800     6.1500     6.3040    24.8500 
  211.5000   -19.0980     2.2500   104.8840     6.9820     6.1490     6.5760    24.9000 
  211.6250   -19.3130     2.2550   104.8840     6.9830     6.1490     6.5170    24.9140 
  211.7500   -19.4700     2.2630   104.8840     6.9790     6.1490     6.3160    24.8430 
  211.8750   -19.4980     2.2790   104.8840     6.9600     6.1500     6.2160    24.6950 
  212.0000   -19.5430     2.2920   104.8840     6.9310     6.1510     6.4160    24.5280 
  212.1250   -19.6030     2.2890   104.8840     6.9030     6.1510     6.3380    24.4230 
  212.2500   -19.6350     2.2750   104.8840     6.8890     6.1510     6.1950    24.4590 
  212.3750   -19.6230     2.2580   104.8840     6.9000     6.1500     6.4550    24.6190 
  212.5000   -19.5830     2.2370   104.8840     6.9250     6.1480     6.6660    24.7600 
  212.6250   -19.5070     2.2010   104.8840     6.9500     6.1450     6.5810    24.8390 
  212.7500   -19.5130     2.1550   104.8840     6.9650     6.1420     6.5710    24.9060 
  212.8750   -19.6430     2.1230   104.8840     6.9680     6.1400     6.5970    24.9150 
  213.0000   -19.6960     2.1140   104.8840     6.9660     6.1390     6.5090    24.9180 
  213.1250   -19.6810     2.1280   104.8840     6.9610     6.1390     6.4250    24.9160 
  213.2500   -19.5920     2.1540   104.8840     6.9570     6.1420     6.2770    24.8940 
  213.3750   -19.4730     2.1920   104.8840     6.9570     6.1450     6.2730    24.8800 
  213.5000   -19.3450     2.2390   104.8840     6.9610     6.1480     6.4100    24.8740 
  213.6250   -19.2350     2.2800   104.8840     6.9660     6.1500     6.6200    24.8740 
  213.7500   -19.1040     2.3030   104.8840     6.9660     6.1510     6.8310    24.8740 
  213.8750   -18.9390     2.3170   104.8840     6.9590     6.1490     7.1690    24.8740 
  214.0000   -18.7560     2.3320   104.8840     6.9570     6.1490     7.6890    24.8670 
  214.1250   -18.5910     2.3450   104.8840     6.9570     6.1490     7.6500    24.8440 
  214.2500   -18.4260     2.3330   104.8840     6.9570     6.1490     7.2550    24.7950 
  214.3750   -18.2690     2.2880   104.8840     6.9570     6.1490     6.6260    24.7210 
  214.5000   -18.1610     2.2320   104.8840     6.9570     6.1490     6.0750    24.6090 
  214.6250   -18.0620     2.1940   104.8840     6.9570     6.1490     5.8570    24.5180 
  214.7500   -17.9500     2.1920   104.8840     6.9570     6.1490     6.1130    24.5160 
  214.8750   -17.8370     2.2110   104.8840     6.9570     6.1490     6.6910    24.6250 
  215.0000   -17.8160     2.2310   104.8840     6.9570     6.1490     6.3430    24.7200 
  215.1250   -17.8360     2.2390   104.8840     6.9570     6.1490     6.1770    24.7550 
  215.2500   -17.9080     2.2230   104.8840     6.9570     6.1490     6.0110    24.7400 
  215.3750   -18.0300     2.1850   104.8840     6.9570     6.1490     5.7670    24.7080 
  215.5000   -18.1060     2.1220   104.8840     6.9570     6.1490     5.4440    24.4990 
  215.6250   -18.1960     2.0210   104.8840     6.9570     6.1490     5.2840    23.9500 
  215.7500   -18.3230     1.8840   104.8840     6.9570     6.1490     5.2010    23.3120 
  215.8750   -18.4300     1.7730   104.8840     6.9570     6.1490     5.1660    23.0320 
  216.0000   -18.5150     1.7120   104.8840     6.9570     6.1490     5.1590    22.9870 
  216.1250   -18.5410     1.6920   104.8840     6.9570     6.1490     5.1570    22.9870 
  216.2500   -18.5240     1.6920   104.8840     6.9570     6.1490     5.1570    22.9870 
  216.3750   -18.4890     1.6930   104.8840     6.9570     6.1490     5.1570    22.9870 
  216.5000   -18.4540     1.6930   104.8840     6.9570     6.1490     5.1570    22.9870 
  216.6250   -18.3780     1.6930   104.8840     6.9570     6.1490     5.1570    22.9870 
  216.7500   -18.3170     1.6950   104.8840     6.9570     6.1490     5.1570    22.9870 
  216.8750   -18.2630     1.6980   104.8840     6.9570     6.1490     5.1570    22.9870 
  217.0000   -18.1950     1.6990   104.8840     6.9570     6.1490     5.1570    22.9870 
  217.1250   -18.1760     1.6980   104.8840     6.9570     6.1490     5.1570    22.9870 
  217.2500   -18.1760     1.6940   104.8840     6.9570     6.1490     5.1560    22.9860 
  217.3750   -18.1760     1.6910   104.8840     6.9570     6.1490     5.1560    22.9840 
  217.5000  -999.2500     1.6900   104.8840     6.9570     6.1490     5.1570    22.9820 
  217.6250  -999.2500     1.6920   104.8840     6.9570     6.1490     5.1570    22.9820 
  217.7500  -999.2500     1.6950   104.8840     6.9570     6.1490     5.1560    22.9820 
  217.8750  -999.2500     1.6960   104.8840     6.9570     6.1490     5.1550    22.9820 
  218.0000  -999.2500     1.6950   104.8840     6.9570     6.1490     5.1520    22.9820 
  218.1250  -999.2500     1.6950   104.8840     6.9570     6.1490     5.1540    22.9800 
  218.2500  -999.2500     1.6970   104.8840     6.9570     6.1490     5.1540    22.9700 
  218.3750  -999.2500     1.7000   104.8840     6.9570     6.1490     5.1520    22.9470 
  218.5000  -999.2500     1.7040   104.8840     6.9570     6.1490     5.1500    22.9300 
  218.6250  -999.2500     1.7060   104.8840     6.9570     6.1490     5.1500    22.9230 
  218.7500  -999.2500     1.7080  -999.2500  -999.2500  -999.2500  -999.2500  -999.2500 
  218.8750  -999.2500     1.7030  -999.2500  -999.2500  -999.2500  -999.2500  -999.2500 
  219.0000  -999.2500  -999.2500  -999.2500  -999.2500  -999.2500  -999.2500  -999.2500 
