~V
VERS. 2.00: Ver 2.00
~W
STRT.M 43.0000:
STOP.M 249.0000:
STEP.M 0.1250:
NULL. -999.2500:
UWI. F10197:
~C
DEPT.M :
GR.API :
RML.OHMM :
RI. :
RXO.OHMM :
CALI.CM :
SP.MV :
DEN.GM/CC :
~A
# ...
  166.7500    69.8140    26.7050    27.0510    24.0930    22.6590   -11.2300     2.2030 
  166.8750    66.0990    25.3630    25.5640    24.0570    22.7810   -11.3480     2.2090 
  167.0000    65.4170    24.4680    24.5230    21.7360    22.7980   -11.4440     2.2170 
  167.1250    68.8000    24.2120    24.1260    20.4980    22.6160   -11.5260     2.2210 
  167.2500    71.4180    24.5600    24.3370    20.6800    22.4670   -11.6520     2.2220 
  167.3750    70.1220    25.5060    25.1520    21.2780    22.5720   -11.8220     2.2190 
  167.5000    66.9610    27.0150    26.5540    21.9270    22.7620   -12.0360     2.2160 
  167.6250    67.4110    29.1170    28.6240    23.7950    22.7190   -12.2730     2.2110 
  167.7500    69.9960    34.9590    31.2660    26.0970    22.4020   -12.5120     2.2010 
  167.8750    70.7880    41.5550    34.4590    28.3300    21.9870   -12.7610     2.1930 
  168.0000    68.4660    45.3780    38.0920    30.6310    21.7060   -13.0190     2.1920 
  168.1250    67.4220    49.1740    41.9120    32.4600    21.6240   -13.2580     2.2030 
  168.2500    68.5660    52.6610    45.5640    34.8870    21.6060   -13.4700     2.2140 
  168.3750    68.4750    55.6820    48.8200    37.3130    21.5980   -13.6460     2.2180 
  168.5000    66.2380    58.1130    51.5340    38.1320    21.5840   -13.7820     2.2120 
  168.6250    64.1930    59.4670    53.3170    37.9530    21.5650   -13.9050     2.2050 
  168.7500    64.5800    59.2680    53.7820    38.2490    21.5600   -14.0350     2.2040 
  168.8750    66.4150    57.0590    52.4550    38.1390    21.5620   -14.1560     2.2090 
  169.0000    68.4310    52.9480    49.2670    36.1410    21.5350   -14.2700     2.2190 
  169.1250    70.1120    47.6710    44.6950    31.3020    21.4920   -14.4160     2.2320 
  169.2500    71.8010    42.5110    39.9670    25.6250    21.4490   -14.5630     2.2450 
  169.3750    73.5260    38.2000    35.8390    21.7120    21.4810   -14.6960     2.2560 
  169.5000    74.9210    35.1930    32.7830    20.8690    21.5180   -14.8380     2.2620 
  169.6250    75.2640    34.1820    31.3690    22.6070    21.5120   -15.0070     2.2580 
  169.7500    75.0490    35.4530    31.7950    22.5220    21.4700   -15.1950     2.2470 
  169.8750    74.5960    39.8390    34.8350    22.0810    21.4020   -15.4330     2.2370 
  170.0000    73.8440    48.5560    41.8770    22.7900    21.3330   -15.7290     2.2320 
  170.1250    73.0710    64.6490    56.5150    29.0640    21.2930   -16.0540     2.2340 
  170.2500    72.1700    89.3040    80.1510    40.0430    21.2530   -16.4180     2.2350 
  170.3750    69.5940   122.5650   112.4380    53.5580    21.1560   -16.8330     2.2300 
  170.5000    65.3850   158.1840   147.2800    60.6220    21.0030   -17.2670     2.2200 
  170.6250    64.6390   178.5090   169.6350    59.6910    21.0640   -17.6910     2.2110 
  170.7500    68.6210   178.6700   173.8180    53.0680    21.3840   -18.1000     2.2050 
  170.8750    73.1560   167.4460   165.0950    46.9620    21.9420   -18.4950     2.2000 
  171.0000    75.4340   154.5840   152.3250    44.2210    22.6050   -18.8720     2.1970 
  171.1250    77.7860   144.1910   141.2020    41.4660    22.8840   -19.2240     2.1960 
  171.2500    81.4200   135.6960   132.2840    38.6460    22.5190   -19.5340     2.1990 
  171.3750    84.8620   128.8270   125.2690    36.5800    21.4410   -19.8030     2.2030 
  171.5000    86.8000   124.1490   120.4900    35.5470    19.8230   -20.0500     2.2040 
  171.6250    83.3300   123.3410   119.3920    34.2060    18.0470   -20.2870     2.2040 
  171.7500    76.7090   127.0440   122.6470    32.3520    16.6030   -20.5170     2.2040 
  171.8750    72.0620   142.4370   131.4740    31.4180    15.7820   -20.7150     2.2000 
  172.0000    70.7040   160.2330   146.5180    31.7130    15.5610   -20.8800     2.1950 
  172.1250    69.1360   181.0140   166.7890    32.4600    15.6370   -21.0560     2.1930 
  172.2500    64.7100   200.1890   186.1270    31.8650    15.7170   -21.2370     2.1900 
  172.3750    61.2120   209.9710   197.6100    30.8720    15.8370   -21.4370     2.1830 
  172.5000    60.6630   204.8830   196.1440    31.8790    16.0250   -21.6310     2.1710 
  172.6250    62.5930   184.6580   180.2970    32.4620    16.0500   -21.8000     2.1520 
  172.7500    65.2300   158.8950   157.8240    31.3980    15.9590   -21.9360     2.1340 
  172.8750    66.1180   133.7350   134.2540    30.1570    15.9330   -22.0630     2.1270 
  173.0000    64.7190   112.9250   113.4180    28.9080    15.9970   -22.1800     2.1320 
  173.1250    65.4880    99.3220    98.6260    25.7390    16.1570   -22.2690     2.1410 
  173.2500    69.9150    92.1880    90.1110    24.1700    16.5060   -22.3820     2.1460 
  173.3750    73.1100    91.0960    87.9470    25.4320    17.0850   -22.4990     2.1530 
  173.5000    71.4130    95.1900    91.5530    28.0260    17.6960   -22.6130     2.1670 
  173.6250    67.2910   102.9320    99.6610    31.4150    18.1460   -22.7190     2.1790 
  173.7500    65.5090   110.0600   107.9230    33.9280    18.4170   -22.8090     2.1830 
  173.8750    67.8850   112.4950   112.1030    34.1630    18.5820   -22.8670     2.1910 
  174.0000    71.4330   107.9840   109.3780    33.9030    18.7420   -22.8940     2.2100 
  174.1250    71.2010    97.8630   100.0680    33.7560    18.8840   -22.8930     2.2300 
  174.2500    69.6100    87.3120    89.3300    32.6730    19.0020   -22.8300     2.2380 
  174.3750    72.1020    78.7460    80.0770    29.9770    19.0700   -22.7080     2.2390 
  174.5000    77.4340    72.7850    73.3240    30.0810    19.1030   -22.5590     2.2430 
  174.6250    76.7460    69.6050    69.3800    32.8470    19.0770   -22.4170     2.2520 
  174.7500    72.1280    68.5080    67.5610    35.4190    19.0580   -22.2990     2.2580 
  174.8750    70.1040    69.3540    67.6810    34.4110    19.1790   -22.2230     2.2620 
  175.0000    71.9380    72.2010    69.7090    33.5080    19.5480   -22.1920     2.2640 
  175.1250    72.5480    77.5810    74.1600    37.0850    19.8190   -22.1970     2.2640 
  175.2500    69.2300    85.0200    80.7120    44.8630    19.9650   -22.2350     2.2610 
  175.3750    64.9480    93.8480    88.8150    53.1550    20.0840   -22.3050     2.2540 
  175.5000    62.6770   102.8880    97.3140    57.5510    20.2350   -22.3750     2.2450 
  175.6250    61.8760   110.3340   104.3530    62.4290    20.3160   -22.4380     2.2380 
  175.7500    62.1860   115.2980   108.9400    66.7640    20.3030   -22.5130     2.2330 
  175.8750    64.9720   117.7140   110.9470    69.7130    20.3470   -22.6010     2.2280 
  176.0000    67.5190   118.3110   111.0180    68.2500    20.4130   -22.6990     2.2190 
  176.1250    64.8640   118.3480   110.2250    65.8120    20.5290   -22.8090     2.2110 
  176.2500    62.0980   119.2750   109.9710    65.4790    20.7310   -22.8880     2.2080 
  176.3750    63.5400   121.7910   111.0310    67.7910    21.0420   -22.9580     2.2050 
  176.5000    67.4530   125.7260   113.4340    71.0670    21.4220   -23.0530     2.1970 
  176.6250    68.0340   129.9190   116.3370    73.6950    21.8290   -23.1600     2.1830 
  176.7500    65.2630   132.9730   118.5060    72.9960    22.0470   -23.2570     2.1710 
  176.8750    61.4380   134.4960   119.5280    69.1120    22.0440   -23.3320     2.1670 
  177.0000    58.7960   135.1060   119.8180    64.2820    21.9620   -23.3890     2.1690 
  177.1250    58.9840   136.2550   120.5560    61.8080    21.9650   -23.4280     2.1700 
  177.2500    61.9050   138.9830   122.7180    63.4130    22.0600   -23.4680     2.1670 
  177.3750    65.9190   143.5130   126.6420    66.7800    22.2070   -23.4850     2.1620 
  177.5000    68.0490   149.2770   131.9760    70.4490    22.3930   -23.4860     2.1570 
  177.6250    65.8370   154.7950   137.5950    72.5650    22.5420   -23.4450     2.1520 
  177.7500    64.1670   158.2850   141.8940    73.5440    22.6250   -23.3490     2.1460 
  177.8750    64.1940   158.0220   143.3910    74.7500    22.6540   -23.2250     2.1430 
