~V
VERS. 2.00: Ver 2.00
~W
STRT.M 50.0000:
STOP.M 205.0000:
STEP.M 0.1250:
NULL. -999.2500:
UWI. F10148:
~C
DEPT.M :
GR.API :
RML.OHMM :
RI. :
RXO.OHMM :
CALI.CM :
SP.MV :
DEN.GM/CC :
~A
# ...
  140.0000    77.3290     7.3880     5.6920     6.0130    22.8980   -12.7940     2.2100 
  140.1250    81.7720     6.9580     5.3850     5.6980    22.7700   -12.8060     2.2130 
  140.2500    84.6260     6.6390     5.1730     5.6260    22.5560   -12.8310     2.2150 
  140.3750    85.2890     6.4420     5.0540     5.6910    22.4730   -12.8600     2.2160 
  140.5000    86.4090     6.3990     5.0230     5.9190    22.3150   -12.9040     2.2150 
  140.6250    89.6860     6.6450     5.1290     6.0650    22.3390   -12.9440     2.2150 
  140.7500    92.0960     7.2480     5.4180     6.1300    22.3660   -13.0200     2.2150 
  140.8750    90.2930     8.2700     5.9640     6.7890    22.5060   -13.1190     2.2180 
  141.0000    85.9480     9.6860     6.8190     8.9130    22.7890   -13.2280     2.2260 
  141.1250    80.7860    11.3200     7.9870    11.5450    22.9370   -13.3390     2.2390 
  141.2500    75.3340    12.7800     9.2270    13.1200    23.1360   -13.4630     2.2540 
  141.3750    70.9550    13.7330    10.2530    13.3700    23.2380   -13.6180     2.2650 
  141.5000    69.2380    14.0090    10.8060    12.8280    23.2080   -13.7590     2.2650 
  141.6250    69.7420    13.6260    10.7410    11.5380    22.8320   -13.9110     2.2520 
  141.7500    69.3910    12.9550    10.3300    10.4020    22.5210   -14.0460     2.2330 
  141.8750    67.3090    12.2130     9.7760    10.1510    22.3610   -14.1710     2.2140 
  142.0000    67.7020    11.5360     9.2310    10.4470    22.3100   -14.2960     2.2030 
  142.1250    72.7310    11.0900     8.8470     9.8570    22.2210   -14.4180     2.2020 
  142.2500    77.5030    10.9780     8.7070     9.2940    22.1800   -14.5280     2.2110 
  142.3750    79.8530    11.2790     8.8710     9.0490    22.1720   -14.6150     2.2270 
  142.5000    79.3710    11.9820     9.3350     9.6490    22.1720   -14.7110     2.2510 
  142.6250    75.1940    12.9260    10.0180    11.6370    22.1810   -14.7650     2.2790 
  142.7500    70.3370    13.7120    10.6590    13.3570    22.2550   -14.8000     2.3040 
  142.8750    68.7890    13.9790    11.0050    13.9870    22.6890   -14.8120     2.3180 
  143.0000    70.2980    13.5310    10.8850    13.5930    23.2640   -14.8030     2.3160 
  143.1250    73.1810    12.4760    10.3060    12.9990    23.7640   -14.7740     2.2970 
  143.2500    76.1500    11.3390     9.5970    11.9360    23.8700   -14.7200     2.2710 
  143.3750    78.6330    10.4000     8.9560    10.9740    23.8830   -14.6440     2.2460 
  143.5000    80.2630     9.7110     8.4460    10.7240    23.8330   -14.5470     2.2300 
  143.6250    82.2550     9.1750     8.0340    10.5500    23.8300   -14.4460     2.2270 
  143.7500    83.2710     8.6350     7.6230    10.7270    23.6940   -14.3210     2.2340 
  143.8750    81.3150     8.0420     7.1660    10.3020    23.4100   -14.1960     2.2470 
  144.0000    78.5120     7.4290     6.6610     8.2390    23.0640   -14.0890     2.2610 
  144.1250    79.2140     6.8610     6.1560     6.3890    22.8230   -13.9880     2.2700 
  144.2500    81.7810     6.3440     5.6980     5.6380    22.9150   -13.9090     2.2750 
  144.3750    82.3580     5.8620     5.3060     5.3500    23.0280   -13.8530     2.2770 
  144.5000    80.5670     5.4150     4.9720     5.1570    23.1000   -13.8330     2.2770 
  144.6250    80.5580     5.0720     4.6890     5.0400    23.0050   -13.8630     2.2780 
  144.7500    83.2940     4.9140     4.4630     4.9740    22.3960   -13.9640     2.2780 
  144.8750    85.1850     5.0450     4.3670     4.8360    21.8850   -14.1110     2.2770 
  145.0000    84.3470     5.5720     4.5100     4.6500    21.7750   -14.2660     2.2740 
  145.1250    83.4060     6.6890     5.0860     5.2310    21.6960   -14.4860     2.2700 
  145.2500    85.0300     8.3710     6.1340     7.1560    21.6230   -14.7270     2.2620 
  145.3750    88.0440    10.5330     7.6700    10.7740    21.5680   -14.9770     2.2480 
  145.5000    86.7170    12.8540     9.5650    14.2820    21.5610   -15.2310     2.2290 
  145.6250    80.1620    14.6590    11.4010    15.5460    21.5780   -15.4860     2.2120 
  145.7500    75.1700    15.5750    12.6850    15.6140    21.6340   -15.6980     2.2040 
  145.8750    73.0860    15.6810    13.2370    15.4720    21.7380   -15.8780     2.2100 
  146.0000    72.0640    15.3740    13.2140    15.1270    21.7810   -16.0490     2.2290 
  146.1250    70.7050    15.0610    12.9100    15.3620    21.7890   -16.1390     2.2530 
  146.2500    69.5230    14.9060    12.6030    16.0000    21.7910   -16.2040     2.2700 
  146.3750    67.5260    14.8960    12.3810    16.9410    21.8070   -16.2560     2.2710 
  146.5000    67.0080    15.0160    12.2900    17.2140    21.8340   -16.2810     2.2550 
  146.6250    72.0910    15.3440    12.4100    17.2310    22.0530   -16.2880     2.2280 
  146.7500    76.6670    15.9170    12.7660    17.8630    22.7120   -16.2810     2.2030 
  146.8750    76.3120    16.7260    13.3700    19.1910    23.6170   -16.2590     2.1870 
  147.0000    72.7020    17.6180    14.1470    19.0390    23.8650   -16.2140     2.1810 
  147.1250    70.7140    18.1780    14.8270    18.7890    23.8920   -16.1920     2.1800 
  147.2500    72.9200    18.0380    15.0620    19.0620    23.8760   -16.1620     2.1800 
  147.3750    77.6050    17.0530    14.6400    20.1890    23.8210   -16.1180     2.1800 
  147.5000    79.9870    15.4150    13.6100    18.7650    23.7480   -16.0670     2.1820 
  147.6250    76.8620    13.5900    12.2470    14.5840    23.7020   -15.9910     2.1890 
  147.7500    72.7370    12.0330    10.9350    11.0590    23.5720   -15.9360     2.2010 
  147.8750    72.1040    10.8700     9.8300     9.9300    23.4610   -15.9000     2.2150 
  148.0000    75.0120    10.0390     8.9640     9.7320    23.4150   -15.8900     2.2270 
  148.1250    77.1520     9.4220     8.3160     9.4130    23.3640   -15.9000     2.2360 
  148.2500    75.6300     8.8930     7.8010     8.5940    23.3560   -15.9420     2.2420 
  148.3750    73.7470     8.4740     7.4090     7.9860    23.3540   -16.0130     2.2450 
  148.5000    75.0100     8.2550     7.1750     7.4330    23.3470   -16.0980     2.2490 
  148.6250    77.5640     8.3960     7.2010     7.1080    23.3560   -16.2450     2.2560 
  148.7500    76.6590     8.8710     7.4860     7.3850    23.3710   -16.3880     2.2630 
  148.8750    74.5310     9.6050     8.0070     8.6220    23.4400   -16.5410     2.2680 
  149.0000    74.9430    10.4470     8.6800    10.4160    23.5180   -16.6780     2.2670 
  149.1250    76.6400    11.1730     9.3560    11.5050    23.5930   -16.7740     2.2590 
  149.2500    76.7190    11.6660     9.8860    11.2290    23.6480   -16.8310     2.2490 
  149.3750    75.0790    11.9220    10.2090    10.6800    23.6340   -16.8600     2.2410 
  149.5000    74.1220    12.0090    10.3500    11.0980    23.4930   -16.8730     2.2400 
  149.6250    78.0460    11.9780    10.3580    11.4170    23.0920   -16.8220     2.2460 
  149.7500    83.4730    11.8680    10.2990    11.0370    22.4680   -16.7580     2.2520 
  149.8750    84.7320    11.6930    10.1910    10.3000    21.9970   -16.6610     2.2530 
  150.0000    81.0620    11.5020    10.0540     9.7690    21.9030   -16.5620     2.2500 
  150.1250    78.6420    11.3940     9.9270     9.6560    22.0240   -16.4710     2.2450 
  150.2500    79.5860    11.4130     9.8500     9.7600    22.0830   -16.3730     2.2430 
  150.3750    80.0200    11.5460     9.8290    10.0080    22.0940   -16.2800     2.2440 
  150.5000    77.7770    11.7330     9.8400    10.1470    22.0930   -16.2080     2.2460 
  150.6250    74.5230    11.8830     9.8510    10.3250    22.0720   -16.1440     2.2440 
  150.7500    73.1010    11.9410     9.8430    10.4800    21.9810   -16.0890     2.2390 
  150.8750    74.1200    11.8990     9.8060    10.5160    21.8510   -16.0440     2.2310 
  151.0000    74.5570    11.7920     9.7390    10.5790    21.8290   -16.0070     2.2230 
  151.1250    71.3270    11.6930     9.6580    10.5650    21.9500   -16.0150     2.2170 
