~V
VERS. 2.00: Ver 2.00
~W
STRT.M 45.0000:
STOP.M 252.0000:
STEP.M 0.1250:
NULL. -999.2500:
UWI. F10190:
~C
DEPT.M :
GR.API :
RML.OHMM :
RI. :
RXO.OHMM :
CALI.CM :
SP.MV :
DEN.GM/CC :
~A
# ...
  135.0000    50.3320    22.2170    22.4570    19.0290    25.1430   -16.8390     2.4410 
  135.1250    48.4700    22.5840    22.7800    19.9790    25.1130   -17.1050     2.4290 
  135.2500    46.7010    22.5770    22.7630    19.3570    25.0920   -17.3430     2.4060 
  135.3750    46.0990    22.1970    22.3850    18.9110    25.0910   -17.5780     2.3760 
  135.5000    48.0030    21.6250    21.8030    19.6420    25.0660   -17.8080     2.3490 
  135.6250    50.5740    21.1490    21.2920    18.8830    24.9440   -17.9990     2.3460 
  135.7500    51.9040    20.9320    21.0030    17.4720    24.7380   -18.1350     2.3760 
  135.8750    51.3030    21.0190    20.9810    17.1170    24.5510   -18.2190     2.4280 
  136.0000    50.1370    21.3320    21.1650    18.3810    24.4320   -18.2420     2.4700 
  136.1250    50.2280    21.6230    21.3380    18.9920    24.3050   -18.2220     2.4870 
  136.2500    51.1830    21.6710    21.3030    18.9310    24.2110   -18.1740     2.4920 
  136.3750    52.5800    21.2860    20.8890    18.7390    24.2230   -18.1030     2.4950 
  136.5000    54.5560    20.3470    19.9750    17.6020    24.4140   -17.9850     2.4970 
  136.6250    55.8680    19.1170    18.7810    16.7840    24.6570   -17.8010     2.4980 
  136.7500    55.8870    17.8720    17.5410    16.4210    24.8460   -17.5660     2.5000 
  136.8750    56.0590    16.8750    16.4910    15.3370    24.9380   -17.3090     2.5000 
  137.0000    57.0250    16.3950    15.8740    14.4390    25.0080   -17.0500     2.4960 
  137.1250    57.3700    16.3860    15.6760    14.4310    25.0680   -16.7900     2.4930 
  137.2500    56.2940    16.7360    15.8250    14.6940    24.9870   -16.5080     2.4980 
  137.3750    53.9860    17.2700    16.1830    16.0420    24.7460   -16.1860     2.5100 
  137.5000    50.5300    17.7770    16.5720    17.5950    24.6660   -15.9210     2.5160 
  137.6250    47.0440    18.1250    16.8600    17.2380    24.8220   -15.7590     2.5030 
  137.7500    44.7520    18.3180    17.0350    17.4370    25.0410   -15.6890     2.4670 
  137.8750    42.8970    18.4130    17.1310    24.1490    25.1420   -15.6550     2.4170 
  138.0000    40.9730    18.4090    17.1420    37.6350    25.0870   -15.6190     2.3770 
  138.1250    40.1210    18.2680    17.0260    32.2690    25.0590   -15.6060     2.3590 
  138.2500    40.7100    17.9480    16.7390    21.7330    25.0730   -15.6770     2.3610 
  138.3750    41.5860    17.4610    16.2760    17.1660    25.0980   -15.8440     2.3800 
  138.5000    41.9110    16.8990    15.6870    16.2450    25.1110   -16.0500     2.4120 
  138.6250    42.5520    16.4080    15.1020    14.5350    25.0950   -16.2380     2.4470 
  138.7500    42.8790    16.0310    14.5850    13.4600    25.0750   -16.3710     2.4740 
  138.8750    42.5910    15.6980    14.1230    13.2480    25.0680   -16.4790     2.4840 
  139.0000    44.8520    15.2360    13.6270    12.6130    25.1110   -16.6030     2.4820 
  139.1250    50.2980    14.5650    13.0240    12.1090    25.1820   -16.7290     2.4780 
  139.2500    56.5140    13.7230    12.3160    12.3270    25.2450   -16.8420     2.4720 
  139.3750    60.3600    12.8720    11.5940    13.0610    25.2700   -16.9130     2.4600 
  139.5000    62.8460    12.2940    11.0630    12.9720    25.2680   -16.9250     2.4410 
  139.6250    65.5170    12.1450    10.8590    11.4750    25.2830   -16.9250     2.4210 
  139.7500    66.9590    12.4800    11.0590    10.8180    25.2920   -16.9200     2.4040 
  139.8750    64.9570    13.1910    11.6210    11.5770    25.2930   -16.9000     2.3940 
  140.0000    60.8610    13.9270    12.3000    13.0900    25.2930   -16.8230     2.3890 
  140.1250    59.7700    14.1580    12.6070    14.7760    25.2930   -16.7050     2.3780 
  140.2500    62.9450    13.5160    12.1560    15.0250    25.2930   -16.5830     2.3560 
  140.3750    68.0160    12.0090    10.8950    13.8730    25.2980   -16.4790     2.3250 
  140.5000    70.9540    10.0600     9.1720    12.1050    25.3050   -16.3660     2.2950 
  140.6250    72.5820     8.3060     7.5560     9.3390    25.2970   -16.2380     2.2760 
  140.7500    76.0110     7.0190     6.2960     6.4020    25.2570   -16.1650     2.2690 
  140.8750    82.1980     6.2470     5.4530     4.8180    25.2260   -16.1680     2.2670 
  141.0000    88.2650     5.9620     5.0310     4.4020    25.2170   -16.2560     2.2570 
  141.1250    91.5760     5.9400     4.8710     4.3680    25.2050   -16.3940     2.2450 
  141.2500    91.6190     6.0500     4.8760     4.3260    25.1720   -16.5170     2.2470 
  141.3750    89.8900     6.1960     4.9620     4.3370    25.1340   -16.6130     2.2650 
  141.5000    88.1010     6.3100     5.0620     4.5030    25.0930   -16.7280     2.2820 
  141.6250    87.3980     6.3750     5.1310     4.6520    25.0780   -16.8760     2.2880 
  141.7500    87.1290     6.3980     5.1590     4.6710    25.0750   -17.0240     2.2900 
  141.8750    86.0960     6.4020     5.1580     4.6630    25.0750   -17.1510     2.2940 
  142.0000    85.1100     6.4110     5.1510     4.6990    25.0750   -17.2650     2.3000 
  142.1250    85.7560     6.4420     5.1560     4.7940    25.0750   -17.3790     2.3070 
  142.2500    88.2180     6.5010     5.1810     4.9840    25.0750   -17.4940     2.3130 
  142.3750    90.7230     6.5840     5.2210     5.1800    25.0710   -17.6020     2.3190 
  142.5000    91.3060     6.6740     5.2590     5.2540    25.0530   -17.6740     2.3280 
  142.6250    89.6700     6.7480     5.2790     5.2920    25.0250   -17.7180     2.3360 
  142.7500    87.9580     6.7910     5.2750     5.3090    25.0000   -17.7030     2.3420 
  142.8750    88.9370     6.8000     5.2440     5.3110    24.9760   -17.6210     2.3450 
  143.0000    93.4820     6.7810     5.1890     5.2420    24.9450   -17.4820     2.3450 
  143.1250    98.1960     6.7520     5.1210     5.1010    24.9290   -17.3030     2.3360 
  143.2500    98.8500     6.7180     5.0470     5.0220    24.9250   -17.1290     2.3220 
  143.3750    94.4680     6.6810     4.9780     4.9790    24.9250   -16.9740     2.3110 
  143.5000    89.8560     6.6390     4.9200     4.9400    24.9250   -16.8530     2.3140 
  143.6250    90.7410     6.5990     4.8720     4.9150    24.9250   -16.7290     2.3280 
  143.7500    96.6320     6.5660     4.8310     4.9150    24.9250   -16.6010     2.3450 
  143.8750   100.9320     6.5430     4.7910     4.9090    24.9250   -16.5040     2.3560 
  144.0000    99.1380     6.5330     4.7530     4.8590    24.9250   -16.4690     2.3570 
  144.1250    95.0580     6.5300     4.7200     4.8240    24.9250   -16.4880     2.3470 
  144.2500    92.4180     6.5360     4.6980     4.7880    24.9250   -16.5260     2.3240 
  144.3750    92.9070     6.5510     4.6950     4.7850    24.9250   -16.5520     2.2960 
  144.5000    94.8790     6.5890     4.7180     4.8340    24.9250   -16.5630     2.2790 
  144.6250    96.7830     6.6490     4.7640     4.9000    24.9250   -16.6170     2.2780 
  144.7500    98.9850     6.7240     4.8270     4.9790    24.9250   -16.7520     2.2870 
  144.8750    98.3370     6.8040     4.8950     5.0170    24.9250   -16.9250     2.2990 
  145.0000    93.4420     6.8780     4.9530     5.0930    24.9250   -17.1060     2.3100 
  145.1250    88.5970     6.9410     4.9950     5.2250    24.9250   -17.2700     2.3230 
  145.2500    86.6560     6.9880     5.0160     5.3380    24.9250   -17.4050     2.3360 
  145.3750    86.6770     7.0170     5.0170     5.3560    24.9250   -17.5530     2.3400 
  145.5000    87.1600     7.0230     5.0030     5.3080    24.9250   -17.7200     2.3280 
  145.6250    90.2190     7.0190     4.9840     5.2260    24.9250   -17.8680     2.3100 
  145.7500    94.5330     7.0150     4.9650     5.1630    24.9250   -17.9880     2.2950 
  145.8750    97.4580     7.0250     4.9580     5.1440    24.9240   -18.1030     2.2880 
  146.0000    97.9330     7.0540     4.9700     5.1660    24.9130   -18.2050     2.2890 
  146.1250    95.9640     7.1010     5.0000     5.1630    24.8870   -18.2860     2.2950 
