~V
VERS. 2.00: Ver 2.00
~W
STRT.M 43.0000:
STOP.M 249.0000:
STEP.M 0.1250:
NULL. -999.2500:
UWI. F10197:
~C
DEPT.M :
GR.API :
RML.OHMM :
RI. :
RXO.OHMM :
CALI.CM :
SP.MV :
DEN.GM/CC :
~A
# ...
  211.7500    70.2240    37.0780    30.5530    24.8060    21.8700   -13.0040     2.2290 
  211.8750    71.6500    34.3390    28.1520    23.2030    21.9920   -12.9500     2.2330 
  212.0000    70.9220    32.5640    26.5270    23.2530    22.0950   -12.8840     2.2360 
  212.1250    69.1150    31.7570    25.7120    23.6910    22.1570   -12.8100     2.2380 
  212.2500    68.8600    31.5420    25.4400    23.3650    22.1780   -12.7530     2.2360 
  212.3750    69.0940    31.6470    25.5340    22.8120    22.1850   -12.6830     2.2320 
  212.5000    67.1090    31.8400    25.8180    22.6130    22.1940   -12.5790     2.2290 
  212.6250    65.3630    32.0390    26.1910    22.4020    22.1930   -12.5660     2.2270 
  212.7500    64.8650    32.3640    26.6550    20.7570    22.1040   -12.5430     2.2240 
  212.8750    64.2680    33.0000    27.3090    17.5250    21.7430   -12.5240     2.2230 
  213.0000    63.8310    34.0860    28.2500    13.9410    20.9190   -12.5980     2.2280 
  213.1250    66.9770    35.7160    29.5720    12.0870    19.8470   -12.6600     2.2390 
  213.2500    71.6080    37.6440    31.1300    11.9480    19.2680   -12.7170     2.2500 
  213.3750    74.1890    39.5660    32.7060    12.8490    19.1170   -12.8330     2.2590 
  213.5000    74.3240    41.1380    34.0170    14.4530    19.2510   -12.9640     2.2660 
  213.6250    74.0690    42.0000    34.7450    17.5680    19.8190   -13.0420     2.2700 
  213.7500    75.6170    42.3230    35.0070    22.4220    20.9300   -13.1350     2.2770 
  213.8750    76.4810    42.5020    35.1080    27.7580    22.1730   -13.2320     2.2840 
  214.0000    72.6480    43.1420    35.5120    31.9910    23.0140   -13.3300     2.2870 
  214.1250    64.9380    45.1730    36.9320    33.5610    23.2650   -13.4920     2.2840 
  214.2500    59.7290    49.0370    39.7670    35.2400    23.3190   -13.6470     2.2800 
  214.3750    60.0630    55.1850    44.5060    38.8430    23.3430   -13.7940     2.2770 
  214.5000    62.9740    63.7850    51.4730    46.6700    23.3600   -14.0080     2.2770 
  214.6250    64.0070    73.9250    60.1840    58.5620    23.3510   -14.2930     2.2810 
  214.7500    63.6450    81.7380    67.6640    64.1910    23.3140   -14.5540     2.2840 
  214.8750    63.5500    82.7700    70.3610    63.3300    23.1700   -14.8100     2.2880 
  215.0000    64.6000    75.5970    66.3400    57.9960    22.8140   -15.0760     2.3060 
  215.1250    64.8860    64.1870    57.3520    43.8240    22.2390   -15.3500     2.3390 
  215.2500    63.9840    54.6760    48.7110    31.8690    21.9020   -15.6070     2.3600 
  215.3750    64.4130    49.2090    42.9510    25.3020    21.6840   -15.7990     2.3480 
  215.5000    66.3300    48.2180    40.8850    23.2210    21.5290   -15.9240     2.3080 
  215.6250    68.0830    52.6090    43.4980    24.5600    21.5800   -16.0230     2.2700 
  215.7500    67.7460    62.1230    50.7640    30.0410    21.7490   -16.0980     2.2420 
  215.8750    66.1680    77.2520    63.2170    42.0130    21.9310   -16.0900     2.2190 
  216.0000    64.8840    97.5520    80.3760    59.4920    22.1780   -16.0030     2.2030 
  216.1250    62.6020   120.0120    99.5480    78.6890    22.7320   -15.8260     2.2090 
  216.2500    59.7280   138.1360   115.6160   100.9710    23.4600   -15.5730     2.2370 
  216.3750    56.7220   145.5390   124.2440   132.8830    23.9350   -15.3200     2.2870 
  216.5000    53.4820   137.0570   121.8100   163.5140    24.0570   -15.0390     2.3550 
  216.6250    52.8570   110.7740   104.3360   165.7270    23.9960   -14.6330     2.4420 
  216.7500    58.4040    79.3720    78.5000   140.4610    23.9620   -14.2120     2.5210 
  216.8750    69.8960    52.5950    52.9640   100.6690    23.9330   -13.8550     2.5600 
  217.0000    82.5890    33.9600    33.7220    55.1460    23.8500   -13.4950     2.5500 
  217.1250    88.5220    23.2120    22.4430    27.1290    23.6960   -13.0830     2.5200 
  217.2500    85.0880    16.8310    15.8030    14.1980    23.4650   -12.7290     2.4950 
  217.3750    75.2260    13.2400    11.9930    10.5930    23.3280   -12.4250     2.4720 
  217.5000    65.9550    11.3920     9.8700     9.5460    23.3120   -12.1340     2.4460 
  217.6250    62.2340    10.6650     8.8840     9.0360    23.3590   -11.8800     2.4190 
  217.7500    60.6880    10.3470     8.4240     8.6330    23.4050   -11.6640     2.3930 
  217.8750    59.2000    10.0890     8.1900     8.3380    23.4300   -11.4790     2.3660 
  218.0000    57.4260     9.7000     7.9660     8.2920    23.3370   -11.3340     2.3420 
  218.1250    55.5890     9.2120     7.6790     8.1670    23.1050   -11.2660     2.3300 
  218.2500    55.5730     8.8580     7.4460     8.0430    22.9430   -11.2240     2.3390 
  218.3750    59.9780     8.8350     7.4120     7.7380    23.0920   -11.1920     2.3640 
  218.5000    67.6880     9.2560     7.6830     7.5390    23.4870   -11.2370     2.3960 
  218.6250    74.1390    10.1530     8.3170     8.5470    23.8640   -11.3890     2.4250 
  218.7500    79.0760    11.1930     9.0850    10.6310    24.0750   -11.5080     2.4470 
  218.8750    84.4550    11.9420     9.6590    12.2570    24.2250   -11.5450     2.4630 
  219.0000    89.5350    11.9450     9.6830    12.2590    24.4360   -11.5110     2.4690 
  219.1250    89.3330    10.9500     8.9310    10.6330    24.6130   -11.4180     2.4570 
  219.2500    82.3070     9.5330     7.8060     8.9210    24.6710   -11.2760     2.4260 
  219.3750    71.2470     7.2200     6.6870     7.3870    24.6790   -11.0930     2.3790 
  219.5000    61.3830     6.0990     5.8250     6.5560    24.6750   -10.8340     2.3310 
  219.6250    59.1190     5.8350     5.3670     6.2550    24.6550   -10.5150     2.3020 
  219.7500    61.6930     5.9200     5.2270     6.1260    24.5810   -10.2290     2.2980 
  219.8750    65.2040     6.2550     5.3390     6.7900    24.4600   -10.0170     2.3150 
  220.0000    70.6570     6.7180     5.6130     8.0130    24.3880    -9.8690     2.3400 
  220.1250    81.0250     7.1630     5.9370     8.4920    24.4150    -9.7470     2.3600 
  220.2500    91.4580     7.4780     6.1980     8.2470    24.5560    -9.6530     2.3680 
  220.3750    96.7890     7.6230     6.3470     7.8290    24.6450    -9.5310     2.3710 
  220.5000    98.3070     7.6190     6.3860     7.6180    24.6590    -9.4180     2.3770 
  220.6250    99.3900     7.5390     6.3600     7.7550    24.5780    -9.3030     2.3870 
  220.7500   101.0360     7.4790     6.3400     7.9830    24.4170    -9.1920     2.3950 
  220.8750   102.8000     7.4900     6.3560     8.2730    24.2490    -9.0710     2.4010 
  221.0000   104.4250     7.5870     6.4160     8.5370    24.1460    -8.9360     2.4100 
  221.1250   106.9730     7.7590     6.5160     8.6640    24.1090    -8.8320     2.4200 
  221.2500   107.9810     7.9460     6.6330     8.7310    24.0710    -8.7100     2.4260 
  221.3750   105.5950     8.0950     6.7420     8.8570    24.0350    -8.5970     2.4300 
  221.5000   100.8080     8.1730     6.8150     9.0590    24.0080    -8.4530     2.4320 
  221.6250    97.3300     8.1450     6.8180     9.0620    23.9900    -8.2490     2.4320 
  221.7500    94.5210     8.0250     6.7470     8.7100    23.9520    -8.0020     2.4310 
  221.8750    91.6570     7.8230     6.6050     8.1780    23.8770    -7.7180     2.4280 
  222.0000    92.7700     7.5600     6.4070     7.5620    23.7190    -7.4340     2.4230 
  222.1250    98.6430     7.2760     6.1750     7.0590    23.3660    -7.1580     2.4170 
  222.2500   100.5410     7.0210     5.9440     6.6970    22.8810    -6.9090     2.4130 
  222.3750    95.4660     6.8330     5.7460     6.4430    22.4890    -6.6830     2.4100 
  222.5000    92.0550     6.7290     5.6060     6.3400    22.4330    -6.4880     2.4060 
  222.6250    96.9570     6.7160     5.5460     6.5270    22.8410    -6.3260     2.3970 
  222.7500   103.8340     6.7620     5.5490     7.0050    23.3790    -6.1980     2.3920 
  222.8750   106.2300     6.8440     5.5990     7.4940    23.7560    -6.0930     2.3940 
