~V
VERS. 2.00: Ver 2.00
~W
STRT.M 49.0000:
STOP.M 243.0000:
STEP.M 0.1250:
NULL. -999.2500:
UWI. F10196:
~C
DEPT.M :
SP.MV :
DEN.GM/CC :
GR.API :
RML.OHMM :
RI. :
RXO.OHMM :
CALI.CM :
~A
# ...
  150.2500   -10.1290     2.1940    68.0010    22.2900    22.3720    30.5180    24.3110 
  150.3750   -10.0350     2.2010    71.9880    19.5910    20.0280    28.1700    24.2920 
  150.5000    -9.9010     2.2110    77.8740    16.7350    17.3530    23.5790    24.2640 
  150.6250    -9.7450     2.2200    82.1300    14.2810    14.8970    17.3820    24.2350 
  150.7500    -9.6420     2.2290    81.8890    12.6140    13.0750    14.2870    24.2010 
  150.8750    -9.6400     2.2380    80.5080    11.6110    11.8500    12.7780    24.1800 
  151.0000    -9.6750     2.2450    79.9510    11.1350    11.1460    12.0990    24.1860 
  151.1250    -9.6820     2.2480    79.2020    10.9980    10.8300    11.8570    24.2180 
  151.2500    -9.7010     2.2480    79.6010    10.9920    10.7510    12.0890    24.2330 
  151.3750    -9.7850     2.2490    80.6680    10.9300    10.7100    12.3750    24.2360 
  151.5000    -9.9280     2.2510    79.4530    10.7900    10.6470    12.2130    24.2380 
  151.6250   -10.1020     2.2530    76.5870    10.6740    10.5990    11.6780    24.2420 
  151.7500   -10.2340     2.2560    77.5780    10.8490    10.7460    11.3090    24.2420 
  151.8750   -10.3570     2.2590    80.4740    11.4920    11.2430    11.2580    24.2090 
  152.0000   -10.5440     2.2620    81.7360    12.6760    12.2070    11.8100    24.0890 
  152.1250   -10.7530     2.2620    79.7610    14.2890    13.6290    13.5990    23.8680 
  152.2500   -10.9010     2.2580    75.5910    15.9120    15.2470    17.9030    23.6940 
  152.3750   -10.9690     2.2510    70.8350    16.9100    16.4360    22.2240    23.6900 
  152.5000   -11.0050     2.2460    66.8440    16.8320    16.6540    23.4700    23.7990 
  152.6250   -11.0750     2.2420    65.7120    15.6540    15.7390    21.1250    23.8770 
  152.7500   -11.1770     2.2360    70.8350    13.8300    14.0260    18.3510    23.8150 
  152.8750   -11.2180     2.2280    78.1580    12.0990    12.2640    15.2560    23.6580 
  153.0000   -11.1580     2.2230    82.1890    10.7860    10.8020    13.7660    23.4630 
  153.1250   -11.0550     2.2260    81.8850    10.0060     9.7910    12.5040    23.3230 
  153.2500   -10.9830     2.2370    80.9560     9.8970     9.3690    11.1820    23.3110 
  153.3750   -10.9810     2.2450    80.6160    10.4200     9.4970    10.7600    23.4150 
  153.5000   -11.0340     2.2450    79.2480    11.6650    10.2430    11.4300    23.5970 
  153.6250   -11.0900     2.2360    75.4080    13.7280    11.7130    13.2830    23.8560 
  153.7500   -11.1370     2.2250    70.4120    16.7530    14.1610    17.6370    24.1780 
  153.8750   -11.1900     2.2150    67.8950    20.3280    17.3770    23.8610    24.4800 
  154.0000   -11.2800     2.2080    69.3060    23.8250    20.9220    29.4370    24.6940 
  154.1250   -11.4430     2.2040    71.2900    26.3440    23.9540    32.2020    24.7900 
  154.2500   -11.5960     2.2050    68.4570    26.8070    25.2170    32.9370    24.8250 
  154.3750   -11.6620     2.2040    65.0360    25.6000    24.7130    31.6640    24.8470 
  154.5000   -11.6580     2.2020    65.1670    23.4780    23.0130    27.5900    24.8500 
  154.6250   -11.6300     2.2040    67.1750    21.1790    20.8540    22.8650    24.8110 
  154.7500   -11.6270     2.2150    68.9730    19.1020    18.7350    20.3570    24.6910 
  154.8750   -11.6260     2.2290    72.2140    17.6560    16.7920    19.3430    24.5460 
  155.0000   -11.5670     2.2420    76.2970    16.3690    15.0610    18.4180    24.4490 
  155.1250   -11.4270     2.2510    78.9910    14.9160    13.6060    16.2980    24.4050 
  155.2500   -11.3170     2.2550    79.5240    13.9340    12.5790    13.6820    24.3790 
  155.3750   -11.2500     2.2540    80.0500    13.4080    11.9640    12.0500    24.3660 
  155.5000   -11.1590     2.2470    81.6200    13.2710    11.7230    12.3820    24.4090 
  155.6250   -11.0050     2.2350    84.3380    13.3680    11.7610    14.9270    24.5050 
  155.7500   -10.7950     2.2240    87.6600    13.4770    11.9430    17.4410    24.6170 
  155.8750   -10.6280     2.2170    88.7960    13.4030    12.0760    17.0170    24.6750 
  156.0000   -10.5440     2.2130    86.2170    13.0700    12.0370    15.1530    24.6910 
  156.1250   -10.4660     2.2140    80.7660    12.5280    11.7900    13.5940    24.6940 
  156.2500   -10.3190     2.2200    74.6760    11.9410    11.4020    13.2550    24.6990 
  156.3750   -10.1720     2.2240    71.8790    11.4660    11.0240    14.1500    24.6930 
  156.5000   -10.0670     2.2240    73.2390    11.1270    10.7130    13.9740    24.6540 
  156.6250   -10.0250     2.2230    78.0700    10.8470    10.4350    12.0840    24.5740 
  156.7500   -10.0380     2.2250    84.2560    10.4570    10.0580    11.0030    24.5090 
  156.8750   -10.0150     2.2320    86.8280     9.8310     9.4740    10.9400    24.4310 
  157.0000    -9.9410     2.2400    83.6730     8.9350     8.6440    10.6470    24.3230 
  157.1250    -9.9010     2.2450    80.2510     7.8550     7.6340     8.5710    24.2030 
  157.2500    -9.9390     2.2480    82.8620     6.8020     6.6140     6.5760    24.1570 
  157.3750   -10.0100     2.2540    88.9190     5.9790     5.7650     6.0140    24.1940 
  157.5000   -10.0820     2.2610    91.9940     5.5070     5.2090     5.6280    24.2330 
  157.6250   -10.1010     2.2640    90.2630     5.4400     5.0140     5.3350    24.1870 
  157.7500   -10.1130     2.2620    84.3280     5.8410     5.2680     5.5490    24.1210 
  157.8750   -10.1950     2.2600    78.6250     6.6200     5.8950     6.5090    24.0990 
  158.0000   -10.3320     2.2590    76.6120     7.7070     6.8660     8.5690    24.1330 
  158.1250   -10.4410     2.2560    78.7440     8.9190     8.0740    11.5560    24.2250 
  158.2500   -10.4790     2.2530    81.9800     9.8200     9.1920    11.3940    24.3170 
  158.3750   -10.5170     2.2510    82.0810    10.0520     9.7830    10.5200    24.3710 
  158.5000   -10.5820     2.2500    78.3840     9.5050     9.5970    11.0850    24.3910 
  158.6250   -10.6660     2.2480    76.3660     8.3680     8.7090    11.3950    24.3970 
  158.7500   -10.7000     2.2480    80.9820     7.0500     7.4550     9.3810    24.4010 
  158.8750   -10.6800     2.2520    87.1760     5.9340     6.2710     6.2760    24.4030 
  159.0000   -10.6920     2.2560    89.4300     5.1330     5.3270     4.7180    24.4060 
  159.1250   -10.8290     2.2570    87.9070     4.6340     4.6620     4.3540    24.3670 
  159.2500   -11.1090     2.2540    86.9410     4.4140     4.2970     4.4200    24.1630 
  159.3750   -11.3840     2.2520    86.9250     4.3750     4.1390     4.5450    23.8520 
  159.5000   -11.5850     2.2510    87.2970     4.4860     4.1500     4.6730    23.6300 
  159.6250   -11.7430     2.2500    87.0960     4.7620     4.3190     4.8910    23.5940 
  159.7500   -11.8600     2.2490    85.4290     5.3000     4.7080     5.4350    23.7280 
  159.8750   -11.9470     2.2480    83.8140     6.1310     5.3460     6.7380    23.9780 
  160.0000   -12.0100     2.2480    82.6480     7.2920     6.2760     8.7570    24.2540 
  160.1250   -12.0040     2.2460    80.4110     8.7690     7.5160    11.1330    24.4770 
  160.2500   -11.8690     2.2470    74.0350    10.0220     9.0760    13.5300    24.6420 
  160.3750   -11.7280     2.2500    67.3220    11.7780    10.7970    15.7550    24.7200 
  160.5000   -11.6520     2.2540    65.5160    13.4360    12.5050    18.0140    24.7520 
  160.6250   -11.6600     2.2550    68.2550    14.7730    13.9640    20.2060    24.7610 
  160.7500   -11.7730     2.2540    68.7100    15.4750    14.8370    21.5920    24.7620 
  160.8750   -11.8820     2.2530    66.8480    15.5380    15.0790    21.9800    24.7640 
  161.0000   -11.9320     2.2520    68.5380    15.0250    14.7310    20.6320    24.7670 
  161.1250   -11.9820     2.2460    76.8330    14.0880    13.9310    16.7620    24.7690 
  161.2500   -12.1010     2.2390    85.2910    12.9270    12.8440    14.6050    24.7600 
  161.3750   -12.2260     2.2340    87.1680    11.8180    11.7380    14.1490    24.7330 
