~V
VERS. 2.00: Ver 2.00
~W
STRT.M 59.0000:
STOP.M 216.0000:
STEP.M 0.1250:
NULL. -999.2500:
UWI. F10129:
~C
DEPT.M :
GR.API :
RML.OHMM :
RI. :
RXO.OHMM :
CALI.CM :
DEN.GM/CC :
SP.MV :
~A
# ...
  182.7500    66.1660    34.8240    31.3320    27.7840    25.4320     2.2340    -3.7600 
  182.8750    68.5350    34.0300    30.2030    29.8460    25.6190     2.2560    -3.8240 
  183.0000    67.5420    34.4100    30.1890    30.1120    25.4250     2.2970    -3.8680 
  183.1250    69.5070    35.9910    31.3020    27.4840    25.1400     2.3480    -3.8960 
  183.2500    78.3110    38.3600    33.1910    25.4390    24.8500     2.3920    -3.9660 
  183.3750    90.9440    41.3120    35.6890    30.7760    24.7810     2.4250    -4.1190 
  183.5000   100.5120    44.6070    38.6020    39.9700    24.8600     2.4470    -4.3510 
  183.6250   101.4680    47.8970    41.6490    40.7420    24.8470     2.4640    -4.7840 
  183.7500    99.2630    50.8100    44.4440    39.7300    24.7560     2.4780    -5.3370 
  183.8750    98.0490    53.0850    46.7170    40.6260    24.6920     2.4860    -5.9550 
  184.0000    97.9780    54.5640    48.3280    48.5570    24.7110     2.4890    -6.6040 
  184.1250    95.6430    55.0220    49.1100    56.0330    24.7200     2.4870    -7.1870 
  184.2500    92.1970    54.5540    49.1400    59.5840    24.6950     2.4880    -7.7540 
  184.3750    91.4030    53.1460    48.3500    58.3460    24.7150     2.4910    -8.2860 
  184.5000    95.2720    50.8390    46.7090    49.9260    24.6910     2.4890    -8.7140 
  184.6250   101.5290    47.5790    44.1370    48.4280    24.6720     2.4770    -8.9180 
  184.7500   104.6660    43.5190    40.7730    41.6300    24.5110     2.4560    -8.9780 
  184.8750   104.7010    38.6340    36.4910    36.2510    24.1350     2.4330    -9.0630 
  185.0000   105.3260    33.0210    31.2720    31.8920    23.7950     2.4110    -9.2300 
  185.1250   104.2440    27.0750    25.5410    27.6610    23.7790     2.3900    -9.5430 
  185.2500    98.7310    21.4720    20.1830    24.3250    23.9800     2.3670    -9.8930 
  185.3750    90.9440    16.6800    15.7340    19.6690    24.2350     2.3390   -10.0510 
  185.5000    82.7790    12.9820    12.4030    13.8700    24.4970     2.3120   -10.0070 
  185.6250    73.3190    10.6280    10.2700     9.3430    24.7180     2.2940    -9.8290 
  185.7500    64.5680     9.2250     8.9250     7.7130    24.8230     2.2870    -9.5690 
  185.8750    60.2890     8.4750     8.1480     7.1580    24.8600     2.2890    -9.2070 
  186.0000    60.8180     8.1080     7.7540     6.9600    24.8850     2.2950    -8.7200 
  186.1250    61.1640     7.9540     7.5930     6.6080    24.8950     2.3020    -8.1850 
  186.2500    59.4020     7.8420     7.4870     6.3130    24.8880     2.3070    -7.6530 
  186.3750    56.8350     7.7170     7.3690     6.2070    24.8830     2.3100    -7.2430 
  186.5000    55.2290     7.5700     7.2230     6.4400    24.8850     2.3100    -6.9310 
  186.6250    56.1770     7.4210     7.0630     6.7350    24.8740     2.3060    -6.6340 
  186.7500    58.2450     7.3000     6.9190     6.5050    24.8030     2.3030    -6.3430 
  186.8750    59.3720     7.2270     6.8090     6.3050    24.6630     2.3000    -6.0180 
  187.0000    59.7010     7.2070     6.7350     6.4840    24.4540     2.3010    -5.7030 
  187.1250    61.1720     7.2370     6.6870     6.7010    24.3310     2.3060    -5.4030 
  187.2500    62.7720     7.2850     6.6450     6.8370    24.3120     2.3150    -5.1150 
  187.3750    62.5350     7.3380     6.6040     7.0070    24.3510     2.3230    -4.8430 
  187.5000    61.0200     7.3900     6.5650     7.2760    24.4120     2.3270    -4.6650 
  187.6250    60.5120     7.4490     6.5310     7.1850    24.4220     2.3220    -4.7150 
  187.7500    61.4900     7.5200     6.5030     7.0410    24.4060     2.3080    -4.8900 
  187.8750    63.1410     7.6020     6.4810     7.0620    24.4290     2.2910    -5.1090 
  188.0000    63.3800     7.6810     6.4630     7.0740    24.6260     2.2760    -5.3900 
  188.1250    61.2440     7.7460     6.4470     6.8860    24.9020     2.2700    -5.7110 
  188.2500    60.0920     7.8080     6.4410     6.8290    25.0010     2.2730    -5.9970 
  188.3750    62.4470     7.8870     6.4580     7.3400    24.9980     2.2830    -6.2040 
  188.5000    65.6130     8.0040     6.5160     7.9580    24.9870     2.2960    -6.2580 
  188.6250    67.1230     8.1770     6.6340     7.6360    24.9100     2.3080    -6.1670 
  188.7500    68.9090     8.3890     6.7990     7.1860    24.8290     2.3160    -5.9840 
  188.8750    70.9370     8.6170     6.9880     7.5160    24.7550     2.3180    -5.8010 
  189.0000    72.3160     8.8340     7.1740     7.8190    24.7830     2.3140    -5.6770 
  189.1250    72.2320     8.9970     7.3260     7.8360    24.8330     2.3050    -5.6180 
  189.2500    73.4290     9.0860     7.4240     7.4770    24.8700     2.2950    -5.7100 
  189.3750    74.3200     9.0800     7.4450     7.3270    24.9030     2.2850    -5.9680 
  189.5000    72.4740     8.9720     7.3800     7.7110    24.9200     2.2800    -6.3690 
  189.6250    68.2440     8.7670     7.2280     7.9690    24.9180     2.2790    -6.8570 
  189.7500    64.4550     8.5260     7.0360     7.8740    24.9100     2.2850    -7.3750 
  189.8750    61.8220     8.3070     6.8490     7.4110    24.8850     2.2950    -7.8730 
  190.0000    59.1960     8.1610     6.7100     6.7840    24.8170     2.3060    -8.2960 
  190.1250    58.9490     8.1310     6.6600     6.7540    24.7570     2.3150    -8.6260 
  190.2500    60.3200     8.1750     6.6750     6.7080    24.7820     2.3180    -8.8180 
  190.3750    59.9620     8.2390     6.7120     6.6100    24.8750     2.3140    -8.9130 
  190.5000    56.7370     8.2650     6.7220     6.6810    24.9570     2.3030    -9.0010 
  190.6250    54.4200     8.1960     6.6500     6.7510    25.0060     2.2830    -8.9990 
  190.7500    55.8420     8.0400     6.5020     6.7110    24.9710     2.2570    -8.8970 
  190.8750    60.4490     7.8250     6.3020     6.7280    24.9240     2.2300    -8.7060 
  191.0000    65.4840     7.6110     6.0980     7.1980    24.8430     2.2100    -8.4590 
  191.1250    67.8950     7.4940     5.9760     7.7880    24.6770     2.2110    -8.1540 
  191.2500    69.3360     7.5340     5.9870     7.4950    24.4570     2.2360    -7.8520 
  191.3750    72.8940     7.7550     6.1560     6.4530    24.2820     2.2780    -7.5690 
  191.5000    78.4030     8.1300     6.4680     6.3650    24.1750     2.3260    -7.2570 
  191.6250    83.8210     8.5810     6.8720     7.1020    24.1610     2.3570    -6.9550 
  191.7500    89.3170     8.9840     7.2630     7.7270    24.2240     2.3660    -6.6600 
  191.8750    96.2390     9.2610     7.5610     7.9660    24.3400     2.3560    -6.4040 
  192.0000   101.5620     9.3790     7.7260     7.4800    24.4130     2.3440    -6.1800 
  192.1250   102.7940     9.3310     7.7410     7.0190    24.3200     2.3470    -6.0280 
  192.2500   101.3480     9.1890     7.6600     6.9910    24.1220     2.3630    -5.9150 
  192.3750    99.3990     8.9940     7.5190     7.3050    23.8480     2.3790    -5.7980 
  192.5000    98.0250     8.7740     7.3440     7.6770    23.5310     2.3800    -5.7360 
  192.6250    96.2070     8.5590     7.1570     7.4950    23.4980     2.3590    -5.7520 
  192.7500    93.8620     8.3860     6.9870     7.0840    23.6750     2.3310    -5.8660 
  192.8750    92.3790     8.2890     6.8680     6.5590    23.9240     2.3120    -6.0590 
  193.0000    94.0880     8.2880     6.8190     6.3490    23.9700     2.3070    -6.2520 
  193.1250    97.1790     8.3750     6.8450     6.5440    23.8260     2.3130    -6.3900 
  193.2500    97.9790     8.4680     6.8940     6.7620    23.6490     2.3190    -6.5390 
  193.3750    97.5030     8.4890     6.9030     6.8760    23.3820     2.3220    -6.7120 
  193.5000    98.5940     8.3920     6.8230     7.2100    22.9820     2.3250    -6.8460 
  193.6250   101.2800     8.2110     6.6590     7.5220    22.5850     2.3340    -6.7840 
  193.7500   103.7190     8.1050     6.5330     7.3040    22.2030     2.3500    -6.4510 
  193.8750   105.1990     8.2300     6.5730     6.7960    21.6760     2.3690    -5.9070 
