~V
VERS. 2.00: Ver 2.00
~W
STRT.M 59.0000:
STOP.M 212.0000:
STEP.M 0.1250:
NULL. -999.2500:
UWI. F10143:
~C
DEPT.M :
GR.API :
RML.OHMM :
RI. :
RXO.OHMM :
CALI.CM :
SP.MV :
DEN.GM/CC :
~A
# ...
  194.0000    56.3320    29.5200    30.4380    59.2200    25.2600   -21.4780     2.2720 
  194.1250    57.7790    20.1680    21.1280    36.1920    25.1770   -21.2360     2.2900 
  194.2500    59.5060    14.1030    14.9570    16.9820    25.1420   -20.9990     2.2890 
  194.3750    60.6170    10.6340    11.2840     9.2460    25.1400   -20.7670     2.2750 
  194.5000    60.5760     8.9360     9.2970     7.2390    25.2130   -20.5440     2.2630 
  194.6250    60.0620     8.4630     8.5070     7.1830    25.2600   -20.4250     2.2570 
  194.7500    60.2030     8.5190     8.3110     7.2980    25.2020   -20.3730     2.2590 
  194.8750    59.6190     8.7550     8.4180     7.2700    25.0720   -20.3260     2.2710 
  195.0000    58.0370     8.9500     8.6140     7.3330    24.9660   -20.3550     2.2830 
  195.1250    56.9470     9.0540     8.8100     7.5450    24.9890   -20.4420     2.2860 
  195.2500    56.8490     9.2110     9.0550     7.9290    25.0100   -20.5470     2.2830 
  195.3750    57.4250     9.5600     9.4360     8.1670    25.0360   -20.6760     2.2840 
  195.5000    58.7160    10.1480     9.9950     8.6630    25.0450   -20.8310     2.2950 
  195.6250    60.4800    10.8690    10.6560     9.9900    25.0550   -20.9180     2.3140 
  195.7500    61.7660    11.4170    11.1630    11.4620    25.0490   -20.9560     2.3310 
  195.8750    62.3920    11.5370    11.2720    12.1830    25.0350   -20.9670     2.3340 
  196.0000    62.7840    11.1490    10.8890    12.1670    25.0270   -20.8920     2.3190 
  196.1250    62.4250    10.4040    10.1300    10.2060    25.0350   -20.7170     2.2900 
  196.2500    61.7180     9.6850     9.3540     8.7040    25.0180   -20.5320     2.2620 
  196.3750    60.7830     9.1940     8.7630     7.7850    24.9220   -20.3250     2.2490 
  196.5000    59.3750     8.9880     8.4350     7.8030    24.8150   -20.1290     2.2530 
  196.6250    58.7760     9.0440     8.3750     8.5460    24.8350   -19.9750     2.2730 
  196.7500    59.0880     9.2050     8.4510     8.8470    24.8800   -19.8970     2.3000 
  196.8750    59.0310     9.3710     8.5750     8.5470    24.8860   -19.8750     2.3250 
  197.0000    58.6220     9.4940     8.6890     8.3210    24.8880   -19.9340     2.3420 
  197.1250    58.1260     9.5730     8.7790     8.3270    24.9450   -20.1230     2.3510 
  197.2500    57.4620     9.6360     8.8550     8.5450    25.0400   -20.3120     2.3570 
  197.3750    56.6720     9.6790     8.9120     9.1370    25.0530   -20.5060     2.3630 
  197.5000    56.5750     9.6750     8.9270     9.8700    24.9810   -20.6240     2.3710 
  197.6250    57.2160     9.6000     8.8700     9.7090    24.9070   -20.6770     2.3820 
  197.7500    57.3450     9.5050     8.7750     9.2890    24.9550   -20.6730     2.3820 
  197.8750    57.2180     9.4670     8.6980     8.6820    25.0570   -20.5860     2.3610 
  198.0000    58.2200     9.5570     8.7000     8.3030    25.1320   -20.4350     2.3250 
  198.1250    61.4620     9.8220     8.8430     8.5540    25.1470   -20.2150     2.2920 
  198.2500    64.7790    10.1840     9.0980     9.1230    25.1620   -19.9680     2.2750 
  198.3750    66.9340    10.5450     9.4020     9.6240    25.1550   -19.7300     2.2770 
  198.5000    68.6210    10.7990     9.6660     9.6970    25.1210   -19.5310     2.2880 
  198.6250    69.1750    10.8730     9.8100     9.7890    25.0920   -19.3570     2.2960 
  198.7500    66.7550    10.8460     9.8650     9.8490    25.0790   -19.2050     2.2960 
  198.8750    62.4280    10.8210     9.8940    10.1150    25.0960   -19.1340     2.2970 
  199.0000    60.1170    10.8850     9.9670    10.6220    25.1150   -19.1280     2.3130 
  199.1250    60.9570    11.0950    10.1370    11.3620    25.0790   -19.1270     2.3460 
  199.2500    62.7600    11.3910    10.3730    11.4330    25.0400   -19.1920     2.3710 
  199.3750    63.6730    11.6920    10.6160    11.0180    25.0260   -19.2580     2.3710 
  199.5000    63.3160    11.9130    10.8050    10.4440    25.0210   -19.3110     2.3590 
  199.6250    64.5990    11.9740    10.8800    10.3980    25.0010   -19.3770     2.3580 
  199.7500    67.5090    11.9040    10.8600    10.6160    24.9800   -19.4580     2.3650 
  199.8750    69.4400    11.7510    10.7730    11.0750    24.9870   -19.4980     2.3750 
  200.0000    68.7550    11.5670    10.6490    11.4910    24.9830   -19.5130     2.3850 
  200.1250    67.2270    11.3740    10.4940    10.7180    24.9390   -19.5270     2.3920 
  200.2500    67.4490    11.1680    10.3100    10.5520    24.9150   -19.4880     2.3920 
  200.3750    68.1020    10.9470    10.1060    10.7040    24.9500   -19.4230     2.3810 
  200.5000    67.7420    10.7320     9.9030     9.7020    25.0190   -19.3420     2.3540 
  200.6250    66.3490    10.5750     9.7440     9.0020    25.0690   -19.2150     2.3150 
  200.7500    66.3010    10.5050     9.6500     9.1090    25.0860   -19.0670     2.2760 
  200.8750    68.6340    10.5380     9.6410     9.5140    25.0910   -18.9150     2.2630 
  201.0000    70.7740    10.6750     9.7270     9.9500    25.1180   -18.7620     2.2560 
  201.1250    69.4770    10.9220     9.9230    10.2290    25.1500   -18.6430     2.2790 
  201.2500    67.1180    11.2460    10.1970    10.4440    25.1460   -18.5210     2.2980 
  201.3750    65.0930    11.6270    10.5250    11.9730    25.1040   -18.3760     2.3030 
  201.5000    64.4450    12.0200    10.8670    14.9000    25.0720   -18.2430     2.3010 
  201.6250    65.6590    12.3240    11.1460    16.1460    25.0720   -18.1330     2.3060 
  201.7500    67.3830    12.4560    11.3010    15.0750    25.0880   -17.8710     2.3140 
  201.8750    67.2030    12.3820    11.3010    15.9780    25.1160   -17.7260     2.3180 
  202.0000    66.9640    12.1410    11.1660    19.3240    25.1430   -17.6240     2.3240 
  202.1250    66.9640    11.8350    10.9600    14.4580    25.1310   -17.4570     2.3410 
  202.2500    66.9640    11.5730    10.7660    11.7510    25.0920   -17.2550     2.3640 
  202.3750    66.9640    11.3860    10.6100    11.1480    25.0690   -17.1240     2.3790 
  202.5000    66.9640    11.2610    10.4900    11.7570    25.0740   -17.0240     2.3780 
  202.6250    66.9640    11.1730    10.3940    11.6030    25.0760   -16.9080     2.3560 
  202.7500    66.9640    11.0850    10.2980    10.7190    25.0960   -16.8080     2.3230 
  202.8750    66.9640    10.9720    10.1830    10.0340    25.1450   -16.7690     2.3000 
  203.0000    66.9640    10.8070    10.0260    10.8730    25.1830   -16.7330     2.2980 
  203.1250    66.9640    10.5410     9.7940    10.4880    25.1580   -16.6920     2.3080 
  203.2500    66.9640    10.1790     9.4910     9.7130    25.1330   -16.6390     2.3080 
  203.3750    66.9640     9.7550     9.1370     9.0760    25.1280   -16.5630     2.2830 
  203.5000    66.9640     9.3310     8.7700     8.7560    25.1030   -16.4790     2.2330 
  203.6250    66.9640     8.9930     8.4520     8.4330    25.0700   -16.3170     2.1810 
  203.7500    66.9640     8.7810     8.2260     8.5640    25.0350   -16.2170     2.1660 
  203.8750    66.9640     8.7060     8.1170     8.6020    25.0120   -16.1480     2.2030 
  204.0000    66.9640     8.7430     8.1160     8.4480    25.0000   -16.1000     2.2740 
  204.1250    66.9640     8.8740     8.2170     8.4620    25.0280   -16.0580     2.3350 
  204.2500    66.9640     9.1020     8.4020     8.3820    25.0550   -16.0170     2.3620 
  204.3750    66.9640     9.4500     8.6770     8.7630    25.0730   -15.9630     2.3640 
  204.5000    66.9640     9.9020     9.0320     9.1700    25.0840   -15.9000     2.3550 
  204.6250    66.9640    10.3590     9.4000    10.5690    25.0890   -15.8370     2.3500 
  204.7500    66.9640    10.6510     9.6650    12.7250    25.0870   -15.7830     2.3410 
  204.8750    66.9640    10.6430     9.7230    14.1150    25.0820   -15.7420     2.3140 
  205.0000    66.9640    10.3030     9.5300    10.4680    25.0690   -15.7000     2.2700 
  205.1250    66.9640     9.7430     9.1390     8.4810    25.0620   -15.6520     2.2380 
