~V
VERS. 2.00: Ver 2.00
~W
STRT.M 59.0000:
STOP.M 202.0000:
STEP.M 0.1250:
NULL. -999.2500:
UWI. F10133:
~C
DEPT.M :
GR.API :
RML.OHMM :
RI. :
RXO.OHMM :
CALI.CM :
SP.MV :
DEN.GM/CC :
~A
# ...
  115.2500    72.9800     9.6070     8.1750    10.7450    25.1600   -27.8640     2.1710 
  115.3750    77.4020     9.3530     7.9290    10.3580    25.2650   -27.6870     2.1860 
  115.5000    78.8850     9.1710     7.7110     9.7950    25.2970   -27.4590     2.2040 
  115.6250    77.9500     9.1240     7.6070     9.2130    25.2850   -27.1950     2.2160 
  115.7500    72.9820     9.1840     7.6160     9.3460    25.2600   -26.9070     2.2210 
  115.8750    65.6720     9.3160     7.7150    10.1140    25.2470   -26.6060     2.2200 
  116.0000    59.5660     9.4910     7.8710    10.7540    25.2530   -26.2700     2.2220 
  116.1250    59.6730     9.6980     8.0730    10.4430    25.2590   -25.8660     2.2320 
  116.2500    64.2790     9.9340     8.3090    10.0450    25.2300   -25.4170     2.2460 
  116.3750    69.1890    10.2090     8.5810    10.0520    25.2250   -24.9030     2.2590 
  116.5000    70.8630    10.5170     8.8850    10.7340    25.2620   -24.2880     2.2670 
  116.6250    67.5130    10.8150     9.1900    12.4960    25.3660   -23.6400     2.2680 
  116.7500    64.5720    11.0370     9.4380    12.8790    25.3840   -23.0130     2.2680 
  116.8750    65.1580    11.1350     9.5780    12.2090    25.3810   -22.3130     2.2700 
  117.0000    67.3930    11.1030     9.5970    11.4970    25.3680   -21.5490     2.2750 
  117.1250    69.4070    10.9800     9.5260    11.3190    25.3790   -20.8880     2.2810 
  117.2500    70.3980    10.8460     9.4590    11.4230    25.3830   -20.2930     2.2870 
  117.3750    70.9080    10.7200     9.4380    11.3000    25.3900   -19.7210     2.2920 
  117.5000    71.5960    10.5590     9.4470    10.9890    25.4360   -19.2620     2.2940 
  117.6250    72.2080    10.2470     9.3770    11.0250    25.5760   -18.8670     2.2890 
  117.7500    74.6330     9.7280     9.1160    11.3050    25.6990   -18.3990     2.2790 
  117.8750    78.1820     9.0090     8.6100    10.5770    25.7070   -17.9450     2.2690 
  118.0000    80.8140     8.1860     7.9120     9.3360    25.4910   -17.5610     2.2660 
  118.1250    83.5280     7.4390     7.1900     7.8350    25.3200   -17.1160     2.2740 
  118.2500    88.7050     6.9070     6.6250     6.3950    25.2830   -16.6460     2.2900 
  118.3750    94.8710     6.6370     6.2900     5.5670    25.3760   -16.2540     2.3070 
  118.5000    96.3750     6.5810     6.1730     5.3740    25.4560   -15.9210     2.3210 
  118.6250    91.5450     6.6220     6.1980     5.6760    25.5540   -15.6430     2.3290 
  118.7500    89.1610     6.6020     6.2060     6.2090    25.6290   -15.5490     2.3310 
  118.8750    93.8890     6.4500     6.1000     5.8480    25.5850   -15.6010     2.3260 
  119.0000   103.2700     6.1660     5.8500     5.2330    25.4780   -15.6780     2.3150 
  119.1250   108.8530     5.8120     5.4930     4.8620    25.4290   -15.8510     2.3010 
  119.2500   109.3060     5.5090     5.1390     4.7180    25.4530   -16.1120     2.2880 
  119.3750   106.6690     5.3690     4.8840     4.6030    25.5530   -16.3370     2.2790 
  119.5000   102.0980     5.5010     4.8250     4.6840    25.6940   -16.4670     2.2780 
  119.6250    96.5140     6.2160     5.1390     4.8070    25.7550   -16.6060     2.2990 
  119.7500    89.5120     7.7650     5.9250     5.4810    25.7740   -16.6810     2.3460 
  119.8750    80.4660    10.1920     7.3210     7.6430    25.8230   -16.7340     2.4150 
  120.0000    69.9870    13.1000     9.3720    12.5710    25.9310   -16.9510     2.4950 
  120.1250    64.6170    15.6380    11.8230    19.1680    26.0520   -17.2850     2.5580 
  120.2500    65.7260    17.1560    13.8070    24.0410    26.1100   -17.6350     2.5810 
  120.3750    70.2510    17.4200    14.6010    26.2440    26.0810   -18.1220     2.5570 
  120.5000    73.8720    16.6460    14.1770    21.1690    25.9610   -18.7900     2.4920 
  120.6250    75.2370    15.4920    13.1970    14.2520    25.8560   -19.4930     2.4090 
  120.7500    78.4120    14.6360    12.4000    11.6840    25.8140   -20.2670     2.3350 
  120.8750    84.2360    14.2280    11.9650    12.5440    25.8340   -21.0600     2.2850 
  121.0000    88.8380    14.1150    11.8230    14.5350    25.9030   -21.7150     2.2600 
  121.1250    86.8470    14.0100    11.7750    15.0370    25.9110   -22.2580     2.2550 
  121.2500    82.8240    13.7230    11.6070    13.6100    25.8340   -22.7870     2.2550 
  121.3750    81.2120    13.2550    11.2670    11.3040    25.7250   -23.1820     2.2580 
  121.5000    82.0970    12.7240    10.8320    10.0750    25.5880   -23.3950     2.2600 
  121.6250    83.1850    12.3000    10.4580     9.8960    25.4250   -23.5170     2.2630 
  121.7500    82.6340    12.0310    10.2250     9.9640    25.3150   -23.5180     2.2660 
  121.8750    81.7090    11.8630    10.1080     9.8260    25.2670   -23.3440     2.2700 
  122.0000    81.1150    11.6960     9.9990     9.3300    25.2370   -23.0480     2.2770 
  122.1250    82.0870    11.4340     9.7540     9.2080    25.1400   -22.6450     2.2940 
  122.2500    84.2610    11.1060     9.3790     9.9540    25.1080   -22.0970     2.3200 
  122.3750    84.7240    10.8110     8.9650     9.9610    25.0880   -21.4350     2.3520 
  122.5000    80.8290    10.6830     8.6460     8.2560    25.0250   -20.7800     2.3860 
  122.6250    73.6900    10.9160     8.6080     8.0600    24.9740   -20.1410     2.4080 
  122.7500    68.0650    11.5280     8.9140     9.1120    25.0170   -19.4990     2.4170 
  122.8750    67.1930    12.4850     9.5890    10.7460    25.1790   -18.9670     2.4160 
  123.0000    68.7480    13.6640    10.5730    11.5200    25.3380   -18.5410     2.4150 
  123.1250    69.8440    14.8650    11.7210    11.9930    25.4380   -18.1590     2.4270 
  123.2500    69.1430    15.9110    12.8060    13.7990    25.4220   -17.8860     2.4530 
  123.3750    67.2140    16.7340    13.7170    14.3300    25.2270   -17.7500     2.4850 
  123.5000    64.7240    17.3040    14.4500    12.6720    24.9630   -17.6270     2.5140 
  123.6250    61.9190    17.4600    14.9480    11.7510    24.9100   -17.5160     2.5350 
  123.7500    60.7730    17.0480    15.0210    13.0090    24.9790   -17.4910     2.5510 
  123.8750    62.3530    15.9150    14.3810    15.4060    25.1980   -17.4610     2.5610 
  124.0000    67.6660    14.1050    12.9480    15.8300    25.5180   -17.4460     2.5570 
  124.1250    78.0150    11.9220    10.9850    13.8060    25.7080   -17.5540     2.5270 
  124.2500    89.1040     9.8950     9.0800     9.9370    25.7230   -17.6820     2.4740 
  124.3750    96.0490     8.3290     7.5470     6.6470    25.6300   -17.7630     2.4110 
  124.5000    98.5030     7.3250     6.5010     5.3360    25.5490   -17.8870     2.3530 
  124.6250    99.8830     6.8730     5.9690     5.1790    25.5770   -18.0550     2.3140 
  124.7500   101.3250     6.7150     5.7510     5.3500    25.6930   -18.1500     2.2950 
  124.8750   101.8230     6.6930     5.7110     5.5370    25.8070   -18.2540     2.2930 
  125.0000   102.5210     6.6960     5.7260     5.3130    25.8990   -18.3580     2.3030 
  125.1250   104.4330     6.6750     5.7150     5.1790    25.9530   -18.3510     2.3190 
  125.2500   106.8440     6.6630     5.6910     5.0420    25.9900   -18.2950     2.3350 
  125.3750   107.9430     6.7140     5.7070     4.9100    26.0410   -18.3170     2.3450 
  125.5000   106.6780     6.8630     5.8060     4.8490    26.0010   -18.4090     2.3470 
  125.6250   103.5880     7.1090     6.0010     5.3000    25.8930   -18.4840     2.3360 
  125.7500    98.8260     7.3890     6.2280     5.9610    25.9190   -18.6140     2.3190 
  125.8750    94.3820     7.6690     6.4340     6.4610    26.0200   -18.7900     2.3040 
  126.0000    90.9910     7.9680     6.6100     6.3330    26.0310   -18.9410     2.2990 
  126.1250    89.0730     8.4140     6.8390     6.4340    26.0010   -19.1200     2.3130 
  126.2500    87.9200     9.1560     7.2550     6.4660    25.9910   -19.3970     2.3330 
  126.3750    85.6270    10.3220     8.0000     6.8110    26.0780   -19.6780     2.3410 
