~V
VERS. 2.00: Ver 2.00
~W
STRT.M 60.0000:
STOP.M 245.0000:
STEP.M 0.1250:
NULL. -999.2500:
UWI. F10162:
~C
DEPT.M :
SP.MV :
DEN.GM/CC :
GR.API :
RML.OHMM :
RI. :
RXO.OHMM :
CALI.CM :
~A
# ...
   82.5000   -16.4280     2.3050    83.5100     7.5240     5.7410     5.6990    25.2270 
   82.6250   -16.4840     2.3190    82.1950     7.3730     5.4390     5.9960    24.9680 
   82.7500   -16.9870     2.3290    76.4780     7.7420     5.5490     7.1860    24.7280 
   82.8750   -17.8980     2.3150    68.7100     8.3970     5.9750     8.9970    24.5300 
   83.0000   -19.0620     2.2760    63.0490     9.0610     6.5320    10.1950    24.4210 
   83.1250   -20.3430     2.2350    60.8270     9.4520     6.9760    10.4780    24.4370 
   83.2500   -21.6000     2.2150    57.8120     9.5270     7.1970    10.6410    24.4850 
   83.3750   -22.7530     2.2170    54.5730     9.3510     7.2110    10.7810    24.4990 
   83.5000   -23.7260     2.2240    54.6510     9.0530     7.1020    10.8550    24.5330 
   83.6250   -24.4430     2.2170    57.0680     8.7680     6.9600    10.5350    24.7080 
   83.7500   -24.8800     2.1980    57.1960     8.5670     6.8380    10.2510    25.0680 
   83.8750   -24.9680     2.1770    53.8760     8.4600     6.7430     9.9040    25.5710 
   84.0000   -24.8570     2.1650    50.9650     8.4310     6.6780     9.5980    25.7570 
   84.1250   -24.5980     2.1600    52.7230     8.4500     6.6480     9.6120    25.6700 
   84.2500   -24.2050     2.1480    56.7510     8.4560     6.6320     9.6330    25.8670 
   84.3750   -23.5580     2.1180    59.9330     8.3920     6.5960     9.3500    26.5810 
   84.5000   -22.6280     2.0720    60.1640     8.2010     6.4860     8.5950    27.2510 
   84.6250   -21.3560     2.0300    58.9210     7.8180     6.2230     7.8060    27.3700 
   84.7500   -19.6810     2.0170    62.0890     7.2960     5.8230     7.6540    27.0730 
   84.8750   -17.7020     2.0470    72.0480     6.7180     5.3450     7.2020    26.4730 
   85.0000   -15.6300     2.1160    85.5760     6.1940     4.8820     5.9800    25.6140 
   85.1250   -13.5800     2.2060    92.4330     5.8650     4.5520     5.2060    24.8650 
   85.2500   -11.5780     2.2830    95.1360     5.7590     4.3900     5.1310    24.4630 
   85.3750    -9.7450     2.3310    99.6160     5.8640     4.3970     5.6280    24.3390 
   85.5000    -8.2720     2.3470   104.4140     6.1240     4.5370     6.3970    24.3110 
   85.6250    -7.3300     2.3410   102.2960     6.4710     4.7540     6.1020    24.2830 
   85.7500    -6.8540     2.3270    96.6950     6.8260     4.9800     5.9850    24.2330 
   85.8750    -6.8830     2.3100    94.8660     7.1620     5.2020     6.0410    24.1100 
   86.0000    -7.2540     2.2850    96.6370     7.4680     5.4240     6.3600    23.9230 
   86.1250    -7.8240     2.2470    95.6720     7.7250     5.6570     6.8260    23.7880 
   86.2500    -8.4910     2.2030    91.4410     7.9110     5.8730     7.4190    23.8720 
   86.3750    -9.1680     2.1610    85.5040     7.9980     6.0300     7.7170    24.2010 
   86.5000    -9.8020     2.1320    80.9790     7.9710     6.0900     7.6130    24.6620 
   86.6250   -10.2320     2.1280    81.0430     7.8320     6.0250     7.1410    25.0330 
   86.7500   -10.4600     2.1430    83.3800     7.6500     5.8830     6.6470    25.2540 
   86.8750   -10.4840     2.1700    84.8430     7.4820     5.7120     6.6760    25.3680 
   87.0000   -10.2870     2.2000    85.9580     7.3730     5.5570     6.5940    25.4760 
   87.1250    -9.9350     2.2240    89.2150     7.3390     5.4610     6.6150    25.5360 
   87.2500    -9.6050     2.2410    91.2060     7.3380     5.4130     6.5040    25.5470 
   87.3750    -9.3710     2.2490    90.6390     7.3400     5.3920     6.6760    25.5380 
   87.5000    -9.1230     2.2510    89.5070     7.3380     5.3820     6.7060    25.4990 
   87.6250    -8.8940     2.2480    89.2720     7.3730     5.3940     6.6870    25.3820 
   87.7500    -8.8640     2.2460    88.8440     7.4860     5.4550     6.4790    25.1780 
   87.8750    -9.0530     2.2470    87.7050     7.7030     5.5900     6.3210    24.9910 
   88.0000    -9.3760     2.2510    86.7410     8.0110     5.8050     6.5880    24.8240 
   88.1250    -9.8620     2.2560    85.5550     8.3600     6.0810     7.9050    24.7370 
   88.2500   -10.3870     2.2540    85.0290     8.6580     6.3480     9.1320    24.6690 
   88.3750   -10.8830     2.2420    85.8060     8.8360     6.5390     9.1620    24.4890 
   88.5000   -11.3180     2.2230    84.9130     8.8590     6.6160     8.6610    24.2520 
   88.6250   -11.6710     2.2050    83.1450     8.7270     6.5620     8.3290    24.3450 
   88.7500   -11.9070     2.1940    83.8820     8.5350     6.4360     8.2870    24.5760 
   88.8750   -11.9390     2.1940    86.7470     8.3520     6.2890     8.1250    24.6580 
   89.0000   -11.8310     2.2020    87.7880     8.2280     6.1650     7.9090    24.5730 
   89.1250   -11.6200     2.2150    86.7900     8.1950     6.0990     7.6100    24.4920 
   89.2500   -11.3620     2.2270    87.3250     8.2350     6.0960     7.5800    24.4500 
   89.3750   -11.1190     2.2320    88.5660     8.3280     6.1510     7.7090    24.4490 
   89.5000   -10.9260     2.2280    88.0290     8.4430     6.2410     7.9610    24.4800 
   89.6250   -10.9260     2.2130    85.2130     8.5390     6.3320     9.0660    24.6080 
   89.7500   -11.0860     2.1940    82.4320     8.5890     6.3980    10.2350    24.7760 
   89.8750   -11.3150     2.1760    81.5820     8.5820     6.4300     9.8750    24.9050 
   90.0000   -11.6110     2.1670    82.7670     8.5250     6.4250     8.4950    24.9560 
   90.1250   -11.8940     2.1690    83.4430     8.4290     6.3880     7.8580    24.9670 
   90.2500   -12.0400     2.1800    82.0920     8.3120     6.3330     7.8990    25.0060 
   90.3750   -11.9720     2.1960    81.6200     8.1710     6.2550     7.8380    25.0480 
   90.5000   -11.7510     2.2140    85.1600     7.9950     6.1470     7.2900    25.0360 
   90.6250   -11.2820     2.2300    92.3380     7.7680     5.9980     6.7530    25.0140 
   90.7500   -10.5470     2.2410    98.2910     7.5060     5.8180     6.6650    24.9710 
   90.8750    -9.7270     2.2490   100.1510     7.2410     5.6270     6.5070    25.0020 
   91.0000    -8.8770     2.2550    98.9710     7.0210     5.4580     6.3550    25.0770 
   91.1250    -8.0250     2.2570    98.5840     6.8980     5.3540     6.5570    25.1720 
   91.2500    -7.2740     2.2540    98.1170     6.8630     5.3190     6.4940    25.1920 
   91.3750    -6.6760     2.2410    95.2050     6.8870     5.3390     6.3180    25.1660 
   91.5000    -6.2420     2.2210    89.5960     6.9360     5.3900     6.4910    25.0770 
   91.6250    -5.9730     2.2000    85.9370     6.9890     5.4410     6.6860    25.0230 
   91.7500    -5.9030     2.1840    86.3390     7.0580     5.4890     6.4200    25.0690 
   91.8750    -6.0530     2.1750    88.0320     7.1650     5.5530     6.0670    25.1370 
   92.0000    -6.3090     2.1720    87.7750     7.3230     5.6570     6.0110    25.1150 
   92.1250    -6.5950     2.1730    85.2330     7.5060     5.8000     6.5060    24.8960 
   92.2500    -6.9040     2.1770    82.4780     7.6400     5.9330     7.3430    24.6920 
   92.3750    -7.2540     2.1830    80.9780     7.6660     5.9990     7.9070    24.6350 
   92.5000    -7.5800     2.1920    81.5430     7.5580     5.9570     7.7740    24.7700 
   92.6250    -7.8540     2.2010    86.0020     7.3530     5.8020     7.1070    25.0540 
   92.7500    -8.1350     2.2130    91.4020     7.1620     5.6250     6.4720    25.2800 
   92.8750    -8.4510     2.2270    94.2870     7.0650     5.4980     6.2790    25.1780 
   93.0000    -8.8570     2.2420    92.2720     7.0910     5.4620     6.4990    24.8460 
   93.1250    -9.3880     2.2470    87.7210     7.2220     5.5300     6.9430    24.5460 
   93.2500    -9.9580     2.2340    83.5510     7.3830     5.6550     7.4520    24.4120 
   93.3750   -10.5580     2.2060    81.6250     7.5400     5.8120     7.6810    24.4230 
   93.5000   -11.1920     2.1740    81.6540     7.6970     5.9900     7.7540    24.5020 
   93.6250   -11.9020     2.1570    82.9650     7.8850     6.1970     7.9730    24.5640 
