~V
VERS. 2.00: Ver 2.00
~W
STRT.M 57.0000:
STOP.M 281.0000:
STEP.M 0.1250:
NULL. -999.2500:
UWI. F10139:
~C
DEPT.M :
SP.MV :
GR.API :
RML.OHMM :
RI. :
RXO.OHMM :
CALI.CM :
DEN.GM/CC :
~A
# ...
  237.0000   -21.8290    73.5070    28.1240    23.4870    28.7390    24.4960     2.3750 
  237.1250   -21.8730    77.8510    27.7230    23.5960    24.2580    24.3720     2.3670 
  237.2500   -21.8780    81.1850    26.6980    23.1300    20.4220    24.2980     2.3560 
  237.3750   -21.7940    83.0240    25.5580    22.4470    19.4750    24.3320     2.3460 
  237.5000   -21.6110    83.7660    24.6360    21.8230    20.3050    24.5130     2.3360 
  237.6250   -21.3470    86.0050    23.8990    21.2880    19.8410    24.7920     2.3310 
  237.7500   -21.0440    88.2420    22.9210    20.5680    18.8340    24.9690     2.3290 
  237.8750   -20.7160    89.4250    21.3920    19.4190    18.6550    24.9800     2.3290 
  238.0000   -20.3920    90.8600    19.3640    17.8560    18.6190    24.9080     2.3320 
  238.1250   -20.0650    94.6320    17.3420    16.2400    16.7990    24.8600     2.3350 
  238.2500   -19.7290    97.1860    15.8760    14.9930    13.8700    24.8330     2.3370 
  238.3750   -19.4420    96.1910    15.1680    14.2850    12.1520    24.8060     2.3350 
  238.5000   -19.2120    94.7920    15.0900    14.0800    13.0280    24.7500     2.3330 
  238.6250   -18.9910    95.6980    15.2770    14.2000    15.1680    24.5610     2.3350 
  238.7500   -18.7300    95.4880    15.3160    14.3310    15.6830    24.2360     2.3420 
  238.8750   -18.4550    93.7440    15.1520    14.3780    14.0380    23.8520     2.3540 
  239.0000   -18.1770    91.8260    15.0650    14.4710    12.2390    23.5870     2.3640 
  239.1250   -17.8920    91.1350    15.6960    15.0430    12.4770    23.6250     2.3690 
  239.2500   -17.6260    89.5020    17.3730    16.4090    14.6480    23.7560     2.3650 
  239.3750   -17.3860    84.3000    20.1770    18.7780    18.0820    23.8620     2.3550 
  239.5000   -17.1810    76.4640    27.1830    22.0830    23.0510    23.9010     2.3410 
  239.6250   -17.0430    70.9640    31.1950    25.7260    26.4870    23.8890     2.3250 
  239.7500   -17.0200    70.4570    34.0600    28.6340    26.7020    23.8410     2.3110 
  239.8750   -17.1100    72.6310    35.4090    30.2670    24.9480    23.7680     2.3000 
  240.0000   -17.2870    72.9770    35.6950    30.8360    23.6540    23.7060     2.2890 
  240.1250   -17.5340    70.8950    35.8010    31.0020    23.2170    23.6230     2.2770 
  240.2500   -17.8240    69.6250    36.3060    31.3510    22.4090    23.4950     2.2670 
  240.3750   -18.1390    69.3710    37.1710    31.9700    22.7030    23.3700     2.2610 
  240.5000   -18.4470    66.9030    38.0790    32.7090    23.3290    23.2780     2.2620 
  240.6250   -18.7140    62.6200    38.7380    33.3820    23.0530    23.2110     2.2690 
  240.7500   -18.9550    61.4050    39.3040    34.0430    22.2580    23.1240     2.2780 
  240.8750   -19.1750    64.1900    40.1370    34.9130    21.4090    23.0280     2.2840 
  241.0000   -19.3700    67.6550    41.6090    36.2720    21.0270    22.9130     2.2860 
  241.1250   -19.5410    67.7050    44.0360    38.4390    21.7660    22.8010     2.2820 
  241.2500   -19.7060    66.1550    47.0840    41.2370    22.6720    22.7850     2.2760 
  241.3750   -19.8610    64.7900    50.2610    44.3040    23.2580    22.8950     2.2700 
  241.5000   -20.0090    65.0280    52.8790    47.0330    24.5760    23.0650     2.2660 
  241.6250   -20.1820    65.6170    53.9360    48.4670    25.8370    23.1970     2.2660 
  241.7500   -20.3520    64.9780    53.3810    48.4250    26.9210    23.3120     2.2680 
  241.8750   -20.5120    64.0040    51.7680    47.3010    27.0840    23.3770     2.2700 
  242.0000   -20.6680    64.3930    50.2060    46.0130    26.1250    23.3970     2.2710 
  242.1250   -20.8530    67.5000    50.3500    45.9670    24.1960    23.3920     2.2710 
  242.2500   -21.0540    70.1030    53.0570    48.0270    23.4310    23.3620     2.2690 
  242.3750   -21.2950    69.8120    58.7240    52.6880    24.5470    23.3000     2.2670 
  242.5000   -21.6110    67.8770    66.9490    59.7690    28.3080    23.2560     2.2700 
  242.6250   -21.9770    68.2580    76.1070    68.0410    32.3500    23.2620     2.2910 
  242.7500   -22.4090    70.7100    83.3600    75.0190    33.7500    23.3750     2.3290 
  242.8750   -22.8750    72.4640    86.9130    79.0120    35.1630    23.6140     2.3730 
  243.0000   -23.3510    73.7340    86.8620    79.8060    38.6990    23.8500     2.4060 
  243.1250   -23.7930    75.4690    85.0220    78.6390    39.8630    23.9520     2.4120 
  243.2500   -24.1690    75.6170    83.7080    77.6010    40.4570    23.9450     2.4000 
  243.3750   -24.4800    74.2560    83.7320    77.5790    39.8620    23.9340     2.3880 
  243.5000   -24.7160    72.9160    85.3680    78.9510    41.1980    23.9630     2.3900 
  243.6250   -24.9100    73.3250    89.3270    82.4650    44.1960    24.0450     2.4070 
  243.7500   -25.0720    73.4090    95.4590    88.0770    49.1220    24.0770     2.4220 
  243.8750   -25.1640    73.2860   103.1260    95.2690    51.5330    24.0460     2.4240 
  244.0000   -25.1640    75.2440   110.7620   102.6520    54.7000    24.0280     2.4070 
  244.1250   -25.0780    78.6870   115.6410   107.7910    57.0850    24.0290     2.3780 
  244.2500   -24.9660    79.1620   116.8000   109.6170    60.4760    24.0210     2.3500 
  244.3750   -24.7950    75.3800   115.0780   108.5880    61.5780    24.0360     2.3300 
  244.5000   -24.5770    69.8570   112.4450   106.3330    56.2660    24.0670     2.3180 
  244.6250   -24.3190    67.5790   110.3850   104.3690    52.4410    24.0790     2.3090 
  244.7500   -24.0010    67.1830   108.6520   102.8020    52.8120    24.0610     2.2980 
  244.8750   -23.6580    67.5770   106.8140   101.3430    53.0520    24.0140     2.2840 
  245.0000   -23.3380    67.0860   105.0740   100.1110    53.5330    23.9460     2.2710 
  245.1250   -23.0740    64.6160   104.6800   100.0710    51.0770    23.8540     2.2620 
  245.2500   -22.8770    60.6610   106.6890   102.1090    48.5470    23.7720     2.2540 
  245.3750   -22.7480    56.6780   111.6010   106.7500    45.7900    23.6980     2.2460 
  245.5000   -22.5730    54.7270   118.8060   113.5960    44.0520    23.6240     2.2400 
  245.6250   -22.3440    55.4210   125.8530   120.6590    50.8750    23.5930     2.2360 
  245.7500   -22.1150    55.8670   128.8670   124.5360    58.5490    23.5710     2.2370 
  245.8750   -21.8760    56.0450   124.5690   122.1290    60.5660    23.5320     2.2420 
  246.0000   -21.6700    57.1510   112.4330   112.3070    55.3160    23.4480     2.2480 
  246.1250   -21.5650    59.1440    95.7330    97.0570    47.3860    23.4090     2.2550 
  246.2500   -21.4890    60.5400    80.0970    81.7550    42.0980    23.4010     2.2640 
  246.3750   -21.4130    62.0760    67.9850    69.3040    38.0190    23.4260     2.2750 
  246.5000   -21.4590    64.0870    60.0820    60.8780    33.9300    23.4830     2.2860 
  246.6250   -21.6590    63.8440    56.7070    57.0330    31.2340    23.5510     2.2910 
  246.7500   -21.9210    62.8120    56.5630    56.4910    31.3160    23.5810     2.2860 
  246.8750   -22.2420    63.4130    59.0570    58.6720    31.5220    23.6010     2.2740 
  247.0000   -22.5800    64.8370    63.6060    63.0420    33.4660    23.6370     2.2590 
  247.1250   -22.8110    64.4040    69.8080    69.2640    37.0270    23.6870     2.2410 
  247.2500   -22.9920    62.6080    76.7980    76.4050    40.3340    23.7010     2.2150 
  247.3750   -23.2230    61.5610    83.9360    83.7360    40.0880    23.6440     2.1840 
  247.5000   -23.4240    61.3320    90.3700    90.3450    39.9310    23.4540     2.1660 
  247.6250   -23.5060    60.6650    94.5160    94.6290    41.6220    23.1300     2.1970 
  247.7500   -23.4930    59.9320    95.6570    95.8260    45.7510    22.8260     2.2770 
  247.8750   -23.4350    61.9780    93.7090    93.7420    41.5760    22.5060     2.3760 
  248.0000   -23.3580    67.0080    89.5240    89.1150    31.0560    22.2040     2.4460 
  248.1250   -23.2620    70.4700    84.5430    83.3360    25.2330    21.9370     2.4360 
