~V
VERS. 2.00: Ver 2.00
~W
STRT.M 45.0000:
STOP.M 252.0000:
STEP.M 0.1250:
NULL. -999.2500:
UWI. F10190:
~C
DEPT.M :
GR.API :
RML.OHMM :
RI. :
RXO.OHMM :
CALI.CM :
SP.MV :
DEN.GM/CC :
~A
# ...
   67.5000    66.0230    10.5740     8.9930     8.5150    24.4340   -28.1730     2.1590 
   67.6250    64.6170     9.6340     8.0040     8.4270    24.4090   -28.4210     2.1170 
   67.7500    61.8510     9.4810     7.5720     8.7860    24.4550   -28.6950     2.1020 
   67.8750    62.0670     9.7020     7.4870     9.4590    24.4960   -28.9790     2.1060 
   68.0000    65.9540     9.9290     7.5440     9.7650    24.5080   -29.2390     2.1210 
   68.1250    68.4990    10.0070     7.5840     9.0840    24.4960   -29.5040     2.1270 
   68.2500    67.8150     9.9680     7.5800     8.7070    24.4620   -29.7880     2.1160 
   68.3750    67.1510     9.8980     7.5550     8.6870    24.4160   -30.0840     2.0970 
   68.5000    68.3040     9.8660     7.5430     8.9780    24.3540   -30.3740     2.0850 
   68.6250    68.2030     9.8700     7.5520     9.0900    24.3020   -30.6670     2.0860 
   68.7500    66.9990     9.8860     7.5650     9.0270    24.2740   -30.9460     2.0970 
   68.8750    66.9360     9.8900     7.5620     9.1600    24.2850   -31.1830     2.1160 
   69.0000    67.9090     9.8800     7.5220     9.7360    24.3010   -31.3230     2.1330 
   69.1250    68.4330     9.8710     7.4570    10.1160    24.3110   -31.3500     2.1440 
   69.2500    67.8310     9.8690     7.3780     9.9070    24.3080   -31.2820     2.1480 
   69.3750    66.4550     9.8760     7.3010     9.5300    24.3010   -31.1280     2.1520 
   69.5000    64.8420     9.8940     7.2470     9.3690    24.2970   -30.9340     2.1570 
   69.6250    63.6500     9.9210     7.2250     9.1980    24.2880   -30.7090     2.1570 
   69.7500    62.2980     9.9590     7.2370     9.0080    24.2660   -30.4440     2.1480 
   69.8750    59.7060    10.0020     7.2780     9.0120    24.2410   -30.1750     2.1340 
   70.0000    58.4740    10.0300     7.3340     9.1310    24.2260   -29.8930     2.1220 
   70.1250    59.2290    10.0210     7.3800     9.1800    24.2080   -29.5560     2.1170 
   70.2500    59.4310     9.9700     7.4050     9.2460    24.1920   -29.1410     2.1190 
   70.3750    58.2510     9.8990     7.4140     9.2710    24.2140   -28.6500     2.1140 
   70.5000    58.5610     9.8840     7.4360     9.1580    24.2820   -28.0800     2.0910 
   70.6250    61.1360     9.9770     7.5010     8.9960    24.3130   -27.4260     2.0620 
   70.7500    63.9190    10.1530     7.6040     8.8320    24.3060   -26.6380     2.0440 
   70.8750    64.4780    10.2920     7.6790     8.7740    24.3050   -25.7140     2.0490 
   71.0000    64.9610    10.1620     7.5820     9.2200    24.3370   -24.7460     2.0780 
   71.1250    67.1700     9.6870     7.2610     9.3610    24.3920   -23.7880     2.1190 
   71.2500    70.5910     8.9320     6.7460     8.5470    24.4290   -22.8390     2.1640 
   71.3750    74.5900     8.0870     6.1530     6.9820    24.4410   -21.9050     2.2100 
   71.5000    78.8890     7.4360     5.6530     5.8270    24.4250   -21.0100     2.2550 
   71.6250    83.1560     7.1440     5.3640     5.6030    24.3820   -20.2210     2.2960 
   71.7500    86.8450     7.3160     5.3710     5.7750    24.3220   -19.6190     2.3250 
   71.8750    89.1580     7.9760     5.7280     6.0600    24.2730   -19.1830     2.3400 
   72.0000    88.2670     9.0830     6.4700     6.4390    24.2440   -18.8760     2.3500 
   72.1250    81.7740    10.2950     7.3900     7.3640    24.2840   -18.7040     2.3700 
   72.2500    73.5730    11.2250     8.2170     9.5560    24.4330   -18.6780     2.3870 
   72.3750    70.7410    11.4920     8.6240    13.0830    24.6440   -18.7860     2.3710 
   72.5000    76.2350    10.8560     8.3400    11.8810    24.7410   -18.9800     2.3120 
   72.6250    83.3040     9.7560     7.6280     8.5040    24.7660   -19.1800     2.2600 
   72.7500    87.3120     8.6070     6.7800     6.7570    24.8090   -19.3660     2.2380 
   72.8750    88.8900     7.6960     6.0310     6.2720    24.8880   -19.5490     2.2440 
   73.0000    90.1440     7.1990     5.5490     5.7000    24.9360   -19.7200     2.2660 
   73.1250    91.3750     7.0370     5.3150     5.3580    24.9520   -19.8790     2.2880 
   73.2500    93.0370     7.1560     5.3000     5.2680    24.9450   -20.0790     2.2980 
   73.3750    95.3730     7.5030     5.4610     5.6110    24.8920   -20.3370     2.2870 
   73.5000    95.7570     8.0300     5.7740     6.8200    24.7100   -20.6600     2.2530 
   73.6250    91.4130     8.5830     6.1410     8.6230    24.4170   -21.0420     2.2160 
   73.7500    83.3620     9.0230     6.4720     8.8410    24.1170   -21.4500     2.1900 
   73.8750    75.9480     9.2490     6.6870     7.9030    23.9270   -21.8440     2.1750 
   74.0000    72.8050     9.2190     6.7220     7.3530    23.8910   -22.2450     2.1650 
   74.1250    72.3590     9.0560     6.6310     7.4170    23.9340   -22.7050     2.1520 
   74.2500    73.2690     8.8490     6.4700     7.5690    24.0080   -23.1500     2.1410 
   74.3750    73.8060     8.6690     6.2940     7.6680    24.0580   -23.5590     2.1390 
   74.5000    74.9260     8.5780     6.1610     7.6410    24.0720   -23.9940     2.1460 
   74.6250    76.3300     8.5950     6.0990     7.5860    24.0720   -24.4750     2.1570 
   74.7500    76.6190     8.7400     6.1260     7.5540    24.0770   -25.0150     2.1670 
   74.8750    75.4460     9.0110     6.2460     7.5790    24.0960   -25.6830     2.1740 
   75.0000    73.3250     9.3940     6.4600     7.8000    24.1230   -26.5150     2.1700 
   75.1250    71.3820     9.8200     6.7280     8.1270    24.1140   -27.3680     2.1520 
   75.2500    71.0000    10.2260     7.0190     8.4860    24.0950   -28.2070     2.1310 
   75.3750    71.0810    10.5510     7.2930     9.0160    24.1050   -29.0400     2.1240 
   75.5000    68.2660    10.7260     7.5020     9.8460    24.1600   -29.8430     2.1370 
   75.6250    63.3620    10.7680     7.6300    10.6200    24.2160   -30.5940     2.1560 
   75.7500    60.5760    10.7040     7.6760    10.6080    24.2640   -31.2480     2.1650 
   75.8750    61.2870    10.5750     7.6550     9.9870    24.3050   -31.7810     2.1510 
   76.0000    62.1550    10.4240     7.5860    10.4180    24.3680   -32.1670     2.1130 
   76.1250    63.1050    10.2820     7.4970    13.8110    24.4450   -32.4550     2.0750 
   76.2500    63.6180    10.1540     7.3980    19.6410    24.4770   -32.6520     2.0570 
   76.3750    62.4230    10.0300     7.2940    19.4100    24.4590   -32.7210     2.0620 
   76.5000    60.4410     9.8980     7.1860    13.2180    24.4530   -32.6430     2.0830 
   76.6250    60.3510     9.7570     7.0720    10.5330    24.4690   -32.4760     2.0970 
   76.7500    63.5760     9.6210     6.9560     9.7770    24.4720   -32.2320     2.1000 
   76.8750    66.9410     9.5020     6.8390     9.7350    24.4130   -31.8780     2.0970 
   77.0000    66.2000     9.3900     6.7280     9.8650    24.3170   -31.3660     2.0950 
   77.1250    63.3760     9.2590     6.6190     9.8840    24.2690   -30.7190     2.0920 
   77.2500    61.8540     9.0950     6.5110     9.6870    24.3030   -29.9980     2.0830 
   77.3750    62.5730     8.9310     6.4220     9.3430    24.3800   -29.2420     2.0660 
   77.5000    63.4520     8.8920     6.4200     9.1370    24.4530   -28.3550     2.0510 
   77.6250    64.2200     9.0740     6.5660     9.2180    24.5670   -27.3310     2.0550 
   77.7500    66.1920     9.5120     6.8970    10.0310    24.7550   -26.2110     2.0920 
   77.8750    70.1960    10.1380     7.3870    11.6750    24.9860   -25.0610     2.1650 
   78.0000    75.1010    10.7410     7.9130    13.8670    25.1280   -24.0110     2.2610 
   78.1250    77.5570    11.0340     8.2570    14.2140    25.0900   -23.1050     2.3340 
   78.2500    76.4650    10.8390     8.2570    12.4990    24.9120   -22.2850     2.3490 
   78.3750    75.3550    10.1850     7.8810     9.3480    24.7280   -21.5270     2.3130 
   78.5000    77.6560     9.3010     7.2360     7.9920    24.7190   -20.8860     2.2690 
   78.6250    80.7690     8.4970     6.5580     7.1390    24.8660   -20.3400     2.2450 
