~V
VERS. 2.00: Ver 2.00
~W
STRT.M 63.0000:
STOP.M 800.0000:
STEP.M 0.1250:
NULL. -999.2500:
UWI. F10168:
~C
DEPT.M :
SP.MV :
GR.API :
RML.OHMM :
RI. :
RXO.OHMM :
CALI.CM :
DEN.GM/CC :
~A
# ...
  693.0000   -13.8750    69.5690    24.5990    24.7300    30.6090    24.0120     2.4340 
  693.1250   -13.8180    69.5910    23.8930    23.9900    26.9170    23.9750     2.4290 
  693.2500   -13.7530    67.5210    23.1000    23.0700    24.8690    23.9370     2.4270 
  693.3750   -13.6780    65.2100    22.4180    22.1910    23.6680    23.8850     2.4260 
  693.5000   -13.6090    64.3230    21.9400    21.4990    23.1200    23.7970     2.4250 
  693.6250   -13.5440    64.8200    21.6960    21.0930    23.6650    23.7020     2.4220 
  693.7500   -13.4960    65.0670    21.6140    20.9380    23.7760    23.6350     2.4200 
  693.8750   -13.4640    65.9490    21.6960    21.0410    22.4460    23.6020     2.4190 
  694.0000   -13.4520    68.0510    21.9970    21.4300    21.5740    23.6120     2.4210 
  694.1250   -13.4550    69.9610    22.6340    22.1810    21.8930    23.6610     2.4270 
  694.2500   -13.4630    70.1810    23.5280    23.1920    22.4430    23.6920     2.4380 
  694.3750   -13.4770    68.1460    24.5060    24.2910    24.5620    23.6570     2.4560 
  694.5000   -13.4990    65.4060    25.2880    25.1960    28.1010    23.5670     2.4730 
  694.6250   -13.5280    65.0620    25.5010    25.4930    30.6260    23.4770     2.4800 
  694.7500   -13.5670    66.1910    25.1490    25.1360    28.3520    23.4320     2.4720 
  694.8750   -13.6170    66.0180    24.4010    24.2650    25.7130    23.4300     2.4490 
  695.0000   -13.6960    63.5900    23.5470    23.1800    23.7370    23.4600     2.4190 
  695.1250   -13.7910    61.9400    22.9090    22.2560    23.5640    23.5430     2.3920 
  695.2500   -13.8810    62.0330    22.5990    21.6940    25.7080    23.6700     2.3740 
  695.3750   -13.9460    62.1490    22.6010    21.5430    28.8140    23.8090     2.3640 
  695.5000   -13.9690    62.1410    22.8200    21.7450    29.8180    23.9140     2.3590 
  695.6250   -13.9430    63.8200    23.1480    22.1860    24.5890    23.9600     2.3560 
  695.7500   -13.8760    65.9610    23.4850    22.6670    22.1180    23.9700     2.3570 
  695.8750   -13.7820    65.8450    23.8170    23.0860    22.9670    23.9670     2.3640 
  696.0000   -13.6550    63.5260    24.1610    23.3940    24.6910    23.9570     2.3800 
  696.1250   -13.5010    62.6610    24.5220    23.5720    26.0550    23.9440     2.4050 
  696.2500   -13.3290    62.5380    24.8430    23.6520    29.1500    23.9250     2.4320 
  696.3750   -13.1530    62.7490    25.0420    23.6370    32.8600    23.8960     2.4520 
  696.5000   -12.9870    63.8940    25.0510    23.5180    34.3290    23.8560     2.4570 
  696.6250   -12.8230    66.7130    24.8390    23.2810    30.8990    23.8050     2.4470 
  696.7500   -12.6460    68.2060    24.5340    22.9970    27.7250    23.7290     2.4350 
  696.8750   -12.4690    66.5890    24.2650    22.7510    25.4660    23.6390     2.4290 
  697.0000   -12.3060    65.3100    24.1380    22.6220    25.0390    23.5920     2.4310 
  697.1250   -12.1700    70.0720    24.1820    22.6340    25.0590    23.6380     2.4350 
  697.2500   -12.0530    75.3550    24.2530    22.6580    24.4870    23.7010     2.4350 
  697.3750   -11.9510    74.4640    24.2000    22.5410    24.6460    23.7400     2.4330 
  697.5000   -11.8610    68.2700    23.9170    22.1660    24.4390    23.7580     2.4340 
  697.6250   -11.7770    64.9900    23.4070    21.5030    22.8950    23.7650     2.4420 
  697.7500   -11.6790    66.2090    22.8890    20.7630    19.2740    23.7660     2.4490 
  697.8750   -11.5420    67.6830    22.5640    20.1490    17.4150    23.7630     2.4490 
  698.0000   -11.3630    67.3830    22.5530    19.8280    17.5340    23.7600     2.4420 
  698.1250   -11.1690    67.0550    22.8700    19.9040    19.6290    23.7580     2.4310 
  698.2500   -10.9800    66.9670    23.2560    20.1990    22.5740    23.7560     2.4250 
  698.3750   -10.8030    65.8460    23.4460    20.4910    24.8350    23.7580     2.4260 
  698.5000   -10.6080    64.2980    23.2400    20.5480    24.3420    23.7730     2.4310 
  698.6250   -10.3880    64.7560    22.5690    20.2030    22.7780    23.8240     2.4350 
  698.7500   -10.1460    67.1440    21.7450    19.6140    21.6110    23.8880     2.4350 
  698.8750    -9.8750    69.9300    21.0750    18.9980    20.0160    23.9150     2.4280 
  699.0000    -9.5690    72.9710    20.7920    18.5630    18.0730    23.8720     2.4170 
  699.1250    -9.2130    75.0430    20.9780    18.4520    18.5180    23.8040     2.4070 
  699.2500    -8.8260    74.5100    21.2820    18.5010    19.8810    23.7790     2.4050 
  699.3750    -8.3980    73.8110    21.3020    18.4520    21.6860    23.8150     2.4130 
  699.5000    -7.9270    75.5390    20.7010    18.0350    24.1220    23.8860     2.4280 
  699.6250    -7.4220    79.1360    19.3010    17.0530    24.1350    23.9530     2.4420 
  699.7500    -6.8940    83.2460    17.5130    15.7300    20.6470    24.0140     2.4510 
  699.8750    -6.3350    86.4600    15.7310    14.3230    16.3840    24.0750     2.4540 
  700.0000    -5.7480    86.9880    14.2660    13.0650    13.8580    24.1190     2.4550 
  700.1250    -5.1640    84.7030    13.3440    12.1430    13.1860    24.1190     2.4570 
  700.2500    -4.5880    82.1470    12.8590    11.5370    12.8210    24.0950     2.4620 
  700.3750    -4.0470    77.5670    12.7010    11.2120    12.2220    24.0690     2.4670 
  700.5000    -3.5800    71.7180    12.7250    11.1020    11.8250    24.0520     2.4710 
  700.6250    -3.1920    71.4340    12.7730    11.1290    11.9950    24.0400     2.4720 
  700.7500    -2.8870    76.2170    12.7050    11.1620    13.0160    24.0300     2.4730 
  700.8750    -2.6670    78.5060    12.4490    11.1050    13.5510    24.0180     2.4750 
  701.0000    -2.4990    74.3680    12.0000    10.8900    12.8500    23.9960     2.4770 
  701.1250    -2.3680    68.4270    11.4240    10.4780    11.3310    23.9730     2.4810 
  701.2500    -2.2550    65.8520    10.8720     9.9620    10.4010    23.9610     2.4870 
  701.3750    -2.1480    65.3060    10.4420     9.4380     9.9360    23.9640     2.4960 
  701.5000    -2.0420    65.3910    10.1750     8.9970     9.8920    23.9660     2.5100 
  701.6250    -1.9320    66.1630    10.0590     8.7250    10.1880    23.9540     2.5250 
  701.7500    -1.8130    65.9370    10.0000     8.6000    10.3900    23.9330     2.5360 
  701.8750    -1.6850    66.0240     9.9470     8.5860    10.1770    23.9100     2.5390 
  702.0000    -1.5730    67.7180     9.8860     8.6360     9.8650    23.8930     2.5360 
  702.1250    -1.4770    69.7860     9.8420     8.7150     9.6830    23.8810     2.5250 
  702.2500    -1.3900    72.8300     9.8560     8.8030     9.6350    23.8650     2.5090 
  702.3750    -1.3180    79.8130     9.9530     8.9050     9.7160    23.8350     2.4880 
  702.5000    -1.2680    88.5920    10.1420     9.0320     9.8170    23.7890     2.4640 
  702.6250    -1.2390    89.7400    10.4150     9.1850    10.0660    23.7390     2.4460 
  702.7500    -1.2420    84.5120    10.7190     9.3400    10.3360    23.7150     2.4410 
  702.8750    -1.2760    80.0200    11.0000     9.4680    10.8580    23.7280     2.4480 
  703.0000    -1.3280    78.0650    11.1990     9.5510    10.9750    23.7620     2.4660 
  703.1250    -1.3670    77.0140    11.2540     9.5810    10.9450    23.8300     2.4850 
  703.2500    -1.4020    77.4690    11.1910     9.5860    10.9820    23.8910     2.5020 
  703.3750    -1.4400    79.2130    11.0490     9.5900    10.6850    23.9300     2.5160 
  703.5000    -1.4880    80.0530    10.8780     9.6080    10.4110    23.9450     2.5310 
  703.6250    -1.5440    76.7400    10.7030     9.6380    10.4380    23.9500     2.5490 
  703.7500    -1.6100    73.5020    10.5190     9.6480    10.3870    23.9530     2.5640 
  703.8750    -1.6970    74.0130    10.3110     9.6070    10.1730    23.9480     2.5710 
  704.0000    -1.8250    75.7860    10.0810     9.4890     9.9890    23.9250     2.5630 
  704.1250    -1.9990    74.6730     9.8570     9.2740     9.3570    23.8940     2.5390 
