~V
VERS. 2.00: Ver 2.00
~W
STRT.M 55.0000:
STOP.M 251.0000:
STEP.M 0.1250:
NULL. -999.2500:
UWI. F10189:
~C
DEPT.M :
DEN.GM/CC :
SP.MV :
GR.API :
RML.OHMM :
RI. :
RXO.OHMM :
CALI.CM :
~A
# ...
  235.0000     2.4360   -12.6830    64.5400    10.7180     8.9990    12.5550    23.7910 
  235.1250     2.4360   -12.7140    64.0660    10.7940     9.0810    12.9330    23.8210 
  235.2500     2.4380   -12.7720    62.6230    10.8800     9.1810    13.5350    23.8590 
  235.3750     2.4370   -12.8300    62.0300    10.9820     9.2980    13.9840    23.8990 
  235.5000     2.4300   -12.9390    62.9000    11.0890     9.4210    14.3570    23.9040 
  235.6250     2.4260   -13.1810    63.7210    11.1770     9.5280    14.6650    23.8750 
  235.7500     2.4330   -13.4890    64.5000    11.2300     9.6080    14.9350    23.8440 
  235.8750     2.4500   -13.8340    65.7720    11.2460     9.6610    15.2680    23.8140 
  236.0000     2.4630   -14.2090    67.6770    11.2410     9.6990    15.4990    23.8040 
  236.1250     2.4630   -14.5510    68.3650    11.2360     9.7410    14.7640    23.8150 
  236.2500     2.4570   -14.6670    67.3680    11.2350     9.8050    14.1630    23.8330 
  236.3750     2.4560   -14.6450    65.0760    11.2370     9.8970    14.0140    23.8090 
  236.5000     2.4590   -14.5570    64.1230    11.2490    10.0100    14.0040    23.7830 
  236.6250     2.4580   -14.3490    66.4450    11.2790    10.1340    13.8720    23.7210 
  236.7500     2.4510   -14.0530    68.0940    11.3150    10.2570    13.5480    23.5930 
  236.8750     2.4420   -13.6980    67.3430    11.3500    10.3700    12.6550    23.4690 
  237.0000     2.4370   -13.3120    65.0140    11.3830    10.4660    11.3310    23.4520 
  237.1250     2.4370   -12.9490    62.4630    11.4270    10.5380    10.7540    23.5320 
  237.2500     2.4400   -12.7810    63.2200    11.4930    10.5870    11.0890    23.6440 
  237.3750     2.4460   -12.7230    67.6130    11.5820    10.6160    12.0140    23.8050 
  237.5000     2.4490   -12.6530    71.8030    11.6680    10.6260    13.2070    23.9810 
  237.6250     2.4480   -12.6050    69.9630    11.6840    10.6100    13.8070    24.0340 
  237.7500     2.4460   -12.6250    66.1170    11.5940    10.5590    13.4360    24.0390 
  237.8750     2.4430   -12.6860    64.9230    11.3870    10.4610    12.6280    24.0760 
  238.0000     2.4340   -12.7500    65.8920    11.0930    10.3170    11.8300    24.0900 
  238.1250     2.4190   -12.7150    67.0650    10.8020    10.1430    11.6610    24.0810 
  238.2500     2.4040   -12.6340    67.0650    10.6020     9.9810    11.7290    24.1330 
  238.3750     2.3930   -12.5580    67.0650    10.5420     9.8670    12.1450    24.3000 
  238.5000     2.3900   -12.5300    67.0650    10.6280     9.8420    12.8820    24.4680 
  238.6250     2.3970   -12.5010    67.0650    10.8590     9.9610    14.0760    24.4810 
  238.7500     2.4050   -12.4450    67.0650    11.1550    10.2020    15.1520    24.4270 
  238.8750     2.4130   -12.3470    67.0650    11.4320    10.5100    15.6660    24.3690 
  239.0000     2.4260   -12.2190    67.0650    11.5990    10.7880    15.3850    24.3360 
  239.1250     2.4470   -12.1720    67.0650    11.5550    10.9000    14.9370    24.3090 
  239.2500     2.4560   -12.1400    67.0650    11.3230    10.8090    14.7980    24.2970 
  239.3750     2.4420   -12.1220    67.0650    10.9590    10.5480    14.0520    24.3260 
  239.5000     2.4110   -12.1340    67.0650    10.5540    10.2120    13.3950    24.3710 
  239.6250     2.3820   -12.1440    67.0650    10.2160     9.9200    13.8630    24.3690 
  239.7500     2.3690   -12.1190    67.0650     9.9910     9.7360    14.4350    24.3080 
  239.8750     2.3750   -12.0610    67.0650     9.8950     9.6640    14.4220    24.2040 
  240.0000     2.3910   -11.9990    67.0650     9.8960     9.6690    14.7680    24.1220 
  240.1250     2.4030   -11.9220    67.0650     9.9240     9.6930    15.3150    24.0770 
  240.2500     2.4070   -11.8500    67.0650     9.9270     9.6880    15.7810    24.0960 
  240.3750     2.4040   -11.7600    67.0650     9.9050     9.6420    15.7430    24.1280 
  240.5000     2.3970   -11.5660    67.0650     9.8760     9.5580    14.9500    24.1430 
  240.6250     2.3900   -11.3660    67.0650     9.8410     9.4360    14.0080    24.1430 
  240.7500     2.3910   -11.2150    67.0650     9.7780     9.2930    13.4890    24.1430 
  240.8750     2.3980   -11.1190    67.0650     9.6700     9.1370    13.1500    24.1430 
  241.0000     2.4050   -11.0350    67.0650     9.5200     8.9790    11.7550    24.1430 
  241.1250     2.4070   -10.9970    67.0650     9.3590     8.8350    10.4140    24.1430 
  241.2500     2.4130   -10.9830    67.0650     9.2420     8.7250     9.7580    24.1400 
  241.3750     2.4270   -10.9560    67.0650     9.2270     8.6750     9.9780    24.1220 
  241.5000     2.4490   -10.9440    67.0650     9.3610     8.7260    10.7640    24.0790 
  241.6250     2.4760   -10.8690    67.0650     9.6850     8.9420    11.5630    24.0480 
  241.7500     2.5040   -10.7760    67.0650    10.1310     9.3090    12.5490    24.0450 
  241.8750     2.5220   -10.6920    67.0650    10.6240     9.7850    13.2880    24.0430 
  242.0000     2.5240   -10.5960    67.0650    11.0970    10.2930    13.5320    24.0280 
  242.1250     2.5150   -10.4310    67.0650    11.5270    10.7140    13.9600    24.0150 
  242.2500     2.5070   -10.2660    67.0650    11.9560    10.9990    14.5160    24.0120 
  242.3750     2.5040   -10.1520    67.0650    12.3990    11.1520    15.0630    24.0180 
  242.5000     2.5060   -10.1070    67.0650    12.8350    11.2210    15.0980    24.0160 
  242.6250     2.5050   -10.1760    67.0650    13.2070    11.2530    14.4290    24.0030 
  242.7500     2.5000   -10.2170    67.0650    13.4650    11.2810    14.0260    24.0030 
  242.8750     2.4920   -10.2310    67.0650    13.5780    11.3060    14.1850    24.0070 
  243.0000     2.4860   -10.2900    67.0650    13.5600    11.3260    14.9620    23.9360 
  243.1250     2.4840   -10.3840    67.0650    13.4700    11.3340    15.6290    23.7430 
  243.2500     2.4860   -10.4640    67.0650    13.3850    11.3340    16.2980    23.6460 
  243.3750     2.4870   -10.4950    67.0650    13.3380    11.3280    16.7150    23.6410 
  243.5000     2.4920   -10.4680    67.0650    13.3210    11.3230    16.8180    23.6680 
  243.6250     2.5060   -10.4290    67.0650    13.3000    11.3230    16.7800    23.7100 
  243.7500     2.5190   -10.3910    67.0650    13.2620    11.3240    16.2240    23.7600 
  243.8750     2.5200   -10.3440    67.0650    13.2230    11.3250    14.9980    23.7760 
  244.0000     2.5070   -10.2540    67.0650    13.2040    11.3270    13.4310    23.7330 
  244.1250     2.4920   -10.1750    67.0650    13.2040    11.3270    13.1930    23.6790 
  244.2500     2.4890   -10.1320    67.0650    13.2040    11.3270    12.9530    23.6890 
  244.3750     2.4950   -10.1530    67.0650    13.2040    11.3270    12.8270    23.7460 
  244.5000     2.5030   -10.2720    67.0650    13.2040    11.3270    12.8150    23.7790 
  244.6250     2.5010   -10.4490    67.0650    13.2040    11.3270    12.9250    23.7190 
  244.7500     2.4920   -10.6510    67.0650    13.2040    11.3270    12.7880    23.6090 
  244.8750     2.4840   -10.7740    67.0650    13.2040    11.3270    12.3720    23.5190 
  245.0000     2.4830   -10.9070    67.0650    13.2040    11.3270    12.0390    23.4220 
  245.1250     2.4850   -11.1050    67.0650    13.2040    11.3270    12.2300    23.2940 
  245.2500     2.4860   -11.3040    67.0650    13.2040    11.3270    12.5250    23.2050 
  245.3750     2.4850   -11.4790    67.0650    13.2040    11.3270    12.6930    23.1910 
  245.5000     2.4800   -11.5110    67.0650    13.2040    11.3270    12.7010    23.1670 
  245.6250     2.4690   -11.5110    67.0650    13.2040    11.3270    12.9860    23.0900 
  245.7500     2.4430  -999.2500    67.0650    13.2040    11.3270    13.5820    23.0520 
  245.8750     2.3960  -999.2500    67.0650    13.2040    11.3270    13.8550    23.1740 
  246.0000     2.3320  -999.2500    67.0650    13.2040    11.3270    12.8040    23.3430 
  246.1250     2.2730  -999.2500    67.0650    13.2040    11.3270    10.7330    23.4190 
