~V
VERS. 2.00: Ver 2.00
~W
STRT.M 30.0000:
STOP.M 209.0000:
STEP.M 0.1250:
NULL. -999.2500:
UWI. F10150:
~C
DEPT.M :
SP.MV :
DEN.GM/CC :
GR.API :
RML.OHMM :
RI. :
RXO.OHMM :
CALI.CM :
~A
# ...
  187.5000   -21.5730     2.3380    74.9620     7.1130     5.7190     6.2750    24.6950 
  187.6250   -21.5070     2.3530    74.1960     7.3490     5.8850     7.4150    24.6510 
  187.7500   -21.4370     2.3610    69.7370     7.6120     6.0790     9.5140    24.6570 
  187.8750   -21.3440     2.3520    66.9860     7.8740     6.2770     9.3270    24.6560 
  188.0000   -21.1860     2.3270    67.4730     8.1290     6.4700     8.9080    24.6420 
  188.1250   -20.9880     2.2970    69.4220     8.3690     6.6540     7.2370    24.5780 
  188.2500   -20.8010     2.2740    71.3580     8.5800     6.8200     6.0590    24.5420 
  188.3750   -20.6430     2.2740    74.8120     8.7190     6.9420     6.6010    24.5740 
  188.5000   -20.5010     2.2950    77.7850     8.7580     6.9960     7.8400    24.5940 
  188.6250   -20.3770     2.3250    77.8440     8.6850     6.9660     8.4400    24.5980 
  188.7500   -20.2620     2.3500    76.8450     8.5270     6.8660     7.8430    24.6080 
  188.8750   -20.1990     2.3580    78.4520     8.3470     6.7400     7.5100    24.6840 
  189.0000   -20.1790     2.3500    80.8600     8.2160     6.6460     7.4640    24.7980 
  189.1250   -20.2230     2.3320    81.0220     8.1660     6.6100     7.3770    24.9240 
  189.2500   -20.2790     2.3070    78.7330     8.1940     6.6300     7.0420    25.0380 
  189.3750   -20.3590     2.2840    76.4950     8.2600     6.6740     6.9720    25.0710 
  189.5000   -20.4030     2.2690    74.6530     8.3060     6.7030     7.1140    24.9970 
  189.6250   -20.4280     2.2680    72.6000     8.2970     6.7020     7.3270    24.8420 
  189.7500   -20.4290     2.2810    70.6200     8.2190     6.6690     7.6610    24.8230 
  189.8750   -20.3690     2.3000    67.6910     8.0620     6.5930     7.1580    24.9240 
  190.0000   -20.2910     2.3110    64.1500     7.8600     6.4840     6.8350    24.9510 
  190.1250   -20.1720     2.3070    60.3360     7.6480     6.3540     6.9580    24.8750 
  190.2500   -20.0740     2.2880    58.2920     7.4660     6.2250     7.3110    24.8260 
  190.3750   -19.9820     2.2610    58.8630     7.3560     6.1290     6.8060    24.8770 
  190.5000   -19.9350     2.2380    60.2600     7.3050     6.0690     5.9820    24.8530 
  190.6250   -19.8980     2.2260    61.9240     7.2820     6.0310     5.5630    24.7320 
  190.7500   -19.8580     2.2300    64.2760     7.2400     5.9830     5.6310    24.5700 
  190.8750   -19.8440     2.2500    66.8300     7.1270     5.8920     6.1420    24.5440 
  191.0000   -19.8020     2.2730    67.8030     6.9690     5.7710     6.4600    24.5590 
  191.1250   -19.7420     2.2900    65.5400     6.8290     5.6590     5.8880    24.6110 
  191.2500   -19.6060     2.2980    61.0420     6.7800     5.6010     5.4110    24.6600 
  191.3750   -19.4180     2.3020    58.0820     6.8840     5.6470     5.6800    24.6830 
  191.5000   -19.1990     2.3080    57.8110     7.0900     5.7710     6.5230    24.7590 
  191.6250   -18.9810     2.3140    60.6370     7.3230     5.9330     6.8830    24.8050 
  191.7500   -18.7740     2.3150    66.0040     7.4970     6.0720     6.6700    24.7580 
  191.8750   -18.6200     2.3040    70.1430     7.5400     6.1260     6.2490    24.6730 
  192.0000   -18.5350     2.2870    70.4610     7.4970     6.1070     6.0460    24.6460 
  192.1250   -18.5380     2.2700    68.1060     7.4450     6.0630     5.9000    24.6330 
  192.2500   -18.6200     2.2600    66.6170     7.4710     6.0630     5.8270    24.5810 
  192.3750   -18.7660     2.2670    66.2110     7.6650     6.1870     6.0050    24.5360 
  192.5000   -18.9460     2.2920    67.1010     8.0100     6.4300     6.4250    24.5430 
  192.6250   -19.1440     2.3310    70.8700     8.4400     6.7480     6.8810    24.5590 
  192.7500   -19.3570     2.3740    74.8890     8.8390     7.0620     7.4410    24.5520 
  192.8750   -19.5180     2.4010    74.8110     9.0520     7.2680     7.6870    24.5720 
  193.0000   -19.6300     2.4070    71.2500     9.0640     7.3430     7.6510    24.6310 
  193.1250   -19.6700     2.3940    67.8210     8.9340     7.3150     7.1800    24.6710 
  193.2500   -19.6720     2.3740    66.2720     8.7650     7.2380     7.0830    24.7150 
  193.3750   -19.6380     2.3580    65.1800     8.6610     7.1680     7.3710    24.7550 
  193.5000   -19.5460     2.3530    65.1960     8.6320     7.1310     8.0190    24.7740 
  193.6250   -19.4180     2.3560    66.5300     8.6350     7.1170     8.3460    24.7580 
  193.7500   -19.2430     2.3610    69.0890     8.6190     7.1040     8.2910    24.7690 
  193.8750   -19.0430     2.3650    72.4170     8.5460     7.0690     7.8080    24.8060 
  194.0000   -18.8460     2.3660    74.4180     8.4370     7.0120     7.8000    24.7750 
  194.1250   -18.6760     2.3700    74.0210     8.3160     6.9400     8.0770    24.6470 
  194.2500   -18.4850     2.3760    71.4020     8.1970     6.8630     7.9410    24.4770 
  194.3750   -18.2750     2.3840    68.2470     8.0550     6.7720     7.9480    24.3920 
  194.5000   -18.0810     2.3870    66.5790     7.8690     6.6500     7.5150    24.3910 
  194.6250   -17.8960     2.3810    66.1920     7.6440     6.4940     6.8360    24.4810 
  194.7500   -17.7570     2.3680    65.2890     7.4230     6.3220     6.2720    24.6170 
  194.8750   -17.6920     2.3530    63.4130     7.2660     6.1780     6.0130    24.7350 
  195.0000   -17.6670     2.3440    63.7440     7.1910     6.0930     6.1970    24.7880 
  195.1250   -17.6330     2.3410    65.1550     7.1950     6.0820     6.5250    24.8060 
  195.2500   -17.6210     2.3450    63.7440     7.2520     6.1390     6.6720    24.8070 
  195.3750   -17.6430     2.3510    61.5420     7.3230     6.2400     6.6250    24.7920 
  195.5000   -17.7110     2.3570    63.4030     7.3730     6.3380     6.6100    24.7600 
  195.6250   -17.8340     2.3600    65.1440     7.3900     6.4060     6.7480    24.7070 
  195.7500   -17.9670     2.3620    62.6840     7.3880     6.4310     7.0040    24.6750 
  195.8750   -18.0930     2.3660    60.5410     7.3840     6.4140     7.0770    24.6940 
  196.0000   -18.1920     2.3730    61.7610     7.3870     6.3750     7.0630    24.7050 
  196.1250   -18.2950     2.3850    62.8910     7.3830     6.3200     7.2970    24.6760 
  196.2500   -18.4100     2.3970    62.1280     7.3440     6.2470     6.9240    24.6390 
  196.3750   -18.4970     2.4020    62.5570     7.2370     6.1460     6.6490    24.6610 
  196.5000   -18.5290     2.3990    64.7840     7.0860     6.0300     6.6800    24.6830 
  196.6250   -18.4780     2.3860    64.2820     6.9450     5.9270     7.2960    24.6520 
  196.7500   -18.3840     2.3680    60.1290     6.8970     5.8860     8.1420    24.5960 
  196.8750   -18.2680     2.3500    57.2070     7.0430     5.9820     7.2280    24.6100 
  197.0000   -18.1330     2.3380    56.8750     7.3610     6.2050     6.5590    24.6300 
  197.1250   -17.9760     2.3350    57.6980     7.7790     6.5200     6.7080    24.6200 
  197.2500   -17.8030     2.3440    59.0130     8.1820     6.8560     7.4070    24.5900 
  197.3750   -17.6540     2.3690    62.6970     8.4280     7.1070     7.9450    24.5510 
  197.5000   -17.5210     2.4020    66.7580     8.4900     7.2270     8.2070    24.5550 
  197.6250   -17.4020     2.4280    67.5290     8.4090     7.2180     8.0860    24.6440 
  197.7500   -17.2700     2.4380    64.7540     8.2620     7.1230     7.7660    24.6770 
  197.8750   -17.1150     2.4290    61.7830     8.1050     6.9880     7.7770    24.5090 
  198.0000   -16.9850     2.4190    61.3810     7.9450     6.8460     7.5330    24.2330 
  198.1250   -16.8690     2.4180    61.9140     7.7890     6.7090     7.0060    24.0740 
  198.2500   -16.7550     2.4240    61.9140     7.6660     6.5910     6.6080    24.0910 
  198.3750   -16.6470     2.4220    61.9140     7.6290     6.5190     6.5030    24.2100 
  198.5000   -16.5740     2.3990    61.9140     7.6880     6.5060     6.3990    24.3760 
  198.6250   -16.5890     2.3590    61.9140     7.8370     6.5670     6.3820    24.5320 
