~V
VERS. 2.00: Ver 2.00
~W
STRT.M 64.0000:
STOP.M 215.0000:
STEP.M 0.1250:
NULL. -999.2500:
UWI. F10146:
~C
DEPT.M :
DEN.GM/CC :
GR.API :
RML.OHMM :
RI. :
RXO.OHMM :
CALI.CM :
SP.MV :
~A
# ...
  199.0000     2.2410    69.9860     6.1650     5.6340     4.3810    24.5330   -12.4700 
  199.1250     2.1600    65.8090     6.0100     5.4680     4.2290    24.4640   -12.3170 
  199.2500     2.1070    63.2630     5.9180     5.3890     4.4260    24.1310   -12.1790 
  199.3750     2.0970    65.0170     5.8950     5.3870     4.7680    23.4380   -12.0360 
  199.5000     2.1310    69.0260     5.9690     5.4660     5.1690    23.0430   -11.9180 
  199.6250     2.1970    70.2080     6.2010     5.6600     5.5940    23.0380   -11.8060 
  199.7500     2.2640    68.8790     6.5820     5.9600     6.0310    23.1630   -11.6970 
  199.8750     2.3160    69.1730     7.0760     6.3460     6.5020    23.1980   -11.5600 
  200.0000     2.3460    74.9260     7.5910     6.7520     7.4380    23.2470   -11.4020 
  200.1250     2.3540    85.4540     7.9410     7.0360     8.6200    23.2980   -11.2440 
  200.2500     2.3480    91.0310     8.0260     7.1130     8.4160    23.5220   -11.0650 
  200.3750     2.3330    87.8870     7.8620     6.9840     7.1160    23.6220   -10.8950 
  200.5000     2.3170    81.3720     7.5710     6.7390     6.3930    23.5330   -10.7280 
  200.6250     2.3060    77.8010     7.3320     6.5190     6.4360    23.5190   -10.5610 
  200.7500     2.3000    77.3090     7.2440     6.4140     6.5010    23.5060   -10.4330 
  200.8750     2.2980    77.6790     7.3240     6.4400     6.3520    23.4780   -10.3200 
  201.0000     2.2980    78.0840     7.5290     6.5720     6.2170    23.4080   -10.2060 
  201.1250     2.2990    77.4050     7.7750     6.7700     6.4600    23.4180   -10.1120 
  201.2500     2.3030    75.7970     7.9510     6.9670     6.5560    23.6380   -10.0400 
  201.3750     2.3090    74.9530     7.9790     7.0990     6.6010    23.8400    -9.9770 
  201.5000     2.3160    74.0950     7.8180     7.0930     7.0000    23.8860    -9.9160 
  201.6250     2.3210    72.4590     7.4630     6.8740     7.5230    23.8800    -9.8730 
  201.7500     2.3230    70.6300     7.0210     6.5070     7.1080    23.8290    -9.8480 
  201.8750     2.3190    66.4810     6.5810     6.0810     5.9630    23.7580    -9.8640 
  202.0000     2.3110    59.4490     6.2210     5.7030     5.0990    23.7270    -9.8890 
  202.1250     2.3060    54.6680     6.0270     5.4860     4.9750    23.6590    -9.9170 
  202.2500     2.3110    54.4560     6.0030     5.4460     5.1940    23.4950    -9.9640 
  202.3750     2.3260    55.2090     6.1600     5.5840     5.5130    23.4030   -10.0200 
  202.5000     2.3420    55.0100     6.5040     5.8810     6.0260    23.4480   -10.0880 
  202.6250     2.3450    58.3710     7.0280     6.3200     6.4030    23.4970   -10.1170 
  202.7500     2.3320    64.2460     7.6190     6.8130     6.5680    23.5220   -10.0920 
  202.8750     2.3110    70.0330     8.1530     7.2760     6.9260    23.5950   -10.0260 
  203.0000     2.2980    75.7420     8.5030     7.6160     7.5120    23.5500    -9.9560 
  203.1250     2.3010    80.2730     8.5620     7.7180     8.0900    23.5230    -9.8430 
  203.2500     2.3170    80.2730     8.4330     7.6180     8.4630    23.4550    -9.6930 
  203.3750     2.3360    75.4000     8.2370     7.3950     8.3340    23.3660    -9.5150 
  203.5000     2.3520    70.7840     8.0690     7.1540     7.7450    23.6530    -9.3070 
  203.6250     2.3600    70.6630     7.9990     7.0080     7.3860    23.6530    -9.1170 
  203.7500     2.3620    73.3790     8.0420     6.9880     7.0770    23.6870    -8.9660 
  203.8750     2.3570    75.2610     8.1920     7.0940     6.7870    23.8160    -8.8390 
  204.0000     2.3430    74.6260     8.3970     7.2880     6.7800    24.1870    -8.7300 
  204.1250     2.3250    73.5360     8.5380     7.5020     7.3510    24.3580    -8.6710 
  204.2500     2.3160    73.7810     8.5270     7.6480     8.1240    24.4170    -8.6670 
  204.3750     2.3230    74.5430     8.3300     7.6580     8.8680    24.3120    -8.7140 
  204.5000     2.3440    75.1850     7.9880     7.5030     9.6080    24.2180    -8.8190 
  204.6250     2.3680    74.1500     7.5980     7.1970    10.0600    24.3270    -8.9350 
  204.7500     2.3780    71.7000     7.2840     6.8480     9.9500    24.3100    -9.0250 
  204.8750     2.3660    70.5220     7.1420     6.5400     9.0490    23.9190    -9.0960 
  205.0000     2.3370    72.6250     7.2140     6.3360     7.2580    23.6750    -9.1390 
  205.1250     2.3090    72.6250     7.4680     6.2940     6.3320    23.4360    -9.1610 
  205.2500     2.2960    72.6250     7.7620     6.3920     6.6680    23.4800    -9.1220 
  205.3750     2.3040    72.6250     8.0150     6.6040     7.5100    23.7010    -9.0420 
  205.5000     2.3260    72.6250     8.1960     6.8790     7.7130    23.5990    -8.9530 
  205.6250     2.3500    72.6250     8.3090     7.1450     7.9120    23.9300    -8.8320 
  205.7500     2.3680    72.6250     8.3860     7.3410     7.5330    24.0600    -8.7200 
  205.8750     2.3770    72.6250     8.4150     7.4450     7.0480    24.0130    -8.6260 
  206.0000     2.3790    72.6250     8.3760     7.4610     6.5850    23.6180    -8.5540 
  206.1250     2.3730    72.6250     8.3060     7.4180     6.2170    23.5960    -8.5390 
  206.2500     2.3610    72.6250     8.2780     7.3770     6.3590    23.8780    -8.5670 
  206.3750     2.3460    72.6250     8.3230     7.3710     7.1070    24.0060    -8.5960 
  206.5000     2.3300    72.6250     8.4190     7.4130     7.8820    23.9540    -8.5990 
  206.6250     2.3220    72.6250     8.5290     7.4910     7.7590    23.8100    -8.6540 
  206.7500     2.3220    72.6250     8.6100     7.5640     7.5640    23.5580    -8.6960 
  206.8750     2.3310    72.6250     8.6450     7.6100     7.7980    23.5460    -8.7060 
  207.0000     2.3460    72.6250     8.6490     7.6290     7.9260    23.7430    -8.7000 
  207.1250     2.3590    72.6250     8.6500     7.6350     7.6320    23.9700    -8.6830 
  207.2500     2.3640    72.6250     8.6700     7.6420     7.1780    24.2180    -8.6530 
  207.3750     2.3580    72.6250     8.6950     7.6470     6.8870    24.9620    -8.6190 
  207.5000     2.3480    72.6250     8.6890     7.6350     7.0480    25.8470    -8.5690 
  207.6250     2.3390    72.6250     8.6060     7.5860     7.4330    26.3840    -8.5170 
  207.7500     2.3340    72.6250     8.4500     7.5020     7.5610    26.4650    -8.5010 
  207.8750     2.3220    72.6250     8.2430     7.3880     7.4110    26.5950    -8.5080 
  208.0000     2.2960    72.6250     8.0210     7.2570     7.0510    26.8060    -8.5420 
  208.1250     2.2560    72.6250     7.8220     7.1370     6.6670    27.3650    -8.5560 
  208.2500     2.2200    72.6250     7.6680     7.0490     6.4110    27.8620    -8.5560 
  208.3750     2.2060    72.6250     7.5670     7.0060     6.2130    27.3890    -8.5640 
  208.5000     2.2170    72.6250     7.5240     7.0020     6.1440    26.4800    -8.6180 
  208.6250     2.2490    72.6250     7.5600     7.0270     6.1320    25.9980    -8.6470 
  208.7500     2.2810    72.6250     7.6480     7.0590     6.2530    25.7280    -8.6690 
  208.8750     2.3030    72.6250     7.7420     7.0840     6.6320    25.1650    -8.7000 
  209.0000     2.3180    72.6250     7.7930     7.0870     7.3500    24.6760    -8.7440 
  209.1250     2.3300    72.6250     7.7600     7.0600     7.7590    24.5120    -8.8300 
  209.2500     2.3440    72.6250     7.6780     7.0130     7.6360    24.2330    -8.9280 
  209.3750     2.3550    72.6250     7.5930     6.9610     7.0670    23.9620    -9.0450 
  209.5000     2.3590    72.6250     7.5430     6.9170     6.4010    23.8900    -9.1500 
  209.6250     2.3520    72.6250     7.5420     6.8950     6.0260    23.9010    -9.2370 
  209.7500     2.3380    72.6250     7.5570     6.8880     5.9610    23.8780    -9.2890 
  209.8750     2.3230    72.6250     7.5670     6.8890     6.1090    23.7130    -9.2980 
  210.0000     2.3120    72.6250     7.5690     6.8920     6.3800    23.3540    -9.2750 
  210.1250     2.3080    72.6250     7.5710     6.8950     6.8340    23.5530    -9.2220 
