~V
VERS. 2.00: Ver 2.00
~W
STRT.M 53.0000:
STOP.M 242.0000:
STEP.M 0.1250:
NULL. -999.2500:
UWI. F10177:
~C
DEPT.M :
SP.MV :
GR.API :
RML.OHMM :
RI. :
RXO.OHMM :
CALI.CM :
DEN.GM/CC :
~A
# ...
   64.2500   -18.6130   100.2160     5.8200     5.2340     6.1510    23.7970     2.2150 
   64.3750   -18.0170    99.0700     5.9980     5.3750     6.4180    23.6930     2.2170 
   64.5000   -17.8720    98.1060     6.0870     5.4600     6.6070    23.5630     2.2240 
   64.6250   -18.0200    98.7860     6.0650     5.4640     6.8790    23.4870     2.2340 
   64.7500   -18.2930   103.2710     5.9480     5.3910     6.7850    23.4890     2.2460 
   64.8750   -18.5880   108.1450     5.7890     5.2710     6.5470    23.5290     2.2600 
   65.0000   -18.9100   107.6040     5.6760     5.1710     6.6380    23.5930     2.2750 
   65.1250   -19.3150   103.6080     5.6730     5.1460     7.2120    23.6720     2.2890 
   65.2500   -19.8410   100.6020     5.8130     5.2350     7.1860    23.7730     2.2990 
   65.3750   -20.5480   100.1100     6.1000     5.4660     7.1270    24.0250     2.2980 
   65.5000   -21.4280    98.1180     6.4470     5.7890     7.5610    24.5690     2.2880 
   65.6250   -22.4300    93.5330     6.7650     6.1370     8.7830    25.2440     2.2720 
   65.7500   -23.4190    88.4380     6.9610     6.4210     9.6640    25.7310     2.2550 
   65.8750   -24.1380    85.2130     6.9170     6.5090     9.3650    25.5060     2.2400 
   66.0000   -24.4410    85.8760     6.6510     6.3760     8.6960    25.5570     2.2250 
   66.1250   -24.2750    91.0930     6.2150     6.0530     8.2770    25.8250     2.2140 
   66.2500   -23.6350    97.9800     5.7100     5.6300     7.4070    26.0260     2.2080 
   66.3750   -22.4920   105.2640     5.2620     5.2260     6.1540    25.8690     2.2180 
   66.5000   -21.0520   113.2830     4.9440     4.9140     5.2710    25.5490     2.2440 
   66.6250   -19.4800   122.3460     4.7730     4.7170     4.9200    25.0050     2.2810 
   66.7500   -17.9340   129.3900     4.7380     4.6280     4.8240    24.8700     2.3200 
   66.8750   -16.6060   128.1670     4.8180     4.6390     4.8340    25.1370     2.3460 
   67.0000   -15.5370   123.1580     4.9440     4.6950     4.9120    25.1370     2.3590 
   67.1250   -14.7070   120.0730     5.0630     4.7510     4.9850    25.1370     2.3620 
   67.2500   -14.1130   119.2700     5.1240     4.7620     4.9760    25.1370     2.3630 
   67.3750   -13.7470   116.8070     5.0730     4.6760     4.8580    25.1370     2.3680 
   67.5000   -13.4570   111.7090     4.9360     4.5060     4.7880    25.1370     2.3770 
   67.6250   -13.1760   107.6130     4.7800     4.2990     4.7680    25.1370     2.3840 
   67.7500   -12.9050   106.9300     4.7110     4.1500     4.7140    25.1370     2.3870 
   67.8750   -12.5980   110.9810     4.8640     4.1820     4.7040    25.1030     2.3870 
   68.0000   -12.2810   115.9960     5.2380     4.4100     5.0390    25.0030     2.3900 
   68.1250   -12.0130   115.1080     5.8130     4.8270     6.4600    25.0030     2.3990 
   68.2500   -11.8210   104.7380     6.5810     5.4190     9.6780    25.0030     2.4110 
   68.3750   -11.7340    94.3510     7.6860     6.2650    12.3810    25.0030     2.4200 
   68.5000   -11.7690    92.0980     9.2840     7.4490    10.9920    25.0030     2.4320 
   68.6250   -11.9110    90.9960    11.5380     9.1170    10.3400    25.0030     2.4610 
   68.7500   -12.1540    82.8420    14.3730    11.3450    15.8720    25.0030     2.5120 
   68.8750   -12.6500    70.6600    17.1190    13.8620    33.8540    25.0030     2.5660 
   69.0000   -13.4240    65.3670    18.7210    15.6940    47.1490    25.0030     2.5820 
   69.1250   -14.4430    67.2470    18.5200    15.9580    38.4430    25.0030     2.5360 
   69.2500   -15.6350    70.7310    16.6730    14.6370    22.2300    25.0030     2.4320 
   69.3750   -16.8850    70.5690    14.1460    12.6560    14.2320    25.1370     2.3080 
   69.5000   -18.1000    67.4170    12.1270    11.0320    12.0070    25.5370     2.2150 
   69.6250   -19.3150    66.4400    11.0160    10.0470    11.9140    25.0460     2.1700 
   69.7500   -20.5520    68.6500    10.7210     9.6660    12.2830    24.5730     2.1630 
   69.8750   -21.6870    69.6570    10.9520     9.7510    12.5640    24.3110     2.1730 
   70.0000   -22.6060    70.6620    11.2890     9.9900    13.2160    24.2690     2.1790 
   70.1250   -23.2610    74.0430    11.5550    10.2120    14.0730    24.2580     2.1760 
   70.2500   -23.6810    79.1470    11.6860    10.3310    14.2330    24.2110     2.1760 
   70.3750   -23.9890    80.6520    11.6910    10.3250    13.4110    24.0690     2.1830 
   70.5000   -24.3470    76.9880    11.6410    10.2530    12.8910    23.9390     2.1920 
   70.6250   -24.7390    71.2170    11.5710    10.1510    13.2420    23.8770     2.1990 
   70.7500   -25.0720    67.8210    11.4840    10.0310    13.9630    23.8940     2.2020 
   70.8750   -25.2870    68.6560    11.3540     9.8680    13.7890    23.9150     2.2030 
   71.0000   -25.4410    70.1560    11.1740     9.6530    12.9320    23.8910     2.2120 
   71.1250   -25.5990    70.5700    10.9630     9.3990    12.2020    23.8750     2.2330 
   71.2500   -25.8420    71.5790    10.7730     9.1540    11.8310    23.9190     2.2620 
   71.3750   -26.2370    73.6000    10.6770     8.9930    11.7650    24.1250     2.2790 
   71.5000   -26.7370    73.6910    10.6770     8.9320    12.0910    24.6120     2.2680 
   71.6250   -27.2860    72.2250    10.7340     8.9460    12.9100    25.2790     2.2200 
   71.7500   -27.8410    68.7240    10.7850     8.9810    13.5490    25.5790     2.1430 
   71.8750   -28.3930    64.1040    10.7610     8.9800    13.5080    26.1550     2.0590 
   72.0000   -28.9870    61.1540    10.6650     8.9350    13.4020    27.0920     2.0010 
   72.1250   -29.6250    61.2130    10.5260     8.8640    13.2370    27.8540     1.9860 
   72.2500   -30.2240    63.8140    10.3800     8.7930    13.0960    27.7600     2.0160 
   72.3750   -30.6470    66.0480    10.2490     8.7440    13.3030    27.0830     2.0730 
   72.5000   -30.8740    67.0810    10.1350     8.7120    13.2320    26.5940     2.1260 
   72.6250   -30.9740    67.8170    10.0390     8.6930    12.9290    26.5900     2.1600 
   72.7500   -31.0410    67.8930     9.9700     8.6850    12.8080    26.8960     2.1710 
   72.8750   -31.0800    66.9020     9.9570     8.6970    12.6740    27.3240     2.1630 
   73.0000   -30.9720    64.3820     9.9920     8.7220    12.6200    27.6540     2.1420 
   73.1250   -30.6100    62.8500    10.0380     8.7380    12.6400    27.6810     2.1130 
   73.2500   -29.9500    63.7800    10.0200     8.6910    12.5830    27.3190     2.0820 
   73.3750   -28.9300    66.1590     9.8220     8.4820    12.1580    26.7970     2.0690 
   73.5000   -27.5530    70.3130     9.4270     8.0990    11.7670    26.4080     2.0890 
   73.6250   -25.8000    77.6550     8.8770     7.5720    11.0550    26.0400     2.1410 
   73.7500   -23.7390    88.1850     8.2730     6.9870     9.4780    25.7390     2.2090 
   73.8750   -21.5790    98.7680     7.7770     6.4820     7.8980    24.8640     2.2630 
   74.0000   -19.5830   103.9370     7.4980     6.1510     7.2970    24.4420     2.2840 
   74.1250   -17.8850   102.4850     7.4910     6.0450     7.2990    24.3880     2.2760 
   74.2500   -16.5620    95.0780     7.7630     6.1790     7.5570    24.4900     2.2490 
   74.3750   -15.7640    84.2970     8.2880     6.5630     8.2540    24.4910     2.2230 
   74.5000   -15.4680    77.3120     8.9130     7.0920     9.4680    24.2790     2.2060 
   74.6250   -15.6630    75.2650     9.5130     7.6680    11.0620    23.9210     2.1950 
   74.7500   -16.2550    75.0310     9.9830     8.1940    13.7390    23.5910     2.1900 
   74.8750   -17.1160    72.7370    10.2580     8.5810    16.0590    23.5640     2.1910 
   75.0000   -17.9960    69.7310    10.4020     8.8420    14.8380    23.6860     2.1970 
   75.1250   -18.7480    71.8610    10.4640     9.0100    12.7590    23.7950     2.2030 
   75.2500   -19.2990    78.4200    10.4520     9.0920    11.5790    24.1030     2.1990 
   75.3750   -19.5290    84.7440    10.2740     9.0180    11.5500    24.8390     2.1760 
