~V
VERS. 2.00: Ver 2.00
~W
STRT.M 50.0000:
STOP.M 232.0000:
STEP.M 0.1250:
NULL. -999.2500:
UWI. F10160:
~C
DEPT.M :
SP.MV :
DEN.GM/CC :
GR.API :
RML.OHMM :
RI. :
RXO.OHMM :
CALI.CM :
~A
# ...
  140.0000   -20.1440     2.5850    41.9990    21.2250    17.1760    20.6940    26.1860 
  140.1250   -20.0180     2.5870    44.5580    20.9520    16.9590    19.2830    26.1580 
  140.2500   -19.8980     2.5930    48.3010    20.7030    16.7570    18.6890    26.1330 
  140.3750   -19.7860     2.5980    48.7470    20.5080    16.5930    18.7590    26.1180 
  140.5000   -19.6790     2.5990    46.7880    20.3550    16.4580    18.8610    26.1110 
  140.6250   -19.5760     2.5960    47.1830    20.2510    16.3520    19.0430    26.1120 
  140.7500   -19.4840     2.5950    49.9010    20.2060    16.2830    19.6090    26.1140 
  140.8750   -19.4190     2.5950    52.0780    20.2170    16.2560    20.3090    26.1150 
  141.0000   -19.3870     2.5940    53.3840    20.2440    16.2480    19.9680    26.1130 
  141.1250   -19.4180     2.5870    54.7450    20.1950    16.2050    19.6790    26.1090 
  141.2500   -19.4930     2.5730    55.6440    19.9780    16.0610    19.9760    26.1120 
  141.3750   -19.5870     2.5570    54.1320    19.5250    15.7630    19.3420    26.1200 
  141.5000   -19.6820     2.5440    49.8380    18.8550    15.3100    17.3260    26.1250 
  141.6250   -19.7670     2.5390    48.7850    18.0990    14.7750    16.3410    26.1200 
  141.7500   -19.8400     2.5430    53.1240    17.4520    14.2860    15.9570    26.1120 
  141.8750   -19.8920     2.5530    57.8120    17.0470    13.9330    15.4300    26.1050 
  142.0000   -19.9250     2.5630    57.2410    16.9540    13.7700    14.8810    26.0900 
  142.1250   -19.9380     2.5660    53.5340    17.1610    13.8110    15.6190    26.0730 
  142.2500   -19.9420     2.5610    52.9230    17.4680    13.9340    16.5970    26.0630 
  142.3750   -19.9470     2.5540    54.0990    17.7140    14.0390    16.7170    26.0590 
  142.5000   -19.9580     2.5540    54.0460    17.7930    14.0480    16.3220    26.0580 
  142.6250   -19.9540     2.5660    52.5690    17.6510    13.9160    15.8900    26.0580 
  142.7500   -19.9450     2.5830    51.8970    17.3890    13.6960    15.1720    26.0580 
  142.8750   -19.9460     2.5940    52.9700    17.1020    13.4480    14.6070    26.0560 
  143.0000   -19.9550     2.5920    54.1080    16.8620    13.2200    15.1370    26.0570 
  143.1250   -19.9690     2.5760    55.0440    16.7130    13.0460    15.9630    26.0600 
  143.2500   -19.9710     2.5580    56.3030    16.6370    12.9260    16.0740    26.0490 
  143.3750   -19.9570     2.5480    57.0730    16.6270    12.8580    14.7510    26.0120 
  143.5000   -19.9310     2.5470    57.9290    16.6790    12.8390    13.9890    25.9550 
  143.6250   -19.8900     2.5550    59.2210    16.8010    12.8730    13.9770    25.9030 
  143.7500   -19.8280     2.5670    60.2910    16.9630    12.9430    14.4820    25.8680 
  143.8750   -19.7450     2.5820    59.3570    17.1080    13.0210    15.0830    25.8430 
  144.0000   -19.6480     2.5970    55.7950    17.1740    13.0740    15.0540    25.8210 
  144.1250   -19.5580     2.6070    51.7700    17.0910    13.0550    15.1370    25.8070 
  144.2500   -19.4870     2.6120    51.0160    16.8910    12.9660    14.7500    25.8060 
  144.3750   -19.4510     2.6110    54.2070    16.6250    12.8260    13.9120    25.8100 
  144.5000   -19.4570     2.6090    57.6890    16.3370    12.6600    13.5710    25.8120 
  144.6250   -19.5080     2.6090    55.5110    16.0280    12.4710    13.4290    25.8130 
  144.7500   -19.5870     2.6100    50.0000    15.6850    12.2500    13.5130    25.8480 
  144.8750   -19.6710     2.6110    44.4550    15.2990    11.9890    13.2210    25.9330 
  145.0000   -19.7600     2.6110    42.1000    14.8710    11.6830    12.6340    26.0310 
  145.1250   -19.8490     2.6080    45.3350    14.3950    11.3250    11.7490    26.0850 
  145.2500   -19.9370     2.6020    50.1250    13.8950    10.9330    10.9980    26.0980 
  145.3750   -20.0300     2.5940    52.0560    13.3850    10.5210    10.7570    26.0990 
  145.5000   -20.1300     2.5890    50.9750    12.8670    10.0950    10.4550    26.1000 
  145.6250   -20.2380     2.5940    51.8690    12.3330     9.6550     9.5460    26.0990 
  145.7500   -20.3550     2.6060    53.8200    11.8010     9.2200     8.9880    26.1020 
  145.8750   -20.4710     2.6110    53.9240    11.3260     8.8300     8.8710    26.1080 
  146.0000   -20.5790     2.5950    52.7300    11.0070     8.5500     8.7590    26.1110 
  146.1250   -20.6660     2.5480    53.2700    11.0730     8.5260     8.4470    26.1000 
  146.2500   -20.7640     2.4850    55.8980    11.6500     8.8410     8.1290    26.0650 
  146.3750   -20.8740     2.4230    59.6830    12.8400     9.5800     9.0430    26.0270 
  146.5000   -20.9920     2.3700    62.5930    14.6310    10.7680    11.9260    26.0700 
  146.6250   -21.0970     2.3360    61.1660    16.8550    12.3590    17.4960    26.2960 
  146.7500   -21.1580     2.3130    56.1880    19.0210    14.0350    22.0180    26.5780 
  146.8750   -21.1600     2.2980    52.6880    20.6790    15.4770    22.6030    26.7240 
  147.0000   -21.0960     2.2920    54.5700    21.4480    16.3730    20.1890    26.6430 
  147.1250   -20.9520     2.2950    61.2640    20.8710    16.3330    17.6190    26.4070 
  147.2500   -20.7640     2.3040    66.8060    19.1230    15.4030    18.8760    26.1130 
  147.3750   -20.5680     2.3170    67.8240    16.4670    13.7250    23.9970    25.7240 
  147.5000   -20.3930     2.3290    67.3840    13.4020    11.6330    23.7490    25.2640 
  147.6250   -20.2590     2.3390    68.4980    10.5950     9.5810    12.9770    24.8960 
  147.7500   -20.1720     2.3460    68.4660     8.4160     7.8860     7.6720    24.6850 
  147.8750   -20.1440     2.3510    66.3780     6.9500     6.6590     6.3180    24.5650 
  148.0000   -20.1720     2.3580    66.0330     6.1370     5.9100     5.9750    24.4860 
  148.1250   -20.2620     2.3660    70.4630     5.9360     5.6660     5.9080    24.4550 
  148.2500   -20.3920     2.3720    74.6070     6.1360     5.7840     5.5890    24.4540 
  148.3750   -20.5460     2.3740    75.3200     6.6390     6.1880     5.6070    24.4550 
  148.5000   -20.7150     2.3710    74.0250     7.3360     6.7860     6.6250    24.4540 
  148.6250   -20.8800     2.3630    73.9310     8.0500     7.4380     8.7620    24.4530 
  148.7500   -21.0150     2.3560    75.3940     8.9520     7.9350     9.8990    24.4540 
  148.8750   -21.1140     2.3530    76.1530     9.5170     8.1020    10.3470    24.4560 
  149.0000   -21.1920     2.3560    75.8380     9.2330     7.8550    10.4950    24.4560 
  149.1250   -21.2580     2.3640    76.4540     8.5160     7.2310    10.4120    24.4540 
  149.2500   -21.3130     2.3750    78.5840     7.6980     6.5200    10.2590    24.4550 
  149.3750   -21.3540     2.3860    80.3080     7.0390     5.9470    10.0800    24.4670 
  149.5000   -21.3900     2.3950    79.9220     6.7360     5.6830     9.5240    24.4940 
  149.6250   -21.4260     2.3980    77.6270     7.0070     5.9190     9.3860    24.5290 
  149.7500   -21.4760     2.3940    77.4290     7.8600     6.6610     9.6670    24.6240 
  149.8750   -21.5370     2.3820    79.7130     9.3450     7.9520    10.0140    24.8410 
  150.0000   -21.6060     2.3620    79.3450    11.4800     9.8090    10.4420    25.2130 
  150.1250   -21.6900     2.3380    72.8880    14.3510    12.3050    11.1670    25.7480 
  150.2500   -21.7750     2.3170    67.1080    17.8840    15.3780    12.1530    26.3610 
  150.3750   -21.8600     2.3010    64.3320    22.3260    19.2400    13.2530    26.9650 
  150.5000   -21.9390     2.2880    63.0070    28.1300    24.2870    15.1920    27.5050 
  150.6250   -22.0150     2.2740    61.3300    36.0090    31.1380    18.3040    27.9830 
  150.7500   -22.0740     2.2570    60.0460    45.3650    39.2740    22.1130    28.4000 
  150.8750   -22.1240     2.2370    58.9600    54.8380    47.5110    26.2820    28.7150 
  151.0000   -22.1740     2.2160    57.6960    62.3650    54.0570    30.7660    28.9420 
  151.1250   -22.2240     2.1980    56.9520    65.9700    57.1910    35.7830    29.1410 
