~V
VERS. 2.00: Ver 2.00
~W
STRT.M 50.0000:
STOP.M 294.0000:
STEP.M 0.1250:
NULL. -999.2500:
UWI. F10104:
~C
DEPT.M :
GR.API :
RML.OHMM :
RI. :
RXO.OHMM :
CALI.CM :
DEN.GM/CC :
SP.MV :
~A
# ...
  218.7500    72.3860    58.4290    55.9780    55.0140    24.0540     2.1940   -25.0730 
  218.8750    73.2410    56.2850    53.8020    55.2660    24.0360     2.2000   -25.0040 
  219.0000    73.5470    54.3890    51.9380    57.1150    24.0700     2.2060   -24.9430 
  219.1250    73.4290    52.6710    50.2580    61.9960    24.0980     2.2090   -24.8660 
  219.2500    74.1470    50.4940    48.1380    62.4190    24.1780     2.2120   -24.7790 
  219.3750    74.2220    47.2880    45.0490    58.5830    24.3160     2.2200   -24.7060 
  219.5000    73.4650    43.0350    40.9900    51.3240    24.3910     2.2320   -24.6090 
  219.6250    74.2660    38.4860    36.6610    43.8580    24.3800     2.2420   -24.5170 
  219.7500    76.1460    34.6830    33.0340    37.1980    24.3330     2.2450   -24.3940 
  219.8750    76.7370    32.1640    30.6150    34.5250    24.1880     2.2420   -24.2430 
  220.0000    75.9000    31.0240    29.4840    35.3940    24.0200     2.2370   -24.0250 
  220.1250    77.3180    31.1100    29.4670    38.3510    23.9490     2.2320   -23.7440 
  220.2500    80.9420    31.6970    29.8450    37.7350    23.9720     2.2270   -23.3790 
  220.3750    82.5890    32.2570    30.1120    36.4860    24.0180     2.2250   -22.9150 
  220.5000    80.5120    32.3350    29.8680    36.2360    24.0130     2.2290   -22.3370 
  220.6250    77.1930    31.4760    28.7290    36.9460    24.0000     2.2420   -21.6490 
  220.7500    75.3830    29.6700    26.7470    38.6560    24.0870     2.2650   -20.8760 
  220.8750    73.7230    26.8560    23.9400    40.2010    24.2930     2.2990   -20.0430 
  221.0000    73.1940    23.1100    20.4250    36.2690    24.5900     2.3410   -19.1830 
  221.1250    78.8570    18.8900    16.6450    24.0860    24.5320     2.3730   -18.3400 
  221.2500    88.3420    15.1090    13.3770    15.6010    24.4130     2.3860   -17.5790 
  221.3750    99.1310    12.3210    11.1220    12.5680    24.3200     2.3880   -16.9460 
  221.5000   108.3180    10.6920    10.0110    12.1910    24.3720     2.3890   -16.5180 
  221.6250   112.3320    10.2410     9.9730    12.6030    24.4110     2.3900   -16.3190 
  221.7500   111.8800    10.5030    10.4860    12.5420    24.4280     2.3860   -16.3540 
  221.8750   109.7030    11.2200    11.1800    12.6920    24.3430     2.3760   -16.6050 
  222.0000   107.8720    11.9820    11.9570    13.0570    24.1610     2.3680   -17.0750 
  222.1250   105.1360    12.7310    12.7420    13.7890    23.9330     2.3660   -17.7200 
  222.2500   101.6310    13.6570    13.6130    14.8520    23.8520     2.3690   -18.4340 
  222.3750    97.6360    14.8810    14.6960    16.2160    23.8440     2.3700   -19.1670 
  222.5000    93.3920    16.3780    16.0280    18.2000    24.0220     2.3620   -19.8730 
  222.6250    89.2770    17.9420    17.5000    21.3030    24.1350     2.3420   -20.4870 
  222.7500    85.8470    19.1950    18.7820    24.2480    23.9090     2.3190   -21.0030 
  222.8750    84.4710    19.7900    19.5160    24.4530    23.5570     2.3010   -21.4140 
  223.0000    85.4380    19.5950    19.4930    22.5530    23.6260     2.2960   -21.7120 
  223.1250    85.3530    18.8230    18.8020    22.2020    24.0620     2.3080   -21.9220 
  223.2500    82.4220    18.0600    17.9930    22.4110    24.1510     2.3290   -22.0970 
  223.3750    80.2290    17.6620    17.4100    21.7400    24.0260     2.3450   -22.2730 
  223.5000    82.6830    17.8130    17.2590    20.8480    23.9640     2.3510   -22.4280 
  223.6250    87.2640    18.6340    17.7360    20.8250    24.0530     2.3420   -22.5960 
  223.7500    87.8380    19.9180    18.7370    23.1250    24.1400     2.3260   -22.7340 
  223.8750    83.7820    21.4070    20.0740    27.0510    24.1320     2.3080   -22.8490 
  224.0000    78.8230    22.6470    21.3450    29.8520    24.0240     2.2950   -22.9120 
  224.1250    78.9640    22.9770    21.8940    28.8550    23.8350     2.2900   -22.9170 
  224.2500    82.9140    22.4270    21.6140    26.6170    23.5090     2.2920   -22.8610 
  224.3750    87.2420    21.4030    20.8130    24.6720    23.3030     2.2990   -22.7410 
  224.5000    88.2870    20.4400    19.9630    24.3240    23.2360     2.3060   -22.5850 
  224.6250    85.3450    19.9070    19.4030    23.6010    23.1550     2.3090   -22.3960 
  224.7500    83.4350    19.6580    19.0630    23.0440    23.0090     2.3070   -22.2230 
  224.8750    83.9490    19.4430    18.7720    23.2690    22.9290     2.3040   -22.0350 
  225.0000    85.0700    19.0410    18.3510    25.3860    22.9230     2.3030   -21.8730 
  225.1250    85.2440    18.3340    17.6630    24.9720    22.9060     2.3030   -21.7540 
  225.2500    85.8060    17.4690    16.8080    22.2410    22.8970     2.3030   -21.7360 
  225.3750    86.8280    16.6830    15.9900    19.1220    22.9050     2.3040   -21.8510 
  225.5000    86.9010    16.3430    15.5110    15.4340    22.9210     2.3110   -22.1250 
  225.6250    85.2980    17.0460    15.8740    13.9680    22.9390     2.3180   -22.5510 
  225.7500    82.7530    18.8260    17.2070    16.4640    22.9120     2.3130   -23.0840 
  225.8750    79.5310    21.3440    19.3690    24.3200    22.8950     2.2920   -23.7180 
  226.0000    78.0030    23.6850    21.6770    31.1600    22.8920     2.2660   -24.4280 
  226.1250    79.7750    24.3590    22.7490    29.2410    22.8920     2.2520   -25.1700 
  226.2500    81.6900    23.3180    22.2510    26.2600    22.8920     2.2480   -25.8880 
  226.3750    81.2810    21.4800    20.8430    25.2920    22.8920     2.2480   -26.5410 
  226.5000    79.5940    19.9030    19.4530    24.6030    22.8920     2.2460   -27.0850 
  226.6250    78.1270    19.2100    18.6940    23.5050    22.8920     2.2430   -27.4990 
  226.7500    77.0700    19.1670    18.4640    22.6940    22.8920     2.2420   -27.8210 
  226.8750    76.4760    19.5500    18.6010    22.6270    22.8920     2.2420   -28.0930 
  227.0000    77.0800    20.2150    19.0040    23.1350    22.8920     2.2410   -28.3010 
  227.1250    76.6930    21.0330    19.6290    25.0350    22.8920     2.2350   -28.4840 
  227.2500    75.5470    21.7280    20.2660    27.2850    22.8920     2.2270   -28.6230 
  227.3750    75.4450    22.0590    20.6610    28.0870    22.8920     2.2200   -28.7260 
  227.5000    75.7660    21.9030    20.6230    27.4340    22.8920     2.2210   -28.7800 
  227.6250    74.0130    21.2990    20.0990    27.0520    22.8950     2.2300   -28.8150 
  227.7500    71.4930    20.5190    19.3510    26.8020    22.9230     2.2370   -28.8320 
  227.8750    71.7430    19.7050    18.5400    25.5420    22.9960     2.2380   -28.8180 
  228.0000    73.8130    18.9400    17.7610    23.9570    23.0740     2.2340   -28.7940 
  228.1250    74.2820    18.2830    17.0750    23.1120    23.0240     2.2330   -28.7650 
  228.2500    74.6230    17.7730    16.5030    22.6150    22.9430     2.2400   -28.7640 
  228.3750    77.3320    17.4640    16.0730    21.8880    22.9000     2.2520   -28.7910 
  228.5000    81.9430    17.3690    15.7980    21.0330    22.8920     2.2630   -28.8510 
  228.6250    82.6790    17.4870    15.6940    20.9880    22.8920     2.2690   -28.9550 
  228.7500    80.5370    17.7140    15.7190    21.6970    22.8920     2.2730   -29.1020 
  228.8750    78.3790    17.9930    15.8590    22.6100    22.8920     2.2750   -29.2950 
  229.0000    77.4020    18.3090    16.0960    22.1350    22.8920     2.2710   -29.5550 
  229.1250    77.2360    18.7010    16.4090    21.6370    22.8920     2.2630   -29.8360 
  229.2500    77.8370    19.2390    16.7930    21.5480    22.8920     2.2590   -30.1200 
  229.3750    78.0110    19.9820    17.2990    22.3490    22.8920     2.2610   -30.3860 
  229.5000    75.1540    20.8950    17.9610    24.8690    22.8920     2.2670   -30.6610 
  229.6250    68.6930    21.6830    18.6590    28.4390    22.8920     2.2720   -30.9030 
  229.7500    62.6320    21.9110    19.0650    29.6590    22.8920     2.2690   -31.1170 
  229.8750    61.2130    21.3040    18.8810    27.7130    22.8920     2.2550   -31.3040 
