~V
VERS. 2.00: Ver 2.00
~W
STRT.M 54.0000:
STOP.M 236.0000:
STEP.M 0.1250:
NULL. -999.2500:
UWI. F10195:
~C
DEPT.M :
GR.API :
RML.OHMM :
RI. :
RXO.OHMM :
CALI.CM :
SP.MV :
DEN.GM/CC :
~A
# ...
   65.2500    60.8980     7.9040     9.2600    10.3260    30.8310   -31.7690     2.1240 
   65.3750    62.0540     7.0210     7.9630     9.4780    31.6610   -32.6950     2.0660 
   65.5000    68.3920     6.6380     7.1840     8.1050    31.0530   -33.4340     2.0680 
   65.6250    74.9580     6.6250     6.8440     7.2830    29.6910   -34.0350     2.1180 
   65.7500    75.1930     6.9430     6.8960     7.9770    29.1980   -34.5480     2.1830 
   65.8750    69.3720     7.4540     7.1700     9.6650    29.7390   -35.0330     2.2180 
   66.0000    63.5000     8.0510     7.5600    10.7720    30.7330   -35.5320     2.2100 
   66.1250    62.9760     8.5990     7.9520    10.3410    31.6510   -36.0730     2.1650 
   66.2500    63.2570     8.9340     8.2280     8.7420    32.1420   -36.6650     2.0920 
   66.3750    62.1250     9.0550     8.3680     7.1800    31.6950   -37.2670     2.0270 
   66.5000    63.0630     9.0090     8.4010     7.0820    30.3690   -37.8170     1.9980 
   66.6250    67.2690     8.8510     8.3640     8.4170    29.2820   -38.2770     2.0090 
   66.7500    70.2480     8.6350     8.2580     9.5240    28.5620   -38.5850     2.0440 
   66.8750    69.6650     8.4100     8.0800    10.1070    27.9370   -38.7920     2.0870 
   67.0000    68.2700     8.2110     7.8430    10.3060    27.6170   -38.9450     2.1350 
   67.1250    67.9230     8.0670     7.5910    10.1410    27.7080   -39.0760     2.1760 
   67.2500    69.3300     8.0090     7.3970     9.8150    27.9380   -39.2170     2.1970 
   67.3750    70.2350     8.0130     7.2880     9.5770    28.0230   -39.3850     2.2070 
   67.5000    69.8570     8.0450     7.2510     9.3460    27.9450   -39.6120     2.2170 
   67.6250    69.9690     8.0530     7.2440     9.2450    27.9080   -39.9250     2.2300 
   67.7500    71.5740     7.9760     7.2010     9.3410    28.0710   -40.3640     2.2350 
   67.8750    73.3390     7.8360     7.1090     8.8460    28.1910   -40.9230     2.2340 
   68.0000    74.6190     7.7230     7.0070     8.1340    28.0750   -41.6090     2.2340 
   68.1250    74.1870     7.7520     6.9780     7.8220    27.9870   -42.4090     2.2300 
   68.2500    68.6660     8.0580     7.1400     8.6000    28.0700   -43.2760     2.2020 
   68.3750    60.1350     8.6030     7.4980     8.9130    28.1450   -44.1570     2.1440 
   68.5000    54.8760     9.2820     8.0010     9.5500    28.3740   -45.0120     2.0610 
   68.6250    54.9470     9.8990     8.5270    13.0080    29.3600   -45.7960     1.9550 
   68.7500    54.8550    10.1670     8.8680    23.3350    31.8650   -46.4540     1.8530 
   68.8750    53.0870    10.0440     8.9260    27.6190    34.1310   -46.9740     1.7900 
   69.0000    53.9810     9.6440     8.7190    17.9320    34.4050   -47.3300     1.7770 
   69.1250    57.5840     9.1730     8.3600    11.8110    32.9400   -47.5170     1.8060 
   69.2500    61.0740     8.8440     8.0110    10.8560    30.6950   -47.5450     1.8730 
   69.3750    63.3690     8.7200     7.7850    11.1400    28.6650   -47.4720     1.9590 
   69.5000    63.3700     8.7920     7.7100    11.6260    27.5270   -47.3300     2.0440 
   69.6250    60.2220     8.9940     7.7620    11.9830    27.1030   -47.1450     2.1010 
   69.7500    56.9220     9.2340     7.9030    12.3900    26.9050   -46.9030     2.1270 
   69.8750    57.3880     9.4380     8.0810    12.0700    26.7550   -46.5710     2.1440 
   70.0000    59.4540     9.6030     8.2810    11.4170    26.7050   -46.1170     2.1570 
   70.1250    60.1980     9.7650     8.4960    12.1660    26.7480   -45.5030     2.1580 
   70.2500    59.3130     9.9570     8.7240    12.9560    26.8610   -44.6630     2.1400 
   70.3750    57.8230    10.1340     8.9350    13.2700    26.9730   -43.5810     2.1150 
   70.5000    57.0880    10.1970     9.0660    13.1220    27.0310   -42.2420     2.0940 
   70.6250    59.2410    10.0330     9.0180    12.9600    26.9700   -40.6390     2.0810 
   70.7500    65.6850     9.5250     8.6560    12.4290    26.5800   -38.7940     2.0830 
   70.8750    74.3060     8.7750     8.0250    10.8810    25.8550   -36.8520     2.1090 
   71.0000    82.3320     7.9280     7.2420     8.3750    25.0400   -34.9180     2.1630 
   71.1250    88.5010     7.1520     6.4700     6.2560    24.3250   -33.0830     2.2300 
   71.2500    93.1600     6.6300     5.8870     5.3320    23.9100   -31.4800     2.2830 
   71.3750    96.0160     6.3840     5.5350     4.9260    23.7520   -30.1590     2.3160 
   71.5000    97.3080     6.3910     5.4050     4.7710    23.7190   -29.1350     2.3340 
   71.6250    97.3080     6.5690     5.4370     4.7970    23.6920   -28.4260     2.3430 
   71.7500    96.5240     6.7690     5.5150     5.0020    23.5810   -28.0820     2.3470 
   71.8750    97.2230     6.8130     5.5030     5.1110    23.4180   -27.9980     2.3550 
   72.0000    99.6900     6.6160     5.3340     5.1420    23.2210   -28.1430     2.3700 
   72.1250   103.0460     6.2580     5.0580     5.0900    22.9610   -28.5110     2.3860 
   72.2500   103.3090     6.1090     4.8890     4.9680    22.6180   -29.0990     2.3990 
   72.3750   100.7400     6.5610     5.0600     4.9040    22.3200   -29.8750     2.4110 
   72.5000    96.8800     7.8730     5.7480     5.3060    22.1100   -30.8670     2.4280 
   72.6250    91.0750    10.0820     7.0630     7.0420    21.9940   -32.0880     2.4520 
   72.7500    82.0180    12.8290     8.9880    12.7930    22.0480   -33.5280     2.4850 
   72.8750    71.3470    14.9920    10.8240    20.3340    22.4400   -35.1330     2.5070 
   73.0000    63.8620    15.4960    11.6660    19.1080    23.3490   -36.8390     2.4790 
   73.1250    62.7780    14.0760    11.0860    12.5940    24.7040   -38.5570     2.3770 
   73.2500    65.5640    11.6700     9.5840    10.3510    26.0310   -40.2070     2.2460 
   73.3750    65.7950     9.6570     8.1480     9.7130    26.9410   -41.7160     2.1530 
   73.5000    61.4660     8.4570     7.1250     9.4040    27.4980   -43.0370     2.1100 
   73.6250    57.1890     7.9940     6.5590     9.1670    27.9710   -44.1300     2.1010 
   73.7500    58.2300     8.0220     6.3910     9.0770    28.4320   -44.9420     2.1000 
   73.8750    61.2580     8.1830     6.4050     9.0990    28.8740   -45.5060     2.0980 
   74.0000    63.2220     8.3220     6.4790     9.2630    29.1990   -45.8690     2.1010 
   74.1250    64.0610     8.3700     6.5350     9.3760    29.3650   -46.0770     2.1160 
   74.2500    64.7290     8.3080     6.5250     9.3630    29.4250   -46.1590     2.1360 
   74.3750    64.1480     8.1880     6.4610     9.2140    29.5490   -46.1930     2.1510 
   74.5000    62.3540     8.0640     6.3600     9.2060    29.8450   -46.1990     2.1580 
   74.6250    61.3290     7.9870     6.2520     9.2700    30.2850   -46.2050     2.1600 
   74.7500    59.8540     8.0120     6.1810     9.4580    30.7900   -46.2340     2.1540 
   74.8750    58.3880     8.1340     6.1700     9.6800    31.0420   -46.3030     2.1430 
   75.0000    57.6900     8.3240     6.2260    10.0790    31.0400   -46.4080     2.1280 
   75.1250    57.3750     8.5340     6.3320    10.7740    30.9920   -46.5530     2.1090 
   75.2500    57.1800     8.6920     6.4450    11.5550    31.5430   -46.7360     2.0820 
   75.3750    57.1250     8.7490     6.5070    11.5090    32.6740   -46.9220     2.0430 
   75.5000    58.0290     8.6800     6.4780    10.7420    33.6230   -47.1270     1.9950 
   75.6250    59.8600     8.4950     6.3510     9.7740    33.8690   -47.3400     1.9460 
   75.7500    61.2390     8.2450     6.1600     8.8790    33.0370   -47.5570     1.8990 
   75.8750    62.0240     8.0260     5.9830     8.0810    31.2560   -47.7920     1.8700 
   76.0000    63.1190     7.9050     5.8740     8.3990    29.3570   -48.0590     1.8860 
   76.1250    66.6970     7.9160     5.8520     9.5390    28.3770   -48.3480     1.9540 
   76.2500    69.7660     8.0690     5.9170    11.1290    28.1400   -48.6210     2.0450 
   76.3750    67.8340     8.3010     6.0360    12.0970    27.9300   -48.8750     2.1140 
