~V
VERS. 2.00: Ver 2.00
~W
STRT.M 58.0000:
STOP.M 213.0000:
STEP.M 0.1250:
NULL. -999.2500:
UWI. F10138:
~C
DEPT.M :
GR.API :
RML.OHMM :
RI. :
RXO.OHMM :
CALI.CM :
DEN.GM/CC :
SP.MV :
~A
# ...
  136.7500    47.8230    15.6980    13.8630    12.8530    26.6020     2.4790   -11.1190 
  136.8750    47.4360    15.6920    13.7000    12.2690    26.5840     2.4780   -10.9780 
  137.0000    48.3290    16.0560    13.8580    12.5070    26.5720     2.4840   -10.8280 
  137.1250    50.0100    16.6990    14.2890    13.5270    26.4570     2.4930   -10.7390 
  137.2500    49.9850    17.4050    14.8260    14.1910    26.2750     2.5020   -10.7260 
  137.3750    48.1710    18.0150    15.3350    14.6120    26.1170     2.5060   -10.7400 
  137.5000    46.9570    18.4120    15.6900    14.8370    26.1580     2.5060   -10.7400 
  137.6250    49.3890    18.5490    15.8040    14.6150    26.0100     2.5040   -10.7390 
  137.7500    54.5020    18.5830    15.7860    14.4300    25.9090     2.5050   -10.7690 
  137.8750    57.7950    18.6890    15.7790    14.5670    25.8690     2.5080   -10.8220 
  138.0000    55.5540    19.0210    15.9110    14.7880    25.9210     2.5120   -10.8290 
  138.1250    50.9440    19.7330    16.3090    14.7860    25.9450     2.5120   -10.7700 
  138.2500    48.8960    20.7480    16.9500    15.4100    26.0780     2.5090   -10.7200 
  138.3750    50.6180    21.9230    17.7570    16.6510    26.2040     2.5030   -10.7120 
  138.5000    52.9790    23.0500    18.5960    17.9080    26.1940     2.4950   -10.7280 
  138.6250    52.0020    23.8800    19.2920    19.3460    26.1390     2.4860   -10.7290 
  138.7500    49.0930    24.3560    19.7640    21.0370    26.1400     2.4780   -10.7240 
  138.8750    47.4520    24.5130    20.0040    21.5240    26.1640     2.4710   -10.7690 
  139.0000    48.3340    24.4680    20.0770    20.6120    26.2250     2.4630   -10.8900 
  139.1250    51.0450    24.3550    20.0740    20.2140    26.3140     2.4540   -11.0450 
  139.2500    54.5290    24.2190    20.0400    20.4630    26.4990     2.4470   -11.1880 
  139.3750    57.5040    24.0160    19.9440    20.6510    26.6400     2.4440   -11.3490 
  139.5000    59.6350    23.7060    19.7640    20.7060    26.6880     2.4500   -11.5650 
  139.6250    60.6820    23.2650    19.4970    20.7320    26.6840     2.4640   -11.8410 
  139.7500    61.0310    22.7320    19.1680    19.9810    26.6210     2.4750   -12.1230 
  139.8750    59.7150    22.0870    18.7530    17.8950    26.6470     2.4750   -12.3630 
  140.0000    57.5310    21.2260    18.1630    16.5740    26.6930     2.4580   -12.5820 
  140.1250    56.1890    19.8960    17.1680    16.3890    26.8030     2.4190   -12.8450 
  140.2500    56.6350    18.1330    15.7630    16.0220    27.0630     2.3730   -13.1270 
  140.3750    59.9520    16.1750    14.1180    14.3660    27.3090     2.3320   -13.3490 
  140.5000    64.7970    14.4070    12.5380    11.6860    27.3330     2.3070   -13.4950 
  140.6250    67.2930    13.2830    11.3850     9.2310    27.1060     2.2980   -13.5900 
  140.7500    66.7250    12.8790    10.7530     8.6760    26.9280     2.2950   -13.6830 
  140.8750    63.7330    13.1620    10.6570    10.2310    26.9770     2.2890   -13.7520 
  141.0000    60.9290    13.9720    11.0240    12.6060    27.2130     2.2770   -13.7790 
  141.1250    62.3340    15.1130    11.7500    13.7340    27.4100     2.2620   -13.7620 
  141.2500    66.1390    16.3650    12.6310    13.8730    27.4290     2.2520   -13.7200 
  141.3750    68.1920    17.7530    13.6230    14.5090    27.6250     2.2500   -13.6780 
  141.5000    65.8350    19.4980    14.8230    16.2160    28.0190     2.2510   -13.6240 
  141.6250    60.5100    22.0780    16.5540    18.1710    28.3210     2.2480   -13.5440 
  141.7500    56.0190    25.6250    18.9780    22.1160    28.5900     2.2370   -13.4790 
  141.8750    52.8250    30.0620    22.1510    30.6060    28.8730     2.2210   -13.4560 
  142.0000    50.3860    34.9130    25.8400    41.3990    29.1400     2.2030   -13.4380 
  142.1250    48.2240    39.1200    29.3500    45.2500    29.1380     2.1910   -13.3900 
  142.2500    47.4720    41.8100    31.9130    43.6970    29.1650     2.1830   -13.3610 
  142.3750    49.8980    42.5790    33.0980    42.8510    29.1260     2.1800   -13.3720 
  142.5000    53.2780    41.4320    32.7990    42.0070    29.1390     2.1770   -13.4230 
  142.6250    53.5770    38.2820    30.8520    39.7270    29.2430     2.1760   -13.4440 
  142.7500    53.0000    33.7600    27.7120    36.2900    29.3030     2.1770   -13.3920 
  142.8750    54.6860    28.4630    23.8240    32.3590    29.2790     2.1820   -13.3210 
  143.0000    60.4280    23.2380    19.8370    27.0630    29.1700     2.1920   -13.2740 
  143.1250    66.8840    19.0900    16.5120    19.3850    28.7230     2.2080   -13.1990 
  143.2500    69.1200    16.2120    14.0680    13.5980    28.2250     2.2240   -13.0750 
  143.3750    66.3480    14.4620    12.4680    11.8070    28.1100     2.2360   -12.9460 
  143.5000    61.9770    13.4960    11.5160    12.2120    28.2310     2.2400   -12.8080 
  143.6250    62.2230    12.9090    10.9630    12.3500    28.2200     2.2410   -12.6700 
  143.7500    65.7210    12.2670    10.4600    11.4330    28.0890     2.2440   -12.5470 
  143.8750    69.5330    11.4300     9.8590    10.4430    27.6570     2.2560   -12.4200 
  144.0000    72.8480    10.4740     9.1620     9.3720    27.2570     2.2750   -12.2990 
  144.1250    74.4530     9.6280     8.4920     8.2250    27.0110     2.2920   -12.2290 
  144.2500    74.4590     9.0420     7.9740     7.4270    26.8630     2.3030   -12.1570 
  144.3750    73.9020     8.7790     7.6710     7.8110    26.8730     2.3100   -12.0390 
  144.5000    74.6610     8.8730     7.6240     8.7680    27.0030     2.3140   -11.9180 
  144.6250    77.3540     9.4180     7.9220     8.6590    26.9650     2.3160   -11.8730 
  144.7500    77.4670    10.3070     8.5140     8.0870    26.9170     2.3140   -11.8770 
  144.8750    72.0720    11.3430     9.2900     8.8100    26.9970     2.3010   -11.8620 
  145.0000    63.1080    12.1550     9.9900    11.4450    27.2080     2.2780   -11.8300 
  145.1250    59.9320    12.1400    10.1300    14.2350    27.3920     2.2510   -11.8380 
  145.2500    64.9120    11.2540     9.5760    13.5160    27.3690     2.2340   -11.9170 
  145.3750    73.0200     9.8560     8.5270     9.8190    27.2780     2.2310   -12.0370 
  145.5000    76.2120     8.5470     7.4130     6.6580    27.1080     2.2450   -12.1690 
  145.6250    70.7340     7.9200     6.7000     6.5160    26.8700     2.2680   -12.3210 
  145.7500    66.0320     8.0400     6.5210     7.7300    26.6900     2.2860   -12.5030 
  145.8750    66.8760     8.8780     6.9080     9.3430    26.7280     2.2930   -12.7540 
  146.0000    68.6710    10.3110     7.8170    11.8060    27.0220     2.2870   -13.0390 
  146.1250    65.2730    12.0910     9.1410    13.6010    27.5980     2.2750   -13.2610 
  146.2500    60.9350    13.7140    10.5040    14.6950    27.6880     2.2680   -13.4370 
  146.3750    60.0670    14.8140    11.5820    14.6920    27.7010     2.2680   -13.6280 
  146.5000    60.2970    15.2690    12.1970    14.1100    27.6940     2.2740   -13.8300 
  146.6250    61.8120    15.1930    12.3500    14.0400    27.6400     2.2780   -13.9530 
  146.7500    65.5400    14.9210    12.2750    13.5230    27.4020     2.2760   -14.0270 
  146.8750    67.0590    14.5630    12.0520    11.9560    27.1800     2.2680   -14.0780 
  147.0000    64.7050    14.1120    11.6830    12.4420    27.2530     2.2560   -14.1140 
  147.1250    62.9380    13.4960    11.1260    14.3040    27.3200     2.2490   -14.1550 
  147.2500    64.6030    12.7710    10.4550    12.5560    26.8820     2.2520   -14.1770 
  147.3750    66.3810    12.0840     9.7960     9.5570    26.4640     2.2650   -14.1720 
  147.5000    64.9410    11.6290     9.2940     8.3630    26.0740     2.2820   -14.1540 
  147.6250    60.7640    11.6380     9.1250     8.7330    26.2670     2.2930   -14.1230 
  147.7500    57.9040    12.1110     9.3070    10.0020    26.6970     2.2950   -14.0610 
  147.8750    58.6680    13.0240     9.8490    11.2120    26.8900     2.2890   -13.9900 
