~V
VERS. 2.00: Ver 2.00
~W
STRT.M 50.0000:
STOP.M 237.0000:
STEP.M 0.1250:
NULL. -999.2500:
UWI. F10163:
~C
DEPT.M :
DEN.GM/CC :
GR.API :
RML.OHMM :
RI. :
RXO.OHMM :
CALI.CM :
SP.MV :
~A
# ...
  207.5000     2.3330    76.6680    12.8130    12.5180     7.6900    23.4460    -4.6510 
  207.6250     2.3380    76.0360    11.5530    11.4550     7.4400    23.4600    -4.6820 
  207.7500     2.3340    76.3280    10.4440    10.4590     7.1910    23.4450    -4.7550 
  207.8750     2.3290    78.0630     9.6160     9.6520     7.0320    23.3480    -4.8600 
  208.0000     2.3260    79.6880     9.1800     9.1330     7.3570    23.2890    -4.9930 
  208.1250     2.3270    82.0930     9.3180     9.0690     8.0560    23.3390    -5.1510 
  208.2500     2.3290    87.0040    10.0170     9.4820     9.0450    23.3690    -5.2400 
  208.3750     2.3280    90.0070    11.2860    10.4250    10.2300    23.4280    -5.2640 
  208.5000     2.3200    85.8620    13.0540    11.8930    11.7640    23.5220    -5.2370 
  208.6250     2.3060    77.2570    15.1090    13.7870    14.8930    23.6680    -5.0510 
  208.7500     2.2890    72.2770    17.0000    15.6910    19.2820    23.9400    -4.6690 
  208.8750     2.2750    69.5710    18.3810    17.2290    22.4410    24.2060    -4.1460 
  209.0000     2.2690    66.3240    19.1330    18.1810    21.2180    24.1580    -3.5520 
  209.1250     2.2690    65.7600    19.5150    18.6390    20.5470    24.1560    -2.8900 
  209.2500     2.2710    67.6700    20.1820    19.1670    19.5870    24.2130    -2.2100 
  209.3750     2.2700    68.3340    21.6560    20.2560    19.1920    24.1970    -1.5520 
  209.5000     2.2630    67.1520    24.3040    22.3290    19.6460    24.1080    -0.9400 
  209.6250     2.2490    66.7890    28.3660    25.8280    22.7500    23.9830    -0.4040 
  209.7500     2.2290    65.8890    32.9130    30.1420    30.3310    24.2390    -0.0030 
  209.8750     2.2040    62.9150    36.3440    33.9310    42.8350    24.3390     0.2790 
  210.0000     2.1790    60.1040    36.6590    35.2280    50.7110    24.5760     0.5060 
  210.1250     2.1610    60.7310    32.4950    32.2570    45.4010    24.4330     0.6990 
  210.2500     2.1560    65.0020    26.2940    26.8680    33.5200    24.1520     0.8640 
  210.3750     2.1670    70.8380    20.3310    21.1960    18.6270    23.8290     1.0190 
  210.5000     2.1910    75.0280    15.9090    16.6900     9.5630    23.6530     1.1530 
  210.6250     2.2220    76.3690    13.5330    14.0080     7.6190    23.6320     1.1850 
  210.7500     2.2470    76.0840    12.6580    12.7160     7.4690    23.7160     1.1470 
  210.8750     2.2580    74.7380    13.1010    12.6580     8.6310    23.6860     1.0540 
  211.0000     2.2550    71.9890    14.7470    13.7670    10.2550    23.4970     0.8790 
  211.1250     2.2410    67.7880    17.5710    16.1410    14.3900    23.5440     0.6210 
  211.2500     2.2240    62.7790    20.9760    19.3230    18.9200    23.5970     0.3170 
  211.3750     2.2110    58.4970    24.2740    22.7270    22.8690    23.6170    -0.0460 
  211.5000     2.2040    56.5920    26.6390    25.4890    24.4100    23.6820    -0.4400 
  211.6250     2.2030    58.1120    27.2840    26.6140    23.7630    23.6970    -0.8230 
  211.7500     2.2060    60.1180    26.7260    26.3810    22.7490    23.6940    -1.1750 
  211.8750     2.2110    62.0120    25.6370    25.3770    21.7610    23.6830    -1.5280 
  212.0000     2.2160    63.9000    24.5970    24.1940    20.8480    23.6610    -1.8860 
  212.1250     2.2180    64.4360    24.0690    23.3180    20.1290    23.6440    -2.2100 
  212.2500     2.2160    62.8450    24.1550    22.9340    20.1380    23.6850    -2.5150 
  212.3750     2.2160    60.1490    24.8640    23.1010    20.7470    23.6770    -2.8200 
  212.5000     2.2270    58.2720    26.0950    23.7920    22.2470    23.6310    -3.1190 
  212.6250     2.2590    57.5610    27.6370    24.9090    27.2060    23.5230    -3.3650 
  212.7500     2.3090    57.4410    29.1030    26.1310    31.7010    23.5400    -3.5740 
  212.8750     2.3630    58.5050    30.2440    27.2190    32.2860    23.6180    -3.7320 
  213.0000     2.3990    59.9860    30.9800    28.0270    30.3080    23.4920    -3.7900 
  213.1250     2.3940    61.4250    31.4190    28.5190    26.3360    23.0490    -3.7400 
  213.2500     2.3560    61.4560    31.8590    28.8910    23.4770    22.6230    -3.6470 
  213.3750     2.3010    60.1580    32.4540    29.2950    23.4670    22.2200    -3.4670 
  213.5000     2.2480    58.3930    33.2120    29.8130    25.1420    22.1810    -3.2040 
  213.6250     2.2120    57.9100    33.9880    30.4260    26.6340    22.7580    -2.9130 
  213.7500     2.1910    57.8880    34.6130    31.0110    27.9000    23.2880    -2.6090 
  213.8750     2.1810    57.1470    35.0280    31.4750    28.5110    23.5610    -2.2830 
  214.0000     2.1760    56.4780    35.2910    31.8130    28.5990    23.6070    -1.9960 
  214.1250     2.1770    58.2080    35.5540    32.1430    28.8700    23.6110    -1.8330 
  214.2500     2.1890    61.5240    35.9210    32.5830    28.9820    23.6490    -1.6940 
  214.3750     2.2160    64.5350    36.3430    33.1100    28.0810    23.7380    -1.5960 
  214.5000     2.2540    63.4460    36.6290    33.5540    27.2430    24.0120    -1.5810 
  214.6250     2.2820    59.7910    36.3490    33.5240    26.3980    23.7590    -1.6500 
  214.7500     2.2860    59.5830    35.2510    32.7710    26.3320    23.2340    -1.7060 
  214.8750     2.2660    61.9440    33.2450    31.2030    25.7090    23.2430    -1.7580 
  215.0000     2.2340    62.8140    30.4850    28.9450    24.3970    23.3930    -1.8310 
  215.1250     2.2050    59.2990    27.2970    26.2450    21.9170    23.4210    -1.8310 
  215.2500     2.1880    56.5870    24.2090    23.5460    20.0470    23.3910    -1.8190 
  215.3750     2.1810    57.2690    21.6330    21.1900    18.9390    23.3560    -1.8570 
  215.5000     2.1880    59.7110    19.9530    19.5060    17.3700    23.3640    -1.8740 
  215.6250     2.2200    62.8520    19.6380    18.9330    15.5550    23.4090    -1.7920 
  215.7500     2.2800    64.6050    20.4270    19.3760    14.8540    23.3710    -1.7520 
  215.8750     2.3620    65.5420    21.8530    20.5700    16.7220    23.2800    -1.7850 
  216.0000     2.4480    67.5340    23.0550    21.8560    20.2910    23.2010    -1.8130 
  216.1250     2.5050    68.6110    22.6090    21.9100    27.8090    22.9470    -1.8820 
  216.2500     2.5190    69.1120    20.1670    20.1160    29.4760    22.8930    -1.9530 
  216.3750     2.4920    71.2140    17.5420    16.8800    20.0630    23.2700    -1.9290 
  216.5000     2.4380    75.8730    13.7130    13.2950    11.3350    23.5360    -1.8490 
  216.6250     2.3770    79.9270    10.4390    10.3760     8.6510    23.7180    -1.7520 
  216.7500     2.3310    79.5050     8.2060     8.2640     7.0100    23.5830    -1.5470 
  216.8750     2.3070    73.7460     6.7970     6.8510     5.6590    23.3540    -1.2470 
  217.0000     2.3070    64.1150     5.9510     5.9630     4.8950    23.2230    -0.9770 
  217.1250     2.3250    58.6310     5.5150     5.4910     4.7210    23.3560    -0.7130 
  217.2500     2.3480    64.1290     5.3380     5.2720     4.7540    23.5640    -0.5010 
  217.3750     2.3700    78.6420     5.4010     5.2650     4.6800    23.4880    -0.4120 
  217.5000     2.3880    95.5600     5.6820     5.4480     4.5910    23.4180    -0.4520 
  217.6250     2.4000   108.3350     6.1470     5.7950     4.9570    23.4390    -0.5810 
  217.7500     2.4060   113.8720     6.6640     6.2070     5.7050    23.5050    -0.7690 
  217.8750     2.4040   111.3770     7.1180     6.5960     6.3330    23.5400    -0.9980 
  218.0000     2.3980   104.5520     7.4050     6.8730     6.6250    23.5320    -1.1720 
  218.1250     2.3940    95.9920     7.4460     6.9470     6.5570    23.5600    -1.2880 
  218.2500     2.3920    88.1030     7.3310     6.8660     6.4700    23.5280    -1.3430 
  218.3750     2.3910    84.7220     7.1530     6.6990     6.3870    23.5710    -1.2830 
  218.5000     2.3870    85.5470     7.0010     6.5230     6.3510    23.8460    -1.1110 
  218.6250     2.3780    86.2880     6.9500     6.3990     6.2730    24.1600    -0.8730 
