~V
VERS. 2.00: Ver 2.00
~W
STRT.M 44.0000:
STOP.M 255.0000:
STEP.M 0.1250:
NULL. -999.2500:
UWI. F10191:
~C
DEPT.M :
DEN.GM/CC :
SP.MV :
GR.API :
RML.OHMM :
RI. :
RXO.OHMM :
CALI.CM :
~A
# ...
  190.2500     2.1730   -39.5110    54.7870   163.1130   154.6270   193.8080    25.5560 
  190.3750     2.1580   -39.6900    53.5160   209.5880   198.6960   262.8730    25.5820 
  190.5000     2.1470   -39.8130    52.3040   251.0570   237.7130   250.1420    25.5500 
  190.6250     2.1440   -39.8970    53.6840   267.7340   255.4640   237.4460    25.4840 
  190.7500     2.1480   -40.0540    57.6140   263.8780   254.7050   218.3070    25.4020 
  190.8750     2.1630   -40.1750    60.1520   247.9760   251.1010   182.5200    25.2990 
  191.0000     2.1790   -40.2100    60.0280   240.1600   246.6460   158.2130    25.2230 
  191.1250     2.1820   -40.2830    58.3680   244.7230   250.3200   196.2160    25.1830 
  191.2500     2.1750   -40.3440    56.0890   257.6220   260.6800   234.1150    25.1170 
  191.3750     2.1690   -40.3230    54.0330   273.4080   271.4210   193.1090    24.9890 
  191.5000     2.1660   -40.3260    52.0400   282.5440   272.3620   142.9030    24.8710 
  191.6250     2.1570   -40.3380    50.7500   270.1090   249.9140   117.3870    24.7540 
  191.7500     2.1480   -40.2680    51.2560   236.7980   210.0980    88.0530    24.5220 
  191.8750     2.1490   -40.2070    55.4370   192.8780   166.0820    53.0460    24.1630 
  192.0000     2.1660   -40.1370    62.5280   151.5960   129.3020    36.3170    23.8750 
  192.1250     2.1900   -39.9870    68.1470   123.0940   106.2450    33.1440    23.8210 
  192.2500     2.2080   -39.8130    68.7150   107.1890    94.5480    35.4030    23.9150 
  192.3750     2.2140   -39.6210    66.7320   103.2070    93.0550    42.7640    24.0710 
  192.5000     2.2050   -39.4040    65.2650   110.6440   101.0970    54.8580    24.2180 
  192.6250     2.1840   -39.1370    64.8250   131.0540   119.9360    81.5550    24.3020 
  192.7500     2.1640   -38.8270    64.1840   160.9350   146.9360   121.8120    24.3270 
  192.8750     2.1540   -38.5040    63.7460   195.6620   178.3310   156.9920    24.3310 
  193.0000     2.1510   -38.2140    62.7980   227.3650   206.7850   157.9720    24.3310 
  193.1250     2.1590   -37.9210    60.0860   246.0320   222.4890   144.8650    24.3310 
  193.2500     2.1690   -37.6520    58.1390   252.8200   227.2450   145.2190    24.3250 
  193.3750     2.1770   -37.4660    57.8060   253.1070   226.8740   159.3980    24.3070 
  193.5000     2.1790   -37.2560    57.4240   252.0450   226.0320   163.9220    24.2640 
  193.6250     2.1790   -37.1280    57.7190   251.5940   225.8140   140.2190    24.2260 
  193.7500     2.1770   -37.1520    59.3130   250.5800   224.6500   116.7540    24.1900 
  193.8750     2.1710   -37.1900    60.3710   247.3630   221.0060    97.7420    24.1590 
  194.0000     2.1640   -37.2560    59.5010   240.9970   214.2950    81.5690    24.1220 
  194.1250     2.1610   -37.4850    59.1300   231.2640   204.6460    69.0430    24.0630 
  194.2500     2.1610   -37.7260    60.8880   219.0290   192.9640    60.5290    24.0130 
  194.3750     2.1640   -37.9810    62.1680   204.5180   179.6340    52.0510    23.9430 
  194.5000     2.1730   -38.3730    60.2530   189.0330   166.0830    46.6460    23.8620 
  194.6250     2.1870   -38.7820    56.5900   176.0930   155.6090    47.4280    23.8340 
  194.7500     2.1950   -39.1140    54.9000   168.7000   150.4900    49.8090    23.8750 
  194.8750     2.1920   -39.5020    55.2860   169.1140   152.3730    54.5950    24.0420 
  195.0000     2.1790   -39.9230    55.7970   178.7640   162.2260    76.9090    24.3930 
  195.1250     2.1620   -40.2220    53.6210   198.7820   181.1200   141.1160    24.7460 
  195.2500     2.1500   -40.5420    50.6380   224.3720   205.2400   198.5810    24.9290 
  195.3750     2.1440   -40.8130    50.7480   249.9840   229.6580   214.9620    24.9760 
  195.5000     2.1410   -40.9180    54.1550   269.2110   247.9880   214.3440    24.9700 
  195.6250     2.1400   -40.9670    56.0910   276.2930   254.3630   214.1930    24.9420 
  195.7500     2.1480   -40.9510    54.5990   274.9760   252.9350   207.5230    24.8960 
  195.8750     2.1650   -40.8080    52.8430   269.9360   248.6230   191.6200    24.8120 
  196.0000     2.1820   -40.6070    51.4570   264.5330   244.4510   161.7030    24.6690 
  196.1250     2.1800   -40.3670    49.2290   259.7080   240.9230   124.5450    24.4600 
  196.2500     2.1640   -40.0270    47.8820   255.0120   237.3320    99.4320    24.3620 
  196.3750     2.1500   -39.6820    48.8300   250.0620   233.1680   103.7930    24.4140 
  196.5000     2.1550   -39.3920    51.6730   244.4100   227.9470   138.9750    24.5040 
  196.6250     2.1790   -39.0350    55.7240   237.2390   220.8960   189.7160    24.5770 
  196.7500     2.1970   -38.7300    57.1680   228.7340   212.4770   216.1260    24.7020 
  196.8750     2.1960   -38.5020    54.0770   220.0260   203.9970   217.7810    24.8880 
  197.0000     2.1870   -38.2320    51.1980   213.0160   197.3400   212.4490    25.0310 
  197.1250     2.1850   -37.9650    53.0020   210.3100   194.8650   202.9380    25.1210 
  197.2500     2.1880   -37.7840    54.4530   212.1830   196.6080   196.6270    25.1880 
  197.3750     2.1890   -37.6070    51.6500   217.7890   201.5830   205.4110    25.1900 
  197.5000     2.1860   -37.3660    48.1770   224.1020   206.6980   242.3440    25.1460 
  197.6250     2.1870   -37.1960    48.3680   224.2250   204.9050   269.7710    25.1360 
  197.7500     2.1920   -37.0060    49.5180   213.6170   192.2590   264.8860    25.1790 
  197.8750     2.1950   -36.7050    50.8540   192.0420   169.9470   243.9740    25.2620 
  198.0000     2.2000   -36.4200    52.8870   164.4100   144.0710   220.3570    25.3240 
  198.1250     2.2210   -36.1330    54.2290   138.7000   122.1590   190.1980    25.3360 
  198.2500     2.2670   -35.6840    54.6460   119.5160   106.7010   153.3620    25.2990 
  198.3750     2.3360   -35.1530    54.8660   107.8420    97.7280   117.2440    25.1980 
  198.5000     2.4250   -34.5760    55.0840   103.1800    94.5760   102.8470    25.0320 
  198.6250     2.5310   -33.8420    54.5880   105.8310    97.5180   109.9510    24.7600 
  198.7500     2.6330   -33.0720    54.4700   114.4630   105.3960   115.3020    24.3750 
  198.8750     2.7100   -32.2510    56.0760   128.6180   117.5450   110.3940    24.0280 
  199.0000     2.7560   -31.3230    57.7510   145.2240   130.7560   104.6490    23.8500 
  199.1250     2.7860   -30.3540    56.9700   152.2080   132.9830   125.2230    23.8680 
  199.2500     2.8010   -29.3790    54.6460   137.4890   115.1370   156.6700    23.9750 
  199.3750     2.7910   -28.4000    51.0840   102.5270    83.0050   191.9850    24.1060 
  199.5000     2.7570   -27.4660    47.4700    63.9330    51.8700   187.2630    24.2070 
  199.6250     2.7150   -26.5490    45.9450    37.5850    31.6230   114.6290    24.2590 
  199.7500     2.6790   -25.6160    47.7120    22.3760    19.5610    44.9940    24.3660 
  199.8750     2.6400   -24.7990    50.2790    13.3020    13.8060    17.1730    24.5870 
  200.0000     2.5840   -24.0720    51.0960     9.1420    10.0990     8.3600    24.8260 
  200.1250     2.5120   -23.4300    51.3510     7.4700     8.0520     6.2850    25.0100 
  200.2500     2.4380   -23.0100    53.9510     6.7090     7.0150     5.5490    25.1620 
  200.3750     2.3770   -22.7690    58.8340     6.4760     6.6230     5.0560    25.2580 
  200.5000     2.3380   -22.6930    63.8390     6.5460     6.6400     5.0390    25.2550 
  200.6250     2.3320   -22.9380    67.7750     6.8110     6.9380     5.3570    25.1490 
  200.7500     2.3490   -23.4250    71.1110     7.1560     7.3560     5.8350    25.0250 
  200.8750     2.3790   -24.0310    75.3410     7.5070     7.7920     6.3880    24.8630 
  201.0000     2.4090   -24.7740    80.2590     7.7960     8.1530     6.8250    24.6560 
  201.1250     2.4270   -25.6730    84.1760     7.9650     8.3470     7.0640    24.4860 
  201.2500     2.4320   -26.5500    86.8360     8.0420     8.3940     7.2600    24.3910 
  201.3750     2.4350   -27.4230    88.1610     8.0740     8.3380     7.4560    24.3340 
