~V
VERS. 2.00: Ver 2.00
~W
STRT.M 52.0000:
STOP.M 326.0000:
STEP.M 0.1250:
NULL. -999.2500:
UWI. F10108:
~C
DEPT.M :
DEN.GM/CC :
SP.MV :
GR.API :
RML.OHMM :
RI. :
RXO.OHMM :
CALI.CM :
~A
# ...
   85.7500     2.3220    -0.2510    97.9900     5.7940     4.9280     6.0130    24.5920 
   85.8750     2.3110    -0.0800    96.9010     5.3860     4.5730     5.2730    24.5460 
   86.0000     2.3060     0.0670    93.2470     5.1930     4.3570     4.8730    24.5230 
   86.1250     2.3050     0.1640    90.8120     5.2130     4.2950     4.6900    24.5310 
   86.2500     2.3050     0.2090    93.3890     5.3560     4.3360     4.6620    24.5260 
   86.3750     2.3040     0.2020    97.9170     5.5720     4.4470     4.7180    24.4750 
   86.5000     2.3010     0.1490    99.1430     5.8220     4.6050     4.8840    24.3850 
   86.6250     2.2990     0.0710    98.0390     6.0660     4.7870     5.0270    24.2920 
   86.7500     2.3000     0.0020   100.1200     6.2720     4.9630     5.0880    24.2110 
   86.8750     2.3020    -0.0640   105.7530     6.4060     5.1010     5.1190    24.1320 
   87.0000     2.3040    -0.1530   108.6380     6.4390     5.1690     5.2160    24.0420 
   87.1250     2.3040    -0.2890   101.9760     6.3410     5.1370     5.3320    23.9460 
   87.2500     2.3020    -0.4530    92.3380     6.1720     5.0400     5.3910    23.8800 
   87.3750     2.2990    -0.6390    86.2560     6.0210     4.9300     5.2260    23.8590 
   87.5000     2.2970    -0.8310    84.1150     6.0000     4.8820     4.8790    23.8810 
   87.6250     2.2990    -1.0690    83.9340     6.2540     4.9970     4.6230    23.9160 
   87.7500     2.3080    -1.3790    86.6920     6.7510     5.2810     4.7190    23.9430 
   87.8750     2.3250    -1.7400    90.0370     7.3940     5.6970     5.2030    23.9590 
   88.0000     2.3440    -2.1360    90.3450     8.0180     6.1520     5.9290    23.9830 
   88.1250     2.3480    -2.5890    86.8860     8.4030     6.5010     6.8780    24.0360 
   88.2500     2.3310    -3.1250    84.3050     8.4870     6.6610     7.9520    24.1110 
   88.3750     2.2970    -3.7240    82.4620     8.3180     6.6250     7.8140    24.1790 
   88.5000     2.2590    -4.3620    80.6660     8.0410     6.4620     6.4320    24.2180 
   88.6250     2.2310    -5.0180    80.8440     7.8430     6.2920     5.9670    24.2370 
   88.7500     2.2160    -5.6490    82.0790     7.7940     6.1950     6.1310    24.2660 
   88.8750     2.2080    -6.2610    81.9040     7.8720     6.1860     6.3660    24.3090 
   89.0000     2.2020    -6.8600    78.6020     8.0070     6.2380     6.4690    24.3460 
   89.1250     2.1930    -7.4140    72.8970     8.1190     6.3100     6.4790    24.3500 
   89.2500     2.1830    -7.8890    68.5300     8.1750     6.3700     6.4660    24.3300 
   89.3750     2.1740    -8.2830    67.0630     8.1860     6.4180     6.5270    24.3110 
   89.5000     2.1700    -8.6280    68.7140     8.1800     6.4640     6.6230    24.3100 
   89.6250     2.1720    -8.9250    71.8470     8.1970     6.5190     6.7350    24.3360 
   89.7500     2.1760    -9.1760    73.3040     8.2610     6.5830     6.8910    24.3650 
   89.8750     2.1810    -9.3680    71.2340     8.3770     6.6510     7.1020    24.3930 
   90.0000     2.1860    -9.4840    67.5250     8.5250     6.7140     7.2220    24.4260 
   90.1250     2.1910    -9.5130    68.8480     8.6620     6.7570     7.2220    24.4810 
   90.2500     2.1960    -9.4870    74.6960     8.7480     6.7720     7.2090    24.5450 
   90.3750     2.1970    -9.4420    78.0380     8.7640     6.7560     7.2110    24.5940 
   90.5000     2.1950    -9.3940    77.8420     8.7100     6.7150     7.1770    24.6090 
   90.6250     2.1880    -9.3430    77.4670     8.6080     6.6620     7.0180    24.5770 
   90.7500     2.1810    -9.2860    75.1260     8.5080     6.6170     6.8860    24.5280 
   90.8750     2.1760    -9.2330    70.8690     8.4440     6.5960     6.8010    24.4770 
   91.0000     2.1760    -9.2130    68.4110     8.4400     6.6050     6.7450    24.4210 
   91.1250     2.1770    -9.2550    69.3830     8.5080     6.6490     6.8380    24.3420 
   91.2500     2.1790    -9.3500    70.8570     8.6100     6.7130     7.0340    24.2550 
   91.3750     2.1810    -9.4950    71.2910     8.7130     6.7890     7.1940    24.1790 
   91.5000     2.1890    -9.6680    71.9100     8.7950     6.8790     7.2090    24.1340 
   91.6250     2.2040    -9.8520    73.5590     8.8720     7.0010     7.2200    24.1280 
   91.7500     2.2260   -10.0590    76.1300     8.9760     7.1620     7.2600    24.1360 
   91.8750     2.2480   -10.2960    77.0550     9.1240     7.3570     7.3210    24.1420 
   92.0000     2.2630   -10.5550    73.1150     9.3010     7.5630     7.4180    24.1550 
   92.1250     2.2630   -10.8270    68.2460     9.4590     7.7410     7.7060    24.2020 
   92.2500     2.2510   -11.1030    66.2240     9.5480     7.8590     8.0610    24.2950 
   92.3750     2.2310   -11.3610    65.3800     9.5440     7.8990     8.0820    24.4090 
   92.5000     2.2080   -11.5810    65.1610     9.4330     7.8500     7.7800    24.5020 
   92.6250     2.1870   -11.7340    64.4950     9.1820     7.6850     7.7610    24.5550 
   92.7500     2.1700   -11.8110    63.1460     8.8410     7.4160     7.9120    24.5950 
   92.8750     2.1620   -11.7740    62.5520     8.4730     7.0690     7.9750    24.6410 
   93.0000     2.1670   -11.6190    64.6850     8.2010     6.7120     7.8180    24.6820 
   93.1250     2.1940   -11.3900    70.6020     8.2320     6.5010     7.4690    24.6890 
   93.2500     2.2370   -11.1650    76.4830     8.6390     6.5470     7.1710    24.6850 
   93.3750     2.2870   -10.9870    79.7660     9.2740     6.8980     7.2510    24.7000 
   93.5000     2.3240   -10.9130    79.2690    10.1800     7.5080     8.2830    24.7630 
   93.6250     2.3260   -10.9760    75.1210    11.0610     8.2200    10.7520    24.8650 
   93.7500     2.2940   -11.1400    70.4530    11.5860     8.7790    15.2750    24.9550 
   93.8750     2.2430   -11.4070    68.0190    11.5580     9.0050    17.4380    25.0000 
   94.0000     2.1940   -11.7370    68.0450    10.9920     8.8350    12.5620    25.0050 
   94.1250     2.1650   -12.0670    65.2000    10.1130     8.3520     9.3680    24.9870 
   94.2500     2.1590   -12.3570    59.8510     9.2970     7.8220     8.6060    24.9740 
   94.3750     2.1690   -12.6130    57.5960     8.7250     7.4000     8.5670    24.9710 
   94.5000     2.1870   -12.8380    61.4500     8.4330     7.1520     8.2560    24.9710 
   94.6250     2.2000   -13.0490    66.1140     8.3890     7.0920     7.7200    24.9920 
   94.7500     2.2030   -13.2780    66.7310     8.4730     7.1490     7.4320    25.0600 
   94.8750     2.1960   -13.5160    64.9460     8.6300     7.2800     7.5960    25.1630 
   95.0000     2.1860   -13.7960    62.1670     8.8100     7.4390     7.9520    25.2870 
   95.1250     2.1780   -14.1200    59.2750     8.9400     7.5700     8.2050    25.3990 
   95.2500     2.1700   -14.4510    57.9590     8.9830     7.6400     8.2230    25.4720 
   95.3750     2.1630   -14.7420    58.9850     8.9430     7.6400     8.1720    25.5060 
   95.5000     2.1570   -14.9500    61.9920     8.8520     7.5850     8.0970    25.5040 
   95.6250     2.1530   -15.0490    63.5790     8.7580     7.5060     8.0970    25.4570 
   95.7500     2.1540   -15.0660    61.9040     8.6950     7.4370     8.2370    25.3560 
   95.8750     2.1580   -15.0360    58.7540     8.6690     7.3940     8.4820    25.2160 
   96.0000     2.1630   -14.9480    57.4890     8.6760     7.3810     8.5400    25.0590 
   96.1250     2.1630   -14.7950    61.4610     8.7080     7.3950     8.3420    24.9310 
   96.2500     2.1580   -14.5800    65.7980     8.7460     7.4190     8.2850    24.8600 
   96.3750     2.1520   -14.3240    67.2200     8.7750     7.4420     8.5250    24.8220 
   96.5000     2.1490   -14.0490    66.3520     8.7910     7.4550     8.8720    24.7720 
   96.6250     2.1500   -13.7730    67.4170     8.8050     7.4500     8.7420    24.6890 
   96.7500     2.1550   -13.4990    69.3870     8.8330     7.4270     8.2670    24.5920 
   96.8750     2.1590   -13.1930    69.9260     8.8810     7.3910     7.9720    24.5230 
