~V
VERS. 2.00: Ver 2.00
~W
STRT.M 55.0000:
STOP.M 228.0000:
STEP.M 0.1250:
NULL. -999.2500:
UWI. F10142:
~C
DEPT.M :
DEN.GM/CC :
GR.API :
RML.OHMM :
RI. :
RXO.OHMM :
CALI.CM :
SP.MV :
~A
# ...
  100.0000     2.2110    67.1350     9.0820     7.6800     9.1250    24.5760   -15.5210 
  100.1250     2.2020    64.8810     9.1250     7.7380     9.1230    24.6080   -15.4890 
  100.2500     2.1920    65.1990     9.1570     7.7870     9.1180    24.5760   -15.4420 
  100.3750     2.1850    66.8120     9.1640     7.8060     9.0940    24.5070   -15.3850 
  100.5000     2.1840    67.1820     9.1180     7.7700     9.1260    24.4370   -15.3140 
  100.6250     2.1860    65.1060     8.9770     7.6440     9.1420    24.3250   -15.2180 
  100.7500     2.1880    63.4120     8.7590     7.4460     9.0370    24.1400   -15.1310 
  100.8750     2.1900    64.9030     8.4990     7.2030     8.5720    23.9600   -15.0440 
  101.0000     2.1890    69.9140     8.2460     6.9610     7.8500    23.8390   -14.9780 
  101.1250     2.1870    75.3750     8.0600     6.7790     7.7450    23.8070   -14.9140 
  101.2500     2.1830    78.1620     7.9560     6.6780     7.7950    23.7860   -14.8770 
  101.3750     2.1800    77.1780     7.9290     6.6600     7.8280    23.7810   -14.8540 
  101.5000     2.1770    73.8260     7.9580     6.7090     7.9480    23.7760   -14.8560 
  101.6250     2.1740    72.2360     8.0180     6.8020     8.0520    23.7910   -14.8800 
  101.7500     2.1690    71.8470     8.0860     6.9070     8.0300    23.8740   -14.9200 
  101.8750     2.1620    70.3810     8.1570     7.0140     8.2090    24.0660   -14.9690 
  102.0000     2.1520    68.2220     8.2350     7.1170     8.5510    24.3530   -15.0150 
  102.1250     2.1440    68.4370     8.3340     7.2180     8.7440    24.6930   -15.0600 
  102.2500     2.1410    69.9090     8.4510     7.3190     8.6220    24.8710   -15.0700 
  102.3750     2.1430    70.3340     8.5700     7.4150     8.4460    24.8730   -15.0740 
  102.5000     2.1500    70.2400     8.6570     7.4890     8.5060    24.7890   -15.0570 
  102.6250     2.1580    70.3470     8.6430     7.4950     8.5980    24.7320   -15.0100 
  102.7500     2.1640    70.7240     8.5000     7.4010     8.3190    24.7600   -14.9470 
  102.8750     2.1690    72.6430     8.2350     7.2000     7.6450    24.8450   -14.8670 
  103.0000     2.1730    77.0540     7.9060     6.9260     6.3390    24.9600   -14.7890 
  103.1250     2.1750    82.2680     7.6270     6.6580     5.4580    25.0110   -14.7190 
  103.2500     2.1770    85.4360     7.4860     6.4840     5.9240    24.9730   -14.6910 
  103.3750     2.1770    84.4680     7.5240     6.4520     7.1480    24.9090   -14.7000 
  103.5000     2.1760    79.3310     7.7350     6.5780     8.4540    24.7920   -14.7340 
  103.6250     2.1770    74.3560     8.0870     6.8590     8.6260    24.6420   -14.8210 
  103.7500     2.1790    73.1530     8.4800     7.2150     8.4690    24.5570   -14.9260 
  103.8750     2.1830    74.1890     8.8500     7.5840     8.4650    24.6130   -15.0500 
  104.0000     2.1890    74.5050     9.1390     7.9020     8.5900    24.6630   -15.1730 
  104.1250     2.1920    73.0570     9.2890     8.0980     8.8280    24.5610   -15.3270 
  104.2500     2.1890    70.7790     9.3050     8.1650     8.9500    24.4170   -15.4750 
  104.3750     2.1800    68.1100     9.2050     8.1130     8.8190    24.3410   -15.6050 
  104.5000     2.1670    66.4250     9.0180     7.9740     8.4720    24.3140   -15.7350 
  104.6250     2.1560    65.3320     8.7850     7.7870     8.3180    24.2890   -15.8370 
  104.7500     2.1520    64.1870     8.5790     7.6110     8.9760    24.3350   -15.9150 
  104.8750     2.1600    63.6390     8.4750     7.4950    10.7390    24.4590   -15.9740 
  105.0000     2.1910    65.3440     8.5510     7.4970    12.8960    24.6160   -16.0090 
  105.1250     2.2500    69.2700     8.9080     7.7010    10.9990    24.7280   -16.0170 
  105.2500     2.3180    72.2490     9.4860     8.0880     9.5370    24.8240   -16.0160 
  105.3750     2.3690    73.4120    10.1650     8.5940     9.5500    24.8730   -15.9870 
  105.5000     2.3790    72.5690    10.7350     9.0820    10.6590    24.8260   -15.9730 
  105.6250     2.3420    69.8990    10.8950     9.3400    11.7460    24.7120   -15.9840 
  105.7500     2.2870    66.9930    10.6260     9.3030    10.4760    24.6550   -16.0190 
  105.8750     2.2400    64.9860    10.0730     9.0240     9.6750    24.6450   -16.0770 
  106.0000     2.2130    64.9110     9.4930     8.6520     9.4940    24.6400   -16.1500 
  106.1250     2.2070    65.9580     9.1700     8.3770     9.6850    24.6430   -16.2220 
  106.2500     2.2080    66.4180     9.1290     8.2710    11.0520    24.6720   -16.2810 
  106.3750     2.2080    65.4820     9.2650     8.3030    14.2550    24.7180   -16.3540 
  106.5000     2.2040    63.7850     9.4080     8.3790    18.6820    24.7060   -16.4000 
  106.6250     2.1940    63.6370     9.3900     8.3810    12.9410    24.6260   -16.4210 
  106.7500     2.1810    65.3170     9.2170     8.2720    10.2710    24.5490   -16.4310 
  106.8750     2.1690    67.5130     8.9670     8.0840     9.3900    24.5050   -16.4310 
  107.0000     2.1610    68.1210     8.7350     7.8800     9.3240    24.4730   -16.4250 
  107.1250     2.1570    66.4040     8.6080     7.7340     9.2750    24.4650   -16.4180 
  107.2500     2.1580    63.6910     8.5780     7.6680     9.2780    24.4690   -16.4150 
  107.3750     2.1610    61.5250     8.6140     7.6730     9.3170    24.4630   -16.4080 
  107.5000     2.1660    62.9820     8.6740     7.7160     9.3600    24.4580   -16.4060 
  107.6250     2.1710    67.8190     8.7150     7.7540     9.3000    24.4640   -16.4000 
  107.7500     2.1740    70.3290     8.7190     7.7560     9.2130    24.4700   -16.4030 
  107.8750     2.1740    68.7800     8.6870     7.7140     9.1940    24.4630   -16.4150 
  108.0000     2.1700    65.8880     8.6330     7.6350     9.2180    24.4590   -16.4370 
  108.1250     2.1630    64.6700     8.5780     7.5340     9.1640    24.4620   -16.4550 
  108.2500     2.1560    64.0800     8.5350     7.4350     9.0840    24.4620   -16.4920 
  108.3750     2.1520    63.1950     8.5070     7.3470     9.0460    24.4590   -16.5370 
  108.5000     2.1520    62.3480     8.4900     7.2730     9.0650    24.4610   -16.5830 
  108.6250     2.1550    61.7100     8.4750     7.2100     9.0750    24.4640   -16.6340 
  108.7500     2.1570    61.9370     8.4500     7.1490     9.1100    24.4620   -16.6630 
  108.8750     2.1540    61.8890     8.4020     7.0830     9.1750    24.4610   -16.6690 
  109.0000     2.1470    61.1020     8.3280     7.0110     9.2630    24.4700   -16.6500 
  109.1250     2.1420    62.1180     8.2530     6.9470     9.6150    24.4620   -16.6090 
  109.2500     2.1450    63.4350     8.2510     6.9370     9.5400    24.4510   -16.5470 
  109.3750     2.1600    62.3590     8.4250     7.0490     9.4020    24.4480   -16.4520 
  109.5000     2.1890    59.9840     8.8820     7.3650     9.3280    24.4590   -16.3390 
  109.6250     2.2260    58.1610     9.7340     7.9900     9.8770    24.4830   -16.2150 
  109.7500     2.2570    56.2160    10.8380     8.8440    11.6150    24.5050   -16.0890 
  109.8750     2.2720    55.1610    11.9370     9.7570    13.9630    24.5220   -15.9670 
  110.0000     2.2650    57.9490    12.6600    10.4570    15.1340    24.5230   -15.8570 
  110.1250     2.2350    62.5800    12.5650    10.5820    14.0540    24.5060   -15.7470 
  110.2500     2.2000    64.2920    11.7900    10.1610    11.4170    24.4850   -15.6310 
  110.3750     2.1730    63.9750    10.6620     9.3840     9.5260    24.4790   -15.5330 
  110.5000     2.1590    64.2290     9.5780     8.5320     8.8060    24.4830   -15.4360 
  110.6250     2.1570    65.8330     8.8780     7.8770     8.5720    24.4600   -15.3350 
  110.7500     2.1560    67.3610     8.5610     7.4810     8.3230    24.4550   -15.2250 
  110.8750     2.1520    67.5660     8.5320     7.3180     8.1190    24.4380   -15.1110 
  111.0000     2.1460    66.0380     8.6520     7.3130     8.5840    24.3720   -14.9840 
  111.1250     2.1440    63.5280     8.7900     7.3870     8.8950    24.2790   -14.8620 
