~V
VERS. 2.00: Ver 2.00
~W
STRT.M 57.0000:
STOP.M 214.0000:
STEP.M 0.1250:
NULL. -999.2500:
UWI. F10147:
~C
DEPT.M :
SP.MV :
GR.API :
RML.OHMM :
RI. :
RXO.OHMM :
CALI.CM :
DEN.GM/CC :
~A
# ...
  113.2500   -10.0260    69.1260     9.4470     8.3340     7.6150    21.7300     2.2350 
  113.3750    -9.9340    70.4620     9.8060     8.5690     7.7710    21.7220     2.2410 
  113.5000    -9.8740    72.5860    10.0240     8.7150     8.1060    21.7940     2.2330 
  113.6250    -9.8490    74.6290    10.0460     8.7230     8.4820    21.8830     2.2210 
  113.7500    -9.8680    76.8650     9.9420     8.6320     8.5050    21.9840     2.2180 
  113.8750    -9.9260    78.6900     9.8950     8.5760     8.1370    22.1320     2.2280 
  114.0000   -10.0070    77.9740    10.0860     8.6980     8.0360    22.2580     2.2450 
  114.1250   -10.0990    73.8140    10.5860     9.0810     8.7430    22.3160     2.2540 
  114.2500   -10.2050    67.7900    11.3480     9.7260     9.9950    22.3280     2.2470 
  114.3750   -10.3080    62.2840    12.1800    10.5250    11.0610    22.3170     2.2290 
  114.5000   -10.4070    59.3730    12.8150    11.2650    11.6760    22.3020     2.2110 
  114.6250   -10.5110    60.4650    13.0720    11.7510    12.0450    22.3140     2.2020 
  114.7500   -10.5970    64.4500    12.9470    11.9020    12.2620    22.3490     2.2010 
  114.8750   -10.6530    67.8180    12.5870    11.7600    12.1990    22.3730     2.2010 
  115.0000   -10.6890    68.3220    12.1880    11.4720    11.9200    22.3860     2.1970 
  115.1250   -10.7110    66.6140    11.8340    11.1450    11.6970    22.4140     2.1900 
  115.2500   -10.7110    64.2850    11.4780    10.7880    11.6540    22.5030     2.1830 
  115.3750   -10.7070    63.0040    10.9990    10.3480    11.5110    22.6810     2.1770 
  115.5000   -10.7000    63.0120    10.3430     9.7950    10.8970    22.8890     2.1730 
  115.6250   -10.6730    64.1910     9.5680     9.1610     9.8210    23.0620     2.1730 
  115.7500   -10.6400    67.3240     8.7960     8.5180     8.6680    23.2100     2.1760 
  115.8750   -10.6110    70.5790     8.1820     7.9730     7.8960    23.3670     2.1830 
  116.0000   -10.5710    70.5000     7.7940     7.5810     7.5870    23.5250     2.1930 
  116.1250   -10.5100    66.8380     7.6070     7.3420     7.5300    23.6480     2.2000 
  116.2500   -10.4380    62.7940     7.5450     7.2180     7.5100    23.7070     2.2030 
  116.3750   -10.3470    61.9460     7.5180     7.1550     7.4130    23.7080     2.2050 
  116.5000   -10.2410    64.8930     7.4670     7.1010     7.2600    23.6750     2.2060 
  116.6250   -10.1200    69.1180     7.3890     7.0390     7.1320    23.6230     2.2100 
  116.7500    -9.9750    71.0300     7.3140     6.9780     7.0920    23.5690     2.2150 
  116.8750    -9.8130    69.9610     7.2780     6.9410     7.2110    23.5450     2.2210 
  117.0000    -9.6510    68.4470     7.2920     6.9390     7.5070    23.5560     2.2280 
  117.1250    -9.4800    68.2910     7.3420     6.9690     7.8700    23.5850     2.2370 
  117.2500    -9.2860    69.7630     7.4020     7.0170     8.0750    23.6100     2.2470 
  117.3750    -9.0790    71.7850     7.4420     7.0570     7.9630    23.6250     2.2560 
  117.5000    -8.8540    73.2630     7.4480     7.0720     7.6980    23.6300     2.2640 
  117.6250    -8.6140    74.7710     7.4320     7.0550     7.5160    23.6170     2.2700 
  117.7500    -8.3690    77.3660     7.4310     7.0310     7.4360    23.5920     2.2780 
  117.8750    -8.1250    79.3500     7.5170     7.0590     7.3730    23.5620     2.2900 
  118.0000    -7.8810    79.4880     7.7280     7.1850     7.3760    23.5970     2.3030 
  118.1250    -7.6450    79.0610     8.0300     7.4060     7.6450    23.6650     2.3170 
  118.2500    -7.4310    79.4810     8.3300     7.6630     8.2750    23.7150     2.3330 
  118.3750    -7.2260    81.0160     8.4760     7.8400     8.8590    23.7900     2.3530 
  118.5000    -7.0260    82.9140     8.3960     7.8580     8.7920    23.9740     2.3730 
  118.6250    -6.8460    84.7730     8.1640     7.7410     8.0260    24.2710     2.3870 
  118.7500    -6.6860    86.3900     8.0340     7.6160     7.1800    24.5810     2.3900 
  118.8750    -6.5270    85.5500     8.4330     7.7240     7.0950    24.7400     2.3880 
  119.0000    -6.3740    80.4680     9.5520     8.2870     8.1910    24.7560     2.3940 
  119.1250    -6.2430    73.2270    11.3470     9.4610    10.5390    24.7440     2.4190 
  119.2500    -6.1260    66.9820    13.7420    11.3180    13.8390    24.7630     2.4610 
  119.3750    -6.0330    61.1980    16.6200    13.8000    17.1550    24.8050     2.5100 
  119.5000    -5.9720    55.4780    19.5890    16.5630    19.6080    24.8070     2.5490 
  119.6250    -5.9270    52.3700    22.1520    19.1580    21.0660    24.7590     2.5660 
  119.7500    -5.8990    52.4340    24.0060    21.2570    21.9020    24.7210     2.5640 
  119.8750    -5.9010    52.2260    25.1000    22.7010    22.3600    24.6600     2.5520 
  120.0000    -5.9160    50.3580    25.7380    23.6550    22.4840    24.5820     2.5420 
  120.1250    -5.9240    49.5810    26.2890    24.3920    22.5610    24.5900     2.5420 
  120.2500    -5.9380    51.1390    26.9490    25.0860    23.2540    24.6790     2.5490 
  120.3750    -5.9510    51.8490    27.7150    25.7710    24.9830    24.7650     2.5610 
  120.5000    -5.9620    49.2300    28.3910    26.3470    26.9620    24.8330     2.5770 
  120.6250    -5.9840    45.2890    28.7240    26.6610    27.9240    24.8900     2.5930 
  120.7500    -6.0060    43.6360    28.5510    26.5980    27.3840    24.9300     2.6070 
  120.8750    -6.0090    44.7870    27.8610    26.1180    25.8940    24.9490     2.6140 
  121.0000    -6.0050    45.8890    26.8970    25.3610    24.4280    24.9390     2.6120 
  121.1250    -6.0030    46.1360    25.9640    24.5480    23.7900    24.8930     2.6020 
  121.2500    -5.9910    46.9570    25.2800    23.8790    24.4480    24.8340     2.5930 
  121.3750    -5.9790    48.8270    25.0270    23.5650    25.6020    24.7940     2.5920 
  121.5000    -5.9730    50.3300    25.2260    23.6830    25.6040    24.8000     2.6020 
  121.6250    -5.9560    49.4400    25.7710    24.1720    24.3560    24.8440     2.6200 
  121.7500    -5.9350    46.1970    26.4690    24.8670    23.4490    24.8920     2.6410 
  121.8750    -5.9270    43.8110    26.9810    25.4460    23.5890    24.9020     2.6580 
  122.0000    -5.9220    44.0780    27.0110    25.6080    23.4800    24.9100     2.6680 
  122.1250    -5.9170    45.1890    26.4900    25.2450    22.3530    24.9260     2.6700 
  122.2500    -5.9160    45.1250    25.5900    24.4810    20.8070    24.9330     2.6620 
  122.3750    -5.9110    44.7900    24.6750    23.6350    19.5040    24.9220     2.6460 
  122.5000    -5.9050    44.9060    24.0620    23.0280    18.9880    24.8960     2.6270 
  122.6250    -5.9010    44.1710    23.8510    22.8130    19.9010    24.8730     2.6110 
  122.7500    -5.8870    42.6870    23.9550    22.9500    21.9450    24.8610     2.6050 
  122.8750    -5.8670    42.6490    24.1520    23.2590    23.1490    24.8520     2.6090 
  123.0000    -5.8520    44.5560    24.2140    23.5080    22.3730    24.8340     2.6220 
  123.1250    -5.8370    46.7540    24.0350    23.5520    20.6950    24.8080     2.6390 
  123.2500    -5.8190    47.3220    23.6250    23.3560    19.7110    24.7650     2.6560 
  123.3750    -5.8070    46.1140    23.0630    22.9540    19.6740    24.7060     2.6690 
  123.5000    -5.8000    45.0290    22.4620    22.4450    19.5860    24.6410     2.6730 
  123.6250    -5.7950    45.5100    21.9170    21.9250    18.8110    24.5900     2.6650 
  123.7500    -5.7930    46.8890    21.4870    21.4680    17.6590    24.5820     2.6470 
  123.8750    -5.7930    47.1780    21.2240    21.1500    16.9260    24.6440     2.6250 
  124.0000    -5.7930    46.0800    21.1220    21.0000    17.0140    24.7660     2.6080 
  124.1250    -5.7960    45.5430    21.1290    20.9980    17.6690    24.8680     2.5980 
  124.2500    -5.8100    46.7530    21.1740    21.0940    18.3550    24.9080     2.5930 
  124.3750    -5.8250    48.5000    21.2080    21.2410    18.6550    24.9340     2.5910 
