~V
VERS. 2.00: Ver 2.00
~W
STRT.M 51.0000:
STOP.M 246.0000:
STEP.M 0.1250:
NULL. -999.2500:
UWI. F10182:
~C
DEPT.M :
SP.MV :
GR.API :
RML.OHMM :
RI. :
RXO.OHMM :
DEN.GM/CC :
CALI.CM :
~A
# ...
   84.7500   -12.4980    53.4590    23.1120    19.1740    27.6620     2.4400    23.7280 
   84.8750   -13.0520    52.7010    18.2980    15.4040    18.6740     2.3450    23.2060 
   85.0000   -13.5770    52.3860    14.8410    12.4170    12.6280     2.2720    22.8210 
   85.1250   -14.0700    53.4510    12.6440    10.3410     9.7100     2.2250    22.6990 
   85.2500   -14.5180    55.2950    11.5200     9.1340     8.9180     2.2050    22.7420 
   85.3750   -14.9250    56.7680    11.0240     8.4740     8.7610     2.1950    22.7700 
   85.5000   -15.2830    57.5440    10.9510     8.1980     8.8310     2.1860    22.7730 
   85.6250   -15.5650    57.9100    11.1130     8.1600     8.7470     2.1720    22.7670 
   85.7500   -15.8040    58.1960    11.3210     8.2360     8.4150     2.1560    22.7480 
   85.8750   -15.9970    57.7020    11.4250     8.3080     8.1030     2.1420    22.7090 
   86.0000   -16.1720    57.1170    11.3800     8.3290     8.0390     2.1330    22.6750 
   86.1250   -16.2990    57.3120    11.2120     8.2800     8.0140     2.1280    22.6500 
   86.2500   -16.4210    59.2820    10.9850     8.1670     7.7380     2.1240    22.5590 
   86.3750   -16.5190    61.3250    10.7820     8.0290     7.4650     2.1190    22.4640 
   86.5000   -16.6210    60.7380    10.6410     7.8920     7.4350     2.1160    22.4850 
   86.6250   -16.7000    57.0240    10.5660     7.7780     7.6680     2.1210    22.5900 
   86.7500   -16.7660    54.9990    10.5500     7.7060     7.8010     2.1380    22.6620 
   86.8750   -16.8240    56.3630    10.5570     7.6670     8.0840     2.1600    22.6970 
   87.0000   -16.8570    59.1970    10.5660     7.6520     8.6420     2.1770    22.7130 
   87.1250   -16.8790    61.9730    10.5680     7.6490     9.2700     2.1820    22.7220 
   87.2500   -16.8770    64.1230    10.5800     7.6480     8.8170     2.1720    22.7140 
   87.3750   -16.8700    64.0290    10.6250     7.6460     8.6130     2.1570    22.6860 
   87.5000   -16.8300    60.2220    10.7020     7.6460     8.7600     2.1460    22.6640 
   87.6250   -16.8080    56.1710    10.7820     7.6510     9.0820     2.1410    22.6650 
   87.7500   -16.7610    57.4250    10.8210     7.6570     9.4360     2.1440    22.7050 
   87.8750   -16.7100    61.1030    10.7990     7.6570     9.8170     2.1490    22.7440 
   88.0000   -16.6500    62.5390    10.7190     7.6380    10.4330     2.1530    22.7600 
   88.1250   -16.5750    60.5110    10.5990     7.5910    10.7290     2.1550    22.7610 
   88.2500   -16.5020    57.7440    10.4360     7.5000    10.5870     2.1560    22.7570 
   88.3750   -16.4030    56.4970    10.2160     7.3680    10.3370     2.1530    22.7490 
   88.5000   -16.2940    57.6910     9.9320     7.2010    10.1030     2.1460    22.7430 
   88.6250   -16.1400    60.3490     9.6370     7.0270     9.8300     2.1390    22.7390 
   88.7500   -15.9900    61.7550     9.4830     6.9240     9.4980     2.1360    22.7370 
   88.8750   -15.8170    61.0350     9.5700     6.9530     8.9500     2.1460    22.7540 
   89.0000   -15.6440    60.5380     9.9070     7.1290     8.4930     2.1710    22.8080 
   89.1250   -15.4540    62.4940    10.3780     7.4030     8.4620     2.2040    22.8860 
   89.2500   -15.2460    65.4130    10.7170     7.6310     9.4450     2.2260    22.8700 
   89.3750   -15.0200    65.5480    10.7140     7.6650    10.4950     2.2320    22.7890 
   89.5000   -14.7810    62.6910    10.3150     7.4420     9.9010     2.2280    22.7250 
   89.6250   -14.5330    60.3630     9.6420     7.0090     8.4700     2.2250    22.7160 
   89.7500   -14.2920    63.3980     8.9400     6.5090     7.3370     2.2360    22.7170 
   89.8750   -14.0860    68.2020     8.4260     6.0990     7.1140     2.2550    22.6880 
   90.0000   -13.9180    71.9620     8.2020     5.8650     7.1300     2.2690    22.6550 
   90.1250   -13.8120    73.1860     8.2960     5.8460     7.1830     2.2690    22.6320 
   90.2500   -13.7670    71.1320     8.7130     6.0770     7.1700     2.2550    22.5990 
   90.3750   -13.8000    67.3470     9.3180     6.4780     7.1890     2.2370    22.5540 
   90.5000   -13.9160    63.5840    10.0000     6.9810     7.2820     2.2210    22.5020 
   90.6250   -14.0900    61.5430    10.6360     7.4990     7.4680     2.2080    22.4240 
   90.7500   -14.3110    61.1200    11.0620     7.9040     7.6870     2.1960    22.2890 
   90.8750   -14.5450    61.0680    11.2230     8.1330     8.0650     2.1840    22.2560 
   91.0000   -14.7740    60.5860    11.1330     8.1790     8.5270     2.1730    22.3480 
   91.1250   -14.9730    58.9520    10.8860     8.0910     8.9400     2.1640    22.4600 
   91.2500   -15.1510    57.0430    10.6300     7.9480     8.9470     2.1570    22.4880 
   91.3750   -15.2920    56.9450    10.4730     7.8280     8.8310     2.1520    22.4630 
   91.5000   -15.3880    58.7300    10.4340     7.7620     8.8380     2.1490    22.4210 
   91.6250   -15.4680    60.1390    10.4820     7.7580     8.7850     2.1490    22.3660 
   91.7500   -15.5080    60.7270    10.5730     7.8120     8.6530     2.1580    22.2770 
   91.8750   -15.5310    61.4260    10.6870     7.9000     8.4590     2.1760    22.2170 
   92.0000   -15.5130    62.4290    10.8330     8.0130     8.3320     2.1980    22.2160 
   92.1250   -15.4960    63.0830    11.0130     8.1390     8.2380     2.2180    22.2980 
   92.2500   -15.4420    62.2170    11.1950     8.2640     8.1940     2.2280    22.4290 
   92.3750   -15.3920    60.6830    11.3300     8.3720     8.2120     2.2230    22.4880 
   92.5000   -15.3400    59.5540    11.3930     8.4480     8.1920     2.2090    22.5010 
   92.6250   -15.2890    59.2910    11.3780     8.4820     8.2030     2.1930    22.5000 
   92.7500   -15.2130    58.0830    11.2900     8.4640     8.2590     2.1820    22.4960 
   92.8750   -15.1110    55.7820    11.1550     8.4070     8.4500     2.1750    22.4860 
   93.0000   -15.0020    53.5840    10.9840     8.3210     8.6920     2.1680    22.4870 
   93.1250   -14.8760    52.8850    10.7920     8.2150     8.8260     2.1580    22.4950 
   93.2500   -14.7410    55.0530    10.6160     8.1090     8.9830     2.1510    22.4980 
   93.3750   -14.5740    58.9360    10.4890     8.0290     9.1040     2.1490    22.4860 
   93.5000   -14.3830    60.7980    10.4390     8.0010     9.0380     2.1530    22.4610 
   93.6250   -14.1790    59.5570    10.4820     8.0410     8.9410     2.1590    22.4520 
   93.7500   -13.9630    59.3060    10.6110     8.1420     8.9670     2.1640    22.4760 
   93.8750   -13.7570    60.2330    10.7140     8.2280     8.9990     2.1700    22.4940 
   94.0000   -13.5380    59.0720    10.6390     8.1940     9.0790     2.1820    22.5200 
   94.1250   -13.3150    55.8100    10.2490     7.9380     9.0040     2.1970    22.5750 
   94.2500   -13.0790    56.3690     9.4840     7.4000     8.4710     2.2050    22.6630 
   94.3750   -12.8480    61.0950     8.5960     6.7410     7.6550     2.2000    22.8270 
   94.5000   -12.6380    66.8350     7.8520     6.1370     6.7360     2.1850    23.1630 
   94.6250   -12.4800    71.9250     7.4780     5.7440     5.8050     2.1730    23.6380 
   94.7500   -12.4260    75.7460     7.6930     5.7250     5.6730     2.1790    23.8750 
   94.8750   -12.4590    77.0040     8.4060     6.0590     6.2840     2.1960    23.7600 
   95.0000   -12.6050    74.6840     9.4770     6.7020     7.5160     2.2160    23.3960 
   95.1250   -12.8380    70.9710    10.6460     7.5300     8.6030     2.2300    23.0240 
   95.2500   -13.1440    66.8440    11.5280     8.3210     9.2220     2.2360    22.7840 
   95.3750   -13.4910    63.2280    11.9660     8.8880     9.4610     2.2380    22.6580 
   95.5000   -13.8420    61.9680    12.0300     9.1940     9.5960     2.2340    22.5760 
   95.6250   -14.1330    62.7060    11.9330     9.3180     9.3750     2.2200    22.5000 
   95.7500   -14.3470    63.6760    11.8690     9.3660     9.7670     2.1970    22.4460 
   95.8750   -14.4750    63.9390    11.8610     9.3940    10.3670     2.1740    22.4240 
