~V
VERS. 2.00: Ver 2.00
~W
STRT.M 63.0000:
STOP.M 207.0000:
STEP.M 0.1250:
NULL. -999.2500:
UWI. F10132:
~C
DEPT.M :
SP.MV :
DEN.GM/CC :
GR.API :
RML.OHMM :
RI. :
RXO.OHMM :
CALI.CM :
~A
# ...
  119.2500   -31.4360     2.2800    85.6480     5.8410     5.4690     5.2970    25.2690 
  119.3750   -31.7490     2.2570    79.6360     5.6390     5.2370     5.4990    25.2400 
  119.5000   -32.0930     2.2450    75.5880     5.7070     5.1830     5.6080    25.2340 
  119.6250   -32.4460     2.2620    76.2900     6.2220     5.4400     5.9380    25.2330 
  119.7500   -32.7830     2.3170    75.7080     7.1950     6.0140     6.5680    25.2280 
  119.8750   -33.0850     2.4080    73.4110     8.6530     6.9220     8.7890    25.2220 
  120.0000   -33.3240     2.5090    70.8050    10.5060     8.1280    13.6550    25.2210 
  120.1250   -33.4770     2.5700    67.9760    12.3730     9.4390    17.0880    25.2230 
  120.2500   -33.5690     2.5720    65.4790    13.6360    10.4420    16.9080    25.2280 
  120.3750   -33.6180     2.5250    64.3960    13.8490    10.7950    14.9700    25.2220 
  120.5000   -33.6450     2.4540    65.1790    12.9710    10.3950    15.0990    25.1090 
  120.6250   -33.6670     2.3800    67.5020    11.3930     9.4330    11.2850    24.7760 
  120.7500   -33.6920     2.3200    69.2720     9.8730     8.4190     8.0010    24.3840 
  120.8750   -33.7110     2.2780    68.3160     8.7880     7.6330     6.6470    24.1290 
  121.0000   -33.7230     2.2550    66.1450     8.2720     7.2060     6.3500    24.0700 
  121.1250   -33.7000     2.2520    67.8520     8.4100     7.2380     6.5660    24.1080 
  121.2500   -33.6310     2.2650    71.8790     8.9950     7.6240     7.2670    24.1540 
  121.3750   -33.5020     2.2870    73.3570     9.8330     8.2550     8.0260    24.2290 
  121.5000   -33.3010     2.3070    69.5700    10.6650     8.9560     8.4230    24.2950 
  121.6250   -33.0130     2.3080    64.1820    11.1450     9.4640     8.1300    24.1800 
  121.7500   -32.6790     2.2890    62.4180    11.1150     9.6030     7.8510    23.8620 
  121.8750   -32.3160     2.2560    65.0210    10.5250     9.2860     7.6410    23.5380 
  122.0000   -31.9350     2.2230    69.0420     9.4760     8.5600     7.4450    23.4500 
  122.1250   -31.5590     2.2060    72.3420     8.2040     7.5870     6.9710    23.7270 
  122.2500   -31.2120     2.2080    75.9590     7.0370     6.6380     6.0220    24.1700 
  122.3750   -30.9250     2.2290    79.8970     6.1620     5.8680     4.9150    24.5900 
  122.5000   -30.7440     2.2570    83.3910     5.6680     5.3600     4.6000    24.8510 
  122.6250   -30.7000     2.2720    85.1210     5.6170     5.1830     5.0440    24.9150 
  122.7500   -30.7710     2.2670    84.9270     5.8810     5.2640     5.7720    24.9220 
  122.8750   -30.9300     2.2520    84.0430     6.4080     5.5730     6.3580    24.8990 
  123.0000   -31.1450     2.2400    81.7520     7.2060     6.1060     6.5740    24.7970 
  123.1250   -31.3550     2.2500    77.6000     8.4490     6.9610     6.9600    24.6170 
  123.2500   -31.5120     2.2940    74.9470    10.2090     8.1690     7.9760    24.5470 
  123.3750   -31.5940     2.3720    72.8360    12.4820     9.7470    10.3620    24.7020 
  123.5000   -31.5910     2.4660    67.7650    14.9870    11.5630    14.9390    24.9770 
  123.6250   -31.5180     2.5310    60.2530    16.8230    13.0670    22.9650    25.1420 
  123.7500   -31.4080     2.5410    56.8140    17.0920    13.5610    23.9010    25.1770 
  123.8750   -31.2850     2.5020    59.4250    15.5290    12.7370    18.1630    25.1690 
  124.0000   -31.1630     2.4430    64.9510    12.8300    10.9880    12.0490    25.1720 
  124.1250   -31.0390     2.3930    71.9970    10.2630     9.1450     8.7630    25.1690 
  124.2500   -30.8890     2.3630    80.6850     8.6150     7.8160     6.9460    25.1760 
  124.3750   -30.6990     2.3470    87.8510     8.0810     7.1900     6.1430    25.2140 
  124.5000   -30.4820     2.3310    89.6240     8.5820     7.2780     6.3630    25.2660 
  124.6250   -30.2720     2.2990    83.2320     9.9520     8.0440     8.5530    25.3170 
  124.7500   -30.0940     2.2580    74.9410    11.5870     9.1190    11.8300    25.4220 
  124.8750   -29.9650     2.2240    70.0360    12.9310    10.1460    15.4700    25.5900 
  125.0000   -29.8840     2.2090    68.9340    13.5310    10.7710    16.0180    25.7410 
  125.1250   -29.8580     2.2140    70.2710    13.2750    10.8050    12.6380    25.7880 
  125.2500   -29.8790     2.2230    73.4790    12.8100    10.5970     9.5880    25.7950 
  125.3750   -29.9290     2.2200    77.6070    12.6160    10.4720     9.8930    25.8190 
  125.5000   -29.9890     2.2030    79.3770    12.8760    10.6100    12.0990    25.8500 
  125.6250   -30.0500     2.1830    75.9560    13.5220    11.0420    14.0880    25.8740 
  125.7500   -30.1150     2.1740    71.9690    14.2830    11.6200    14.2520    25.8950 
  125.8750   -30.1830     2.1780    70.4440    15.1000    12.2880    13.7490    25.9170 
  126.0000   -30.2510     2.1890    70.6160    16.1070    13.0950    12.9890    25.9340 
  126.1250   -30.3030     2.1950    70.8950    17.5880    14.2270    12.7900    25.9550 
  126.2500   -30.3230     2.1880    71.1950    19.3410    15.6140    16.0280    26.0000 
  126.3750   -30.2970     2.1680    70.8250    20.6680    16.8230    21.2130    26.0990 
  126.5000   -30.2130     2.1420    68.9340    20.5560    17.0800    22.6890    26.2610 
  126.6250   -30.0410     2.1290    66.8200    18.1420    15.5830    17.3760    26.3520 
  126.7500   -29.7960     2.1390    67.5420    14.5170    13.0390    10.5680    26.1500 
  126.8750   -29.4980     2.1750    73.5120    10.9030    10.3410     6.6060    25.6130 
  127.0000   -29.1690     2.2310    83.5280     8.1220     8.1260     5.4760    24.9780 
  127.1250   -28.8290     2.2910    90.4410     6.5340     6.7250     5.3230    24.5710 
  127.2500   -28.5140     2.3360    90.7980     5.7820     5.9590     5.3220    24.3760 
  127.3750   -28.2510     2.3580    88.2520     5.6990     5.7390     5.2280    24.2680 
  127.5000   -28.0620     2.3550    88.6250     6.2090     6.0180     5.2670    24.1890 
  127.6250   -27.9590     2.3280    91.1730     7.4130     6.8620     6.1480    24.1510 
  127.7500   -27.9050     2.2930    89.4530     9.2110     8.1880     8.2050    24.1390 
  127.8750   -27.8800     2.2690    83.7110    11.4630     9.9290    10.9680    24.1360 
  128.0000   -27.8500     2.2730    79.2450    13.7440    11.8250    13.6280    24.1400 
  128.1250   -27.7990     2.3110    78.8720    15.0390    13.1040    15.1230    24.1820 
  128.2500   -27.7290     2.3650    79.9480    14.7440    13.1400    15.6720    24.2580 
  128.3750   -27.6560     2.4120    81.5120    13.0190    11.9440    16.2920    24.3100 
  128.5000   -27.6070     2.4370    84.1880    10.7590    10.1860    12.5900    24.2910 
  128.6250   -27.6180     2.4330    87.1190     9.1420     8.7580     7.7850    24.2450 
  128.7500   -27.6990     2.4210    86.8900     8.6810     8.0840     5.9970    24.2880 
  128.8750   -27.8410     2.4230    82.1050     9.5360     8.3110     6.9370    24.4540 
  129.0000   -28.0220     2.4480    73.5530    11.6690     9.4700    10.2420    24.6640 
  129.1250   -28.2210     2.4940    66.2250    14.8490    11.5580    15.8870    24.7860 
  129.2500   -28.3920     2.5330    62.8270    18.0270    13.9390    19.2870    24.8150 
  129.3750   -28.5240     2.5470    61.3870    20.1240    15.8300    18.9530    24.8070 
  129.5000   -28.6260     2.5370    59.9480    20.5410    16.6190    16.1750    24.8040 
  129.6250   -28.7050     2.5210    58.2510    19.6430    16.3130    13.9550    24.7970 
  129.7500   -28.7760     2.5140    56.4020    18.6920    15.7580    13.5160    24.7890 
  129.8750   -28.8290     2.5180    55.2780    18.2480    15.3990    14.0920    24.7600 
  130.0000   -28.8650     2.5260    55.8150    18.3940    15.3800    15.0710    24.6620 
  130.1250   -28.8770     2.5300    59.1750    18.9620    15.6590    15.7750    24.4940 
  130.2500   -28.8580     2.5320    62.7330    19.5990    16.0170    16.1340    24.3560 
  130.3750   -28.7980     2.5330    63.9000    20.1280    16.3270    15.4830    24.3030 
