~V
VERS. 2.00: Ver 2.00
~W
STRT.M 47.0000:
STOP.M 242.0000:
STEP.M 0.1250:
NULL. -999.2500:
UWI. F10188:
~C
DEPT.M :
SP.MV :
DEN.GM/CC :
GR.API :
RML.OHMM :
RI. :
RXO.OHMM :
CALI.CM :
~A
# ...
  148.2500   -22.7330     2.3350    93.8200     4.6350     4.1280     4.2600    25.7240 
  148.3750   -22.4650     2.3290    98.1470     4.6270     4.0710     3.7590    25.7030 
  148.5000   -22.2840     2.3370   102.5090     4.6500     4.0260     3.7090    25.6610 
  148.6250   -22.0950     2.3530   101.9150     4.6510     3.9740     3.8320    25.6250 
  148.7500   -21.8920     2.3660    97.8260     4.6060     3.9100     4.0630    25.6020 
  148.8750   -21.7630     2.3690    95.9030     4.5390     3.8490     4.2920    25.6010 
  149.0000   -21.6380     2.3640    97.3560     4.5220     3.8260     4.4460    25.6220 
  149.1250   -21.4640     2.3580    96.4710     4.6020     3.8630     4.7730    25.6430 
  149.2500   -21.2990     2.3530    92.2460     4.7870     3.9770     5.2650    25.6540 
  149.3750   -21.0970     2.3490    89.3440     5.0420     4.1630     5.9470    25.6680 
  149.5000   -20.7200     2.3490    91.4370     5.2430     4.3760     6.4550    25.6810 
  149.6250   -20.2670     2.3460    94.4840     5.2710     4.5380     6.7220    25.6720 
  149.7500   -19.8190     2.3360    96.0020     5.3150     4.6100     6.6430    25.6510 
  149.8750   -19.3760     2.3200    97.5960     5.3500     4.6040     6.7960    25.6310 
  150.0000   -18.9580     2.3060   100.1860     5.4290     4.5880     7.2270    25.6070 
  150.1250   -18.6680     2.2960   101.1150     5.6000     4.6640     7.5110    25.5910 
  150.2500   -18.5160     2.2890    99.6880     5.9200     4.9070     7.3810    25.5510 
  150.3750   -18.4120     2.2840    96.8640     6.9530     5.3570     7.1350    25.3540 
  150.5000   -18.4330     2.2770    91.2280     7.8320     6.0110     7.2720    24.6830 
  150.6250   -18.5430     2.2670    86.9490     8.6370     6.7040     7.4570    23.6540 
  150.7500   -18.6440     2.2580    87.9800     9.0740     7.2250     7.4590    22.8850 
  150.8750   -18.7350     2.2520    92.1390     8.9170     7.3570     6.9770    22.8490 
  151.0000   -18.8410     2.2520    94.0860     8.1310     6.9560     5.9380    23.4830 
  151.1250   -18.9240     2.2570    93.4180     7.1330     6.2700     4.8570    24.3720 
  151.2500   -18.9720     2.2700    92.2740     6.2200     5.5210     4.0610    25.1990 
  151.3750   -19.0220     2.2850    90.7370     5.3410     4.8720     3.7230    25.7360 
  151.5000   -19.1110     2.2980    91.2540     4.9950     4.4260     3.6610    25.9070 
  151.6250   -19.2360     2.3080    94.4590     4.8240     4.1440     3.5070    25.9220 
  151.7500   -19.3840     2.3170    96.5590     4.7550     3.9880     3.5650    25.8770 
  151.8750   -19.4980     2.3250    95.2560     4.7560     3.9300     4.0060    25.8350 
  152.0000   -19.6070     2.3280    91.0130     4.8800     3.9930     4.7420    25.8100 
  152.1250   -19.7060     2.3250    89.3030     5.1880     4.1980     5.7380    25.8250 
  152.2500   -19.7360     2.3190    91.6340     5.7400     4.5890     6.8530    25.8730 
  152.3750   -19.7120     2.3120    94.1820     6.5490     5.1940     7.9130    25.9160 
  152.5000   -19.6040     2.3090    92.4440     7.5820     6.0300     9.0180    25.9290 
  152.6250   -19.4280     2.3090    89.7990     8.6700     6.9830    10.0100    25.9340 
  152.7500   -19.2660     2.3060    88.5190     9.6820     7.9480    11.0840    25.9530 
  152.8750   -19.1320     2.2920    85.7750    10.5450     8.8360    12.3420    25.9850 
  153.0000   -19.0340     2.2690    78.2470    11.2700     9.6090    13.2640    25.9680 
  153.1250   -18.8970     2.2490    71.3960    11.9840    10.3360    13.7710    25.9150 
  153.2500   -18.7640     2.2390    69.0250    12.7680    11.0780    14.2600    25.9480 
  153.3750   -18.6560     2.2320    69.5460    13.6050    11.8430    14.8570    26.0930 
  153.5000   -18.5320     2.2220    70.5750    14.2620    12.4780    15.3160    26.2350 
  153.6250   -18.4330     2.2120    72.3590    14.4040    12.7390    15.3560    26.2850 
  153.7500   -18.3290     2.2100    76.1130    13.7460    12.3840    14.5840    26.2400 
  153.8750   -18.1980     2.2160    79.2150    12.3100    11.3670    13.7540    26.1360 
  154.0000   -18.0410     2.2280    78.5750    10.6350     9.9950    13.3040    26.0600 
  154.1250   -17.9390     2.2450    75.8710     9.4760     8.8650    13.0500    26.0180 
  154.2500   -17.8500     2.2640    74.4470     9.2220     8.3400    12.8600    26.0030 
  154.3750   -17.7770     2.2780    75.1330    10.0430     8.6470    13.6530    26.0000 
  154.5000   -17.7400     2.2760    74.1960    12.3500    10.1640    16.6000    26.0230 
  154.6250   -17.7190     2.2590    67.6340    16.0500    12.8390    20.8490    26.0880 
  154.7500   -17.7340     2.2340    59.9040    19.8370    16.3600    23.9990    26.1590 
  154.8750   -17.7770     2.2120    56.9570    22.5350    19.6260    25.5710    26.1540 
  155.0000   -17.8150     2.2070    60.2780    22.1630    20.6520    23.4370    26.1000 
  155.1250   -17.8620     2.2150    65.5910    19.7620    19.4860    18.5340    26.0230 
  155.2500   -17.9240     2.2320    70.5580    16.9220    17.2510    13.8210    25.9430 
  155.3750   -17.9910     2.2510    75.6840    14.5960    15.0060    11.2060    25.8520 
  155.5000   -18.0780     2.2660    81.8740    13.0510    13.2760    10.2390    25.7390 
  155.6250   -18.1310     2.2770    87.3490    11.9580    11.9520     9.6060    25.5920 
  155.7500   -18.1710     2.2860    88.3380    11.0850    10.8840     8.8990    25.4480 
  155.8750   -18.2650     2.2940    83.0540    10.2580     9.9400     8.1080    25.3670 
  156.0000   -18.3260     2.3000    78.4400     9.4060     9.0590     7.9200    25.3930 
  156.1250   -18.3350     2.3060    78.7480     8.6270     8.2670     8.4430    25.4580 
  156.2500   -18.3770     2.3130    81.8590     8.1050     7.6790     9.5700    25.5030 
  156.3750   -18.3930     2.3180    84.2110     8.0390     7.4440    11.5850    25.5400 
  156.5000   -18.4180     2.3160    82.4860     8.7580     7.8410    14.1010    25.6350 
  156.6250   -18.4700     2.3070    78.8630    10.3650     8.9940    17.7270    25.7560 
  156.7500   -18.4800     2.2920    76.1870    13.0170    11.1020    22.2120    25.8720 
  156.8750   -18.4670     2.2740    73.9930    16.7300    14.2780    26.5800    25.9570 
  157.0000   -18.5190     2.2590    70.1510    21.0590    18.3210    29.6870    25.9710 
  157.1250   -18.6250     2.2520    66.0230    24.5850    22.0300    30.2450    25.9570 
  157.2500   -18.7050     2.2530    63.7130    26.1150    24.2160    27.4880    25.9690 
  157.3750   -18.7900     2.2600    62.4190    25.5820    24.4570    24.3550    26.0260 
  157.5000   -18.8830     2.2670    60.0920    24.0680    23.3330    23.8390    26.0450 
  157.6250   -18.9700     2.2710    59.2680    22.9330    22.1430    24.3540    26.0140 
  157.7500   -19.1080     2.2710    59.8800    22.7350    21.5510    24.7000    25.9880 
  157.8750   -19.2600     2.2650    58.7900    23.6240    21.8680    25.2080    25.9780 
  158.0000   -19.4660     2.2530    56.9090    25.4480    23.1670    26.4710    25.9880 
  158.1250   -19.7060     2.2420    57.2620    27.2780    24.7810    28.1340    25.9790 
  158.2500   -20.0000     2.2380    59.0330    28.1180    25.8990    29.5640    25.9250 
  158.3750   -20.3590     2.2420    60.2600    27.3140    25.7960    29.7230    25.8250 
  158.5000   -20.6790     2.2520    62.0730    25.1070    24.2790    26.7680    25.6970 
  158.6250   -21.0000     2.2620    64.7560    22.8260    22.3330    22.3430    25.6260 
  158.7500   -21.2970     2.2710    66.8760    21.1050    20.6130    19.3900    25.5820 
  158.8750   -21.5550     2.2780    68.3600    19.9710    19.3410    18.5640    25.5200 
  159.0000   -21.7440     2.2810    67.1460    19.0440    18.3520    18.5050    25.4350 
  159.1250   -21.8330     2.2850    64.5500    17.8380    17.2450    17.5510    25.4480 
  159.2500   -21.8340     2.2920    65.2230    16.2120    15.8240    15.3300    25.5370 
  159.3750   -21.7690     2.2960    69.6060    14.3600    14.1520    12.6160    25.6160 
