~V
VERS. 2.00: Ver 2.00
~W
STRT.M 56.0000:
STOP.M 352.0000:
STEP.M 0.1250:
NULL. -999.2500:
UWI. F10109:
~C
DEPT.M :
DEN.GM/CC :
SP.MV :
GR.API :
RML.OHMM :
RI. :
RXO.OHMM :
CALI.CM :
~A
# ...
  303.5000     2.3130    -4.3660    73.4010     6.2860     5.4750     5.9660    23.4500 
  303.6250     2.3070    -4.3980    74.2150     6.6790     5.7860     6.4900    23.4420 
  303.7500     2.3030    -4.4290    73.1200     7.2270     6.2410     7.3410    23.4110 
  303.8750     2.3010    -4.4400    71.8500     7.9410     6.8580     8.8890    23.4730 
  304.0000     2.3060    -4.4400    72.4630     8.8360     7.6510    10.8380    23.6250 
  304.1250     2.3240    -4.4190    73.5770     9.9450     8.6620    10.9330    23.7500 
  304.2500     2.3580    -4.3900    73.1800    11.1590     9.8110    10.4310    23.8130 
  304.3750     2.4040    -4.3510    69.2630    12.2810    10.9480    10.4560    23.8640 
  304.5000     2.4440    -4.3030    63.3920    13.0220    11.8290    10.7470    23.8730 
  304.6250     2.4540    -4.2500    58.9460    12.9690    12.0660    11.8410    23.8090 
  304.7500     2.4360    -4.1960    56.9920    12.1680    11.6070    13.0860    23.7410 
  304.8750     2.4090    -4.1610    58.6160    10.8640    10.5990    12.9070    23.7000 
  305.0000     2.3950    -4.1640    63.6630     9.4720     9.3830    10.0530    23.6600 
  305.1250     2.4080    -4.1900    68.8350     8.4190     8.3350     7.5730    23.6420 
  305.2500     2.4290    -4.2430    70.9050     7.7840     7.5880     6.3050    23.6800 
  305.3750     2.4370    -4.3270    68.9330     7.5060     7.1360     6.0000    23.7010 
  305.5000     2.4210    -4.4470    65.6050     7.4610     6.9120     5.8820    23.6790 
  305.6250     2.3870    -4.6060    65.6890     7.5240     6.8450     5.9290    23.6810 
  305.7500     2.3520    -4.7970    70.5570     7.5950     6.8460     6.0310    23.7110 
  305.8750     2.3250    -4.9960    75.1240     7.6720     6.8960     6.4850    23.7300 
  306.0000     2.3080    -5.1770    73.8910     7.8180     7.0260     7.3300    23.7450 
  306.1250     2.2950    -5.3780    69.8110     8.1930     7.3430     7.9520    23.7940 
  306.2500     2.2870    -5.5770    69.0300     8.8750     7.9080     7.9020    23.8130 
  306.3750     2.2870    -5.7540    71.0770     9.8610     8.7380     8.4950    23.8030 
  306.5000     2.2970    -5.9000    70.9360    11.0040     9.7570     9.7770    23.7470 
  306.6250     2.3150    -5.9710    66.4130    11.9690    10.7550    11.9500    23.5820 
  306.7500     2.3310    -5.9600    61.7830    12.4960    11.5030    13.5680    23.2430 
  306.8750     2.3410    -5.8560    60.8740    12.5650    11.9170    14.4940    22.8960 
  307.0000     2.3500    -5.6940    63.9030    12.4760    12.1470    14.3690    22.8120 
  307.1250     2.3750    -5.4520    66.0950    12.8530    12.6340    14.9090    22.9120 
  307.2500     2.4260    -5.1430    61.1840    13.9210    13.6220    15.5340    22.8750 
  307.3750     2.4970    -4.7860    48.1660    15.3750    14.9450    19.9540    22.8600 
  307.5000     2.5650    -4.3700    32.6780    16.4820    16.0410    29.9810    23.0470 
  307.6250     2.5890    -3.9430    23.0360    16.1030    15.8990    45.4760    23.4490 
  307.7500     2.5600    -3.5290    19.2250    14.0200    14.1520    58.4130    23.8600 
  307.8750     2.4930    -3.1650    19.3830    10.7730    11.1650    48.2450    24.1170 
  308.0000     2.4160    -2.8500    23.3630     7.5300     8.0240    20.5740    24.1260 
  308.1250     2.3570    -2.6220    29.4040     5.4020     5.7990     7.7210    24.0090 
  308.2500     2.3190    -2.4960    34.0980     4.3190     4.4960     4.1200    23.9100 
  308.3750     2.2990    -2.4520    38.7690     3.9950     3.9130     3.3740    23.8480 
  308.5000     2.2910    -2.4850    43.5030     4.1300     3.8280     3.4720    23.8130 
  308.6250     2.2940    -2.5760    45.8210     4.4710     4.0630     3.6640    23.7990 
  308.7500     2.3030    -2.6980    45.1530     4.7680     4.3740     3.9160    23.7400 
  308.8750     2.3160    -2.8370    44.0560     4.9110     4.6270     4.2390    23.6140 
  309.0000     2.3270    -2.9910    43.7150     4.8870     4.7580     4.4550    23.4400 
  309.1250     2.3320    -3.1370    43.2310     4.7770     4.7710     4.1990    23.3910 
  309.2500     2.3290    -3.2570    43.7660     4.7120     4.7600     4.0440    23.4000 
  309.3750     2.3240    -3.3660    46.5510     4.7500     4.7820     4.1110    23.4300 
  309.5000     2.3210    -3.4680    50.8160     4.8870     4.8550     4.3160    23.4900 
  309.6250     2.3220    -3.5660    53.8720     5.0490     4.9330     4.5420    23.5530 
  309.7500     2.3270    -3.6710    53.6370     5.1250     4.9380     4.5560    23.5890 
  309.8750     2.3350    -3.7740    51.4970     5.0480     4.8140     4.7260    23.6120 
  310.0000     2.3450    -3.8580    49.3760     4.8160     4.5580     4.8980    23.6510 
  310.1250     2.3600    -3.9290    46.9480     4.5170     4.2450     4.8240    23.6710 
  310.2500     2.3760    -4.0130    42.2870     4.3220     4.0130     4.4690    23.6900 
  310.3750     2.3880    -4.1250    36.7330     4.3520     3.9670     4.1030    23.7860 
  310.5000     2.3890    -4.2580    34.8490     4.6660     4.1640     4.1710    23.9100 
  310.6250     2.3750    -4.4140    39.4200     5.2700     4.6480     4.8880    23.9980 
  310.7500     2.3520    -4.5540    45.9470     6.0110     5.3150     5.9000    24.1080 
  310.8750     2.3330    -4.6890    51.6580     6.7470     6.0590     6.5420    24.2340 
  311.0000     2.3250    -4.8430    55.2110     7.3390     6.7440     6.6490    24.2310 
  311.1250     2.3320    -4.9960    57.1870     7.6340     7.1850     6.6300    24.0380 
  311.2500     2.3450    -5.1190    58.5950     7.6440     7.3340     6.7390    23.7740 
  311.3750     2.3590    -5.1780    59.9310     7.4020     7.1880     6.5910    23.5380 
  311.5000     2.3670    -5.1870    60.1820     6.9620     6.7980     6.2910    23.3400 
  311.6250     2.3660    -5.1740    57.3030     6.3710     6.2220     6.0050    23.1960 
  311.7500     2.3560    -5.1870    52.6160     5.7250     5.5790     5.8410    23.1510 
  311.8750     2.3430    -5.2370    46.4980     5.1030     4.9480     5.6580    23.1640 
  312.0000     2.3350    -5.3130    40.1770     4.5840     4.4010     4.8780    23.2100 
  312.1250     2.3400    -5.4490    36.4190     4.2710     4.0230     3.8880    23.3170 
  312.2500     2.3570    -5.6470    36.1140     4.1820     3.8320     3.4500    23.4260 
  312.3750     2.3760    -5.9210    38.2630     4.3320     3.8480     3.4160    23.4800 
  312.5000     2.3880    -6.3010    42.8440     4.7190     4.0800     3.5530    23.5100 
  312.6250     2.3860    -6.7860    53.5180     5.3340     4.5410     3.9120    23.5870 
  312.7500     2.3750    -7.3260    66.1370     6.0530     5.1320     4.4920    23.6640 
  312.8750     2.3590    -7.9040    74.5210     6.7520     5.7510     5.3610    23.7270 
  313.0000     2.3440    -8.5000    77.2480     7.2920     6.2710     6.2650    23.8080 
  313.1250     2.3330    -9.1160    78.2580     7.5160     6.5430     6.8040    23.8750 
  313.2500     2.3260    -9.7470    77.9780     7.4540     6.5680     6.9640    23.9100 
  313.3750     2.3250   -10.4000    74.6420     7.1950     6.4060     7.0190    23.9240 
  313.5000     2.3300   -11.0470    69.8680     6.8750     6.1630     6.8860    23.9510 
  313.6250     2.3380   -11.6800    65.9830     6.6580     5.9600     6.2380    23.9390 
  313.7500     2.3450   -12.3240    65.3040     6.6270     5.8670     5.9140    23.7960 
  313.8750     2.3450   -12.9890    68.9410     6.8120     5.9180     6.0010    23.6580 
  314.0000     2.3380   -13.6980    74.3720     7.2120     6.1330     5.9760    23.7200 
  314.1250     2.3230   -14.4480    77.4900     7.8470     6.5530     6.2310    23.9580 
  314.2500     2.3080   -15.2270    78.9210     8.6530     7.1490     6.9510    24.1910 
  314.3750     2.2950   -15.9870    81.4500     9.5700     7.8910     7.7420    24.3310 
  314.5000     2.2880   -16.7100    85.6060    10.4920     8.7040     8.3450    24.3870 
  314.6250     2.2880   -17.3570    89.1730    11.1920     9.4230     8.7570    24.3930 
