~V
VERS. 2.00: Ver 2.00
~W
STRT.M 57.0000:
STOP.M 281.0000:
STEP.M 0.1250:
NULL. -999.2500:
UWI. F10139:
~C
DEPT.M :
SP.MV :
GR.API :
RML.OHMM :
RI. :
RXO.OHMM :
CALI.CM :
DEN.GM/CC :
~A
# ...
  158.2500    -9.0930    81.9430     5.7810     5.0570     5.7460    23.1940     2.3400 
  158.3750    -8.9550    87.9340     5.7260     5.0190     5.6920    23.1710     2.3350 
  158.5000    -8.8430    94.2520     5.6500     4.9760     5.6520    23.1640     2.3300 
  158.6250    -8.7440    97.3840     5.5680     4.9300     5.6100    23.1600     2.3300 
  158.7500    -8.6580    94.9040     5.5000     4.8850     5.5250    23.1490     2.3340 
  158.8750    -8.6170    90.5890     5.4690     4.8450     5.4270    23.1190     2.3390 
  159.0000    -8.6190    89.5330     5.4800     4.8190     5.3790    23.0460     2.3420 
  159.1250    -8.7080    92.0630     5.5200     4.8220     5.4270    22.9670     2.3420 
  159.2500    -8.8820    94.3100     5.5560     4.8540     5.5070    22.9030     2.3430 
  159.3750    -9.1360    95.0790     5.5780     4.9040     5.5310    22.8650     2.3470 
  159.5000    -9.4290    95.2720     5.5970     4.9540     5.5130    22.8340     2.3550 
  159.6250    -9.6800    93.2450     5.6270     4.9750     5.4840    22.7670     2.3620 
  159.7500    -9.8880    89.2970     5.6460     4.9540     5.4650    22.6380     2.3690 
  159.8750   -10.0160    87.2950     5.6090     4.8870     5.4430    22.5130     2.3730 
  160.0000   -10.0690    89.3050     5.4950     4.7850     5.4240    22.4660     2.3760 
  160.1250   -10.0370    91.5550     5.3360     4.6770     5.3980    22.5290     2.3770 
  160.2500    -9.9770    90.6100     5.2370     4.6210     5.3860    22.5970     2.3750 
  160.3750    -9.9010    88.1900     5.2790     4.6640     5.4080    22.6350     2.3680 
  160.5000    -9.8250    87.3620     5.4960     4.8380     5.5520    22.6450     2.3610 
  160.6250    -9.8070    86.8340     5.8930     5.1610     6.0470    22.6450     2.3570 
  160.7500    -9.8220    85.3370     6.3640     5.5520     6.8220    22.6450     2.3580 
  160.8750    -9.8320    85.0580     6.7760     5.9080     7.4500    22.6390     2.3610 
  161.0000    -9.8180    86.2280     6.9710     6.1060     7.2870    22.6240     2.3590 
  161.1250    -9.7940    86.9750     6.8010     6.0330     6.9060    22.6010     2.3520 
  161.2500    -9.9140    87.9310     6.4150     5.7960     6.5310    22.6070     2.3420 
  161.3750   -10.4890    88.9760     6.0400     5.5590     6.1720    22.6690     2.3330 
  161.5000   -11.1500    87.6430     5.9240     5.4980     5.9380    22.7900     2.3290 
  161.6250   -11.2490    83.0860     6.3730     5.8290     6.1620    22.9160     2.3260 
  161.7500   -11.2550    79.4330     7.4270     6.6010     7.1510    23.0090     2.3210 
  161.8750   -11.3160    75.8990     9.0480     7.8370     8.9130    23.0980     2.3100 
  162.0000   -11.4660    71.8230    10.9570     9.3970    10.7410    23.1510     2.2930 
  162.1250   -11.6480    69.9240    12.3620    10.7060    11.8520    23.1760     2.2710 
  162.2500   -11.6480    70.9920    12.5650    11.0840    12.0290    23.1940     2.2490 
  162.3750   -11.1680    72.4180    11.4820    10.3520    11.9220    23.2040     2.2320 
  162.5000   -10.5430    73.0380     9.7010     8.9650    10.9920    23.1880     2.2260 
  162.6250   -10.4260    76.5010     8.1210     7.6410     8.6210    23.1620     2.2330 
  162.7500   -10.4080    82.9630     7.2630     6.8040     6.8720    23.1370     2.2500 
  162.8750   -10.4050    86.9850     7.3500     6.6290     6.8010    23.1270     2.2790 
  163.0000   -10.4120    82.4620     8.5730     7.2810     7.9600    23.1440     2.3140 
  163.1250   -10.4530    69.1940    11.5390     9.3300     9.2790    23.1590     2.3500 
  163.2500   -10.5300    59.5220    16.4280    13.1470    11.6840    23.1640     2.3730 
  163.3750   -10.6470    57.8510    23.2890    19.0520    17.8730    23.1720     2.3720 
  163.5000   -10.8600    59.4020    31.2380    26.4740    25.4840    23.1900     2.3440 
  163.6250   -11.1190    59.0100    37.3840    32.9040    29.4570    23.2450     2.2920 
  163.7500   -11.4140    58.5460    39.3230    35.8580    31.4930    23.3260     2.2400 
  163.8750   -11.6590    58.8070    37.0200    34.9150    32.3890    23.3850     2.2040 
  164.0000   -11.8290    58.5840    32.4840    31.5260    30.1690    23.3700     2.1920 
  164.1250   -11.9970    59.1060    28.0840    27.7270    25.8420    23.2750     2.2010 
  164.2500   -12.1250    61.1620    24.9620    24.7850    23.3840    23.2140     2.2170 
  164.3750   -12.1950    62.3630    23.4340    23.0670    20.0610    23.1800     2.2300 
  164.5000   -12.2180    61.1880    23.6160    22.7360    18.2070    23.1680     2.2350 
  164.6250   -12.2260    59.9610    25.6080    24.0200    19.4500    23.1780     2.2300 
  164.7500   -12.2210    60.4520    28.3930    26.2220    21.8110    23.2200     2.2180 
  164.8750   -12.1720    62.4440    30.4890    28.1570    23.3500    23.2950     2.2030 
  165.0000   -12.0790    65.2380    29.9970    28.0370    23.7840    23.3530     2.1910 
  165.1250   -11.9670    68.5290    24.3540    23.2910    22.2550    23.2840     2.1920 
  165.2500   -11.8820    74.4130    15.1060    15.1440    15.2780    23.0980     2.2100 
  165.3750   -11.8400    79.6710    11.0020    11.3380     9.6110    23.0030     2.2460 
  165.5000   -11.8880    83.0860     8.6550     8.9480     6.9020    22.9380     2.2920 
  165.6250   -12.0580    83.9230     7.9030     7.8730     6.6560    22.9220     2.3370 
  165.7500   -12.3070    84.9340     8.0310     7.6180     7.2100    22.9090     2.3720 
  165.8750   -12.6150    86.2840     8.6590     7.9660     7.7020    22.9050     2.3940 
  166.0000   -12.9490    84.6410     9.4590     8.6820     7.9650    22.9070     2.4070 
  166.1250   -13.2630    80.7720    10.1520     9.4720     8.1840    22.8970     2.4140 
  166.2500   -13.5360    79.1390    10.6290    10.0950     8.3630    22.8690     2.4150 
  166.3750   -13.7950    79.7000    10.8770    10.4820     8.5720    22.8330     2.4130 
  166.5000   -14.0170    80.8100    10.9200    10.6500     8.8390    22.8020     2.4100 
  166.6250   -14.1520    80.3070    10.7710    10.6190     9.0380    22.8000     2.4070 
  166.7500   -14.2280    79.3110    10.5350    10.4840     9.0840    22.7900     2.4040 
  166.8750   -14.3040    78.9890    10.3030    10.3100     9.0270    22.7060     2.3970 
  167.0000   -14.3930    79.3960    10.1640    10.1510     9.0560    22.5520     2.3880 
  167.1250   -14.5130    77.9830    10.1850    10.0580     9.1890    22.4180     2.3820 
  167.2500   -14.6500    74.7480    10.3270    10.0390     9.3630    22.4400     2.3840 
  167.3750   -14.7620    73.4650    10.5330    10.0840     9.6660    22.7150     2.3920 
  167.5000   -14.8480    75.3130    10.7390    10.1630    10.0660    23.2670     2.4020 
  167.6250   -14.9760    77.2380    10.8730    10.2390    10.3940    23.8470     2.4080 
  167.7500   -15.1610    77.6590    10.9290    10.2850    10.5840    24.1110     2.4110 
  167.8750   -15.3310    77.4690    10.9250    10.2980    10.7910    24.2250     2.4120 
  168.0000   -15.4870    77.9680    10.8970    10.3010    11.0830    24.3510     2.4140 
  168.1250   -15.6780    79.4300    10.9020    10.3470    11.4660    24.4420     2.4170 
  168.2500   -15.9290    80.9130    10.9980    10.4790    11.4750    24.4770     2.4160 
  168.3750   -16.2290    80.1590    11.2310    10.7260    11.3880    24.4840     2.4090 
  168.5000   -16.5750    76.6520    11.6100    11.0930    11.8700    24.4920     2.3970 
  168.6250   -16.9290    74.3690    12.0730    11.5370    12.0920    24.4960     2.3780 
  168.7500   -17.2370    75.7980    12.4670    11.9550    12.2530    24.5030     2.3510 
  168.8750   -17.5110    79.8540    12.6800    12.2700    12.4260    24.5140     2.3110 
  169.0000   -17.7480    84.2460    12.6660    12.4310    12.5510    24.5490     2.2570 
  169.1250   -17.9360    85.5120    12.4390    12.4100    12.4340    24.5530     2.1940 
  169.2500   -18.0680    83.2200    12.1260    12.2810    12.3300    24.5130     2.1440 
  169.3750   -18.1650    79.4960    11.8150    12.1150    12.1600    24.4800     2.1240 
