~V
VERS. 2.00: Ver 2.00
~W
STRT.M 53.0000:
STOP.M 242.0000:
STEP.M 0.1250:
NULL. -999.2500:
UWI. F10177:
~C
DEPT.M :
SP.MV :
GR.API :
RML.OHMM :
RI. :
RXO.OHMM :
CALI.CM :
DEN.GM/CC :
~A
# ...
  233.0000     3.1250    70.4690    14.2280    13.0770    14.8680    25.0220     2.4910 
  233.1250     3.1590    70.4690    13.9630    12.7850    11.8640    25.0660     2.4940 
  233.2500     3.2060    70.4690    13.8920    12.6650     9.7670    25.1620     2.5000 
  233.3750     3.2950    70.4690    14.0310    12.7620     9.6730    24.8560     2.5100 
  233.5000     3.3990    70.4690    14.2400    12.9600    11.8030    24.6390     2.5180 
  233.6250     3.5080    70.4690    14.3780    13.1280    16.3360    24.7320     2.5160 
  233.7500     3.7290    70.4690    14.3290    13.1300    15.5620    24.9660     2.4990 
  233.8750     3.9640    70.4690    14.0310    12.8700    10.5860    25.0200     2.4720 
  234.0000     4.1140    70.4690    13.6180    12.4620     7.8960    24.7960     2.4490 
  234.1250     4.2550    70.4690    13.2380    12.0410     7.1910    24.6190     2.4400 
  234.2500     4.3690    70.4690    13.0250    11.7370     7.3230    24.5860     2.4490 
  234.3750     4.4330    70.4690    13.0800    11.6650     7.1840    24.6230     2.4660 
  234.5000     4.4860    70.4690    13.3150    11.7750     7.4870    24.6260     2.4810 
  234.6250     4.5010    70.4690    13.6260    11.9830     8.3950    24.5750     2.4900 
  234.7500     4.4020    70.4690    13.9100    12.1900     9.7220    24.7640     2.4970 
  234.8750     4.2530    70.4690    14.1040    12.3290    10.3290    25.2080     2.5060 
  235.0000     4.1370    70.4690    14.2550    12.4300    10.6660    25.5090     2.5170 
  235.1250     4.0360    70.4690    14.4420    12.5600    11.2200    25.2390     2.5260 
  235.2500     3.9250    70.4690    14.7410    12.7940    11.7960    25.0170     2.5310 
  235.3750     3.7840    70.4690    15.2200    13.2010    13.1670    25.0430     2.5270 
  235.5000     3.6510    70.4690    15.8390    13.7560    16.0900    24.9530     2.5140 
  235.6250     3.5710    70.4690    16.5490    14.4230    19.2000    24.7830     2.4930 
  235.7500     3.5530    70.4690    17.2870    15.1390    18.3730    24.7110     2.4700 
  235.8750     3.5980    70.4690    17.9400    15.7910    18.5160    24.7550     2.4580 
  236.0000     3.6470    70.4690    18.3900    16.2550    21.1050    24.7110     2.4670 
  236.1250     3.6520    70.4690    18.5360    16.4160    26.1150    24.6470     2.4940 
  236.2500     3.6510    70.4690    18.3420    16.2330    31.5590    24.6360     2.5240 
  236.3750     3.6680    70.4690    17.8600    15.7660    23.7000    24.6730     2.5360 
  236.5000     3.7220    70.4690    17.3120    15.2480    16.6760    24.6870     2.5220 
  236.6250     3.7420    70.4690    16.8450    14.8260    12.1660    24.7420     2.4890 
  236.7500     3.7350    70.4690    16.5350    14.5650    10.8660    24.9130     2.4500 
  236.8750     3.6830    70.4690    16.3920    14.4650    10.9080    25.2770     2.4240 
  237.0000     3.6150    70.4690    16.3350    14.4330    10.8180    25.3370     2.4180 
  237.1250     3.5220    70.4690    16.3160    14.4230    11.0080    25.0030     2.4300 
  237.2500     3.4220    70.4690    16.3110    14.4220    11.9500    24.8700     2.4520 
  237.3750     3.3270    70.4690    16.3110    14.4220    13.2640    24.8370     2.4750 
  237.5000     3.1930    70.4690    16.3110    14.4220    14.2920    24.6030     2.4910 
  237.6250     2.9960    70.4690    16.3110    14.4220    14.6210    24.4700     2.4920 
  237.7500     2.7490    70.4690    16.3110    14.4220    14.7070    24.4700     2.4780 
  237.8750     2.4570    70.4690    16.3110    14.4220    13.6650    24.5370     2.4470 
  238.0000     2.1650    70.4690    16.3110    14.4220    12.1940    24.8700     2.4110 
  238.1250     1.9750    70.4690    16.3110    14.4220    10.9490    25.2030     2.3830 
  238.2500     1.8610    70.4690    16.3110    14.4220    11.0220    25.2700     2.3730 
  238.3750     1.7190    70.4690    16.3110    14.4220    12.6550    25.4030     2.3890 
  238.5000     1.5440    70.4690    16.3110    14.4220    13.9460    25.1960     2.4200 
  238.6250     1.4380    70.4690    16.3110    14.4220    14.1150    25.0810     2.4550 
  238.7500     1.3580    70.4690    16.3110    14.4220    13.3310    24.8400     2.4840 
  238.8750     1.2990    70.4690    16.3110    14.4220    13.2560    24.6790     2.5010 
  239.0000     1.2600    70.4690    16.3110    14.4220    13.7640    24.6210     2.5080 
  239.1250     1.1770    70.4690    16.3110    14.4220    14.0930    24.7010     2.5100 
  239.2500     1.0510    70.4690    16.3110    14.4220    14.1510    24.8400     2.5100 
  239.3750     0.9960    70.4690    16.3110    14.4220    14.9220    24.9780     2.5120 
  239.5000     0.9830    70.4690    16.3110    14.4220    15.7510    24.8140     2.5160 
  239.6250     0.9790    70.4690    16.3110    14.4220    15.8750    24.6870     2.5200 
  239.7500     0.9790    70.4690    16.3110    14.4220    14.0020    24.6330     2.5200 
  239.8750     0.9790    70.4690    16.3110    14.4220    11.8320    24.6330     2.5080 
  240.0000  -999.2500    70.4690    16.3110    14.4220    10.5430    24.6050     2.4860 
  240.1250  -999.2500    70.4690    16.3110    14.4220    10.1860    24.5900     2.4570 
  240.2500  -999.2500    70.4690    16.3110    14.4220     9.8360    24.6840     2.4260 
  240.3750  -999.2500    70.4690    16.3110    14.4220    10.1730    24.8900     2.4050 
  240.5000  -999.2500    70.4690    16.3110    14.4220    11.8700    25.0580     2.3980 
  240.6250  -999.2500    70.4690    16.3110    14.4220    14.0240    24.9370     2.4100 
  240.7500  -999.2500    70.4690    16.3110    14.4220    15.0870    24.6890     2.4380 
  240.8750  -999.2500    70.4690    16.3110    14.4220    15.4040    24.5580     2.4580 
  241.0000  -999.2500    70.4690    16.3110    14.4220    15.8610    24.4760     2.4340 
  241.1250  -999.2500    70.4690    16.3110    14.4220    16.0240    24.3950     2.3380 
  241.2500  -999.2500    70.4690    16.3110    14.4220    14.2900    23.7970     2.1690 
  241.3750  -999.2500    70.4690    16.3110    14.4220    10.8930    22.0450     1.9630 
  241.5000  -999.2500    70.4690    16.3110    14.4220     8.0780    19.3580     1.7810 
  241.6250  -999.2500    70.4690    16.3110    14.4220     7.2100    18.0960     1.6560 
  241.7500  -999.2500    70.4690    16.3110    14.4220     7.0390    17.7420     1.5930 
  241.8750  -999.2500    70.4690    16.3110    14.4220     7.0380    17.7380     1.5740 
  242.0000  -999.2500    70.4690    16.3110    14.4220     7.0380    17.7380     1.5710 
