~V
VERS. 2.00: Ver 2.00
~W
STRT.M 58.0000:
STOP.M 228.0000:
STEP.M 0.1250:
NULL. -999.2500:
UWI. F10151:
~C
DEPT.M :
SP.MV :
GR.API :
RML.OHMM :
RI. :
RXO.OHMM :
CALI.CM :
DEN.GM/CC :
~A
# ...
  103.0000   -13.6750    89.9980     7.5960     6.1510     5.9180    25.5780     2.2200 
  103.1250   -10.8860    97.5450     6.9680     5.6230     5.2830    24.9410     2.2590 
  103.2500    -8.2920   101.5120     6.6270     5.3020     5.1560    24.6040     2.2820 
  103.3750    -6.0580   102.8040     6.5190     5.1710     5.1110    24.5140     2.2890 
  103.5000    -4.2740   102.7890     6.5290     5.1630     5.0450    24.5080     2.2890 
  103.6250    -3.0750   101.3390     6.5120     5.1860     5.1340    24.4710     2.2890 
  103.7500    -2.3410   101.6070     6.4060     5.1730     5.1480    24.4610     2.2930 
  103.8750    -1.9540   105.4150     6.2490     5.1380     4.9330    24.4840     2.3060 
  104.0000    -1.7870   110.5580     6.1350     5.1360     4.7300    24.4860     2.3290 
  104.1250    -1.7170   112.2240     6.1730     5.2340     4.8660    24.4500     2.3570 
  104.2500    -1.7330   107.9250     6.3380     5.4170     5.5220    24.3730     2.3790 
  104.3750    -1.8210   101.5230     6.5360     5.6180     7.0320    24.2840     2.3880 
  104.5000    -2.0240    98.8160     6.6410     5.7360     8.4550    24.2260     2.3830 
  104.6250    -2.3720   101.1820     6.5480     5.6680     8.4810    24.1690     2.3720 
  104.7500    -2.8160   104.3630     6.3320     5.4750     6.3820    23.9640     2.3630 
  104.8750    -3.3070   104.3700     6.1120     5.2630     5.1780    23.6410     2.3570 
  105.0000    -3.7930   100.1770     5.9950     5.1280     4.6740    23.3710     2.3480 
  105.1250    -4.2660    93.3640     6.0350     5.1300     4.7370    23.3170     2.3300 
  105.2500    -4.6420    87.5340     6.1500     5.2200     5.2340    23.3800     2.3090 
  105.3750    -4.9320    84.4360     6.2560     5.3380     5.8680    23.4460     2.2940 
  105.5000    -5.1710    85.4350     6.3030     5.4260     6.1030    23.4630     2.2900 
  105.6250    -5.4450    89.1950     6.3130     5.4630     5.6590    23.4570     2.2970 
  105.7500    -5.8600    90.5720     6.3940     5.5060     5.3340    23.4760     2.3030 
  105.8750    -6.4620    88.9290     6.6480     5.6290     5.4540    23.3740     2.3030 
  106.0000    -7.2540    86.8400     7.1340     5.8950     6.1090    23.1840     2.2940 
  106.1250    -8.2170    85.2100     7.8290     6.3440     6.9270    23.0410     2.2800 
  106.2500    -9.2820    81.8070     8.5130     6.8670     7.9260    23.0120     2.2640 
  106.3750   -10.3710    78.0830     8.9530     7.2930     8.8390    23.0650     2.2450 
  106.5000   -11.3420    77.2000     8.9890     7.4410     9.3130    23.1080     2.2220 
  106.6250   -12.0250    77.9880     8.6650     7.2610     9.2820    23.0760     2.2020 
  106.7500   -12.3550    78.0520     8.4650     7.0720     8.8700    23.0550     2.2040 
  106.8750   -12.2910    78.0080     8.9730     7.2380     8.3900    23.0540     2.2430 
  107.0000   -11.8550    76.4790    10.8010     8.1660     8.2960    23.0630     2.3260 
  107.1250   -10.9630    70.1130    14.6410    10.5870    11.1240    23.1040     2.4380 
  107.2500    -9.7980    64.3410    19.6040    14.5430    20.0520    23.2050     2.5400 
  107.3750    -8.5030    63.6820    23.7530    19.1110    36.7100    23.4530     2.6000 
  107.5000    -7.2220    67.0050    24.6900    21.4700    48.4240    23.8330     2.6000 
  107.6250    -6.1000    73.0430    20.9380    18.5320    38.5020    24.1760     2.5350 
  107.7500    -5.1840    81.5220    15.1860    13.4360    21.9890    24.3510     2.4430 
  107.8750    -4.5410    89.7640     9.9450     9.0240    12.7240    24.3660     2.3540 
  108.0000    -4.1900    92.4600     6.5180     6.1700     6.3830    24.2810     2.2930 
  108.1250    -4.2690    90.9930     5.0520     4.7720     4.7290    24.1420     2.2690 
  108.2500    -4.6810    90.6720     4.6320     4.1660     4.5100    23.9710     2.2670 
  108.3750    -5.3280    89.7060     4.8320     4.1120     4.9730    23.8230     2.2740 
  108.5000    -6.2150    87.8410     5.3830     4.4620     5.8380    23.8530     2.2820 
  108.6250    -7.3930    87.0690     6.1440     5.1290     6.1480    24.0230     2.2850 
  108.7500    -8.8490    87.9950     6.9920     5.9540     6.2130    24.0850     2.2760 
  108.8750   -10.5080    86.2630     7.8740     6.8590     7.3220    24.0940     2.2480 
  109.0000   -12.2910    79.8570     8.7150     7.7500     9.4070    24.2980     2.2030 
  109.1250   -14.1210    74.0030     9.3730     8.4670    10.5590    24.6490     2.1510 
  109.2500   -15.9180    71.8580     9.7760     8.9170    10.7580    24.8620     2.1090 
  109.3750   -17.6820    70.0700     9.9130     9.0620    10.7070    24.7870     2.0890 
  109.5000   -19.3210    66.2070     9.8490     8.9460    10.7780    24.6040     2.0910 
  109.6250   -20.6930    63.2040     9.6900     8.6720    10.6970    24.6280     2.1110 
  109.7500   -21.7280    61.7130     9.5350     8.3690    10.4070    24.6940     2.1350 
  109.8750   -22.4120    59.8720     9.4130     8.0820    10.5300    24.7230     2.1570 
  110.0000   -22.7310    58.3420     9.3610     7.8490    10.6520    24.7280     2.1790 
  110.1250   -22.7050    60.1650     9.5050     7.7740    10.5610    24.6600     2.2000 
  110.2500   -22.4420    63.8820     9.9510     7.9370    10.3170    24.4660     2.2140 
  110.3750   -21.9870    66.2040    10.7620     8.3960    10.3000    24.1710     2.2080 
  110.5000   -21.3910    65.7800    11.8610     9.1340    10.4690    23.9330     2.1770 
  110.6250   -20.6990    64.2680    12.9490     9.9990    10.5450    23.5870     2.1270 
  110.7500   -19.9970    63.5110    13.6250    10.6530    10.6950    23.2940     2.0830 
  110.8750   -19.3440    63.6050    13.6520    10.8270    10.3930    23.1420     2.0600 
  111.0000   -18.7760    65.0520    13.0390    10.4620     9.7220    23.1750     2.0660 
  111.1250   -18.2880    67.7230    12.0360     9.7340     9.5660    23.2820     2.0930 
  111.2500   -17.8860    70.4180    11.0780     8.9970     9.7030    23.2780     2.1240 
  111.3750   -17.5460    70.9170    10.3810     8.4170     9.8540    23.1900     2.1510 
  111.5000   -17.2960    70.2510     9.9990     8.0510     9.7030    23.1280     2.1680 
  111.6250   -17.1340    71.4920     9.8940     7.8920     9.5170    23.1320     2.1770 
  111.7500   -17.0590    72.5400     9.9050     7.8380     9.3240    23.2370     2.1810 
  111.8750   -17.0560    70.4830     9.9450     7.8300     9.3440    23.5730     2.1790 
  112.0000   -17.1740    66.3130     9.9660     7.8340     9.7360    24.1820     2.1720 
  112.1250   -17.4000    64.9810     9.9390     7.8290    10.0650    24.8310     2.1640 
  112.2500   -17.7000    65.7920     9.8670     7.8090    10.0330    25.0970     2.1590 
  112.3750   -18.0620    65.6470     9.7670     7.7850    10.1370    24.9490     2.1610 
  112.5000   -18.4430    65.0040     9.6780     7.7760    10.3930    24.5810     2.1680 
  112.6250   -18.7860    66.4010     9.6950     7.8280    10.5610    24.3090     2.1710 
  112.7500   -19.0260    66.1790     9.8870     7.9890    10.7770    24.1790     2.1690 
  112.8750   -19.1130    62.8360    10.2640     8.2840    10.9090    24.1320     2.1720 
  113.0000   -18.9370    60.1540    10.7230     8.6610    10.9470    24.2110     2.1980 
  113.1250   -18.4240    61.8260    10.9900     8.9290    11.4260    24.3920     2.2540 
  113.2500   -17.5360    64.6120    10.8420     8.8840    13.2500    24.4630     2.3160 
  113.3750   -16.3460    66.9470    10.2020     8.4260    15.8770    24.3240     2.3580 
  113.5000   -14.9120    72.2520     9.1770     7.6160    13.9390    24.2710     2.3660 
  113.6250   -13.3530    78.8910     8.0340     6.6650     9.0770    24.4490     2.3470 
  113.7500   -11.7750    81.5260     7.0600     5.8210     6.5100    24.5370     2.3280 
  113.8750   -10.2500    81.0850     6.3820     5.1910     6.1070    24.5040     2.3210 
  114.0000    -8.9070    83.4870     6.0190     4.8130     5.8900    24.4750     2.3220 
  114.1250    -8.0030    89.3120     5.9660     4.7160     5.4330    24.5230     2.3210 
