~V
VERS. 2.00: Ver 2.00
~W
STRT.M 53.0000:
STOP.M 219.0000:
STEP.M 0.1250:
NULL. -999.2500:
UWI. F10171:
~C
DEPT.M :
SP.MV :
DEN.GM/CC :
GR.API :
RML.OHMM :
RI. :
RXO.OHMM :
CALI.CM :
~A
# ...
  188.0000   -28.8090     2.2460    41.1990    10.9820     9.5430    10.2620    24.8920 
  188.1250   -28.5670     2.2310    40.9260     9.8520     8.7590     9.6840    24.8860 
  188.2500   -28.3930     2.2360    40.5220     9.4370     8.5900    10.1190    24.8600 
  188.3750   -28.3190     2.2470    38.8440     9.4160     8.6810    10.8000    24.8200 
  188.5000   -28.3390     2.2550    37.0710     9.4630     8.7620    10.7550    24.8340 
  188.6250   -28.4360     2.2560    38.0740     9.4520     8.7540    10.3260    24.8740 
  188.7500   -28.6070     2.2440    42.2610     9.3570     8.6720    10.2970    24.9110 
  188.8750   -28.8150     2.2060    45.5890     9.2060     8.5690    10.1960    24.9440 
  189.0000   -29.0310     2.1600    45.6950     9.0400     8.4800    10.6660    24.9850 
  189.1250   -29.2620     2.1340    44.6270     8.8590     8.3920    10.2530    25.0350 
  189.2500   -29.4920     2.1490    45.3650     8.6500     8.2820     9.0240    25.0150 
  189.3750   -29.7090     2.2000    47.2930     8.4050     8.1360     8.3630    24.8060 
  189.5000   -29.8920     2.2540    47.8920     8.1630     7.9920     8.3300    24.5980 
  189.6250   -30.0340     2.2950    47.9700     7.9850     7.9180     8.2250    24.6850 
  189.7500   -30.0900     2.3300    49.2890     7.9350     7.9820     8.2650    24.9130 
  189.8750   -30.0780     2.3660    50.3280     8.2300     8.0690     8.6590    25.0250 
  190.0000   -29.9930     2.3980    50.2560     8.5670     8.3130     9.4060    25.0340 
  190.1250   -29.8380     2.4140    51.4640     8.8700     8.5590    10.5750    24.9990 
  190.2500   -29.6390     2.4060    54.8590     8.9940     8.6640    12.3540    24.9060 
  190.3750   -29.3870     2.3810    57.7410     8.7970     8.4760    11.9620    24.7900 
  190.5000   -29.0950     2.3650    56.7640     8.3650     8.0530     9.9710    24.7600 
  190.6250   -28.7670     2.3660    52.6130     7.8300     7.5130     8.4370    24.8160 
  190.7500   -28.4420     2.3770    47.8030     7.3360     6.9880     7.5710    24.8980 
  190.8750   -28.1020     2.3790    44.7320     7.0110     6.5990     6.8120    24.9410 
  191.0000   -27.7800     2.3620    43.7590     6.8500     6.3600     6.6060    24.9540 
  191.1250   -27.4810     2.3330    43.9120     6.8210     6.2560     6.5060    24.9610 
  191.2500   -27.2030     2.3110    44.5530     6.8710     6.2530     6.5240    24.9660 
  191.3750   -26.9680     2.3240    44.6900     6.9500     6.3120     6.5680    24.9660 
  191.5000   -26.7880     2.3570    43.5590     7.0240     6.3900     6.6440    24.9660 
  191.6250   -26.6680     2.3850    42.7940     7.0840     6.4660     6.7480    24.9650 
  191.7500   -26.6110     2.3950    43.0690     7.1260     6.5290     6.9220    24.9630 
  191.8750   -26.6740     2.3940    44.4960     7.1480     6.5700     6.6900    24.9630 
  192.0000   -26.8370     2.3950    46.3180     7.1620     6.5940     6.5670    24.9630 
  192.1250   -27.0960     2.4010    48.0570     7.1800     6.6100     6.5210    24.9650 
  192.2500   -27.4540     2.4070    48.2750     7.2190     6.6320     6.5910    24.9660 
  192.3750   -27.9160     2.4040    45.8160     7.2930     6.6740     6.6600    24.9660 
  192.5000   -28.4420     2.3920    44.7460     7.3850     6.7240     6.7650    24.9660 
  192.6250   -29.0150     2.3780    46.4590     7.4610     6.7630     6.9400    24.9660 
  192.7500   -29.6260     2.3690    49.0020     7.4970     6.7680     7.1490    24.9660 
  192.8750   -30.2340     2.3760    51.6320     7.4810     6.7250     7.2940    24.9660 
  193.0000   -30.8200     2.3920    57.0900     7.4530     6.6630     7.1980    24.9630 
  193.1250   -31.3600     2.4030    66.0830     7.4640     6.6220     7.0400    24.9480 
  193.2500   -31.8240     2.4020    74.9420     7.5710     6.6530     7.0480    24.9140 
  193.3750   -32.1900     2.3950    80.1360     7.8330     6.8170     7.6040    24.8970 
  193.5000   -32.4770     2.3860    82.0790     8.2250     7.1110     8.1960    24.8790 
  193.6250   -32.7090     2.3740    82.8510     8.7130     7.5170     8.6530    24.8230 
  193.7500   -32.8860     2.3530    84.5880     9.2380     7.9910     9.2420    24.6910 
  193.8750   -33.0060     2.3200    86.5410     9.7160     8.4620     9.7980    24.5510 
  194.0000   -33.0780     2.2890    86.5390    10.0730     8.8500    10.1990    24.4230 
  194.1250   -33.1220     2.2730    83.8670    10.2460     9.0890    10.6410    24.2930 
  194.2500   -33.1480     2.2830    81.5240    10.2040     9.1360    11.1430    24.2020 
  194.3750   -33.1470     2.3080    82.6620     9.9720     8.9910    11.1960    24.2150 
  194.5000   -33.1360     2.3270    83.8670     9.7100     8.7840    10.5780    24.3310 
  194.6250   -33.1160     2.3310    84.2670     9.5510     8.6260     9.5950    24.5210 
  194.7500   -33.0870     2.3270    84.4680     9.5940     8.6100     8.9200    24.7100 
  194.8750   -33.0500     2.3270    85.9490     9.9040     8.8080     9.4660    24.8190 
  195.0000   -33.0140     2.3220    88.1090    10.3680     9.1530    11.2150    24.8740 
  195.1250   -32.9630     2.3070    90.1660    10.8650     9.5560    12.6640    24.8900 
  195.2500   -32.9100     2.2890    90.9480    11.2710     9.9130    13.1910    24.8910 
  195.3750   -32.8670     2.2830    88.6890    11.4740    10.1150    13.0490    24.8910 
  195.5000   -32.8370     2.2890    87.7250    11.5010    10.1680    12.7730    24.8910 
  195.6250   -32.8020     2.3000    89.4540    11.4200    10.1220    12.6320    24.8910 
  195.7500   -32.7570     2.3170    90.5260    11.3470    10.0750    12.7350    24.8910 
  195.8750   -32.6860     2.3380    88.2570    11.4960    10.2100    13.0820    24.8910 
  196.0000   -32.5960     2.3640    85.1840    12.0980    10.7050    13.8250    24.8930 
  196.1250   -32.5060     2.3940    82.5540    13.4890    11.8160    14.7470    24.9020 
  196.2500   -32.4030     2.4320    78.6150    16.0880    13.8980    16.8050    24.9170 
  196.3750   -32.2720     2.4810    72.1660    20.6770    17.7480    23.8680    24.9210 
  196.5000   -32.0890     2.5370    65.3690    27.1420    23.5310    36.0140    24.9030 
  196.6250   -31.8650     2.5890    59.3990    34.4810    30.6830    58.2120    24.8930 
  196.7500   -31.6040     2.6200    54.8370    39.6600    36.6930    85.9230    24.8840 
  196.8750   -31.3170     2.6170    54.8020    37.7950    36.6780    91.9860    24.8680 
  197.0000   -30.9870     2.5890    61.0760    30.8920    31.3670    69.3070    24.8520 
  197.1250   -30.6400     2.5400    71.6630    23.0850    24.2950    42.8490    24.8430 
  197.2500   -30.2670     2.4800    82.0240    16.9720    18.2360    23.2210    24.7850 
  197.3750   -29.9120     2.4290    88.6490    13.3310    14.3050    13.9440    24.6170 
  197.5000   -29.5870     2.4000    92.3760    11.2780    11.8880    11.1290    24.3850 
  197.6250   -29.2890     2.3910    93.9790    10.2980    10.5570    10.4570    24.2490 
  197.7500   -28.9860     2.3860    94.7600     9.9780     9.9660    10.2830    24.3760 
  197.8750   -28.7200     2.3730    95.4330    10.0010     9.8640    10.4130    24.6560 
  198.0000   -28.4970     2.3580    94.6000    10.0600     9.9130    10.9050    24.8920 
  198.1250   -28.2970     2.3460    92.9420    10.0540     9.9690    10.9330    25.0140 
  198.2500   -28.1130     2.3370    92.5210     9.9670     9.9680    10.2510    25.0710 
  198.3750   -27.9240     2.3340    93.9340     9.7830     9.8580     9.4770    25.0720 
  198.5000   -27.7010     2.3410    95.0890     9.4910     9.6240     9.4370    25.0460 
  198.6250   -27.4780     2.3550    94.1350     9.0670     9.2430    10.1110    25.0180 
  198.7500   -27.2770     2.3680    91.1490     8.5200     8.7220    10.4160    24.9810 
  198.8750   -27.0860     2.3700    86.6550     7.9140     8.1160     8.4690    24.9610 
  199.0000   -26.8890     2.3620    82.1810     7.3720     7.5410     7.3640    24.9620 
  199.1250   -26.6970     2.3540    78.8930     6.9740     7.0760     7.0000    24.9660 
