~V
VERS. 2.00: Ver 2.00
~W
STRT.M 55.0000:
STOP.M 215.0000:
STEP.M 0.1250:
NULL. -999.2500:
UWI. F10125:
~C
DEPT.M :
GR.API :
RML.OHMM :
RI. :
RXO.OHMM :
CALI.CM :
DEN.GM/CC :
SP.MV :
~A
# ...
  190.0000    74.6840    10.3320     8.0040     7.6970    22.5400     2.3910   -13.6280 
  190.1250    80.2220    10.5590     8.1400     7.7040    21.3290     2.3770   -13.6250 
  190.2500    81.9990    10.8140     8.3070     8.0840    20.6790     2.3730   -13.6460 
  190.3750    80.0620    11.0780     8.4830     8.6210    20.9900     2.3790   -13.6440 
  190.5000    78.6310    11.3160     8.6390     8.8950    21.9250     2.3890   -13.6450 
  190.6250    78.7420    11.4650     8.7310     8.9350    22.9440     2.3980   -13.6160 
  190.7500    79.7020    11.5020     8.7540     8.5570    23.4940     2.4100   -13.5710 
  190.8750    82.8500    11.4330     8.7200     8.0560    23.6290     2.4300   -13.5170 
  191.0000    85.3520    11.3040     8.6640     8.0820    23.3800     2.4520   -13.4730 
  191.1250    83.0530    11.2200     8.6450     8.5190    23.0200     2.4610   -13.4130 
  191.2500    79.1540    11.2710     8.7070     8.8240    22.6210     2.4600   -13.3470 
  191.3750    76.8180    11.5070     8.8740     8.9660    22.0700     2.4590   -13.2770 
  191.5000    75.2900    11.9190     9.1440     9.2740    21.6640     2.4670   -13.1790 
  191.6250    72.1050    12.4340     9.4880     9.6830    21.5040     2.4790   -13.0760 
  191.7500    69.8770    12.9160     9.8350     9.9140    21.5230     2.4880   -12.9800 
  191.8750    71.5920    13.2770    10.1360    10.5120    21.7300     2.4910   -12.9060 
  192.0000    75.2190    13.4770    10.3640    11.0190    22.0520     2.4950   -12.8420 
  192.1250    75.9560    13.5030    10.4970    11.5950    22.3210     2.5030   -12.7820 
  192.2500    76.1130    13.4230    10.5520    11.9470    22.5850     2.5130   -12.7100 
  192.3750    77.6640    13.2650    10.5300    11.8560    22.9850     2.5200   -12.6520 
  192.5000    78.7090    13.0370    10.4230    11.4830    23.3030     2.5210   -12.5960 
  192.6250    75.2980    12.7280    10.2150    10.6350    23.0350     2.5130   -12.5500 
  192.7500    71.3660    12.3610     9.9430     9.2380    21.7600     2.4980   -12.5190 
  192.8750    71.3920    11.9600     9.6420     7.6710    19.4940     2.4770   -12.4930 
  193.0000    75.8730    11.5590     9.3520     6.7570    17.3120     2.4480   -12.4610 
  193.1250    81.2370    11.2150     9.1090     6.3950    16.2150     2.4210   -12.4450 
  193.2500    82.2880    10.9710     8.9290     6.1520    15.7730     2.4080   -12.4330 
  193.3750    78.4780    10.8400     8.8150     5.8690    15.7480     2.4100   -12.4070 
  193.5000    72.2770    10.8100     8.7650     5.6400    16.1640     2.4170   -12.4050 
  193.6250    68.4100    10.8510     8.7760     5.5360    16.6730     2.4240   -12.4170 
  193.7500    67.9460    10.9080     8.8220     5.4940    17.0600     2.4310   -12.4250 
  193.8750    69.1870    10.9700     8.8930     5.4370    17.2100     2.4380   -12.4110 
  194.0000    68.4750    11.0560     8.9890     5.3600    17.2330     2.4380   -12.3970 
  194.1250    64.8020    11.2170     9.1230     5.3600    17.4290     2.4280   -12.3600 
  194.2500    64.0640    11.4580     9.2980     5.4790    17.7100     2.4250   -12.3270 
  194.3750    69.3870    11.7530     9.5050     5.6800    18.0290     2.4380   -12.3060 
  194.5000    74.8430    12.0500     9.7200     5.8850    18.2090     2.4640   -12.2920 
  194.6250    76.2970    12.2740     9.9050     6.2380    18.4160     2.4830   -12.2880 
  194.7500    79.1650    12.4050    10.0380     7.0600    19.4270     2.4920   -12.2860 
  194.8750    84.8790    12.4650    10.1220     8.3370    21.2630     2.4980   -12.3020 
  195.0000    88.2860    12.5140    10.1770     9.5380    23.1820     2.5060   -12.3280 
  195.1250    86.9960    12.6400    10.2470    10.1680    24.2070     2.5190   -12.3640 
  195.2500    87.9680    12.8720    10.3610    10.5940    24.6860     2.5380   -12.4100 
  195.3750    90.5150    13.1820    10.5220    10.8190    24.8140     2.5610   -12.4690 
  195.5000    91.5070    13.4980    10.7050    10.7190    24.8260     2.5870   -12.5220 
  195.6250    92.2790    13.7110    10.8540    10.2290    24.8250     2.6040   -12.5770 
  195.7500    91.3960    13.7770    10.9320     9.8690    24.8800     2.6110   -12.6490 
  195.8750    86.6110    13.7190    10.9310     9.6650    25.0120     2.6110   -12.7270 
  196.0000    78.3770    13.6150    10.8830     9.4140    25.1550     2.5880   -12.8080 
  196.1250    71.9580    13.5680    10.8410     9.8820    25.2700     2.5140   -12.8870 
  196.2500    69.5810    13.6050    10.8390    10.6390    25.3360     2.4260   -12.9600 
  196.3750    69.8890    13.7010    10.8730    12.0350    25.3490     2.3730   -13.0320 
  196.5000    72.7320    13.7930    10.9180    12.8520    25.2910     2.3720   -13.1300 
  196.6250    76.4270    13.8010    10.9290    14.1390    25.2610     2.4150   -13.2270 
  196.7500    79.1040    13.7260    10.8980    14.5760    25.2750     2.4680   -13.3120 
  196.8750    78.8750    13.6340    10.8490    13.1750    25.3270     2.5040   -13.3970 
  197.0000    77.7630    13.6260    10.8330    11.7230    25.3620     2.5140   -13.4460 
  197.1250    77.8900    13.8260    10.9290    11.6840    25.3810     2.5110   -13.5020 
  197.2500    77.6660    14.2110    11.1550    12.6920    25.3960     2.5120   -13.5400 
  197.3750    76.6750    14.6770    11.4750    13.0380    25.4000     2.5140   -13.5370 
  197.5000    75.2870    15.0590    11.7960    12.5100    25.4000     2.5070   -13.5060 
  197.6250    73.9950    15.1440    11.9680    11.7810    25.4000     2.4860   -13.4800 
  197.7500    72.4600    14.9250    11.9350    11.2710    25.4000     2.4630   -13.4440 
  197.8750    72.3780    14.4910    11.7160    10.8370    25.4000     2.4410   -13.4040 
  198.0000    75.1520    13.9890    11.3950    10.1420    25.4020     2.4160   -13.3760 
  198.1250    77.8140    13.5660    11.0760     9.8110    25.3990     2.3850   -13.3520 
  198.2500    77.0410    13.2510    10.8150     9.5230    25.3730     2.3570   -13.3480 
  198.3750    73.8070    13.0080    10.6130     8.8650    25.3220     2.3380   -13.3950 
  198.5000    71.2160    12.7820    10.4440     8.0090    25.2690     2.3310   -13.4610 
  198.6250    71.7380    12.5250    10.2750     7.9070    25.2360     2.3390   -13.5210 
  198.7500    73.0850    12.2470    10.0920     8.0960    25.2070     2.3550   -13.5640 
  198.8750    72.7620    11.9830     9.9010     8.4440    25.1870     2.3730   -13.6290 
  199.0000    72.0350    11.7540     9.7190     8.2770    25.3030     2.3830   -13.7100 
  199.1250    70.7720    11.5740     9.5680     8.0670    25.3000     2.3800   -13.7630 
  199.2500    68.1210    11.4330     9.4540     8.1090    25.2860     2.3760   -13.7980 
  199.3750    64.7750    11.3320     9.3770     8.5750    25.2270     2.3790   -13.8280 
  199.5000    63.7140    11.2860     9.3380     8.9410    25.0710     2.3930   -13.8120 
  199.6250    68.0050    11.3510     9.3600     9.0180    24.9880     2.4210   -13.7860 
  199.7500    72.2160    11.5470     9.4500     8.9770    24.9740     2.4460   -13.7840 
  199.8750    72.7610    11.8630     9.6120     8.8210    25.0040     2.4550   -13.7730 
  200.0000    70.2340    12.2270     9.8210     8.6820    25.0370     2.4480   -13.7870 
  200.1250    66.7520    12.4990    10.0090     9.1890    25.0500     2.4420   -13.8060 
  200.2500    65.4410    12.5990    10.1130     9.9640    25.0120     2.4440   -13.8290 
  200.3750    66.6990    12.5470    10.1270     9.7150    24.9530     2.4550   -13.8560 
  200.5000    69.6760    12.4650    10.1010     8.3560    24.9170     2.4670   -13.8950 
  200.6250    71.7460    12.5710    10.1460     7.4730    24.9130     2.4760   -13.9330 
  200.7500    72.9670    12.9570    10.3340     7.1360    24.8960     2.4780   -13.9680 
  200.8750    76.8790    13.5890    10.6800     7.1760    24.8360     2.4790   -14.0300 
  201.0000    82.7200    14.3090    11.1240     7.5270    24.7130     2.4860   -14.0470 
  201.1250    85.1830    14.8550    11.5340     8.1110    24.6730     2.4960   -14.0490 
