~V
VERS. 2.00: Ver 2.00
~W
STRT.M 56.0000:
STOP.M 221.0000:
STEP.M 0.1250:
NULL. -999.2500:
UWI. F10169:
~C
DEPT.M :
GR.API :
RML.OHMM :
RI. :
RXO.OHMM :
CALI.CM :
SP.MV :
DEN.GM/CC :
~A
# ...
   89.7500    55.3770     9.6160     6.8180     9.2930    28.5070   -24.6830     1.8130 
   89.8750    56.9880     9.4650     6.6720     9.4140    28.7210   -24.0540     1.8250 
   90.0000    56.3540     9.6170     6.7070     9.5930    28.5800   -23.2380     1.8550 
   90.1250    55.6120     9.9090     6.8430     9.4790    28.4060   -22.2290     1.8920 
   90.2500    57.8040    10.1190     6.9450     9.1680    28.3020   -20.9780     1.9130 
   90.3750    61.8590    10.0900     6.9000     9.0990    28.1630   -19.5770     1.9060 
   90.5000    67.2770     9.7560     6.6570     9.1850    27.9440   -18.1030     1.9060 
   90.6250    73.9470     9.1500     6.2280     8.7200    27.6690   -16.6320     1.9560 
   90.7500    80.6690     8.3930     5.6860     6.9900    27.5560   -15.3030     2.0680 
   90.8750    87.4190     7.7090     5.1730     5.2910    27.7490   -14.1750     2.1870 
   91.0000    94.0280     7.2770     4.8010     4.3250    27.9180   -13.3410     2.2610 
   91.1250   100.0650     7.2340     4.6550     4.0530    27.6660   -12.8360     2.2770 
   91.2500   101.9000     7.7310     4.8360     4.3880    27.1880   -12.7300     2.2680 
   91.3750    98.2000     8.6690     5.3070     5.3960    26.8350   -12.9460     2.2740 
   91.5000    91.6660     9.9020     6.0150     7.1610    26.6510   -13.4630     2.3060 
   91.6250    85.6860    11.1410     6.8160     9.3910    26.5580   -14.2390     2.3530 
   91.7500    80.6580    11.9200     7.4330     8.8200    26.4900   -15.2400     2.3790 
   91.8750    75.7020    12.0640     7.6870     8.4640    26.4520   -16.3700     2.3710 
   92.0000    72.1840    11.6510     7.5640     8.1720    26.4120   -17.5490     2.3390 
   92.1250    71.3740    10.9590     7.1980     7.8370    26.3730   -18.7500     2.2970 
   92.2500    72.0330    10.3350     6.7890     7.4360    26.3330   -19.9360     2.2530 
   92.3750    72.1200     9.9540     6.4840     7.2860    26.3190   -21.0750     2.2220 
   92.5000    71.9280     9.8470     6.3260     7.2960    26.3160   -22.1920     2.2110 
   92.6250    72.4380     9.9830     6.3140     7.4750    26.3160   -23.2360     2.2120 
   92.7500    72.3080    10.3060     6.4400     7.7820    26.3180   -24.2480     2.2190 
   92.8750    71.1110    10.6700     6.6250     8.4030    26.3480   -25.1490     2.2240 
   93.0000    70.5120    10.9720     6.8040     9.2170    26.4870   -25.9920     2.2200 
   93.1250    69.2950    11.1550     6.9320     9.7850    26.8360   -26.7270     2.1940 
   93.2500    65.1490    11.2080     6.9890     9.9230    27.4210   -27.3420     2.1340 
   93.3750    62.3770    11.2080     7.0100     9.6030    27.9670   -27.8660     2.0560 
   93.5000    63.6940    11.2080     7.0210     9.3100    28.3090   -28.2790     1.9860 
   93.6250    65.6890    11.2290     7.0340     9.2080    28.4400   -28.5640     1.9370 
   93.7500    64.7050    11.2440     7.0360     9.1190    28.5140   -28.6740     1.9040 
   93.8750    63.7330    11.2060     7.0070     8.9090    28.6200   -28.7230     1.8730 
   94.0000    65.3170    11.0910     6.9360     8.4920    28.6960   -28.7220     1.8570 
   94.1250    68.0170    10.9170     6.8290     8.3220    28.5520   -28.6860     1.8710 
   94.2500    67.3010    10.7560     6.7210     8.2850    27.9660   -28.6620     1.9240 
   94.3750    63.9570    10.6830     6.6520     8.7410    27.3710   -28.6530     1.9980 
   94.5000    61.7860    10.7320     6.6450     9.1180    27.0370   -28.6940     2.0760 
   94.6250    63.7010    10.8930     6.6990     9.3330    26.9300   -28.8210     2.1370 
   94.7500    67.7500    11.1070     6.7900     9.7620    26.9490   -29.0630     2.1620 
   94.8750    68.8530    11.2830     6.8700    10.2030    27.0220   -29.3550     2.1620 
   95.0000    66.5340    11.3730     6.9110    10.1830    27.1190   -29.6970     2.1490 
   95.1250    63.7100    11.3650     6.9050     9.8310    27.2270   -30.0720     2.1290 
   95.2500    63.6010    11.2800     6.8600     9.6630    27.3170   -30.4820     2.1080 
   95.3750    63.1250    11.1700     6.8020     9.7240    27.3790   -30.8810     2.0980 
   95.5000    59.7400    11.0660     6.7470     9.8120    27.4130   -31.2560     2.1030 
   95.6250    56.3180    10.9790     6.7010     9.9550    27.4500   -31.5670     2.1250 
   95.7500    57.9800    10.9060     6.6620    10.1330    27.5290   -31.8140     2.1520 
   95.8750    61.7870    10.8320     6.6210    10.2080    27.6510   -32.0160     2.1760 
   96.0000    62.8250    10.7550     6.5760    10.1550    27.8080   -32.1530     2.1930 
   96.1250    61.2320    10.6810     6.5310    10.0400    28.0150   -32.2080     2.2070 
   96.2500    59.6080    10.6240     6.4970     9.9490    28.2530   -32.1610     2.2220 
   96.3750    58.4160    10.5860     6.4800     9.8740    28.5290   -32.0650     2.2390 
   96.5000    58.1430    10.5630     6.4770     9.9170    28.8550   -31.8680     2.2520 
   96.6250    57.8550    10.5470     6.4850    10.0730    29.3300   -31.6280     2.2490 
   96.7500    55.8810    10.5240     6.4970    10.0260    30.1330   -31.2730     2.2160 
   96.8750    52.5650    10.4860     6.5080     9.8180    30.9320   -30.8680     2.1650 
   97.0000    49.9430    10.4350     6.5180     9.5000    31.4090   -30.3590     2.1130 
   97.1250    49.5240    10.3780     6.5260     9.2470    31.4740   -29.7970     2.0790 
   97.2500    51.8160    10.3380     6.5390     9.0290    31.2880   -29.1630     2.0720 
   97.3750    55.7200    10.3340     6.5670     9.0380    31.0810   -28.4820     2.0780 
   97.5000    58.9550    10.3780     6.6200     8.9410    30.8310   -27.7650     2.0900 
   97.6250    59.4090    10.4570     6.6930     8.7480    30.3890   -26.9960     2.1060 
   97.7500    58.2560    10.5270     6.7640     8.7850    29.7810   -26.2080     2.1200 
   97.8750    57.6320    10.5320     6.8010     9.0580    29.4320   -25.4180     2.1220 
   98.0000    58.7680    10.4190     6.7700     9.0700    29.3860   -24.6640     2.1030 
   98.1250    61.2610    10.1700     6.6510     8.7570    29.4540   -23.9500     2.0710 
   98.2500    63.4730     9.8390     6.4670     8.3250    29.3310   -23.2890     2.0550 
   98.3750    64.8120     9.5690     6.3010     8.0930    29.0060   -22.6960     2.0680 
   98.5000    66.8200     9.4800     6.2250     7.7620    28.5060   -22.1850     2.1000 
   98.6250    69.5530     9.6420     6.2930     7.3090    28.0510   -21.7960     2.1380 
   98.7500    70.4870    10.0430     6.5260     8.3100    27.9430   -21.4770     2.1560 
   98.8750    68.7890    10.4570     6.8080    10.1160    27.9920   -21.1670     2.1330 
   99.0000    66.1300    10.6650     7.0070    10.8930    27.8560   -20.8070     2.0860 
   99.1250    65.7020    10.5220     7.0130    10.3720    27.3410   -20.3980     2.0530 
   99.2500    70.3920    10.0130     6.7780     8.5170    26.8270   -19.9740     2.0640 
   99.3750    74.6950     9.4280     6.4480     6.5290    26.4580   -19.5220     2.1020 
   99.5000    75.8170     9.0360     6.1790     5.4910    26.1980   -19.1210     2.1540 
   99.6250    75.4010     8.9980     6.0860     5.7540    26.0400   -18.7070     2.2070 
   99.7500    77.1090     9.3420     6.2240     6.4380    25.9730   -18.3620     2.2380 
   99.8750    77.0010     9.8250     6.4870     7.0290    25.9560   -18.0720     2.2450 
  100.0000    74.0010    10.2210     6.7560     7.3580    25.9530   -17.9200     2.2450 
  100.1250    72.1870    10.3590     6.9190     7.8050    25.9530   -17.8710     2.2480 
  100.2500    72.8040    10.2140     6.9190     7.5190    25.9530   -17.9320     2.2510 
  100.3750    73.6010    10.0270     6.8570     6.7380    25.9490   -18.0660     2.2480 
  100.5000    75.2080     9.9820     6.8350     6.1910    25.9360   -18.2560     2.2400 
  100.6250    78.1410    10.1630     6.9170     6.1870    25.9070   -18.5000     2.2290 
  100.7500    78.0300    10.5750     7.1340     6.7760    25.8830   -18.8090     2.2160 
  100.8750    74.7670    11.0770     7.4210     7.4880    25.8740   -19.1920     2.2030 
