~V
VERS. 2.00: Ver 2.00
~W
STRT.M 56.0000:
STOP.M 214.0000:
STEP.M 0.1250:
NULL. -999.2500:
UWI. F10128:
~C
DEPT.M :
SP.MV :
GR.API :
RML.OHMM :
RI. :
RXO.OHMM :
CALI.CM :
DEN.GM/CC :
~A
# ...
   78.5000   -20.4980    68.7740     8.1510     6.7220     9.2120    24.0550     2.1760 
   78.6250   -20.0890    72.1570     8.1340     6.7000     8.7850    24.0600     2.1930 
   78.7500   -19.6870    75.4960     8.1710     6.7050     8.3410    24.0440     2.2270 
   78.8750   -19.3610    77.1340     8.2380     6.7260     8.0810    23.9910     2.2750 
   79.0000   -19.1210    78.3120     8.2880     6.7430     7.8440    23.8940     2.3160 
   79.1250   -18.9710    78.7760     8.2970     6.7430     7.7460    23.7840     2.3320 
   79.2500   -18.8950    76.7380     8.2650     6.7160     7.8980    23.7190     2.3160 
   79.3750   -18.8670    71.7160     8.2130     6.6640     8.2210    23.6910     2.2760 
   79.5000   -18.8520    68.3840     8.1670     6.5990     8.4550    23.6660     2.2350 
   79.6250   -18.8470    69.2470     8.1310     6.5300     8.6140    23.6390     2.2060 
   79.7500   -18.8550    70.9240     8.1000     6.4670     8.8430    23.6140     2.1910 
   79.8750   -18.8920    70.0270     8.0690     6.4220     8.6680    23.5850     2.1870 
   80.0000   -18.9380    69.6980     8.0390     6.3980     8.2190    23.5720     2.1890 
   80.1250   -18.9700    72.9610     8.0110     6.3880     7.8380    23.5680     2.1920 
   80.2500   -18.9750    77.6020     7.9780     6.3770     8.4480    23.5590     2.1960 
   80.3750   -18.9880    76.5780     7.9120     6.3350     8.7630    23.5170     2.2000 
   80.5000   -18.9910    72.8070     7.7950     6.2460     8.8180    23.4210     2.2040 
   80.6250   -18.9900    72.0860     7.6300     6.1110     8.6240    23.2140     2.2050 
   80.7500   -18.9810    75.0620     7.4580     5.9600     8.3070    22.8570     2.2040 
   80.8750   -18.9300    76.5840     7.3590     5.8520     7.9560    22.4940     2.2010 
   81.0000   -18.8820    75.9450     7.3710     5.8220     7.6060    22.4210     2.1990 
   81.1250   -18.8730    75.0770     7.4820     5.8740     7.3630    22.4830     2.1990 
   81.2500   -18.9210    73.0490     7.6320     5.9720     7.7080    22.5800     2.2000 
   81.3750   -19.0110    69.0940     7.7300     6.0520     8.3770    22.7390     2.2000 
   81.5000   -19.1810    66.2790     7.7350     6.0680     8.3150    22.9940     2.2030 
   81.6250   -19.4150    69.5360     7.6600     6.0230     7.6550    23.3550     2.2080 
   81.7500   -19.7400    77.5490     7.5590     5.9500     7.0350    23.6140     2.2140 
   81.8750   -20.1440    81.1900     7.5070     5.9000     7.7790    23.6770     2.2140 
   82.0000   -20.5680    79.6470     7.5300     5.9010     9.6170    23.6430     2.2040 
   82.1250   -20.9970    76.2300     7.6110     5.9470     9.4960    23.5780     2.1870 
   82.2500   -21.4500    73.5770     7.7030     6.0160     8.3870    23.5170     2.1690 
   82.3750   -21.9270    69.6570     7.7570     6.0710     7.5650    23.4550     2.1590 
   82.5000   -22.3640    65.3750     7.7780     6.1050     7.2590    23.3790     2.1560 
   82.6250   -22.7320    64.4230     7.7980     6.1300     7.1180    23.3290     2.1580 
   82.7500   -22.9860    65.5600     7.8560     6.1690     7.1690    23.3210     2.1620 
   82.8750   -23.1390    65.4050     7.9640     6.2380     7.3150    23.3430     2.1650 
   83.0000   -23.2160    64.6840     8.0920     6.3240     7.5140    23.3840     2.1680 
   83.1250   -23.2220    64.4870     8.2120     6.4150     7.8510    23.4130     2.1690 
   83.2500   -23.1390    63.9210     8.3120     6.5040     8.0950    23.3850     2.1690 
   83.3750   -22.9410    61.5570     8.3980     6.5890     8.1800    23.3140     2.1670 
   83.5000   -22.6070    61.6280     8.4900     6.6790     8.1160    23.2630     2.1660 
   83.6250   -22.1480    66.5480     8.6090     6.7890     7.9120    23.2490     2.1660 
   83.7500   -21.5290    71.1970     8.7480     6.9200     7.8680    23.2820     2.1650 
   83.8750   -20.7110    70.5090     8.8480     7.0380     8.0800    23.3820     2.1600 
   84.0000   -19.6730    68.3760     8.8320     7.0770     8.4120    23.5140     2.1570 
   84.1250   -18.4410    67.1710     8.6570     6.9930     8.6890    23.5980     2.1610 
   84.2500   -17.0520    67.1980     8.3430     6.7890     8.7400    23.7090     2.1820 
   84.3750   -15.6250    69.6450     7.9750     6.5180     7.8610    23.9440     2.2180 
   84.5000   -14.2840    76.6210     7.6560     6.2640     6.5770    24.2100     2.2530 
   84.6250   -13.0340    85.0360     7.4230     6.0590     5.9170    24.3190     2.2740 
   84.7500   -11.8690    89.4820     7.2550     5.8920     6.3050    24.2210     2.2770 
   84.8750   -10.8430    87.6060     7.1070     5.7320     6.4880    24.1900     2.2710 
   85.0000   -10.0300    86.6390     6.9510     5.5650     5.8850    24.3280     2.2680 
   85.1250    -9.4760    88.7910     6.8070     5.4030     5.2090    24.5270     2.2730 
   85.2500    -9.1750    90.2220     6.7070     5.2670     4.8820    24.6520     2.2800 
   85.3750    -9.0650    88.4430     6.6800     5.1830     4.9990    24.5640     2.2820 
   85.5000    -9.0420    86.4310     6.6940     5.1380     6.0710    24.4540     2.2840 
   85.6250    -9.1430    86.2870     6.7080     5.1030     6.7550    24.3770     2.2930 
   85.7500    -9.4480    88.7010     6.7050     5.0650     6.2850    24.3800     2.3150 
   85.8750   -10.0430    93.6860     6.7490     5.0580     5.6640    24.3810     2.3420 
   86.0000   -10.8350    95.1220     6.9410     5.1400     5.6170    24.3330     2.3560 
   86.1250   -11.7560    89.1110     7.3570     5.3700     5.4550    24.1150     2.3450 
   86.2500   -12.7480    80.0620     7.9970     5.7710     5.9100    23.7370     2.3060 
   86.3750   -13.7720    77.4350     8.7580     6.3170     6.7660    23.4680     2.2510 
   86.5000   -14.8000    79.1440     9.4300     6.8610     7.6630    23.4220     2.2000 
   86.6250   -15.8130    79.5270     9.8790     7.2800     8.0400    23.4710     2.1620 
   86.7500   -16.7460    76.4810    10.0720     7.5100     7.9750    23.4900     2.1420 
   86.8750   -17.5060    71.0180    10.0600     7.5540     7.8870    23.4430     2.1370 
   87.0000   -18.1260    65.7400     9.9920     7.5240     7.7670    23.3700     2.1370 
   87.1250   -18.5720    63.2980     9.9290     7.4810     7.7680    23.3210     2.1400 
   87.2500   -18.8620    64.9540     9.8810     7.4410     7.8150    23.2870     2.1450 
   87.3750   -19.0560    67.2250     9.8230     7.3860     7.9440    23.2400     2.1530 
   87.5000   -19.1710    66.7100     9.7440     7.3050     8.0670    23.2170     2.1620 
   87.6250   -19.2110    67.6920     9.6610     7.2040     7.9730    23.2400     2.1710 
   87.7500   -19.1810    71.3980     9.5960     7.1020     7.6230    23.2860     2.1780 
   87.8750   -19.1060    72.2480     9.5700     7.0280     7.1800    23.2960     2.1840 
   88.0000   -18.9950    69.7020     9.5650     6.9930     7.0970    23.2890     2.1870 
   88.1250   -18.8830    68.7860     9.5520     6.9950     7.2130    23.3050     2.1890 
   88.2500   -18.7820    71.7770     9.5020     7.0150     7.4040    23.3520     2.1880 
   88.3750   -18.6070    73.7100     9.3950     7.0280     7.6470    23.4260     2.1830 
   88.5000   -18.3890    74.7840     9.2610     7.0170     7.6700    23.4780     2.1770 
   88.6250   -18.1210    76.9630     9.1420     6.9910     7.5980    23.4920     2.1720 
   88.7500   -17.7900    79.4100     9.0850     6.9750     7.5380    23.4890     2.1680 
   88.8750   -17.3180    79.6470     9.1250     6.9990     7.7760    23.4850     2.1650 
   89.0000   -16.7030    79.1440     9.2070     7.0400     7.8390    23.5300     2.1610 
   89.1250   -15.9330    79.6550     9.2420     7.0420     7.8450    23.6530     2.1580 
   89.2500   -15.0100    80.9050     9.1140     6.9270     7.8030    23.8000     2.1600 
   89.3750   -13.9720    83.9080     8.6890     6.5930     7.4310    23.9240     2.1720 
   89.5000   -12.9310    89.2150     8.0310     6.0800     6.6550    24.0760     2.1980 
   89.6250   -11.9690    94.2470     7.2740     5.4850     5.8440    24.2740     2.2340 
