~V
VERS. 2.00: Ver 2.00
~W
STRT.M 49.0000:
STOP.M 243.0000:
STEP.M 0.1250:
NULL. -999.2500:
UWI. F10196:
~C
DEPT.M :
SP.MV :
DEN.GM/CC :
GR.API :
RML.OHMM :
RI. :
RXO.OHMM :
CALI.CM :
~A
# ...
  184.0000   -34.1930     2.2000    61.3550   145.7070   132.3680   134.9580    24.7760 
  184.1250   -34.1880     2.2020    64.7370   143.4140   133.0030   140.9270    24.7740 
  184.2500   -34.1610     2.2050    64.3940   130.4330   124.3200   146.0910    24.7870 
  184.3750   -34.1940     2.2090    62.8280   110.4290   108.0010   144.4990    24.8150 
  184.5000   -34.2910     2.2170    64.3430    89.5100    88.8660   121.4050    24.8320 
  184.6250   -34.4190     2.2270    67.9090    73.2440    72.3990    79.6480    24.8310 
  184.7500   -34.4990     2.2360    70.4790    65.7520    63.1580    53.5260    24.8350 
  184.8750   -34.5190     2.2410    71.9750    66.1240    61.0360    45.3120    24.8630 
  185.0000   -34.5560     2.2420    70.5110    73.8290    65.9300    51.4110    24.9210 
  185.1250   -34.6860     2.2370    65.4280    87.9500    77.4400    73.0860    25.0000 
  185.2500   -34.8500     2.2290    60.7350   106.7760    94.6730   106.9750    25.0430 
  185.3750   -34.9840     2.2210    60.6690   125.0600   112.7020   140.9360    25.0140 
  185.5000   -35.0680     2.2180    63.2170   138.1370   126.7320   154.6140    24.9370 
  185.6250   -35.0870     2.2210    65.1750   143.9890   134.0260   141.7840    24.8710 
  185.7500   -35.0850     2.2240    65.1830   144.2500   135.1670   127.2260    24.8480 
  185.8750   -35.1110     2.2240    64.6070   143.2790   134.2780   121.9720    24.8430 
  186.0000   -35.1320     2.2190    63.3810   142.4900   133.0760   133.4270    24.8460 
  186.1250   -35.0980     2.2130    62.7490   141.6690   131.8000   149.8410    24.8610 
  186.2500   -35.0210     2.2090    62.7220   139.1440   129.2890   147.4990    24.9140 
  186.3750   -34.9410     2.2070    62.1570   133.7640   124.4480   138.2860    24.9870 
  186.5000   -34.8710     2.2060    61.1090   125.6030   117.0310   126.5620    25.0320 
  186.6250   -34.8090     2.2050    60.1900   116.3530   108.2180   119.8510    25.0370 
  186.7500   -34.7770     2.2030    62.7040   109.1890   100.6180   114.2980    25.0350 
  186.8750   -34.7720     2.2060    67.1790   106.2360    96.3490   102.9360    25.0760 
  187.0000   -34.7990     2.2140    69.3920   108.6600    96.7220    94.3810    25.1290 
  187.1250   -34.8380     2.2190    67.9690   116.6770   102.2880   102.2560    25.1740 
  187.2500   -34.8420     2.2110    64.1310   130.0530   113.3080   131.6940    25.2130 
  187.3750   -34.8250     2.1960    61.2420   145.7290   127.1960   160.3890    25.2300 
  187.5000   -34.8220     2.1860    59.6520   160.6550   141.2660   177.7660    25.2140 
  187.6250   -34.8670     2.1850    59.7530   171.6570   152.4610   180.2900    25.1560 
  187.7500   -34.9550     2.1890    62.7130   175.9590   157.7560   170.0810    25.0720 
  187.8750   -34.9850     2.1950    66.5370   174.9920   157.9910   163.6770    25.0080 
  188.0000   -34.9010     2.2000    69.1060   169.6520   153.9670   168.4620    24.9800 
  188.1250   -34.7740     2.2010    70.0130   160.5340   146.3070   171.1970    24.9610 
  188.2500   -34.7100     2.1980    68.9650   148.7590   135.8160   161.0380    24.9210 
  188.3750   -34.6970     2.1950    67.3170   137.4290   125.1600   145.4280    24.8790 
  188.5000   -34.6800     2.1960    66.1910   128.9610   116.5310   128.1890    24.8400 
  188.6250   -34.6020     2.1990    65.1000   125.0030   111.5930   105.1150    24.7950 
  188.7500   -34.4090     2.1990    64.2260   126.9740   111.9530   102.4630    24.7560 
  188.8750   -34.1830     2.1930    63.7230   133.2230   116.5610   124.4320    24.7120 
  189.0000   -33.9980     2.1830    61.6770   141.7110   124.0180   154.3520    24.6340 
  189.1250   -33.8430     2.1700    58.7930   149.2080   131.7680   161.3210    24.4120 
  189.2500   -33.6690     2.1580    59.7670   150.7330   135.4830   146.6670    23.9390 
  189.3750   -33.4550     2.1540    65.2860   145.0820   133.1370   147.5760    23.3640 
  189.5000   -33.2410     2.1620    70.0990   133.8710   125.2310   154.5840    22.9120 
  189.6250   -33.0660     2.1780    70.1310   120.6150   114.3990   137.6580    22.6850 
  189.7500   -32.9500     2.1970    67.5940   108.8990   103.8640   102.6490    22.6600 
  189.8750   -32.8550     2.2150    67.2020   100.0730    95.4450    86.6510    22.7380 
  190.0000   -32.7880     2.2270    68.7100    94.2640    89.5910    86.0800    22.8170 
  190.1250   -32.7660     2.2340    68.6130    90.9180    86.0510    91.2070    22.8630 
  190.2500   -32.7590     2.2320    65.7480    89.0930    84.1980    88.0920    23.0630 
  190.3750   -32.7500     2.2230    63.6390    87.3940    82.6860    82.3520    23.6070 
  190.5000   -32.7310     2.2050    63.1890    85.3890    80.9110    83.9630    24.3980 
  190.6250   -32.7150     2.1830    61.9820    83.4670    79.0120    86.7770    24.9820 
  190.7500   -32.7730     2.1670    59.9660    82.8350    77.9700    81.4640    25.1960 
  190.8750   -32.9280     2.1640    59.6670    84.1640    78.5180    73.3320    25.2520 
  191.0000   -33.1060     2.1670    61.2610    87.7100    80.9960    69.3900    25.2570 
  191.1250   -33.2270     2.1710    63.7530    93.2220    85.2950    75.6680    25.1660 
  191.2500   -33.2980     2.1750    67.7030    99.9140    90.9190    92.8620    24.9080 
  191.3750   -33.3880     2.1860    69.8010   106.1600    96.4940    94.5080    24.6260 
  191.5000   -33.5050     2.2010    67.4650   110.6970   100.8580    88.0380    24.4330 
  191.6250   -33.6520     2.2160    62.1010   112.8690   103.2330    92.9500    24.3610 
  191.7500   -33.8150     2.2230    59.6440   112.8310   103.4220   111.1800    24.4360 
  191.8750   -33.9380     2.2230    61.3760   112.3130   102.8170   114.7850    24.4970 
  192.0000   -34.0300     2.2170    63.6910   112.5940   102.6280   107.3490    24.4900 
  192.1250   -34.1020     2.2140    63.5310   114.3620   103.6800   101.8290    24.4190 
  192.2500   -34.1430     2.2150    61.3850   117.5890   106.2590   106.3170    24.3650 
  192.3750   -34.1500     2.2150    60.0230   120.8250   109.2600   119.0280    24.3310 
  192.5000   -34.1390     2.2120    61.6210   122.3870   111.2490   126.5100    24.3070 
  192.6250   -34.1010     2.2090    64.8570   120.7980   110.7700   129.9380    24.2360 
  192.7500   -34.0180     2.2130    65.9860   115.3690   106.7780   117.1650    24.1700 
  192.8750   -33.9500     2.2220    64.8580   108.3960   100.9190    97.8540    24.1830 
  193.0000   -33.9380     2.2310    63.4260   102.0970    95.0870    77.7060    24.2770 
  193.1250   -34.0020     2.2330    62.5720    98.1490    90.9590    68.5210    24.3860 
  193.2500   -34.1550     2.2290    62.0710    97.7060    89.8740    72.2020    24.5080 
  193.3750   -34.3400     2.2240    62.7550    99.8900    91.3090    77.7120    24.6590 
  193.5000   -34.5240     2.2200    64.7870   103.8990    94.6460    82.2640    24.7860 
  193.6250   -34.7320     2.2210    65.8400   108.8330    99.1090    91.4460    24.8340 
  193.7500   -35.0020     2.2280    65.1160   113.7410   103.8880    99.2520    24.8320 
  193.8750   -35.3240     2.2360    64.9380   117.7730   108.1280   106.5270    24.8330 
  194.0000   -35.6640     2.2420    66.2490   120.2550   111.1140   111.2850    24.8620 
  194.1250   -35.9580     2.2460    68.0390   120.7310   112.2590   116.2980    24.9180 
  194.2500   -36.1740     2.2490    68.3110   118.9800   111.0950   121.8890    24.9620 
  194.3750   -36.3690     2.2490    67.0810   116.0970   108.5050   132.8060    24.9730 
  194.5000   -36.5780     2.2400    67.3590   113.1160   105.4010   121.6780    24.9550 
  194.6250   -36.7800     2.2240    71.0020   111.0560   102.7670   101.6480    24.9170 
  194.7500   -36.9000     2.2100    76.3540   110.9230   101.6530    97.3210    24.8850 
  194.8750   -36.9040     2.2010    78.6050   112.4230   102.0680    98.3950    24.8540 
  195.0000   -36.7940     2.1970    76.3510   114.7980   103.5190   100.6700    24.8170 
  195.1250   -36.6260     2.1950    71.8940   116.8560   105.0210   103.9990    24.7660 
