~V
VERS. 2.00: Ver 2.00
~W
STRT.M 56.0000:
STOP.M 214.0000:
STEP.M 0.1250:
NULL. -999.2500:
UWI. F10128:
~C
DEPT.M :
SP.MV :
GR.API :
RML.OHMM :
RI. :
RXO.OHMM :
CALI.CM :
DEN.GM/CC :
~A
# ...
  179.7500   -11.4100    64.6810    85.1870    84.7360    67.8580    23.6450     2.3560 
  179.8750   -11.2840    65.6350    78.3020    77.9970    41.8410    23.7100     2.3130 
  180.0000   -11.1680    65.6650    68.2820    67.7990    33.6810    23.7050     2.2680 
  180.1250   -11.0360    63.8780    58.9200    58.1180    34.6580    23.7130     2.2300 
  180.2500   -10.9580    63.9210    51.9260    50.7820    42.0940    23.8860     2.2020 
  180.3750   -10.8430    69.9210    47.6950    46.3080    50.2740    24.3240     2.1830 
  180.5000   -10.6690    76.9740    45.1960    43.6480    52.6960    24.9140     2.1690 
  180.6250   -10.4940    79.2810    43.9200    42.2700    52.3530    25.2980     2.1620 
  180.7500   -10.2790    77.9850    43.5350    41.8130    48.5340    25.3300     2.1650 
  180.8750   -10.0570    77.5990    43.9400    42.1560    44.0120    25.2250     2.1740 
  181.0000    -9.8770    78.0260    44.8630    43.0290    40.1530    25.2840     2.1890 
  181.1250    -9.6970    75.6580    46.1620    44.2450    40.8780    25.3660     2.2120 
  181.2500    -9.5410    69.8150    47.7140    45.6300    45.3490    25.3460     2.2520 
  181.3750    -9.4400    65.3170    49.4670    47.1410    49.4080    25.1300     2.3090 
  181.5000    -9.4150    63.9370    51.3390    48.7560    52.1540    25.0130     2.3600 
  181.6250    -9.4200    63.9250    53.2920    50.4000    53.9890    25.0560     2.3830 
  181.7500    -9.4810    62.9000    55.3380    52.0150    48.6950    25.1810     2.3670 
  181.8750    -9.5580    61.9880    57.6550    53.7280    53.2730    25.2160     2.3190 
  182.0000    -9.6340    63.6170    60.4340    55.7700    64.4060    25.1560     2.2710 
  182.1250    -9.7850    66.6660    63.8060    58.3500    68.2270    25.0790     2.2400 
  182.2500    -9.9330    67.2490    67.6460    61.4820    62.7470    25.0980     2.2300 
  182.3750   -10.0780    63.9600    71.2530    64.6180    61.9060    25.1860     2.2450 
  182.5000   -10.2430    61.3990    73.5580    66.6920    70.7240    25.1860     2.2820 
  182.6250   -10.4220    63.8200    73.6510    66.8370    89.8490    24.9970     2.3420 
  182.7500   -10.5920    71.2870    71.2020    64.6920   110.7570    24.7220     2.4160 
  182.8750   -10.8170    79.9900    66.6020    60.5190    88.4340    24.5350     2.4860 
  183.0000   -11.0510    86.5840    61.5510    55.9480    63.7520    24.4420     2.5350 
  183.1250   -11.2260    89.5950    57.0950    52.0380    53.9510    24.3610     2.5560 
  183.2500   -11.4170    88.5420    53.5520    49.0980    55.6880    24.2870     2.5550 
  183.3750   -11.6420    83.6100    50.3500    46.6060    52.5640    24.1980     2.5370 
  183.5000   -11.8200    79.4210    46.3650    43.3600    55.2180    24.1790     2.5080 
  183.6250   -11.9930    81.7300    40.9560    38.4780    67.9740    24.2520     2.4660 
  183.7500   -12.1560    90.3660    34.2210    31.9510    63.4870    24.3520     2.4150 
  183.8750   -12.1850    96.0130    27.0600    24.9420    41.8450    24.4670     2.3640 
  184.0000   -12.1820    92.9820    20.5990    18.8410    29.2760    24.5860     2.3250 
  184.1250   -12.1840    83.8150    15.3550    14.1490    18.8730    24.6870     2.3040 
  184.2500   -12.1690    74.4130    11.5010    10.8640    11.3830    24.6980     2.2990 
  184.3750   -12.2040    68.6290     9.2080     8.8960     7.8130    24.7130     2.3070 
  184.5000   -12.3020    66.3840     7.9930     7.7480     6.6780    24.7450     2.3190 
  184.6250   -12.4500    66.6360     7.5310     7.2220     6.2310    24.7780     2.3310 
  184.7500   -12.6480    66.5930     7.5570     7.1690     6.1580    24.7940     2.3400 
  184.8750   -12.9740    65.9910     7.9140     7.4790     6.4860    24.8270     2.3390 
  185.0000   -13.3260    66.7500     8.3340     7.9080     7.1520    24.8810     2.3300 
  185.1250   -13.6440    68.2780     8.6430     8.2770     7.9930    24.9080     2.3150 
  185.2500   -13.9120    68.2540     8.7270     8.4350     8.5900    24.8620     2.2990 
  185.3750   -14.1060    67.3800     8.5290     8.2780     8.6300    24.8150     2.2880 
  185.5000   -14.2010    68.4990     8.1800     7.9290     7.8880    24.7430     2.2830 
  185.6250   -14.1960    71.7830     7.8070     7.5200     7.1930    24.6920     2.2830 
  185.7500   -14.1850    74.4700     7.5300     7.1730     6.6520    24.6830     2.2860 
  185.8750   -14.1410    72.6670     7.4430     6.9800     6.1800    24.6870     2.2890 
  186.0000   -14.0580    69.3520     7.4890     6.9090     5.9460    24.6770     2.2880 
  186.1250   -14.0050    69.3030     7.5740     6.8860     6.2670    24.6650     2.2820 
  186.2500   -13.9980    73.6440     7.5890     6.8230     6.4960    24.6590     2.2730 
  186.3750   -13.9830    76.9350     7.4660     6.6550     6.6990    24.6560     2.2730 
  186.5000   -14.0050    75.9960     7.2940     6.4500     6.5310    24.6340     2.2870 
  186.6250   -14.1110    72.8860     7.2110     6.3150     6.1480    24.5770     2.3110 
  186.7500   -14.2450    71.7360     7.3560     6.3640     5.8100    24.5200     2.3350 
  186.8750   -14.3460    74.7560     7.8480     6.7070     5.9080    24.5160     2.3430 
  187.0000   -14.4610    82.4650     8.5670     7.2760     6.9300    24.5920     2.3330 
  187.1250   -14.5410    93.1660     9.3300     7.9460     8.7790    24.7090     2.3140 
  187.2500   -14.5170   100.2040     9.9040     8.5100    10.4320    24.7340     2.2990 
  187.3750   -14.4490    93.9700    10.0160     8.6790    10.8740    24.7030     2.2990 
  187.5000   -14.2940    80.5830     9.7000     8.4350     9.3710    24.6180     2.3080 
  187.6250   -14.0100    70.5840     9.0860     7.8950     8.2860    24.5910     2.3210 
  187.7500   -13.6390    67.1760     8.3730     7.2520     8.0100    24.6560     2.3330 
  187.8750   -13.2730    65.6460     7.7780     6.6990     7.6200    24.7490     2.3430 
  188.0000   -12.9610    64.0600     7.4000     6.3200     6.8340    24.8180     2.3520 
  188.1250   -12.7480    63.9200     7.2660     6.1390     6.4940    24.7830     2.3570 
  188.2500   -12.6940    65.2740     7.3590     6.1410     6.6920    24.6520     2.3540 
  188.3750   -12.7730    66.9040     7.6510     6.3200     7.2820    24.5180     2.3410 
  188.5000   -12.9700    70.1130     8.0350     6.6070     7.7460    24.4580     2.3220 
  188.6250   -13.2430    74.5940     8.4360     6.9520     7.9520    24.4610     2.3020 
  188.7500   -13.5260    76.0560     8.7870     7.2950     7.6240    24.5650     2.2860 
  188.8750   -13.7670    74.9840     9.0150     7.5630     7.3970    24.7360     2.2800 
  189.0000   -13.9020    75.0020     9.0920     7.7100     8.0390    24.8010     2.2830 
  189.1250   -13.9220    75.2150     8.9910     7.6870     8.7810    24.7970     2.2950 
  189.2500   -13.8190    72.4700     8.7040     7.4750     8.5610    24.7670     2.3130 
  189.3750   -13.6010    68.4780     8.2520     7.0910     7.4690    24.8400     2.3300 
  189.5000   -13.3330    66.0300     7.7540     6.6530     6.6070    24.9900     2.3430 
  189.6250   -13.0550    64.3500     7.3130     6.2540     6.0030    25.1200     2.3490 
  189.7500   -12.8010    63.6450     7.0170     5.9670     5.6840    25.1850     2.3500 
  189.8750   -12.6080    65.3620     6.9400     5.8560     5.9180    25.1420     2.3470 
  190.0000   -12.5150    67.6860     7.0300     5.8860     6.5020    25.1300     2.3440 
  190.1250   -12.5310    69.1380     7.2350     6.0210     6.7900    24.9970     2.3410 
  190.2500   -12.6210    69.9500     7.4860     6.2170     6.7900    24.8490     2.3390 
  190.3750   -12.7610    70.1950     7.7180     6.4350     7.1190    24.8800     2.3380 
  190.5000   -12.9340    69.3710     7.9000     6.6400     7.5450    24.9310     2.3360 
  190.6250   -13.1120    67.2650     8.0300     6.8220     7.4600    24.9600     2.3300 
  190.7500   -13.2600    65.3800     8.1220     6.9780     6.9080    24.9620     2.3210 
  190.8750   -13.3500    64.9330     8.1880     7.0990     7.2670    24.9720     2.3150 
