~V
VERS. 2.00: Ver 2.00
~W
STRT.M 52.0000:
STOP.M 224.0000:
STEP.M 0.1250:
NULL. -999.2500:
UWI. F10155:
~C
DEPT.M :
SP.MV :
GR.API :
RML.OHMM :
RI. :
RXO.OHMM :
CALI.CM :
DEN.GM/CC :
~A
# ...
  187.0000    -7.2740    92.4210     8.2200     6.3150     6.2730    25.6870     2.3780 
  187.1250    -7.0730    97.0350     8.0570     6.1990     6.3270    25.9620     2.3580 
  187.2500    -6.8470    97.1650     7.9790     6.1480     6.4200    26.1450     2.3510 
  187.3750    -6.5620    94.2790     7.9550     6.1490     6.4900    26.3650     2.3580 
  187.5000    -6.2320    93.6240     7.9430     6.1770     6.4110    25.8420     2.3730 
  187.6250    -5.9000    93.2250     7.9130     6.2020     6.3890    25.5720     2.3900 
  187.7500    -5.5520    91.3000     7.8630     6.2180     6.4130    25.4710     2.4060 
  187.8750    -5.2040    89.7140     7.8150     6.2310     6.4910    25.3160     2.4200 
  188.0000    -4.9210    91.9520     7.8030     6.2710     6.5940    25.2890     2.4310 
  188.1250    -4.7060    94.5460     7.8350     6.3450     6.4520    25.3560     2.4360 
  188.2500    -4.5270    95.4560     7.8900     6.4450     6.1440    25.3470     2.4350 
  188.3750    -4.3670    94.8630     7.9250     6.5370     6.3260    25.1400     2.4300 
  188.5000    -4.2200    92.9950     7.8880     6.5720     6.8050    24.6930     2.4220 
  188.6250    -4.0930    91.8650     7.7860     6.5450     6.8230    24.2350     2.4110 
  188.7500    -4.0010    92.3250     7.6660     6.4920     6.4250    24.2250     2.3990 
  188.8750    -3.9120    94.1120     7.5890     6.4670     6.0120    24.6060     2.3900 
  189.0000    -3.7790    93.8550     7.6100     6.5260     6.0380    25.0600     2.3880 
  189.1250    -3.5890    89.1160     7.6950     6.6500     6.4850    25.2620     2.3900 
  189.2500    -3.3650    84.0020     7.7940     6.7980     7.1870    25.1140     2.3900 
  189.3750    -3.1210    83.5290     7.8640     6.9190     7.7080    24.7640     2.3830 
  189.5000    -2.8510    88.5000     7.9220     6.9970     7.1180    24.4940     2.3650 
  189.6250    -2.5940    92.6120     8.0550     7.1010     6.3920    24.5360     2.3410 
  189.7500    -2.3470    92.9540     8.3350     7.3100     6.1990    24.6200     2.3120 
  189.8750    -2.0800    91.2310     8.7600     7.6560     6.7160    24.3120     2.2780 
  190.0000    -1.7850    89.9330     9.1840     8.0600     7.7640    23.9400     2.2360 
  190.1250    -1.5190    89.4220     9.3780     8.3090     8.8360    23.7400     2.1990 
  190.2500    -1.3530    89.9080     9.1950     8.2180     8.7230    23.5810     2.1800 
  190.3750    -1.3280    92.6100     8.6470     7.7540     8.3140    23.3070     2.1900 
  190.5000    -1.4630    96.9150     7.9630     7.1090     7.7780    23.0040     2.2270 
  190.6250    -1.7200    98.1230     7.5530     6.6390     7.1590    22.9720     2.2620 
  190.7500    -2.1260    94.3950     7.7860     6.6150     6.4460    23.1790     2.2790 
  190.8750    -2.7190    89.7630     9.0990     7.3210     6.6780    23.5770     2.2750 
  191.0000    -3.5070    86.2240    12.6500     9.5460     8.2320    23.9930     2.2630 
  191.1250    -4.4100    81.3100    19.2120    14.1830    14.2170    24.1710     2.2600 
  191.2500    -5.3720    75.8750    29.7160    22.7450    24.8420    24.0560     2.2660 
  191.3750    -6.3180    72.2540    44.4560    36.6110    35.1410    23.7390     2.2710 
  191.5000    -7.1960    70.9930    61.5600    55.2760    46.1360    23.2410     2.2640 
  191.6250    -7.9990    72.3820    75.6220    71.9760    56.0330    22.9150     2.2490 
  191.7500    -8.7030    75.6030    82.6020    80.6620    65.5860    22.7500     2.2370 
  191.8750    -9.2910    76.5460    82.1980    80.5910    72.0890    22.7030     2.2320 
  192.0000    -9.7590    72.6550    77.7960    75.8940    73.5040    22.8790     2.2290 
  192.1250   -10.1150    69.7850    74.1070    71.6530    72.3440    23.2810     2.2160 
  192.2500   -10.3520    70.1900    72.5510    69.3350    70.1150    23.7430     2.1900 
  192.3750   -10.5040    70.8590    72.9250    68.9560    69.0310    24.1520     2.1600 
  192.5000   -10.6470    69.8480    74.4420    69.9780    68.4430    24.5380     2.1400 
  192.6250   -10.8140    69.8760    76.0960    71.3580    68.8950    24.7620     2.1400 
  192.7500   -11.0100    72.0270    77.6400    72.7400    69.7790    24.8660     2.1560 
  192.8750   -11.2220    74.2040    79.3290    74.3620    71.1640    24.8990     2.1760 
  193.0000   -11.4580    72.7690    81.8350    76.9950    72.5350    24.9110     2.1870 
  193.1250   -11.7200    70.3820    85.3590    80.8450    73.8870    24.8680     2.1880 
  193.2500   -12.0120    70.5660    89.7510    85.7460    75.2540    24.7910     2.1830 
  193.3750   -12.3430    73.4240    94.5710    91.1910    76.4390    24.7780     2.1800 
  193.5000   -12.7010    73.4980    99.2850    96.5010    79.0010    24.7690     2.1820 
  193.6250   -13.0650    70.5860   103.6550   101.3970    83.1640    24.7970     2.1850 
  193.7500   -13.3840    69.4900   107.6630   105.9960    89.1550    24.7960     2.1860 
  193.8750   -13.6220    70.9450   111.2520   110.3580    98.6160    24.7450     2.1840 
  194.0000   -13.7320    71.0440   114.0690   114.0560   109.4780    24.7870     2.1830 
  194.1250   -13.7900    68.5010   115.9240   116.7740   117.5450    24.8810     2.1850 
  194.2500   -13.8670    65.5240   116.6590   118.3300   119.4270    24.9160     2.1890 
  194.3750   -14.0040    64.8520   116.2320   118.6370   120.9990    24.8890     2.1930 
  194.5000   -14.2510    65.9890   114.5850   117.5190   117.6170    24.8630     2.1970 
  194.6250   -14.5970    67.7420   112.1770   115.4620   110.9830    24.9770     2.2010 
  194.7500   -15.0520    68.2330   109.3320   112.8640   105.8260    25.1490     2.2040 
  194.8750   -15.6120    67.0560   106.3510   110.0400   103.4680    25.2490     2.2050 
  195.0000   -16.3100    67.5550   103.5290   107.2570   100.4460    25.2780     2.2030 
  195.1250   -17.1090    69.9820   101.1120   104.8270    97.7660    25.2820     2.2010 
  195.2500   -17.9130    72.5300    99.3490   103.0540    96.9480    25.2880     2.2010 
  195.3750   -18.6710    72.9770    98.5030   102.1800    96.4580    25.2590     2.2020 
  195.5000   -19.3220    70.6680    99.1310   102.6730    94.1610    25.1930     2.2070 
  195.6250   -19.8150    68.0360   101.4560   104.7630    91.3030    25.0890     2.2130 
  195.7500   -20.1200    65.3320   105.9590   108.9760    91.3600    24.9810     2.2220 
  195.8750   -20.2660    64.8900   113.1940   115.9280    96.4950    25.0180     2.2320 
  196.0000   -20.2020    67.6790   124.2620   126.8690   111.5080    25.1190     2.2370 
  196.1250   -19.9140    69.7300   138.6860   141.3850   126.3260    25.1980     2.2350 
  196.2500   -19.4670    67.6450   155.5880   158.5620   163.6210    25.2420     2.2240 
  196.3750   -18.9610    62.5180   172.9430   176.2180   232.7420    25.2610     2.2080 
  196.5000   -18.4700    60.1930   187.0560   190.2700   258.5620    25.2380     2.1940 
  196.6250   -17.9990    61.6190   195.8770   198.4540   236.7400    25.1680     2.1860 
  196.7500   -17.5620    64.3350   199.1660   200.7400   222.6110    25.0850     2.1830 
  196.8750   -17.2010    65.9310   198.2590   198.9160   221.8390    25.0300     2.1840 
  197.0000   -16.9640    66.1580   194.4810   194.3170   198.3130    25.0760     2.1870 
  197.1250   -16.7730    67.0870   189.1060   187.5640   179.5550    25.1650     2.1900 
  197.2500   -16.5860    68.8670   182.8090   178.9330   186.5240    25.2240     2.1940 
  197.3750   -16.3110    70.7630   177.2500   170.4380   206.1950    25.2320     2.2020 
  197.5000   -15.8420    71.6270   176.2120   167.1680   208.8160    25.3160     2.2130 
  197.6250   -15.3030    71.6800   181.7830   172.2280   194.4150    25.3200     2.2220 
  197.7500   -14.7790    70.0020   193.5960   186.1760   180.8250    25.1690     2.2240 
  197.8750   -14.3010    66.3970   206.6440   205.1290   164.0740    24.9260     2.2170 
  198.0000   -13.8760    63.7550   209.3940   216.4290   147.5160    24.9210     2.2050 
  198.1250   -13.5160    63.8240   196.6330   208.9310   134.6950    24.9950     2.1970 
