~V
VERS. 2.00: Ver 2.00
~W
STRT.M 50.0000:
STOP.M 232.0000:
STEP.M 0.1250:
NULL. -999.2500:
UWI. F10160:
~C
DEPT.M :
SP.MV :
DEN.GM/CC :
GR.API :
RML.OHMM :
RI. :
RXO.OHMM :
CALI.CM :
~A
# ...
  128.7500   -20.7300     2.4910    69.0850     9.3760     9.0160     8.9760    25.0420 
  128.8750   -20.8540     2.4300    72.3630     7.7540     7.6370     6.8660    25.0410 
  129.0000   -20.9660     2.3900    76.1280     6.6700     6.6070     5.7860    25.0490 
  129.1250   -21.0900     2.3750    84.7940     6.1030     5.9710     5.1260    25.0780 
  129.2500   -21.2480     2.3770    92.0330     5.8200     5.5900     4.7610    25.1190 
  129.3750   -21.4380     2.3890    93.3000     5.6990     5.3790     4.6450    25.1490 
  129.5000   -21.6500     2.4050    90.0710     5.6660     5.2750     4.7230    25.1570 
  129.6250   -21.8800     2.4110    86.2000     5.7180     5.2640     4.9340    25.1420 
  129.7500   -22.1160     2.3970    83.5640     5.9000     5.3620     5.2100    25.1530 
  129.8750   -22.3340     2.3640    81.4430     6.2780     5.6140     5.9630    25.3090 
  130.0000   -22.5120     2.3180    79.5130     6.8910     6.0490     7.2010    25.6480 
  130.1250   -22.6330     2.2710    77.4920     7.7660     6.6880     7.5190    25.9960 
  130.2500   -22.6990     2.2360    75.1650     8.7980     7.4530     8.5020    26.1680 
  130.3750   -22.7200     2.2150    72.2260     9.8900     8.2770    10.6590    26.2120 
  130.5000   -22.7290     2.2070    69.0970    10.9490     9.0890    12.0810    26.2710 
  130.6250   -22.7510     2.2140    66.6680    11.9440     9.8450    11.5960    26.3680 
  130.7500   -22.7780     2.2290    64.6880    12.9600    10.5840    12.0400    26.4300 
  130.8750   -22.8050     2.2450    63.7670    14.0910    11.3610    13.6650    26.4440 
  131.0000   -22.8260     2.2530    64.9760    15.3710    12.2160    15.9610    26.4420 
  131.1250   -22.8370     2.2450    67.7000    16.7240    13.1380    16.9290    26.4340 
  131.2500   -22.8370     2.2250    68.3340    17.9590    14.0180    16.8540    26.3930 
  131.3750   -22.8260     2.2030    64.7340    18.9400    14.7560    17.8260    26.3180 
  131.5000   -22.7980     2.1860    60.4600    19.6380    15.3050    18.9490    26.2100 
  131.6250   -22.7710     2.1870    61.3580    20.1040    15.6740    19.4110    26.0490 
  131.7500   -22.7480     2.2010    64.2640    20.4530    15.9460    19.4480    25.8600 
  131.8750   -22.7250     2.2220    63.3300    20.6710    16.1290    20.3250    25.6970 
  132.0000   -22.6790     2.2410    58.6050    20.6750    16.1810    20.5770    25.5990 
  132.1250   -22.5880     2.2630    57.2890    20.3540    16.0300    19.8200    25.5660 
  132.2500   -22.4630     2.2950    59.9630    19.7890    15.7150    18.1860    25.5540 
  132.3750   -22.3130     2.3460    63.4820    19.0810    15.2870    16.8680    25.5420 
  132.5000   -22.1390     2.4130    65.3460    18.3700    14.8250    15.1590    25.5200 
  132.6250   -21.9370     2.4810    62.8030    17.8420    14.4440    15.4990    25.5060 
  132.7500   -21.7170     2.5300    58.9450    17.6010    14.2330    16.2830    25.5030 
  132.8750   -21.4940     2.5540    57.3240    17.7190    14.2600    16.6490    25.5040 
  133.0000   -21.2780     2.5620    56.7230    18.2150    14.5580    16.1010    25.5020 
  133.1250   -21.1000     2.5720    53.5720    19.0270    15.1130    16.8500    25.5220 
  133.2500   -20.9520     2.5920    51.7150    19.8410    15.7280    18.5000    25.5790 
  133.3750   -20.8320     2.6160    53.7900    20.3500    16.1950    21.4810    25.6500 
  133.5000   -20.7400     2.6360    55.8880    20.3320    16.3420    23.6660    25.6980 
  133.6250   -20.6810     2.6430    54.5320    19.7670    16.1040    22.1010    25.7090 
  133.7500   -20.6420     2.6450    53.6910    19.1080    15.7360    18.8830    25.7260 
  133.8750   -20.6060     2.6520    53.8060    18.7280    15.4710    17.0620    25.7620 
  134.0000   -20.5670     2.6690    52.0340    18.8250    15.4620    16.8650    25.7950 
  134.1250   -20.5210     2.6870    49.1410    19.3670    15.7510    18.8200    25.8060 
  134.2500   -20.4880     2.6960    47.2860    19.9340    16.1180    21.4810    25.8130 
  134.3750   -20.4770     2.6900    48.6050    20.1510    16.3270    22.3330    25.8280 
  134.5000   -20.4870     2.6720    52.6770    19.8060    16.2050    20.5080    25.8470 
  134.6250   -20.5040     2.6480    56.8620    18.9560    15.7260    18.0010    25.8620 
  134.7500   -20.5240     2.6230    58.3110    18.0490    15.1530    17.1570    25.8750 
  134.8750   -20.5440     2.6020    56.9650    17.4090    14.6980    16.8410    25.9040 
  135.0000   -20.5560     2.5870    56.7840    17.2430    14.5190    16.7410    25.9630 
  135.1250   -20.5520     2.5850    57.7960    17.7220    14.7610    17.2370    26.0480 
  135.2500   -20.5460     2.5960    57.4490    18.6830    15.3490    18.3120    26.1240 
  135.3750   -20.5480     2.6200    56.0440    19.9150    16.1670    19.8220    26.1720 
  135.5000   -20.5740     2.6480    56.6620    21.0690    16.9980    22.4990    26.2050 
  135.6250   -20.6280     2.6570    58.1110    21.5950    17.4730    26.0430    26.2660 
  135.7500   -20.6970     2.6360    55.8990    21.3310    17.4330    27.1330    26.3630 
  135.8750   -20.7720     2.5920    52.8770    20.4300    16.9330    25.0360    26.4870 
  136.0000   -20.8480     2.5450    52.5740    19.3080    16.2180    20.3400    26.5790 
  136.1250   -20.8990     2.5250    52.6220    18.4910    15.6230    17.8860    26.5650 
  136.2500   -20.9160     2.5370    50.6120    18.1810    15.3240    17.5300    26.4850 
  136.3750   -20.9010     2.5660    49.6520    18.3510    15.3420    18.3250    26.4160 
  136.5000   -20.8580     2.5880    51.6920    18.8510    15.6090    18.9040    26.3960 
  136.6250   -20.7790     2.5900    52.8970    19.5290    16.0410    18.3750    26.4010 
  136.7500   -20.6810     2.5810    52.8940    20.2860    16.5480    18.4120    26.4150 
  136.8750   -20.5680     2.5730    53.4940    21.1270    17.1180    19.5050    26.4440 
  137.0000   -20.4510     2.5760    54.2130    22.0250    17.7310    21.9230    26.4690 
  137.1250   -20.3470     2.5910    53.3750    22.7840    18.2760    25.2390    26.4780 
  137.2500   -20.2690     2.6090    51.7500    23.1470    18.5900    28.2950    26.4840 
  137.3750   -20.2150     2.6200    49.9960    22.9730    18.5670    27.8710    26.4940 
  137.5000   -20.1790     2.6170    49.4370    22.3750    18.2470    24.0990    26.4960 
  137.6250   -20.1660     2.6030    51.3870    21.7560    17.8500    20.5180    26.4820 
  137.7500   -20.1730     2.5870    53.3390    21.5150    17.6470    19.6680    26.4640 
  137.8750   -20.1990     2.5780    52.9720    21.7880    17.7520    20.6850    26.4510 
  138.0000   -20.2440     2.5830    50.6960    22.4590    18.1360    22.9260    26.4450 
  138.1250   -20.3050     2.5990    48.6570    23.1520    18.6020    27.0290    26.4380 
  138.2500   -20.3710     2.6150    47.0140    23.4320    18.8570    29.2980    26.4190 
  138.3750   -20.4480     2.6240    46.3810    23.1290    18.7530    27.0490    26.3810 
  138.5000   -20.5320     2.6240    46.5150    22.3570    18.3230    23.4960    26.3290 
  138.6250   -20.6240     2.6160    47.9740    21.4370    17.7360    20.9750    26.2780 
  138.7500   -20.7100     2.6070    50.5990    20.6940    17.2120    20.0720    26.2380 
  138.8750   -20.7890     2.6000    51.7940    20.2540    16.8500    20.2620    26.2120 
  139.0000   -20.8580     2.5990    50.6380    20.1180    16.6730    19.8840    26.2030 
  139.1250   -20.9050     2.6040    49.0380    20.2440    16.6770    19.3120    26.2050 
  139.2500   -20.9160     2.6130    49.1820    20.5100    16.7900    18.3650    26.2070 
  139.3750   -20.8740     2.6220    49.6490    20.8490    16.9730    19.2390    26.2090 
  139.5000   -20.7730     2.6250    48.4550    21.1900    17.1790    20.8060    26.2080 
  139.6250   -20.6260     2.6180    46.5800    21.4280    17.3360    22.9460    26.2070 
  139.7500   -20.4520     2.6050    44.5520    21.5150    17.3950    23.1240    26.2080 
  139.8750   -20.2870     2.5920    42.6530    21.4360    17.3360    22.1110    26.2030 
