~V
VERS. 2.00: Ver 2.00
~W
STRT.M 60.0000:
STOP.M 220.0000:
STEP.M 0.1250:
NULL. -999.2500:
UWI. F10154:
~C
DEPT.M :
GR.API :
RML.OHMM :
RI. :
RXO.OHMM :
CALI.CM :
DEN.GM/CC :
SP.MV :
~A
# ...
   71.2500    69.7540     8.8370     7.4850     7.2710    24.0790     2.1850   -20.1120 
   71.3750    72.0320     8.5730     7.2110     6.6370    23.9580     2.1960   -19.6500 
   71.5000    76.2470     8.3000     6.9240     6.1310    23.8750     2.2090   -19.1360 
   71.6250    80.3200     8.0690     6.6610     5.8270    23.9060     2.2240   -18.6220 
   71.7500    83.8190     7.9500     6.4780     5.7410    23.9940     2.2390   -18.2180 
   71.8750    86.8800     8.0120     6.4310     5.7700    23.9900     2.2540   -17.9570 
   72.0000    89.7730     8.2970     6.5550     5.9630    23.8520     2.2660   -17.8760 
   72.1250    91.6730     8.8070     6.8760     6.0260    23.6420     2.2670   -18.0490 
   72.2500    89.8000     9.3910     7.3120     6.9550    23.5340     2.2560   -18.4310 
   72.3750    84.9780     9.9020     7.7630     7.8300    23.4760     2.2350   -19.0280 
   72.5000    79.8330    10.2160     8.1130     8.1470    23.4010     2.2080   -19.8150 
   72.6250    77.5260    10.2600     8.2540     8.1190    23.2840     2.1870   -20.6970 
   72.7500    76.6110    10.1390     8.2270     8.1860    23.3160     2.1750   -21.5790 
   72.8750    74.0470     9.9540     8.1050     8.4690    23.5330     2.1720   -22.4450 
   73.0000    70.9760     9.7790     7.9660     8.7130    23.8150     2.1720   -23.2370 
   73.1250    68.8980     9.6540     7.8650     8.7650    23.8280     2.1730   -23.8680 
   73.2500    68.2730     9.5650     7.8000     8.5040    23.9480     2.1740   -24.3670 
   73.3750    69.2580     9.4870     7.7500     8.2770    24.0800     2.1760   -24.7300 
   73.5000    69.1060     9.3920     7.6890     8.3060    24.1570     2.1770   -24.8900 
   73.6250    67.5980     9.2370     7.5740     8.3580    24.1850     2.1780   -24.7720 
   73.7500    68.2300     8.9960     7.3780     8.3660    24.2190     2.1820   -24.3640 
   73.8750    71.9680     8.6550     7.0830     8.1870    24.2740     2.1920   -23.6180 
   74.0000    77.0640     8.2150     6.6950     7.5850    24.4190     2.2120   -22.5710 
   74.1250    82.5460     7.7090     6.2420     6.7690    24.4400     2.2410   -21.2990 
   74.2500    89.6460     7.2420     5.8090     6.1700    24.4910     2.2680   -19.9690 
   74.3750    97.6120     6.9410     5.4970     5.9950    24.5050     2.2890   -18.7070 
   74.5000   103.1410     6.9390     5.4080     6.0220    24.5190     2.3030   -17.6930 
   74.6250   105.6170     7.3860     5.6600     6.0500    24.5560     2.3140   -17.1470 
   74.7500   104.1190     8.1640     6.2000     6.9060    24.5820     2.3260   -17.0630 
   74.8750    95.4930     9.0760     6.9320     9.4900    24.5180     2.3340   -17.4280 
   75.0000    80.9580     9.8380     7.6580    14.9440    24.3020     2.3320   -18.1500 
   75.1250    69.2240    10.1030     8.0570    12.3320    24.0300     2.3130   -19.0760 
   75.2500    65.1040     9.8900     8.0490     9.5060    23.7690     2.2900   -19.9920 
   75.3750    64.2540     9.3690     7.7360     8.3040    23.5270     2.2710   -20.7950 
   75.5000    61.8450     8.7800     7.3030     8.3210    23.3230     2.2590   -21.3700 
   75.6250    60.3470     8.3290     6.9160     8.1730    23.2480     2.2470   -21.5380 
   75.7500    61.8610     8.0210     6.6150     7.7370    23.2850     2.2330   -21.2780 
   75.8750    64.9620     7.7910     6.3700     7.3870    23.4820     2.2200   -20.5780 
   76.0000    71.2190     7.5840     6.1430     7.2320    23.7790     2.2220   -19.5280 
   76.1250    83.0510     7.4060     5.9390     6.6310    24.1260     2.2480   -18.3380 
   76.2500    93.8790     7.2990     5.7940     5.9080    24.3760     2.2830   -17.2260 
   76.3750    97.1590     7.2920     5.7320     5.8820    24.5890     2.3130   -16.2460 
   76.5000    93.4140     7.3730     5.7510     6.3690    24.6840     2.3250   -15.4200 
   76.6250    88.6200     7.5070     5.8350     6.2700    24.7090     2.3200   -14.8260 
   76.7500    87.6530     7.6450     5.9430     6.3650    24.6760     2.3110   -14.5120 
   76.8750    89.6170     7.7760     6.0550     6.4640    24.6310     2.3050   -14.5660 
   77.0000    92.3690     7.9210     6.1730     6.2600    24.5540     2.2980   -15.0280 
   77.1250    92.8730     8.1460     6.3370     6.0670    24.5970     2.2830   -15.8530 
   77.2500    89.1880     8.5010     6.5860     6.1600    25.4810     2.2580   -16.7720 
   77.3750    82.3410     9.0100     6.9460     6.3220    27.2740     2.2300   -17.6520 
   77.5000    74.5290     9.6370     7.4110     6.6100    27.5460     2.2050   -18.4500 
   77.6250    69.7910    10.2460     7.9140     6.8500    25.6570     2.1920   -19.1360 
   77.7500    69.3350    10.6560     8.3180     8.3320    24.4980     2.1870   -19.7760 
   77.8750    71.4190    10.7450     8.4970    11.0030    24.2960     2.1860   -20.3280 
   78.0000    71.9450    10.4970     8.3930    12.1460    24.4280     2.1850   -20.6770 
   78.1250    71.4740    10.0030     8.0300     9.2720    24.4910     2.1850   -20.7570 
   78.2500    74.7830     9.4860     7.5880     7.8390    24.4530     2.1870   -20.7160 
   78.3750    81.0700     9.0700     7.1860     7.3600    24.2840     2.1920   -20.6460 
   78.5000    83.7400     8.8080     6.8960     7.2210    24.0590     2.1960   -20.6250 
   78.6250    81.6300     8.7080     6.7570     7.1820    23.8630     2.1960   -20.7230 
   78.7500    80.5790     8.6950     6.7190     7.1520    23.7100     2.1910   -20.8010 
   78.8750    80.7220     8.7230     6.7390     7.1230    23.7530     2.1820   -20.8360 
   79.0000    79.3320     8.7570     6.7780     7.0990    23.9910     2.1760   -20.8800 
   79.1250    78.6150     8.7720     6.8110     7.0520    24.2830     2.1760   -20.9840 
   79.2500    80.1720     8.7680     6.8250     6.9330    23.8210     2.1820   -21.1280 
   79.3750    81.6310     8.7510     6.8150     6.9720    23.4050     2.1890   -21.2960 
   79.5000    80.6040     8.7290     6.7840     7.1760    23.2830     2.1920   -21.4480 
   79.6250    79.0720     8.7110     6.7450     7.1100    23.3530     2.1910   -21.5520 
   79.7500    78.1440     8.7020     6.7160     7.1030    23.4270     2.1890   -21.6570 
   79.8750    76.8490     8.7070     6.7100     7.2770    23.4790     2.1860   -21.7760 
   80.0000    75.3710     8.7300     6.7260     7.6790    23.5140     2.1840   -21.8920 
   80.1250    75.6140     8.7630     6.7560     7.8320    23.5940     2.1810   -21.9640 
   80.2500    76.6790     8.7860     6.7800     7.7090    23.7060     2.1810   -21.9870 
   80.3750    75.7300     8.7830     6.7830     7.4520    23.7350     2.1840   -22.0140 
   80.5000    73.7870     8.7510     6.7580     7.2080    23.6530     2.1920   -22.0490 
   80.6250    75.1640     8.7050     6.7120     7.1030    23.5520     2.2020   -22.1080 
   80.7500    77.6760     8.6680     6.6680     7.1790    23.5170     2.2100   -22.2680 
   80.8750    77.5190     8.6540     6.6390     7.3360    23.5220     2.2160   -22.5110 
   81.0000    75.6890     8.6630     6.6300     7.4270    23.5460     2.2190   -22.7870 
   81.1250    76.0180     8.6850     6.6340     7.4110    23.5410     2.2210   -23.0640 
   81.2500    77.2970     8.7000     6.6310     7.3880    23.5180     2.2210   -23.3680 
   81.3750    76.8020     8.7060     6.6130     7.3450    23.5050     2.2210   -23.6320 
   81.5000    76.2630     8.7090     6.5840     7.2980    23.4750     2.2210   -23.8970 
   81.6250    76.0120     8.7340     6.5670     7.3110    23.3990     2.2230   -24.1650 
   81.7500    74.8120     8.8000     6.5840     7.4190    23.2990     2.2260   -24.3830 
   81.8750    73.4960     8.9170     6.6460     7.5470    23.2280     2.2270   -24.5780 
   82.0000    73.2980     9.0810     6.7500     7.6880    23.1160     2.2250   -24.8050 
   82.1250    72.2750     9.2620     6.8720     7.8620    22.8950     2.2210   -25.1430 
   82.2500    70.7170     9.4140     6.9740     7.9680    22.7380     2.2150   -25.6080 
   82.3750    70.7090     9.5050     7.0330     8.0120    22.7100     2.2110   -26.1960 
