~V
VERS. 2.00: Ver 2.00
~W
STRT.M 50.0000:
STOP.M 211.0000:
STEP.M 0.1250:
NULL. -999.2500:
UWI. F10140:
~C
DEPT.M :
DEN.GM/CC :
GR.API :
RML.OHMM :
RI. :
RXO.OHMM :
CALI.CM :
SP.MV :
~A
# ...
  128.7500     2.5440    58.1990    28.1160    26.0720    25.6390    31.3540    -8.9460 
  128.8750     2.5300    57.2700    28.0620    26.0540    26.9380    31.2800    -8.8420 
  129.0000     2.5100    60.2310    27.9280    25.9490    28.0120    31.1710    -8.7440 
  129.1250     2.4930    66.0380    27.7610    25.7680    26.8560    31.0590    -8.6520 
  129.2500     2.4820    68.7430    27.6910    25.6250    25.2720    30.9900    -8.5770 
  129.3750     2.4830    67.0430    27.8240    25.6450    24.1440    31.0090    -8.5270 
  129.5000     2.4940    64.9330    28.1770    25.9030    23.9130    31.1200    -8.5190 
  129.6250     2.5100    64.2950    28.5900    26.3400    26.5420    31.2580    -8.5580 
  129.7500     2.5180    63.2740    28.7490    26.6510    29.5010    31.3310    -8.6210 
  129.8750     2.5170    60.0470    28.4220    26.5290    29.6310    31.3230    -8.6890 
  130.0000     2.5110    56.0310    27.5650    25.8190    27.2400    31.2440    -8.6960 
  130.1250     2.5060    54.6590    26.3790    24.6320    24.6760    31.0950    -8.5950 
  130.2500     2.5070    56.8220    25.3210    23.4570    23.4830    30.9590    -8.4570 
  130.3750     2.5110    62.1810    24.6870    22.6300    21.6360    30.8590    -8.2980 
  130.5000     2.5150    65.7480    24.5890    22.3110    20.3120    30.7960    -8.1220 
  130.6250     2.5200    62.6720    24.9920    22.5350    21.6290    30.7720    -7.9000 
  130.7500     2.5240    57.6390    25.5960    23.0340    25.0090    30.7650    -7.6400 
  130.8750     2.5290    55.4830    26.2080    23.6050    26.7830    30.7670    -7.3960 
  131.0000     2.5320    56.2790    26.7210    24.0970    25.5890    30.7770    -7.2330 
  131.1250     2.5380    55.0870    27.1070    24.4570    23.3310    30.8160    -7.1600 
  131.2500     2.5510    53.1930    27.4050    24.7580    24.1120    30.8950    -7.1100 
  131.3750     2.5720    54.5610    27.5810    25.0000    26.7620    30.9950    -7.0920 
  131.5000     2.5960    57.6160    27.5410    25.0870    28.3460    31.0880    -7.1100 
  131.6250     2.6160    58.1010    27.1320    24.8190    28.9670    31.1820    -7.1630 
  131.7500     2.6230    56.3600    26.4070    24.2000    28.7810    31.2830    -7.2270 
  131.8750     2.6150    56.4430    25.4650    23.3230    27.2940    31.3680    -7.2850 
  132.0000     2.5930    61.4130    24.4340    22.3370    23.6550    31.4170    -7.3150 
  132.1250     2.5630    67.2130    23.4140    21.3640    23.3260    31.4310    -7.3440 
  132.2500     2.5380    68.3420    22.4340    20.4340    24.5040    31.4410    -7.3940 
  132.3750     2.5260    64.9550    21.5030    19.5410    24.5900    31.4610    -7.4540 
  132.5000     2.5250    61.8060    20.6530    18.7000    22.3500    31.4960    -7.5000 
  132.6250     2.5280    62.8480    19.9810    17.9850    20.4400    31.5370    -7.5440 
  132.7500     2.5260    64.4550    19.5420    17.4520    19.2720    31.5600    -7.5960 
  132.8750     2.5160    63.4800    19.3660    17.1530    18.5910    31.5520    -7.6520 
  133.0000     2.5060    60.0420    19.4290    17.0950    19.0260    31.5290    -7.6980 
  133.1250     2.5050    57.2490    19.6570    17.2310    18.4190    31.4920    -7.6850 
  133.2500     2.5140    57.4000    19.9180    17.4150    18.5950    31.4580    -7.6400 
  133.3750     2.5290    58.9450    20.1520    17.5650    18.6500    31.4250    -7.5750 
  133.5000     2.5450    59.3910    20.3640    17.6630    18.4620    31.3900    -7.5140 
  133.6250     2.5550    58.7800    20.6200    17.7700    17.8370    31.3710    -7.4470 
  133.7500     2.5590    59.7340    20.9710    17.9700    18.2290    31.3680    -7.3870 
  133.8750     2.5610    63.1110    21.4000    18.2920    19.5620    31.4000    -7.3120 
  134.0000     2.5660    66.1780    21.8110    18.6760    21.8550    31.4550    -7.2400 
  134.1250     2.5740    64.7810    22.0080    18.9510    22.0900    31.4790    -7.2230 
  134.2500     2.5830    61.2060    21.8930    18.9720    22.3690    31.4810    -7.2030 
  134.3750     2.5860    58.7180    21.4590    18.6880    22.2430    31.4740    -7.1770 
  134.5000     2.5800    58.1550    20.7950    18.1520    20.7350    31.4660    -7.1380 
  134.6250     2.5680    58.0570    20.0530    17.4850    18.1920    31.4590    -7.0860 
  134.7500     2.5570    57.9800    19.3850    16.8440    17.5860    31.4470    -7.0350 
  134.8750     2.5520    58.5730    18.8520    16.3000    17.8990    31.4410    -6.9990 
  135.0000     2.5540    59.2620    18.4730    15.8870    17.5050    31.4460    -6.9740 
  135.1250     2.5560    59.8730    18.2470    15.6430    15.5430    31.4580    -6.9220 
  135.2500     2.5550    61.3160    18.0950    15.5200    14.4260    31.4770    -6.8740 
  135.3750     2.5520    63.6740    17.9240    15.4390    15.0220    31.5230    -6.8470 
  135.5000     2.5520    64.6140    17.6340    15.2780    15.9560    31.6170    -6.8510 
  135.6250     2.5510    62.1730    17.1400    14.8910    16.0550    31.7440    -6.9050 
  135.7500     2.5430    61.0520    16.5480    14.3340    15.6150    31.8800    -7.0490 
  135.8750     2.5230    63.9950    16.0470    13.7650    14.3980    32.0240    -7.2950 
  136.0000     2.4930    70.0410    15.8570    13.4050    12.4300    32.1490    -7.5890 
  136.1250     2.4610    76.1310    16.1650    13.5210    11.5770    32.2160    -7.9120 
  136.2500     2.4330    80.0670    16.7350    14.0350    12.9220    32.2610    -8.2110 
  136.3750     2.4040    80.1940    17.1810    14.6520    15.4300    32.3200    -8.4480 
  136.5000     2.3680    75.6210    17.0760    14.8780    16.8610    32.4140    -8.6280 
  136.6250     2.3230    70.6510    16.1520    14.1950    17.4380    32.5540    -8.7060 
  136.7500     2.2830    70.6410    14.7180    12.9320    16.1850    32.7050    -8.6350 
  136.8750     2.2600    75.0030    13.1160    11.6230    12.5490    32.8300    -8.4350 
  137.0000     2.2550    80.6670    11.8150    10.7140     8.5310    32.9270    -8.1900 
  137.1250     2.2560    82.4530    11.3360    10.4650     8.7180    33.0090    -7.9480 
  137.2500     2.2510    80.2900    11.4760    10.6540    13.7970    33.0800    -7.7560 
  137.3750     2.2390    77.7080    11.7950    11.0070    19.7900    33.1260    -7.6620 
  137.5000     2.2280    77.2200    11.9420    11.2390    19.5900    33.1470    -7.6640 
  137.6250     2.2340    78.6040    11.8730    11.1710    13.4760    33.1860    -7.8060 
  137.7500     2.2520    80.5110    11.8080    10.9970    10.2510    33.3130    -8.0710 
  137.8750     2.2730    82.0990    11.9600    10.9740     9.5290    33.5660    -8.3970 
  138.0000     2.2830    81.3200    12.4440    11.2890    10.9040    33.8710    -8.7440 
  138.1250     2.2730    77.0070    13.2220    11.9860    13.7420    34.0850    -9.1120 
  138.2500     2.2530    74.6260    14.0360    12.7990    16.2860    34.1890    -9.4720 
  138.3750     2.2330    75.3460    14.7150    13.4940    17.1760    34.2280    -9.7970 
  138.5000     2.2200    75.2670    15.2170    13.9470    16.0590    34.2460   -10.0700 
  138.6250     2.2170    74.2380    15.6680    14.2200    14.1410    34.2660   -10.2860 
  138.7500     2.2170    73.3550    16.2820    14.5690    14.0250    34.2860   -10.4670 
  138.8750     2.2160    72.3670    17.1770    15.1740    16.4170    34.2910   -10.6380 
  139.0000     2.2140    70.3020    18.3440    16.0990    20.0070    34.2850   -10.7880 
  139.1250     2.2130    68.6310    19.6250    17.2830    22.8230    34.2700   -10.9060 
  139.2500     2.2130    69.0900    20.7420    18.4550    23.8290    34.2460   -11.0100 
  139.3750     2.2120    70.6440    21.4670    19.3640    23.6060    34.2050   -11.0940 
  139.5000     2.2100    72.6910    21.6350    19.7980    22.8290    34.1330   -11.1570 
  139.6250     2.2080    75.2760    21.0680    19.5360    20.9880    34.0170   -11.2070 
  139.7500     2.2090    76.3890    19.9260    18.6940    19.7110    33.8780   -11.2320 
  139.8750     2.2170    75.2220    18.3620    17.3980    19.0890    33.7430   -11.2020 
