~V
VERS. 2.00: Ver 2.00
~W
STRT.M 56.0000:
STOP.M 221.0000:
STEP.M 0.1250:
NULL. -999.2500:
UWI. F10169:
~C
DEPT.M :
GR.API :
RML.OHMM :
RI. :
RXO.OHMM :
CALI.CM :
SP.MV :
DEN.GM/CC :
~A
# ...
  168.5000    52.7490   326.1160   300.4540   250.4780    27.7220   -29.4740     2.1660 
  168.6250    51.2160   341.4770   316.3820   254.9570    27.7320   -29.6940     2.1650 
  168.7500    51.3280   354.9210   332.3330   267.6670    27.6840   -29.8750     2.1670 
  168.8750    51.4750   357.9710   342.4370   275.0280    27.5930   -30.0200     2.1710 
  169.0000    50.0300   335.1340   334.4330   266.9160    27.5630   -30.0640     2.1770 
  169.1250    47.9550   278.4970   296.8940   244.6360    27.7100   -30.0290     2.1850 
  169.2500    48.0870   206.2580   233.1330   218.3090    27.8230   -29.9060     2.1940 
  169.3750    50.1010   147.2170   170.3360   167.5320    27.8140   -29.7180     2.1960 
  169.5000    52.6200   108.2420   123.1020    95.2770    27.6910   -29.4660     2.1960 
  169.6250    54.6370    86.5640    94.5500    49.8330    27.5370   -29.1440     2.2030 
  169.7500    55.2870    79.3180    83.7170    44.4170    27.5010   -28.7600     2.2240 
  169.8750    53.7120    80.9230    83.6460    60.8270    27.5550   -28.3450     2.2420 
  170.0000    51.6740    89.4340    91.4880    87.3180    27.6260   -27.9300     2.2370 
  170.1250    51.5730   102.9980   104.9230   113.6570    27.6600   -27.5390     2.2140 
  170.2500    53.7900   118.1430   120.4130   137.6530    27.6630   -27.1680     2.1870 
  170.3750    56.4510   128.7220   131.9250   163.2690    27.6630   -26.7910     2.1660 
  170.5000    58.0160   130.1850   134.9790   153.9030    27.6600   -26.3920     2.1540 
  170.6250    58.2040   122.3830   128.8270   128.3760    27.6480   -26.0010     2.1550 
  170.7500    57.5040   109.2710   116.4170   109.8350    27.6120   -25.6270     2.1700 
  170.8750    55.2410    96.3120   103.3210    87.8440    27.5680   -25.2870     2.1870 
  171.0000    52.8630    85.0890    91.6300    68.8590    27.5240   -24.9330     2.2000 
  171.1250    53.5680    75.1370    81.2270    63.9450    27.4810   -24.5970     2.2080 
  171.2500    57.9820    65.2600    70.8670    69.2980    27.4390   -24.3060     2.2190 
  171.3750    63.0980    55.3040    60.2650    68.1810    27.3840   -24.0720     2.2340 
  171.5000    67.5500    46.2270    50.4650    46.8770    27.2990   -23.9120     2.2490 
  171.6250    69.5650    39.0570    42.6520    27.5570    27.1940   -23.8100     2.2650 
  171.7500    67.7760    34.5770    37.6780    23.0120    27.1300   -23.7620     2.2850 
  171.8750    66.2450    32.0040    34.6880    27.3040    27.1270   -23.7640     2.3030 
  172.0000    67.6470    30.6350    32.9430    33.6430    27.1290   -23.8340     2.3140 
  172.1250    68.5410    29.8200    31.7850    32.5180    27.0950   -23.9200     2.3190 
  172.2500    67.5620    29.2390    30.8870    29.0240    27.0400   -24.0230     2.3210 
  172.3750    68.3690    29.0790    30.3530    24.9560    27.0170   -24.1090     2.3200 
  172.5000    69.9240    29.9400    30.6650    24.3000    27.0120   -24.1710     2.3190 
  172.6250    68.9510    32.4420    32.3800    28.5650    27.0190   -24.1760     2.3150 
  172.7500    67.2250    37.1400    36.1360    42.1880    27.0400   -24.1620     2.3040 
  172.8750    67.2260    43.2510    41.3810    57.7410    27.0630   -24.0910     2.2840 
  173.0000    66.9440    49.7910    47.2460    63.3770    27.0610   -23.9910     2.2590 
  173.1250    64.5650    53.3240    52.5640    59.1890    27.0310   -23.8460     2.2390 
  173.2500    62.0700    57.4030    56.2800    53.9990    27.0160   -23.6500     2.2320 
  173.3750    60.7530    60.7360    58.9490    54.2020    27.0110   -23.4220     2.2350 
  173.5000    59.9560    64.4170    61.6120    61.5450    27.0100   -23.1540     2.2380 
  173.6250    58.6880    69.3340    65.2390    78.7310    27.0010   -22.8940     2.2350 
  173.7500    57.9900    75.8440    70.4040    82.4940    26.9740   -22.6490     2.2290 
  173.8750    57.5730    82.7920    76.2740    81.9830    26.9420   -22.4000     2.2250 
  174.0000    56.4860    88.2370    81.2690    87.9820    26.9160   -22.1650     2.2250 
  174.1250    55.8730    89.3720    82.9400   109.1970    26.8830   -21.9540     2.2230 
  174.2500    56.7140    82.9810    78.1910   120.6540    26.8580   -21.7770     2.2200 
  174.3750    58.4880    71.6060    68.7250   101.4620    26.8190   -21.6490     2.2210 
  174.5000    60.5870    58.9060    57.5600    69.2080    26.7380   -21.5850     2.2270 
  174.6250    63.8050    47.9640    47.5390    43.8180    26.5940   -21.5510     2.2390 
  174.7500    69.2620    40.6490    40.5560    31.4990    26.4730   -21.5590     2.2590 
  174.8750    74.0200    36.1660    36.1150    28.5780    26.4240   -21.6090     2.2800 
  175.0000    74.7660    33.6040    33.4890    30.5610    26.4050   -21.6870     2.2960 
  175.1250    72.4160    32.0060    31.8510    31.4970    26.3780   -21.7900     2.3020 
  175.2500    71.4580    30.6920    30.6030    28.2040    26.3580   -21.9240     2.3050 
  175.3750    74.1580    29.3620    29.4170    26.5990    26.3510   -22.0490     2.3120 
  175.5000    75.6410    28.0500    28.2620    25.5210    26.3500   -22.1970     2.3190 
  175.6250    73.2180    26.8350    27.1540    23.2600    26.3500   -22.3450     2.3240 
  175.7500    71.5750    25.7520    26.0880    22.4420    26.3450   -22.4730     2.3270 
  175.8750    72.8780    24.7820    25.0800    24.9150    26.3080   -22.5800     2.3300 
  176.0000    74.8130    24.0630    24.2850    26.8250    26.2150   -22.6550     2.3300 
  176.1250    75.0130    23.8980    23.9980    21.9630    26.1070   -22.7050     2.3290 
  176.2500    74.3330    24.6760    24.6110    19.7510    26.0550   -22.6990     2.3350 
  176.3750    73.1320    26.0880    25.9150    22.1060    26.0430   -22.6750     2.3400 
  176.5000    71.4440    27.5440    27.4260    31.4110    26.0660   -22.6090     2.3350 
  176.6250    70.2870    28.2400    28.3670    44.2240    26.1030   -22.5460     2.3230 
  176.7500    71.8190    27.3830    27.8330    39.1200    26.0900   -22.4520     2.3160 
  176.8750    75.1700    25.5860    26.2780    25.2630    26.0390   -22.3660     2.3210 
  177.0000    77.0980    23.8510    24.6000    18.0570    26.0050   -22.2670     2.3340 
  177.1250    76.2230    23.0090    23.5860    17.1840    26.0090   -22.1980     2.3470 
  177.2500    75.0090    23.3920    23.6400    20.0940    26.0400   -22.1650     2.3490 
  177.3750    76.8780    24.2610    24.2500    24.0470    26.0490   -22.1620     2.3460 
  177.5000    79.6000    24.8030    24.7150    28.6650    26.0370   -22.1820     2.3430 
  177.6250    79.9700    24.3770    24.3600    25.5520    26.0070   -22.2590     2.3450 
  177.7500    78.0350    22.9290    23.0020    20.4580    25.9890   -22.4200     2.3590 
  177.8750    76.6040    21.4500    21.5080    16.3490    25.9630   -22.6170     2.3820 
  178.0000    76.9750    20.7840    20.6180    15.4270    25.8930   -22.8960     2.4000 
  178.1250    77.0080    21.5080    20.8450    16.5620    25.7540   -23.1930     2.4010 
  178.2500    75.3710    24.2290    22.7980    17.9460    25.5630   -23.5340     2.3790 
  178.3750    72.3050    28.7360    26.4560    22.5160    25.4520   -23.8980     2.3470 
  178.5000    69.3400    34.8510    31.8330    32.2450    25.5840   -24.2720     2.3110 
  178.6250    67.3310    42.0950    38.6030    47.4910    25.8710   -24.6150     2.2760 
  178.7500    66.2130    49.3630    45.8080    57.1580    26.0230   -24.8700     2.2520 
  178.8750    65.3430    54.8180    51.5790    55.4650    25.9620   -25.0760     2.2400 
  179.0000    64.1020    56.5870    53.9350    57.5910    25.9310   -25.2180     2.2380 
  179.1250    64.1870    53.8140    51.8020    60.7210    26.0630   -25.3170     2.2400 
  179.2500    66.5560    47.5310    46.0330    64.4780    26.3050   -25.3660     2.2440 
  179.3750    68.1170    41.1450    39.9630    50.4310    26.4090   -25.3780     2.2530 
  179.5000    67.4680    36.7510    35.5240    32.0720    26.2640   -25.3680     2.2710 
  179.6250    65.4580    35.5980    33.7760    20.6590    26.0380   -25.2990     2.2950 
