~V
VERS. 2.00: Ver 2.00
~W
STRT.M 58.0000:
STOP.M 228.0000:
STEP.M 0.1250:
NULL. -999.2500:
UWI. F10151:
~C
DEPT.M :
SP.MV :
GR.API :
RML.OHMM :
RI. :
RXO.OHMM :
CALI.CM :
DEN.GM/CC :
~A
# ...
  170.5000    -1.5760    56.5250     5.7660     5.6820     5.2910    23.1060     2.4380 
  170.6250    -2.0550    51.7590     5.8090     5.6480     5.1520    23.1620     2.4410 
  170.7500    -2.5050    51.1000     5.8890     5.6530     5.1820    23.1970     2.4270 
  170.8750    -2.8590    55.2100     5.9660     5.6660     5.4620    23.2470     2.3860 
  171.0000    -3.1010    58.2700     6.0110     5.6540     5.6330    23.3270     2.3220 
  171.1250    -3.2290    55.3610     6.0290     5.6080     5.6270    23.4450     2.2520 
  171.2500    -3.2710    49.9210     6.0600     5.5680     5.6120    23.5620     2.1980 
  171.3750    -3.2450    46.4270     6.1430     5.5730     5.6180    23.7240     2.1690 
  171.5000    -3.1520    46.3190     6.2920     5.6460     5.6730    23.9270     2.1620 
  171.6250    -2.9920    47.5720     6.4980     5.7850     5.9470    24.1470     2.1720 
  171.7500    -2.8120    47.0400     6.7080     5.9410     6.2430    24.3160     2.1950 
  171.8750    -2.7240    45.0080     6.8860     6.0690     6.3420    24.3610     2.2290 
  172.0000    -2.7290    43.8600     7.0010     6.1380     6.9720    24.3150     2.2710 
  172.1250    -2.8090    45.0120     7.0210     6.1210     7.9650    24.2560     2.3100 
  172.2500    -2.9470    46.6380     6.9630     6.0360     7.3910    24.2150     2.3390 
  172.3750    -3.0900    48.0070     6.8510     5.9100     6.1540    24.1910     2.3540 
  172.5000    -3.3060    47.9900     6.7340     5.7840     5.3400    24.2180     2.3610 
  172.6250    -3.5700    45.3200     6.6820     5.7030     5.1590    24.2940     2.3650 
  172.7500    -3.8830    42.3330     6.7150     5.6790     5.2920    24.5750     2.3690 
  172.8750    -4.2050    41.4980     6.8170     5.7080     5.5190    24.9700     2.3750 
  173.0000    -4.5620    42.7210     6.9400     5.7610     5.6450    24.7070     2.3870 
  173.1250    -5.0650    44.1240     7.0230     5.7950     5.5870    24.2930     2.4070 
  173.2500    -5.6800    46.1470     7.0520     5.8000     5.5110    24.0010     2.4310 
  173.3750    -6.4780    48.8300     7.0510     5.7870     5.4030    23.9020     2.4510 
  173.5000    -7.4200    51.7390     7.0620     5.7820     5.3740    23.8510     2.4580 
  173.6250    -8.4870    54.8150     7.1390     5.8110     5.4950    23.8890     2.4480 
  173.7500    -9.7240    57.5260     7.2990     5.8840     5.6890    23.9480     2.4270 
  173.8750   -11.1680    61.2040     7.5480     6.0080     5.9040    24.0020     2.4050 
  174.0000   -12.8230    66.2430     7.8650     6.1790     6.2180    24.0360     2.3860 
  174.1250   -14.7070    72.5730     8.1890     6.3690     6.6380    24.0680     2.3730 
  174.2500   -16.7220    82.1990     8.4410     6.5260     7.0790    24.1100     2.3670 
  174.3750   -18.7810    95.3590     8.5670     6.6100     7.3210    24.1350     2.3690 
  174.5000   -20.8140   106.8640     8.5620     6.6070     7.2470    24.0920     2.3780 
  174.6250   -22.8250   109.9450     8.4820     6.5320     6.9130    24.0490     2.3850 
  174.7500   -24.7490   108.5590     8.4610     6.4730     6.6080    24.0290     2.3820 
  174.8750   -26.4810   106.9950     8.6030     6.5110     6.5010    24.2510     2.3680 
  175.0000   -27.9340   104.5580     8.9580     6.7030     6.5800    24.7680     2.3500 
  175.1250   -28.9200   101.3400     9.5170     7.0690     7.1930    25.3930     2.3450 
  175.2500   -29.5750    99.9730    10.1080     7.5010     8.4460    25.0940     2.3580 
  175.3750   -29.9030    97.9840    10.5650     7.8690    10.1370    24.6940     2.3820 
  175.5000   -29.9920    95.0820    10.7600     8.0490    10.3320    24.5230     2.4020 
  175.6250   -29.8330    95.7120    10.6470     7.9750     9.0860    24.5880     2.4010 
  175.7500   -29.4440   100.5460    10.4020     7.7850     8.3730    24.5440     2.3820 
  175.8750   -28.9770   104.2060    10.1710     7.5940     8.3260    24.4660     2.3610 
  176.0000   -28.4600   102.4000    10.0440     7.4810     8.4340    24.4750     2.3540 
  176.1250   -27.8910   101.0550    10.0410     7.4820     8.4630    24.6740     2.3650 
  176.2500   -27.1880   103.3130    10.0650     7.5310     8.5250    24.8780     2.3730 
  176.3750   -26.2390   105.1120    10.0170     7.5390     8.3680    24.8460     2.3570 
  176.5000   -24.9800   103.0470     9.8120     7.4220     8.0070    24.7280     2.3100 
  176.6250   -23.3390    99.3130     9.3810     7.1120     7.6150    24.6590     2.2540 
  176.7500   -21.3140    96.0740     8.8060     6.6790     7.1500    24.5860     2.2260 
  176.8750   -18.9330    90.2860     8.2000     6.2150     6.5180    24.4500     2.2410 
  177.0000   -16.3350    79.9520     7.6940     5.8240     5.7270    24.2590     2.2910 
  177.1250   -13.6880    68.3950     7.4170     5.6050     5.2800    24.1980     2.3430 
  177.2500   -11.1440    60.1710     7.3380     5.5460     5.4200    24.2780     2.3670 
  177.3750    -8.8060    55.3240     7.3810     5.6030     5.7530    24.4110     2.3590 
  177.5000    -6.7600    51.3740     7.4490     5.7040     5.9640    24.4540     2.3310 
  177.6250    -5.1200    45.7960     7.4530     5.7690     5.8600    24.4170     2.3070 
  177.7500    -3.9660    41.8920     7.3830     5.7660     5.6680    24.4020     2.3040 
  177.8750    -3.2260    42.9940     7.2550     5.7020     5.5240    24.4190     2.3260 
  178.0000    -2.8120    47.2340     7.0940     5.6000     5.4600    24.4530     2.3630 
  178.1250    -2.6680    49.8080     6.9080     5.4830     5.4270    24.4150     2.3950 
  178.2500    -2.7130    49.2990     6.7110     5.3600     5.4000    24.4300     2.4000 
  178.3750    -2.8880    48.9290     6.5250     5.2340     5.2460    24.5100     2.3710 
  178.5000    -3.0940    49.8990     6.3890     5.1220     4.9740    24.6190     2.3180 
  178.6250    -3.2430    49.4380     6.3540     5.0560     4.8630    24.6670     2.2670 
  178.7500    -3.2930    48.1860     6.4100     5.0440     5.0550    24.2850     2.2410 
  178.8750    -3.2560    48.1780     6.5240     5.0830     5.1460    23.8320     2.2400 
  179.0000    -3.0750    49.6780     6.6450     5.1470     5.1600    23.8080     2.2570 
  179.1250    -2.7760    53.5450     6.7220     5.2050     5.1720    24.2170     2.2810 
  179.2500    -2.3670    59.2940     6.7490     5.2430     5.1200    24.4260     2.3120 
  179.3750    -1.9390    64.2530     6.7440     5.2650     5.1080    24.4160     2.3520 
  179.5000    -1.5950    66.5210     6.7310     5.2750     5.1220    24.4120     2.3960 
  179.6250    -1.3560    68.9050     6.7230     5.2760     5.1800    24.4520     2.4210 
  179.7500    -1.2070    74.5450     6.7100     5.2690     5.2250    24.4450     2.4160 
  179.8750    -1.1210    80.6350     6.6810     5.2520     5.2620    24.3460     2.3840 
  180.0000    -1.1460    84.0110     6.6320     5.2270     5.2110    24.2100     2.3410 
  180.1250    -1.2630    84.7780     6.5740     5.2000     5.1130    24.1240     2.3110 
  180.2500    -1.4410    85.6690     6.5250     5.1660     5.1390    24.1900     2.3010 
  180.3750    -1.7150    87.9120     6.4940     5.1240     5.1640    24.3630     2.3090 
  180.5000    -2.0180    90.0950     6.4770     5.0750     5.1410    24.4820     2.3270 
  180.6250    -2.4050    89.8230     6.4650     5.0300     5.0950    24.5390     2.3470 
  180.7500    -2.8030    88.3270     6.4550     5.0000     5.0390    24.5900     2.3660 
  180.8750    -3.1860    87.9420     6.4530     4.9920     5.0940    24.5970     2.3820 
  181.0000    -3.5170    88.6840     6.4730     5.0100     5.4070    24.5740     2.3950 
  181.1250    -3.8250    89.7700     6.5300     5.0550     5.6560    24.5690     2.3990 
  181.2500    -4.1520    90.6620     6.6190     5.1230     5.7000    24.5950     2.3940 
  181.3750    -4.4980    90.4250     6.7440     5.2240     5.8060    24.6080     2.3860 
  181.5000    -4.8500    87.7460     6.9170     5.3720     6.2790    24.6270     2.3790 
  181.6250    -5.2220    84.6430     7.1760     5.5930     6.8040    24.6010     2.3770 
