~V
VERS. 2.00: Ver 2.00
~W
STRT.M 50.0000:
STOP.M 230.0000:
STEP.M 0.1250:
NULL. -999.2500:
UWI. F10167:
~C
DEPT.M :
DEN.GM/CC :
GR.API :
RML.OHMM :
RI. :
RXO.OHMM :
CALI.CM :
SP.MV :
~A
# ...
  128.7500     2.5730    43.9520    22.2790    21.1410    24.2020    24.6680     2.3010 
  128.8750     2.5660    45.2090    21.8850    20.9370    21.8120    24.6630     2.3640 
  129.0000     2.5570    43.2840    21.1870    20.3660    18.3000    24.7060     2.3940 
  129.1250     2.5530    40.5540    20.4700    19.6740    17.3590    24.7430     2.3600 
  129.2500     2.5570    41.0560    19.9070    19.0720    17.5880    24.6960     2.2680 
  129.3750     2.5660    43.6590    19.4980    18.5990    17.3910    24.5800     2.1520 
  129.5000     2.5740    46.6600    19.1640    18.2100    16.9770    24.4710     2.0340 
  129.6250     2.5730    48.4640    18.8510    17.8510    17.2730    24.3780     1.8800 
  129.7500     2.5650    50.4090    18.5970    17.5350    17.5190    24.3230     1.6950 
  129.8750     2.5550    52.3630    18.5010    17.3420    17.2000    24.2690     1.5850 
  130.0000     2.5470    53.6460    18.6380    17.3540    16.7940    24.1270     1.5330 
  130.1250     2.5470    54.3400    19.0250    17.6380    16.9610    23.9670     1.4730 
  130.2500     2.5510    54.2510    19.5060    18.0870    18.2100    23.9540     1.4450 
  130.3750     2.5530    52.7560    19.9370    18.5780    18.9860    24.1210     1.4740 
  130.5000     2.5510    50.0320    20.1960    18.9710    18.8050    24.4110     1.5280 
  130.6250     2.5440    48.0460    20.1940    19.1210    18.0290    24.5790     1.5410 
  130.7500     2.5370    48.7040    20.0160    19.0510    17.3750    24.6530     1.5380 
  130.8750     2.5350    50.7220    19.7690    18.8410    17.6760    24.6990     1.5350 
  131.0000     2.5410    52.3280    19.5530    18.6000    18.3330    24.7320     1.5550 
  131.1250     2.5490    52.8360    19.4270    18.4270    18.1720    24.7210     1.5690 
  131.2500     2.5490    52.7660    19.3210    18.3000    17.4660    24.7290     1.5710 
  131.3750     2.5360    52.0510    19.1260    18.1330    17.1870    24.7820     1.5300 
  131.5000     2.5110    50.2720    18.7510    17.8310    17.1360    24.8720     1.4420 
  131.6250     2.4830    49.7260    18.1880    17.3440    17.6490    24.9650     1.3930 
  131.7500     2.4630    51.8010    17.6230    16.8000    16.9510    25.0200     1.3660 
  131.8750     2.4550    53.8480    17.2710    16.3710    14.6300    25.0410     1.3250 
  132.0000     2.4550    53.2570    17.3330    16.2430    13.2470    24.9920     1.2650 
  132.1250     2.4620    50.3830    18.0060    16.6360    14.2890    24.9070     1.1940 
  132.2500     2.4700    48.1680    19.1350    17.4940    16.0960    24.8690     1.1230 
  132.3750     2.4810    47.4150    20.5040    18.6940    17.7620    24.8590     1.0660 
  132.5000     2.4940    48.1310    21.8090    19.9940    19.7990    24.8260     1.0510 
  132.6250     2.5040    49.2830    22.6300    21.0070    23.0440    24.8260     1.0680 
  132.7500     2.5100    49.6290    22.8310    21.5030    24.7480    24.8780     1.1530 
  132.8750     2.5100    48.5970    22.4260    21.4190    23.9420    24.9230     1.2710 
  133.0000     2.5080    46.1050    21.5800    20.8540    23.0870    24.9130     1.3310 
  133.1250     2.5080    43.2650    20.5060    19.9770    21.8660    24.8800     1.4110 
  133.2500     2.5080    42.7640    19.4300    19.0260    19.9700    24.8620     1.5700 
  133.3750     2.5060    45.9010    18.4290    18.1000    18.5570    24.8780     1.7150 
  133.5000     2.4980    50.6890    17.5190    17.2370    17.8930    24.8910     1.7640 
  133.6250     2.4840    54.2100    16.6880    16.4470    16.9870    24.8780     1.8140 
  133.7500     2.4700    56.5840    15.8890    15.6920    16.0500    24.8650     1.8310 
  133.8750     2.4610    57.9530    15.0800    14.9360    14.3860    24.8920     1.7540 
  134.0000     2.4590    59.0320    14.2310    14.1400    13.5090    24.9380     1.6960 
  134.1250     2.4640    59.4610    13.3510    13.2920    13.2580    24.9640     1.6930 
  134.2500     2.4690    58.7040    12.5310    12.4630    13.1790    24.9620     1.6230 
  134.3750     2.4720    57.0930    11.8920    11.7610    12.1100    24.9430     1.5540 
  134.5000     2.4750    55.4940    11.5470    11.2990    10.6240    24.9180     1.5630 
  134.6250     2.4830    54.3120    11.6090    11.2100    10.2540    24.9060     1.5650 
  134.7500     2.4970    53.0010    11.9680    11.4320    10.9890    24.9040     1.5640 
  134.8750     2.5130    52.7990    12.5070    11.8880    12.0890    24.9150     1.6480 
  135.0000     2.5230    54.5770    13.0860    12.4570    13.4330    24.9430     1.7550 
  135.1250     2.5220    58.5380    13.5710    12.9990    14.2510    24.9690     1.7590 
  135.2500     2.5100    64.4430    13.9390    13.4340    13.3200    24.9810     1.7560 
  135.3750     2.4930    71.2780    14.2200    13.7590    12.9880    25.0100     1.7480 
  135.5000     2.4790    77.2590    14.4620    14.0090    14.0710    25.1020     1.6290 
  135.6250     2.4750    80.3160    14.6840    14.2060    15.7890    25.1780     1.4360 
  135.7500     2.4790    81.0940    14.8630    14.3540    15.9330    25.2120     1.2430 
  135.8750     2.4850    79.0030    14.9660    14.4240    15.0120    25.2340     0.9690 
  136.0000     2.4890    75.8990    14.9780    14.3940    14.6550    25.2620     0.6530 
  136.1250     2.4860    75.7800    14.9210    14.2670    14.9100    25.3200     0.4250 
  136.2500     2.4790    79.1330    14.8670    14.1130    14.6540    25.4210     0.2220 
  136.3750     2.4720    81.7030    14.8790    13.9980    13.9600    25.5280     0.0050 
  136.5000     2.4640    79.5000    15.0110    13.9820    13.9500    25.5620    -0.1330 
  136.6250     2.4590    76.5950    15.3500    14.1400    14.7320    25.5470    -0.2610 
  136.7500     2.4520    76.8850    15.9340    14.5040    14.9000    25.5350    -0.4530 
  136.8750     2.4430    78.8590    16.8310    15.1340    15.3950    25.5230    -0.5970 
  137.0000     2.4290    81.1640    18.0780    16.0900    16.7120    25.4920    -0.7220 
  137.1250     2.4140    84.4870    19.6560    17.4230    17.9430    25.4410    -0.9200 
  137.2500     2.4040    86.7300    21.2830    18.9360    20.1790    25.4390    -1.0860 
  137.3750     2.4030    84.6920    22.6250    20.3470    23.5300    25.4520    -1.2000 
  137.5000     2.4080    81.2330    23.3250    21.2900    27.0720    25.4350    -1.3550 
  137.6250     2.4090    81.0230    23.0440    21.3370    28.3110    25.3570    -1.4740 
  137.7500     2.4020    81.7270    22.0910    20.6490    23.5860    25.2710    -1.4720 
  137.8750     2.3870    81.3770    20.8890    19.5570    19.1630    25.2160    -1.4560 
  138.0000     2.3750    81.5770    19.8870    18.4840    17.2800    25.1960    -1.4810 
  138.1250     2.3760    84.0510    19.4580    17.8220    16.7460    25.2010    -1.4430 
  138.2500     2.3860    86.3700    19.5110    17.5970    17.0190    25.2200    -1.3950 
  138.3750     2.4000    86.4190    19.8550    17.7010    18.8740    25.2400    -1.3800 
  138.5000     2.4100    84.5950    20.2690    17.9550    21.5250    25.2480    -1.3400 
  138.6250     2.4150    82.6850    20.6020    18.1930    19.7960    25.2420    -1.2500 
  138.7500     2.4200    80.6030    20.8940    18.3860    16.2760    25.2400    -1.1970 
  138.8750     2.4280    77.6890    21.2660    18.6080    15.1830    25.2440    -1.1490 
  139.0000     2.4370    76.4360    21.8450    18.9690    16.7390    25.2590    -1.0090 
  139.1250     2.4420    78.1900    22.7850    19.6200    18.5860    25.2960    -0.8560 
  139.2500     2.4410    79.5030    24.0840    20.5830    20.5610    25.3450    -0.7730 
  139.3750     2.4380    78.0890    25.7400    21.8720    22.4010    25.3590    -0.6860 
  139.5000     2.4390    74.9110    27.6650    23.4350    23.5510    25.3220    -0.5700 
  139.6250     2.4520    74.5620    29.5380    25.0650    23.5130    25.2760    -0.5080 
  139.7500     2.4710    77.5430    30.7940    26.3040    25.6780    25.2450    -0.4330 
  139.8750     2.4890    82.5350    30.8530    26.6420    31.7650    25.1990    -0.3430 
