~V
VERS. 2.00: Ver 2.00
~W
STRT.M 63.0000:
STOP.M 800.0000:
STEP.M 0.1250:
NULL. -999.2500:
UWI. F10168:
~C
DEPT.M :
SP.MV :
GR.API :
RML.OHMM :
RI. :
RXO.OHMM :
CALI.CM :
DEN.GM/CC :
~A
# ...
  456.7500   -25.0070    44.8200    40.0890    43.4580   186.5350    23.3510     2.6040 
  456.8750   -26.3790    46.4320    33.4300    37.5660   136.4220    23.2220     2.5230 
  457.0000   -27.5660    48.7030    25.2830    28.7530    72.8050    23.0430     2.4210 
  457.1250   -28.6010    51.5890    19.3900    21.3510    38.1730    22.8900     2.3320 
  457.2500   -29.4890    53.8720    15.9080    16.5060    22.6160    22.7730     2.2710 
  457.3750   -30.2430    54.1200    14.2100    13.8100    18.3260    22.6790     2.2400 
  457.5000   -30.8670    52.1550    13.6600    12.5930    18.1470    22.5830     2.2320 
  457.6250   -31.3870    48.9340    13.7480    12.3300    18.5590    22.5070     2.2400 
  457.7500   -31.7790    47.5660    13.8820    12.3360    18.7400    22.4830     2.2530 
  457.8750   -32.0070    50.0210    13.7890    12.2670    18.3740    22.4970     2.2690 
  458.0000   -32.0010    55.1140    13.4050    11.9640    16.7090    22.5190     2.2840 
  458.1250   -31.7750    59.9740    12.8570    11.4640    14.3120    22.5580     2.2950 
  458.2500   -31.3430    62.9790    12.3910    10.9920    13.0910    22.6490     2.3020 
  458.3750   -30.7620    64.6090    12.1470    10.7150    12.9410    22.7750     2.3020 
  458.5000   -30.1090    65.5340    12.1660    10.7130    12.4140    22.8700     2.2980 
  458.6250   -29.4370    63.8080    12.3890    10.9650    11.8810    22.8590     2.2860 
  458.7500   -28.7980    59.2760    12.5990    11.2490    12.9440    22.7500     2.2720 
  458.8750   -28.2590    55.8150    12.6230    11.3690    14.4270    22.6240     2.2610 
  459.0000   -27.8810    57.0030    12.3930    11.2130    15.1320    22.5560     2.2570 
  459.1250   -27.6090    61.6660    11.9840    10.8120    14.2440    22.5570     2.2640 
  459.2500   -27.4340    65.0860    11.6280    10.4130    13.3350    22.5620     2.2730 
  459.3750   -27.3380    65.1590    11.4900    10.2220    13.7070    22.5640     2.2790 
  459.5000   -27.3280    60.8610    11.6510    10.3760    15.2980    22.6020     2.2810 
  459.6250   -27.3890    53.3270    12.1390    10.9550    17.0920    22.7380     2.2830 
  459.7500   -27.4500    47.1890    12.7930    11.7680    18.5070    22.9410     2.2930 
  459.8750   -27.4230    44.5770    13.4560    12.6170    19.0470    23.1140     2.3120 
  460.0000   -27.2230    45.3480    13.9660    13.2870    19.5130    23.1760     2.3340 
  460.1250   -26.8710    46.8650    14.1230    13.5460    20.7680    23.1040     2.3460 
  460.2500   -26.3310    48.0180    13.9140    13.4050    21.4840    23.0260     2.3390 
  460.3750   -25.5430    48.4500    13.3800    12.9320    19.8950    23.0120     2.3120 
  460.5000   -24.3760    48.6300    12.6420    12.2590    16.2730    23.1000     2.2700 
  460.6250   -22.8610    48.6350    11.8790    11.5470    12.4050    23.3350     2.2300 
  460.7500   -21.0750    48.8750    11.2370    10.9100    10.5660    23.6260     2.2080 
  460.8750   -19.1280    49.0340    10.7660    10.3700    10.1400    23.8790     2.2080 
  461.0000   -17.1570    49.4690    10.4500     9.9060     9.9600    24.0330     2.2270 
  461.1250   -15.2890    51.4620    10.2420     9.4970     9.6140    24.0990     2.2560 
  461.2500   -13.6000    53.7160    10.0700     9.1450     9.5710    24.1390     2.2860 
  461.3750   -12.1400    53.7220     9.9500     8.9110     9.7870    24.1560     2.3100 
  461.5000   -11.0230    52.3200     9.9780     8.9080     9.9680    24.1400     2.3150 
  461.6250   -10.1990    51.0430    10.4190     9.3560     9.9370    24.1030     2.2670 
  461.7500    -9.6360    49.7550    11.5740    10.3490    10.2120    23.9900     2.1560 
  461.8750    -9.2710    48.0620    13.7110    12.0240    12.1820    23.7260     1.9920 
  462.0000    -9.0230    46.6240    16.5670    14.4900    17.1310    23.3520     1.8120 
  462.1250    -8.7680    43.3340    20.1070    17.8350    29.4690    23.0430     1.6720 
  462.2500    -8.4720    36.1590    23.9350    21.5800    36.9910    22.9580     1.5920 
  462.3750    -8.1300    27.9300    27.4970    25.1080    36.2180    23.0350     1.5650 
  462.5000    -7.6740    22.3460    30.0150    27.7290    34.8920    23.1390     1.5650 
  462.6250    -7.1440    20.5080    30.6520    28.7230    37.3850    23.2250     1.5710 
  462.7500    -6.5640    19.4130    29.7110    28.3280    39.8410    23.3840     1.5780 
  462.8750    -5.9690    19.7860    27.6270    26.8600    37.5890    23.6260     1.5910 
  463.0000    -5.3760    23.6460    24.9520    24.7170    31.2640    23.8120     1.6160 
  463.1250    -4.8100    30.1730    22.2630    22.3220    28.1420    23.8710     1.6540 
  463.2500    -4.3030    36.2020    20.0210    20.1550    26.4070    23.8580     1.6870 
  463.3750    -3.8640    40.9770    18.5120    18.5630    23.1050    23.8430     1.7030 
  463.5000    -3.5430    42.9360    17.9300    17.8270    21.5390    23.8700     1.6940 
  463.6250    -3.3110    38.6260    18.6030    18.3720    18.5210    23.9570     1.6670 
  463.7500    -3.1480    30.0840    20.3910    20.1510    20.8280    24.0440     1.6390 
  463.8750    -3.0210    22.2940    23.0330    23.0050    25.3110    24.0650     1.6210 
  464.0000    -2.9370    18.9920    25.7390    26.2380    30.8910    24.0430     1.6150 
  464.1250    -2.8990    20.1950    26.8140    28.1560    35.3800    24.0210     1.6230 
  464.2500    -2.9020    23.0360    25.4640    27.5850    36.7200    24.0050     1.6540 
  464.3750    -2.9300    27.2760    22.0760    24.5110    31.5240    23.9700     1.7200 
  464.5000    -2.9710    33.5470    17.9040    20.0500    22.4290    23.9230     1.8230 
  464.6250    -3.0180    41.2000    14.2820    15.7430    14.0920    23.8930     1.9550 
  464.7500    -3.0560    47.8740    11.6110    12.4110     9.2310    23.8860     2.0870 
  464.8750    -3.1010    53.3070     9.8410    10.1610     7.7600    23.8630     2.1890 
  465.0000    -3.1630    57.1910     8.8180     8.8470     6.9290    23.7850     2.2320 
  465.1250    -3.2230    58.2320     8.5170     8.3900     6.5020    23.6620     2.1880 
  465.2500    -3.2640    55.9710     8.7710     8.5400     6.4960    23.5560     2.0810 
  465.3750    -3.2960    51.7540     9.5460     9.2520     6.9470    23.5070     1.9450 
  465.5000    -3.3160    47.1190    10.7710    10.4750     8.2820    23.5360     1.8240 
  465.6250    -3.3260    42.9870    12.2180    12.0330    11.5400    23.6310     1.7680 
  465.7500    -3.3420    41.2630    13.3550    13.3920    15.9550    23.7340     1.7880 
  465.8750    -3.3630    41.9940    13.6910    14.0290    19.3050    23.8580     1.8750 
  466.0000    -3.4100    45.8530    13.0540    13.6720    17.5410    24.0360     2.0010 
  466.1250    -3.5190    51.0180    11.7770    12.4860    11.6010    24.2320     2.1100 
  466.2500    -3.6820    54.1660    10.6520    11.2340     8.9870    24.3310     2.1490 
  466.3750    -3.8760    54.2610    10.1170    10.4170     8.3960    24.3030     2.0990 
  466.5000    -4.0270    51.9410    10.3350    10.2950     8.6010    24.2200     1.9840 
  466.6250    -4.1320    48.4770    11.3050    10.9810    10.4430    24.1550     1.8640 
  466.7500    -4.2240    45.8440    12.5220    12.0520    15.1430    24.1220     1.8040 
  466.8750    -4.3090    47.0630    13.4310    13.0160    20.8070    24.1080     1.8270 
  467.0000    -4.3640    52.6840    13.5510    13.3730    20.0010    24.1160     1.9160 
  467.1250    -4.3790    56.1880    12.7250    12.7990    15.4650    24.1510     2.0280 
  467.2500    -4.3670    56.4380    11.5680    11.7310    10.3290    24.1890     2.1190 
  467.3750    -4.3520    56.5800    10.5550    10.6190     8.6250    24.2040     2.1790 
  467.5000    -4.4040    56.7290     9.9480     9.8040     8.6040    24.1920     2.2200 
  467.6250    -4.5230    55.8200     9.8230     9.4910     8.7110    24.1770     2.2590 
  467.7500    -4.6690    54.9970     9.9480     9.5240     8.5930    24.1800     2.2980 
  467.8750    -4.8160    54.9100    10.1310     9.7280     8.6820    24.2070     2.3240 
