~V
VERS. 2.00: Ver 2.00
~W
STRT.M 52.0000:
STOP.M 233.0000:
STEP.M 0.1250:
NULL. -999.2500:
UWI. F10175:
~C
DEPT.M :
GR.API :
RML.OHMM :
RI. :
RXO.OHMM :
CALI.CM :
DEN.GM/CC :
SP.MV :
~A
# ...
   74.5000    93.1950     7.0550     5.9660     6.2160    24.1730     2.2130   -13.9190 
   74.6250    95.2260     6.9560     5.8210     5.9140    24.4950     2.2030   -13.4540 
   74.7500    95.7620     7.0000     5.8160     5.9770    24.4430     2.1880   -13.2370 
   74.8750    92.0730     7.1630     5.9370     6.4630    24.0680     2.1690   -13.2040 
   75.0000    82.0600     7.3830     6.1380     7.2730    23.6140     2.1480   -13.2850 
   75.1250    74.0700     7.5840     6.3610     7.4720    23.2840     2.1330   -13.4580 
   75.2500    73.6480     7.7270     6.5560     7.3460    23.1470     2.1330   -13.7250 
   75.3750    76.2160     7.8200     6.7060     7.2340    23.1190     2.1510   -13.9730 
   75.5000    76.3000     7.8960     6.8120     7.3060    23.0790     2.1860   -14.1590 
   75.6250    74.5800     7.9890     6.9050     7.8110    23.0030     2.2250   -14.2400 
   75.7500    74.0020     8.0800     7.0010     8.7780    23.0070     2.2510   -14.1230 
   75.8750    74.0270     8.1080     7.0620     8.7120    23.0220     2.2560   -13.8270 
   76.0000    75.0040     8.0020     7.0150     8.0810    22.9350     2.2450   -13.4020 
   76.1250    79.2400     7.7030     6.7830     7.9070    22.7740     2.2300   -12.8390 
   76.2500    86.0900     7.2890     6.4210     7.7390    22.6710     2.2260   -12.1080 
   76.3750    95.0910     6.8680     6.0230     6.8260    22.6600     2.2380   -11.2850 
   76.5000   103.2130     6.5560     5.7050     5.4410    22.7870     2.2590   -10.4320 
   76.6250   104.8180     6.4600     5.5770     5.0740    22.9970     2.2790    -9.6830 
   76.7500   100.4060     6.5410     5.6130     5.3110    23.1530     2.2920    -9.1840 
   76.8750    94.7630     6.7350     5.7640     5.7110    23.2260     2.2970    -8.9360 
   77.0000    91.9800     6.9590     5.9640     5.9570    23.2580     2.2960    -9.0220 
   77.1250    93.2900     7.1250     6.1240     6.0330    23.2500     2.2930    -9.3870 
   77.2500    95.1490     7.2060     6.1950     5.9890    23.2180     2.2890    -9.9570 
   77.3750    94.8870     7.2030     6.1810     5.9290    23.1390     2.2860   -10.6380 
   77.5000    93.0230     7.1380     6.1170     6.1050    23.0510     2.2810   -11.2930 
   77.6250    90.8240     7.0720     6.0440     6.3630    22.9950     2.2710   -11.8900 
   77.7500    89.0070     7.1230     6.0170     6.3650    22.9820     2.2530   -12.3830 
   77.8750    87.9840     7.4510     6.1300     6.3300    23.0240     2.2340   -12.7940 
   78.0000    86.1620     8.2350     6.5270     6.5280    23.1400     2.2340   -13.1620 
   78.1250    82.2760     9.6670     7.4480     7.3600    23.2540     2.2850   -13.5860 
   78.2500    78.7730    11.4930     8.8860    10.5380    23.3550     2.3740   -14.0840 
   78.3750    77.1930    13.2790    10.6540    19.4660    23.3350     2.4690   -14.7180 
   78.5000    78.6230    14.4550    12.2010    33.8290    23.1240     2.5210   -15.4980 
   78.6250    80.2800    14.3930    12.5660    30.2350    22.8140     2.4900   -16.3120 
   78.7500    79.5300    13.3320    11.7600    15.7550    22.5560     2.4050   -17.1510 
   78.8750    76.4080    11.7410    10.3580     8.8010    22.3870     2.3080   -18.0050 
   79.0000    73.5720    10.1800     9.0000     6.8510    22.3180     2.2330   -18.8300 
   79.1250    75.1550     9.1340     8.1080     6.7240    22.3130     2.1980   -19.5190 
   79.2500    77.6650     8.5990     7.6520     6.8200    22.3290     2.1840   -20.1040 
   79.3750    77.2300     8.4330     7.5130     7.0070    22.3550     2.1770   -20.4960 
   79.5000    73.5350     8.4520     7.5340     7.2510    22.3800     2.1690   -20.7060 
   79.6250    70.1190     8.4980     7.5750     7.5510    22.4950     2.1590   -20.8100 
   79.7500    71.3950     8.4920     7.5650     7.6980    22.7540     2.1540   -20.7710 
   79.8750    75.6500     8.4240     7.4980     7.6610    23.0420     2.1590   -20.5860 
   80.0000    79.4230     8.3170     7.3890     7.5450    23.1940     2.1740   -20.2010 
   80.1250    79.9590     8.2130     7.2680     7.6310    23.2070     2.1950   -19.7280 
   80.2500    77.8470     8.1490     7.1720     7.5030    23.1710     2.2140   -19.1760 
   80.3750    75.8220     8.1450     7.1250     7.2950    23.1100     2.2270   -18.6200 
   80.5000    76.0580     8.2040     7.1330     7.2210    23.0410     2.2350   -18.1250 
   80.6250    78.8350     8.3080     7.1860     7.3700    22.9950     2.2370   -17.6570 
   80.7500    83.1370     8.4110     7.2450     7.7630    22.9700     2.2360   -17.2670 
   80.8750    86.1220     8.4760     7.2770     8.2750    23.0060     2.2320   -17.0090 
   81.0000    85.3450     8.4800     7.2560     8.4280    23.0950     2.2260   -16.8830 
   81.1250    82.0870     8.4210     7.1720     8.2350    23.2790     2.2190   -16.8400 
   81.2500    79.5370     8.3480     7.0650     8.0180    23.3890     2.2140   -16.8730 
   81.3750    77.6680     8.3170     6.9840     7.9350    23.3720     2.2120   -16.9000 
   81.5000    76.5160     8.3780     6.9780     7.8440    23.2740     2.2100   -16.9020 
   81.6250    77.3260     8.5710     7.0930     7.6960    23.2190     2.2070   -16.9080 
   81.7500    78.0670     8.8480     7.2980     7.6890    23.2170     2.2010   -16.9080 
   81.8750    76.1890     9.1460     7.5460     7.8890    23.1980     2.1910   -16.8940 
   82.0000    73.3260     9.3910     7.7740     8.1280    23.1200     2.1790   -16.8500 
   82.1250    70.1650     9.5010     7.9030     8.0430    22.9740     2.1670   -16.8100 
   82.2500    66.6320     9.4760     7.9150     7.7530    22.9360     2.1610   -16.7340 
   82.3750    64.9020     9.3480     7.8230     7.5410    23.0180     2.1640   -16.7110 
   82.5000    64.9210     9.1770     7.6740     7.6670    23.1260     2.1790   -16.7470 
   82.6250    65.3160     9.0550     7.5460     8.0090    23.1800     2.2030   -16.8260 
   82.7500    65.2640     9.0370     7.4980     8.1490    23.1770     2.2270   -16.9540 
   82.8750    67.2820     9.1330     7.5490     7.7960    23.0980     2.2470   -17.0620 
   83.0000    70.8450     9.3060     7.6760     7.4920    22.9480     2.2590   -17.2000 
   83.1250    73.0340     9.4720     7.8200     8.2720    22.7330     2.2600   -17.2850 
   83.2500    72.8680     9.5430     7.9000     9.2850    22.5720     2.2520   -17.3640 
   83.3750    71.7400     9.4740     7.8680     8.7350    22.4870     2.2380   -17.3950 
   83.5000    73.4300     9.2660     7.7160     7.4530    22.4690     2.2210   -17.3420 
   83.6250    75.0750     8.9640     7.4760     6.9980    22.5140     2.2090   -17.2800 
   83.7500    71.8920     8.6630     7.2270     7.0030    22.5870     2.2020   -17.1900 
   83.8750    65.6120     8.4210     7.0220     6.9110    22.6270     2.1970   -17.0850 
   84.0000    64.0260     8.2740     6.8960     6.6230    22.5890     2.1910   -16.9920 
   84.1250    69.2450     8.2350     6.8670     6.3800    22.5120     2.1820   -16.9000 
   84.2500    72.9620     8.2590     6.9040     6.4720    22.4120     2.1740   -16.7400 
   84.3750    72.3590     8.3040     6.9700     7.1110    22.3470     2.1690   -16.5510 
   84.5000    69.9660     8.3230     7.0220     8.1330    22.3430     2.1680   -16.3200 
   84.6250    69.5680     8.2650     7.0110     9.2690    22.4170     2.1760   -15.9800 
   84.7500    71.5600     8.1300     6.9230     9.7380    22.5660     2.1920   -15.6020 
   84.8750    75.5400     7.9360     6.7640     9.5710    22.7850     2.2160   -15.2130 
   85.0000    80.3700     7.7190     6.5620     9.0570    23.0100     2.2400   -14.8120 
   85.1250    84.8800     7.5250     6.3590     8.1620    23.2450     2.2570   -14.4050 
   85.2500    88.5040     7.3740     6.1900     7.3250    23.5220     2.2640   -14.0650 
   85.3750    91.9090     7.2610     6.0620     6.7050    23.7840     2.2640   -13.7540 
   85.5000    93.8450     7.1710     5.9650     6.5720    23.9000     2.2620   -13.5440 
   85.6250    92.3330     7.0940     5.8850     6.9460    23.8170     2.2650   -13.4490 
