~V
VERS. 2.00: Ver 2.00
~W
STRT.M 56.0000:
STOP.M 221.0000:
STEP.M 0.1250:
NULL. -999.2500:
UWI. F10169:
~C
DEPT.M :
GR.API :
RML.OHMM :
RI. :
RXO.OHMM :
CALI.CM :
SP.MV :
DEN.GM/CC :
~A
   56.0000  -999.2500  -999.2500  -999.2500  -999.2500  -999.2500    94.3270  -999.2500 
   56.1250  -999.2500  -999.2500  -999.2500  -999.2500  -999.2500    95.0930  -999.2500 
   56.2500  -999.2500  -999.2500  -999.2500  -999.2500  -999.2500    95.8880     0.0000 
   56.3750  -999.2500  -999.2500  -999.2500  -999.2500  -999.2500    96.6700     0.0000 
   56.5000  -999.2500  -999.2500  -999.2500  -999.2500  -999.2500    97.4620     0.0000 
   56.6250  -999.2500  -999.2500  -999.2500  -999.2500  -999.2500    98.2300     1.9170 
   56.7500  -999.2500  -999.2500  -999.2500  -999.2500  -999.2500    99.0190     1.9240 
   56.8750  -999.2500  -999.2500  -999.2500  -999.2500  -999.2500    99.7920     1.9380 
   57.0000  -999.2500  -999.2500  -999.2500  -999.2500  -999.2500   100.5250     1.9570 
   57.1250  -999.2500  -999.2500  -999.2500  -999.2500  -999.2500   101.2510     1.9820 
   57.2500  -999.2500  -999.2500  -999.2500  -999.2500  -999.2500   101.9480     2.0100 
   57.3750  -999.2500  -999.2500  -999.2500  -999.2500  -999.2500   102.6360     2.0300 
   57.5000  -999.2500  -999.2500  -999.2500  -999.2500  -999.2500   103.2930     2.0360 
   57.6250  -999.2500  -999.2500  -999.2500  -999.2500  -999.2500   103.9550     2.0300 
   57.7500  -999.2500  -999.2500  -999.2500  -999.2500  -999.2500   104.5820     2.0190 
   57.8750  -999.2500  -999.2500  -999.2500  -999.2500  -999.2500   105.2270     2.0080 
   58.0000  -999.2500  -999.2500  -999.2500  -999.2500  -999.2500   105.8910     2.0010 
   58.1250     0.0000     0.0000     0.0000     0.0000     0.0000   106.5730     1.9970 
   58.2500     0.0000     0.0000     0.0000     0.0000     0.0000   107.2950     1.9950 
   58.3750     0.0000     0.0000     0.0000     0.0000     0.0000   108.0110     1.9950 
   58.5000     0.0000     0.0000     0.0000     0.0000     0.0000   108.7310     1.9960 
   58.6250     0.0000     0.0000     0.0000     0.0000     0.0000   109.3500     1.9940 
   58.7500    49.3090     6.4420     0.6860     0.2320    25.7410   109.8490     1.9890 
   58.8750    47.9850     5.5790     0.7450     0.2490    25.7400   110.3270     1.9960 
   59.0000    45.5760     5.0020     0.7970     0.2700    25.7370   110.7540     2.0260 
   59.1250    42.3060     4.6920     0.8280     0.2530    25.7350   111.0960     2.0760 
   59.2500    39.4820     4.5660     0.8370     0.3370    25.7370   111.3780     2.1230 
   59.3750    37.2530     4.5100     0.8400     0.3870    25.7380   111.6090     2.1470 
   59.5000    34.8030     4.4830     0.8450     0.4420    25.7360   111.7660     2.1410 
   59.6250    33.7930     4.4540     0.8530     0.4070    25.7320   111.8830     2.1050 
   59.7500    36.5430     4.3990     0.8600     0.5490    25.7270   111.8590     2.0430 
   59.8750    41.1940     4.3310     0.8640     0.7260    25.7250   111.6640     1.9750 
   60.0000    43.8710     4.2740     0.8660     0.4760    25.7260   111.3450     1.9300 
   60.1250    43.6130     4.2460     0.8690     0.2510    25.7310   110.8210     1.9200 
   60.2500    43.1800     4.2580     0.8720     0.1240    25.7320   109.9960     1.9360 
   60.3750    41.9650     4.2930     0.8780     0.0570    25.7280   108.9140     1.9570 
   60.5000    39.3480     4.3330     0.8850     0.0460    25.7310   107.5670     1.9770 
   60.6250    37.8210     4.3540     0.8960     0.1330    25.7380   105.9990     1.9960 
   60.7500    39.6580     4.3300     0.9080     0.2070    25.7420   104.3360     2.0140 
   60.8750    41.4270     4.2610     0.9210     0.2180    25.7390   102.7160     2.0230 
   61.0000    40.4310     4.1610     0.9320     0.2510    25.7340   101.1550     2.0200 
   61.1250    38.0830     4.0490     0.9430     0.4130    25.7350    99.7250     2.0030 
   61.2500    38.0360     3.9470     0.9550     0.2770    25.7360    98.5140     1.9780 
   61.3750    41.8720     3.8570     0.9680     0.1750    25.7320    97.5430     1.9540 
   61.5000    47.6890     3.7760     0.9780     0.1170    25.7250    96.7970     1.9350 
   61.6250    51.4110     3.6970     0.9860     0.1520    25.7200    96.2460     1.9220 
   61.7500    52.2530     3.6200     0.9920     0.1770    25.7200    95.8300     1.9240 
   61.8750    52.9950     3.5500     1.0010     0.1640    25.7230    95.4070     1.9390 
   62.0000    52.5660     3.4900     1.0160     0.2000    25.7260    94.9340     1.9570 
   62.1250    49.5860     3.4360     1.0320     0.1870    25.7240    94.4520     1.9650 
   62.2500    47.9640     3.3860     1.0420     0.3030    25.7230    93.8410     1.9610 
   62.3750    49.1500     3.3550     1.0430     0.5080    25.7180    92.9650     1.9530 
   62.5000    49.1940     3.3660     1.0310     0.8860    25.7170    91.7830     1.9450 
   62.6250    46.5970     3.4160     0.9990     0.9820    25.7180    90.1550     1.9410 
   62.7500    45.2310     3.3240     0.9160     0.4940    25.7190    87.8320     1.9540 
   62.8750    45.8650     2.7750     0.7550     0.3250    25.7190    84.6830     1.9950 
   63.0000    46.3020     1.8320     0.5300     0.2720    25.7240    80.5400     2.0690 
   63.1250    45.8870     0.9810     0.3100     0.2480    25.7300    75.1710     2.1720 
   63.2500    46.2230     0.5170     0.1660     0.3760    25.7280    68.2260     2.2960 
   63.3750    46.1840     0.2940     0.0910     0.5110    25.7270    59.9090     2.4180 
   63.5000    44.7660     0.2320     0.0760     1.1640    25.7680    50.4100     2.4880 
   63.6250    43.9030     0.3080     0.1330     3.0270    26.0510    40.2590     2.4180 
   63.7500    45.4760     0.6120     0.3440     7.4540    27.2000    30.2000     2.1540 
   63.8750    48.5310     1.2710     0.7910     7.9680    29.3000    20.7240     1.8480 
   64.0000    52.2280     2.4760     1.5670     7.2170    31.4740    12.0770     1.6200 
   64.1250    55.2310     4.1230     2.6570     6.4080    32.0350     4.5350     1.5090 
   64.2500    56.4330     5.1980     3.7830     6.5510    30.5740    -1.4970     1.5070 
   64.3750    56.8390     5.4170     4.6540     6.3550    29.0350    -6.0670     1.5650 
   64.5000    59.8190     5.3840     5.2730     5.9220    28.3710    -9.2180     1.6730 
   64.6250    65.7730     5.4980     5.7640     6.0530    28.1950   -11.3650     1.8320 
   64.7500    71.1580     5.8260     6.2020     6.4670    27.9430   -13.0320     2.0230 
   64.8750    72.9920     6.2490     6.6060     6.6890    27.6560   -14.5840     2.1750 
   65.0000    70.6920     6.6900     6.9710     7.4050    27.5490   -16.0170     2.2420 
   65.1250    66.3420     7.0760     7.2710     8.1840    27.5990   -17.4010     2.2370 
   65.2500    64.3960     7.3170     7.4350     8.4130    27.6910   -18.6930     2.2040 
   65.3750    65.1700     7.4120     7.4470     8.5020    27.7490   -19.8970     2.1780 
   65.5000    65.8660     7.3940     7.3260     8.6690    27.7730   -21.1100     2.1670 
   65.6250    65.3870     7.3430     7.1450     8.5470    27.7780   -22.2840     2.1730 
   65.7500    65.5760     7.3850     7.0240     8.2990    27.7780   -23.3790     2.1860 
   65.8750    66.2470     7.5800     7.0330     8.0530    27.7820   -24.4170     2.1970 
   66.0000    64.1760     7.9260     7.1780     8.3270    27.8350   -25.4270     2.1990 
   66.1250    58.5090     8.3650     7.4150     8.8360    28.0180   -26.3850     2.1890 
   66.2500    54.8570     8.7610     7.6480     8.9380    28.4230   -27.2800     2.1560 
   66.3750    56.6500     8.9860     7.7740     8.7780    28.8000   -28.1100     2.1070 
   66.5000    60.4850     8.9970     7.7500     8.5880    29.0280   -28.8070     2.0620 
   66.6250    61.8730     8.8410     7.5970     8.7980    29.1450   -29.3940     2.0440 
   66.7500    61.2560     8.6220     7.3840     8.8320    29.2820   -29.8050     2.0610 
   66.8750    61.6250     8.4470     7.1990     8.6880    29.4500   -30.0630     2.0880 
   67.0000    62.3810     8.3520     7.0750     8.4720    29.6790   -30.1700     2.0940 
   67.1250    61.9130     8.3420     7.0170     8.2670    30.0910   -30.1570     2.0640 
