~V
VERS. 2.00: Ver 2.00
~W
STRT.M 50.0000:
STOP.M 251.0000:
STEP.M 0.1250:
NULL. -999.2500:
UWI. F10193:
~C
DEPT.M :
DEN.GM/CC :
GR.API :
RML.OHMM :
RI. :
RXO.OHMM :
CALI.CM :
SP.MV :
~A
# ...
  218.7500     2.2140    60.5840   147.1270   142.3500   156.3950    26.1330   -13.2590 
  218.8750     2.2130    59.5410   134.7770   130.4900   149.9810    26.0950   -12.9660 
  219.0000     2.2140    62.1290   123.5070   119.4910   142.1040    26.0470   -12.6890 
  219.1250     2.2170    64.9940   114.0540   110.0890   126.0740    26.0060   -12.4310 
  219.2500     2.2250    67.0890   106.7690   102.6740   105.2980    25.9610   -12.2070 
  219.3750     2.2430    68.6790   102.0210    97.6400    90.0380    25.9520   -12.0200 
  219.5000     2.2700    68.5940    99.7710    95.0420    87.2170    26.0560   -11.8540 
  219.6250     2.2910    66.1960    99.5490    94.6050    95.4320    26.2520   -11.6770 
  219.7500     2.2950    64.4360    99.5650    94.7540   108.7090    26.3830   -11.4650 
  219.8750     2.2790    63.8370    98.1260    93.9310   115.3340    26.4090   -11.2120 
  220.0000     2.2540    62.5910    93.9010    90.7270   111.6270    26.4040   -10.9170 
  220.1250     2.2440    62.5060    86.4290    84.3520   100.6390    26.3810   -10.5860 
  220.2500     2.2620    64.5490    77.6620    76.4080    95.6370    26.2730   -10.2430 
  220.3750     2.3160    66.5700    69.1810    68.3930    97.3990    26.0960    -9.9100 
  220.5000     2.3990    68.5110    61.8470    61.2700    86.3090    25.9330    -9.5950 
  220.6250     2.4880    70.2950    55.3360    54.8490    64.7270    25.8490    -9.2880 
  220.7500     2.5530    70.6170    48.2700    47.8360    54.5100    25.7970    -8.9630 
  220.8750     2.5740    68.3710    40.0010    39.6090    49.8510    25.7530    -8.6150 
  221.0000     2.5510    65.0850    31.0080    30.7330    45.9910    25.7290    -8.2520 
  221.1250     2.4940    61.9290    22.8440    22.8130    33.5750    25.7330    -7.9060 
  221.2500     2.4270    57.7860    16.5440    16.7250    17.5150    25.7610    -7.6120 
  221.3750     2.3700    53.7600    12.3200    12.5700     9.4620    25.8110    -7.3980 
  221.5000     2.3370    50.7690     9.8440    10.0180     7.4040    25.8570    -7.2930 
  221.6250     2.3330    49.6230     8.7870     8.7910     7.1950    25.8710    -7.3370 
  221.7500     2.3450    50.7770     8.5040     8.3380     7.3830    25.8380    -7.4990 
  221.8750     2.3560    52.9840     8.6720     8.3910     7.7890    25.7450    -7.7300 
  222.0000     2.3590    54.3930     8.9940     8.6950     8.0080    25.6110    -7.9600 
  222.1250     2.3540    53.0990     9.2350     9.0110     8.5760    25.5080    -8.1040 
  222.2500     2.3490    50.9280     9.3390     9.2020     9.3200    25.4680    -8.1360 
  222.3750     2.3480    49.8460     9.3210     9.2320     9.3540    25.4650    -8.0630 
  222.5000     2.3470    50.8810     9.2100     9.1230     8.2780    25.4670    -7.9110 
  222.6250     2.3430    55.7780     9.0420     8.9300     7.7740    25.4670    -7.7110 
  222.7500     2.3390    63.1400     8.8420     8.7180     7.8040    25.4660    -7.4990 
  222.8750     2.3390    69.3390     8.5960     8.4840     8.1020    25.4640    -7.2930 
  223.0000     2.3440    70.6370     8.2860     8.2040     8.0900    25.4780    -7.1080 
  223.1250     2.3530    66.2310     7.9060     7.8480     7.4680    25.5200    -6.9580 
  223.2500     2.3620    60.7040     7.5370     7.4590     6.8820    25.5760    -6.8390 
  223.3750     2.3710    56.8570     7.3030     7.1150     6.7780    25.6360    -6.7510 
  223.5000     2.3770    54.8800     7.3340     6.9080     6.7560    25.6900    -6.6960 
  223.6250     2.3790    53.4620     7.7210     6.9200     7.2050    25.7260    -6.6990 
  223.7500     2.3790    51.9190     8.2710     7.0890     7.6000    25.7360    -6.7630 
  223.8750     2.3780    51.0330     8.7630     7.3220     8.0670    25.7330    -6.8810 
  224.0000     2.3800    50.8530     8.9990     7.4970     9.1810    25.7330    -7.0240 
  224.1250     2.3840    50.3890     8.8680     7.4820     8.9980    25.7330    -7.1540 
  224.2500     2.3860    50.3190     8.5590     7.3120     8.2450    25.7330    -7.2620 
  224.3750     2.3900    51.9470     8.2600     7.0920     7.3820    25.7340    -7.3630 
  224.5000     2.4000    53.9650     8.1160     6.9390     7.0360    25.7370    -7.4780 
  224.6250     2.4080    53.5040     8.1920     6.9450     7.1580    25.7150    -7.6200 
  224.7500     2.3970    51.1580     8.3710     7.0700     8.1000    25.6370    -7.7790 
  224.8750     2.3640    49.0620     8.5300     7.2370     9.3810    25.4970    -7.9400 
  225.0000     2.3210    48.7980     8.5520     7.3460     9.4600    25.3390    -8.0900 
  225.1250     2.2940    51.3410     8.3820     7.3190     7.9930    25.2590    -8.2090 
  225.2500     2.2990    56.7650     8.1820     7.2200     6.8130    25.2670    -8.3040 
  225.3750     2.3340    62.6200     8.1280     7.1440     6.7550    25.3100    -8.3970 
  225.5000     2.3770    67.4800     8.3160     7.1680     7.7000    25.3460    -8.5250 
  225.6250     2.4030    72.9980     8.7320     7.3460     8.5710    25.3910    -8.7270 
  225.7500     2.4090    78.3260     9.1970     7.6120     9.2680    25.4670    -8.9810 
  225.8750     2.4060    81.8080     9.5760     7.8840     9.5450    25.5420    -9.2390 
  226.0000     2.4030    84.9070     9.7910     8.0910     9.6090    25.5880    -9.4570 
  226.1250     2.4060    89.2550     9.8520     8.1920     9.5210    25.6210    -9.5930 
  226.2500     2.4120    93.7210     9.8590     8.2190     9.3060    25.6670    -9.6580 
  226.3750     2.4190    98.2850     9.8580     8.2030     9.0300    25.7140    -9.6680 
  226.5000     2.4230   104.1050     9.8730     8.1690     9.0670    25.7360    -9.6260 
  226.6250     2.4240   106.9280     9.8990     8.1310     9.0840    25.7350    -9.5050 
  226.7500     2.4250   105.3100     9.8790     8.0950     9.0330    25.7330    -9.2960 
  226.8750     2.4250   103.6530     9.7520     8.0660     8.9660    25.7340    -9.0010 
  227.0000     2.4240   104.7040     9.5110     8.0490     9.1790    25.7300    -8.6390 
  227.1250     2.4210   106.2500     9.2160     8.0430     9.1870    25.7330    -8.2490 
  227.2500     2.4190   107.3640     8.9960     8.0420     9.1580    25.7910    -7.8820 
  227.3750     2.4190   108.8820     8.9460     8.0380     9.1770    25.9320    -7.5530 
  227.5000     2.4220   109.7070     9.0810     8.0260     9.2880    26.1120    -7.2530 
  227.6250     2.4270   106.5140     9.3190     7.9970     9.2450    26.2280    -6.9680 
  227.7500     2.4300   103.1840     9.5240     7.9530     8.9120    26.2660    -6.6940 
  227.8750     2.4310   102.0770     9.6560     7.8910     8.6800    26.2690    -6.4550 
  228.0000     2.4340   102.2790     9.7150     7.8110     8.7000    26.2710    -6.2890 
  228.1250     2.4380   101.8630     9.6840     7.7200     8.6470    26.2470    -6.2460 
  228.2500     2.4370   101.8910     9.5720     7.6330     8.5400    26.1740    -6.2990 
  228.3750     2.4300   102.1960     9.4080     7.5620     8.3630    26.0680    -6.4090 
  228.5000     2.4190   101.9080     9.2330     7.5210     8.3180    25.9630    -6.5320 
  228.6250     2.4130   101.5830     9.0730     7.5220     8.3730    25.8990    -6.6310 
  228.7500     2.4180   100.8730     8.9360     7.5560     8.5190    25.8700    -6.7000 
  228.8750     2.4290    99.8200     8.8530     7.6260     8.7350    25.8670    -6.7500 
  229.0000     2.4380   100.8040     8.8930     7.7460     9.0200    25.8740    -6.7940 
  229.1250     2.4370   104.8770     9.1660     7.9570     9.0350    25.8270    -6.8430 
  229.2500     2.4270   105.8100     9.6510     8.2700     9.1610    25.7080    -6.9030 
  229.3750     2.4170   102.4030    10.2850     8.6800     9.9460    25.5550    -6.9650 
  229.5000     2.4150    99.8020    10.9500     9.1380    11.5140    25.4300    -7.0000 
  229.6250     2.4230    99.8270    11.4690     9.5410    12.3360    25.3450    -6.9450 
  229.7500     2.4370    98.4320    11.7390     9.7790    12.1330    25.2710    -6.7630 
  229.8750     2.4460    95.8600    11.7070     9.7930    11.0100    25.2170    -6.4410 
