~V
VERS. 2.00: Ver 2.00
~W
STRT.M 59.0000:
STOP.M 202.0000:
STEP.M 0.1250:
NULL. -999.2500:
UWI. F10133:
~C
DEPT.M :
GR.API :
RML.OHMM :
RI. :
RXO.OHMM :
CALI.CM :
SP.MV :
DEN.GM/CC :
~A
# ...
   92.7500    88.1840     9.3190     8.1510    10.5900    25.2020   -17.2700     2.2470 
   92.8750    85.3530     9.4400     8.3550    10.6680    25.2680   -17.0920     2.2590 
   93.0000    81.4740     9.3320     8.3940    10.6760    25.2830   -16.9440     2.2690 
   93.1250    79.3500     8.9080     8.1520    10.9370    25.2840   -16.7340     2.2760 
   93.2500    80.6170     8.2990     7.7010    11.0580    25.3260   -16.5330     2.2800 
   93.3750    83.2160     7.6630     7.1590    10.3730    25.3740   -16.4140     2.2800 
   93.5000    82.1790     7.1680     6.6760     9.1000    25.3840   -16.3170     2.2730 
   93.6250    77.1100     6.9740     6.4040     8.3480    25.3820   -16.2750     2.2610 
   93.7500    74.8100     7.0360     6.3550     8.3680    25.4070   -16.3600     2.2500 
   93.8750    76.2090     7.2460     6.4880     9.3070    25.4530   -16.4370     2.2440 
   94.0000    76.6180     7.4370     6.6870    10.1600    25.4900   -16.4160     2.2410 
   94.1250    76.0090     7.4030     6.7460    10.3470    25.5590   -16.3080     2.2420 
   94.2500    77.2700     7.1180     6.5740     9.5180    25.6310   -16.0750     2.2470 
   94.3750    81.8770     6.6590     6.2090     7.9160    25.6740   -15.6540     2.2550 
   94.5000    88.7190     6.1690     5.7720     6.4740    25.7080   -15.1300     2.2680 
   94.6250    98.0450     5.8150     5.4070     5.8910    25.7900   -14.6570     2.2780 
   94.7500   106.1450     5.6420     5.1800     5.7580    25.8450   -14.1880     2.2800 
   94.8750   108.7340     5.6390     5.0990     5.9730    25.8080   -13.8010     2.2710 
   95.0000   106.1350     5.7590     5.1430     6.3930    25.7580   -13.6060     2.2530 
   95.1250   100.5770     5.9520     5.2820     6.3680    25.7340   -13.6120     2.2320 
   95.2500    93.4480     6.1550     5.4610     6.3890    25.7100   -13.8140     2.2150 
   95.3750    87.2470     6.3380     5.6430     6.9150    25.6870   -14.2220     2.2040 
   95.5000    85.0110     6.4780     5.7980     7.7040    25.7090   -14.6810     2.1980 
   95.6250    84.6970     6.5570     5.8920     7.9460    25.7740   -15.0540     2.1960 
   95.7500    83.6340     6.5930     5.9280     7.9980    25.8490   -15.3540     2.1980 
   95.8750    84.0550     6.6100     5.9190     7.9470    25.8700   -15.5250     2.2040 
   96.0000    86.7890     6.6430     5.8990     7.7450    25.8160   -15.6050     2.2120 
   96.1250    86.5760     6.7420     5.9210     7.5090    25.7480   -15.6690     2.2180 
   96.2500    82.7560     6.9200     6.0140     7.4830    25.7170   -15.6820     2.2210 
   96.3750    80.8110     7.1710     6.1880     7.7460    25.7020   -15.6030     2.2180 
   96.5000    83.9820     7.4620     6.4300     8.1990    25.6980   -15.5090     2.2120 
   96.6250    88.7610     7.7200     6.6960     8.5180    25.7280   -15.4300     2.2080 
   96.7500    88.7640     7.8690     6.9080     8.5050    25.7430   -15.2900     2.2140 
   96.8750    84.8710     7.8560     7.0060     8.3510    25.7510   -15.1310     2.2300 
   97.0000    81.1360     7.6710     6.9560     8.5130    25.7880   -14.9670     2.2550 
   97.1250    81.1940     7.3520     6.7560     8.6530    25.8360   -14.7980     2.2740 
   97.2500    83.8550     7.0230     6.4980     8.7350    25.8150   -14.7450     2.2790 
   97.3750    86.8670     6.7740     6.2600     8.6310    25.6620   -14.8930     2.2650 
   97.5000    88.1310     6.6560     6.1050     8.3050    25.4670   -15.2070     2.2400 
   97.6250    85.6810     6.6880     6.0800     8.1160    25.3610   -15.6480     2.2140 
   97.7500    82.5040     6.7900     6.1510     8.2180    25.3070   -16.2540     2.1970 
   97.8750    80.6180     6.8940     6.2720     8.9270    25.2760   -16.9060     2.1900 
   98.0000    78.4600     6.9510     6.3850     9.5840    25.2540   -17.4600     2.1890 
   98.1250    76.0260     6.9420     6.4420     9.8430    25.2460   -17.8900     2.1890 
   98.2500    76.8090     6.9140     6.4510     9.6450    25.1930   -18.1050     2.1870 
   98.3750    80.8370     6.8970     6.4410     9.1630    25.0650   -18.0230     2.1860 
   98.5000    84.3640     6.8850     6.4260     9.0370    24.9730   -17.7180     2.1870 
   98.6250    84.1480     6.8160     6.3790     9.0270    24.9370   -17.1480     2.1910 
   98.7500    84.6670     6.6370     6.2550     9.1650    24.9330   -16.2540     2.1990 
   98.8750    88.2350     6.3310     6.0280     9.1730    24.9770   -15.1910     2.2110 
   99.0000    93.1160     5.9520     5.7160     8.5100    25.0980   -14.0270     2.2290 
   99.1250    97.8290     5.6950     5.3830     6.9020    25.1690   -12.7630     2.2530 
   99.2500   104.3230     5.6340     5.1020     5.5580    25.1600   -11.5470     2.2770 
   99.3750   110.6090     5.6820     4.9140     5.1820    25.1180   -10.4820     2.2950 
   99.5000   111.8200     5.7270     4.8330     5.3580    25.0160    -9.5370     2.3040 
   99.6250   107.4980     5.7730     4.8760     5.6120    24.9530    -8.7830     2.3000 
   99.7500   104.6770     5.8780     4.9950     5.5610    24.9120    -8.3500     2.2890 
   99.8750   104.6640     6.0130     5.1430     5.6370    24.8960    -8.1560     2.2710 
  100.0000   103.4210     6.1220     5.2660     5.8770    24.9050    -8.1470     2.2510 
  100.1250   100.6200     6.1440     5.3000     6.4540    24.9100    -8.3090     2.2320 
  100.2500    97.8840     6.0730     5.2370     6.4970    24.9310    -8.4990     2.2210 
  100.3750    96.5790     5.9390     5.1010     5.9430    24.9140    -8.6520     2.2180 
  100.5000    98.8380     5.8090     4.9540     5.3920    24.8450    -8.8200     2.2240 
  100.6250   104.4140     5.7830     4.8910     5.4960    24.7520    -9.1150     2.2340 
  100.7500   105.9720     5.8930     4.9590     5.8400    24.7040    -9.4740     2.2440 
  100.8750   100.5640     6.1310     5.1650     6.4710    24.6650    -9.9610     2.2510 
  101.0000    92.7850     6.4420     5.4730     8.0690    24.5750   -10.6590     2.2520 
  101.1250    86.7510     6.7430     5.7920     9.4340    24.5080   -11.4550     2.2450 
  101.2500    80.6030     6.9760     6.0320    10.0040    24.5880   -12.3290     2.2320 
  101.3750    74.7020     7.1420     6.1640     9.8130    24.6910   -13.2660     2.2150 
  101.5000    73.1350     7.2880     6.2210     9.5830    24.6730   -14.1390     2.1990 
  101.6250    76.3910     7.5020     6.2920     9.5090    24.6090   -14.7860     2.1890 
  101.7500    80.8100     7.8270     6.4590     9.6600    24.6190   -15.2390     2.1860 
  101.8750    83.5300     8.2520     6.7540    10.0270    24.6640   -15.4340     2.1880 
  102.0000    83.6600     8.7150     7.1500    10.4880    24.6810   -15.3740     2.1950 
  102.1250    83.4610     9.1110     7.5680    10.5470    24.6870   -15.2150     2.2010 
  102.2500    86.6960     9.3700     7.9010    10.4040    24.7060   -14.9560     2.2050 
  102.3750    92.6200     9.4530     8.0710    10.2570    24.8240   -14.6060     2.2130 
  102.5000    97.7020     9.3520     8.0410    10.1170    25.1650   -14.2950     2.2280 
  102.6250   100.4110     9.0600     7.8020     9.9200    25.7940   -14.0710     2.2550 
  102.7500   104.2450     8.6490     7.4460     9.6820    26.1890   -13.8810     2.2820 
  102.8750   107.4100     8.2030     7.0430     9.4460    26.2260   -13.7770     2.2990 
  103.0000   105.2920     7.8460     6.6760     9.2400    26.1130   -13.7900     2.2980 
  103.1250    97.4990     7.7860     6.4880     9.2400    26.1610   -13.8250     2.2750 
  103.2500    90.6600     8.0950     6.5660     9.1730    26.3850   -13.9220     2.2460 
  103.3750    87.9690     8.7650     6.9630     9.2490    26.4170   -14.1420     2.2290 
  103.5000    87.1000     9.6550     7.6540     9.8020    26.0910   -14.4260     2.2370 
  103.6250    84.4420    10.4490     8.4820    12.4320    25.8790   -14.7700     2.2720 
  103.7500    81.2280    10.8360     9.1110    16.8460    25.9520   -15.2690     2.3090 
  103.8750    78.1600    10.6770     9.2770    18.3130    26.1450   -15.9010     2.3260 
