~V
VERS. 2.00: Ver 2.00
~W
STRT.M 55.0000:
STOP.M 247.0000:
STEP.M 0.1250:
NULL. -999.2500:
UWI. F10183:
~C
DEPT.M :
SP.MV :
GR.API :
RML.OHMM :
RI. :
RXO.OHMM :
CALI.CM :
DEN.GM/CC :
~A
# ...
   77.5000   -13.5310    55.2530     8.1070     6.8640     8.8970    22.9860     2.1300 
   77.6250   -12.9730    54.7710     8.1930     6.9710     8.7930    22.8010     2.1390 
   77.7500   -12.3750    55.0810     8.4540     7.1960     9.4210    22.7010     2.1470 
   77.8750   -11.7680    55.9160     8.8610     7.5320    11.4550    22.6960     2.1540 
   78.0000   -11.1630    57.0610     9.3010     7.9130    14.5650    22.7630     2.1620 
   78.1250   -10.5440    59.1660     9.5450     8.1740    17.8490    22.9160     2.1780 
   78.2500    -9.9030    61.1050     9.4460     8.1810    19.5930    23.1250     2.1990 
   78.3750    -9.2250    62.8440     8.9600     7.8650    16.8380    23.3570     2.2220 
   78.5000    -8.5570    65.7180     8.1810     7.2700    10.6830    23.6180     2.2410 
   78.6250    -7.9510    70.2950     7.3150     6.5380     7.1520    23.9390     2.2550 
   78.7500    -7.4250    74.9980     6.5850     5.8620     5.6710    24.2310     2.2660 
   78.8750    -7.0080    79.6640     6.0810     5.3370     5.1330    24.3940     2.2770 
   79.0000    -6.6960    83.6130     5.8110     4.9910     5.0000    24.4170     2.2890 
   79.1250    -6.5960    84.5670     5.7640     4.8430     4.9640    24.3510     2.2960 
   79.2500    -6.7110    83.9010     5.8800     4.8500     4.9610    24.2430     2.2940 
   79.3750    -7.0080    84.6450     6.1780     5.0210     5.1110    24.1400     2.2820 
   79.5000    -7.4650    85.8660     6.7210     5.3940     5.4870    24.0710     2.2630 
   79.6250    -7.9880    82.0890     7.7230     6.1020     6.2290    24.0060     2.2390 
   79.7500    -8.5420    75.0810     9.3580     7.2510     7.3670    23.9380     2.2170 
   79.8750    -9.0870    71.2940    11.9040     9.0440     9.0590    23.9150     2.2030 
   80.0000    -9.6190    71.2740    15.5800    11.7020    11.6630    23.9330     2.2060 
   80.1250   -10.1260    71.3470    20.3840    15.4100    17.3690    23.9350     2.2420 
   80.2500   -10.5710    69.4800    25.2380    19.4980    26.4580    23.9310     2.3080 
   80.3750   -10.9710    65.6750    28.7720    22.9730    36.7210    23.9410     2.3910 
   80.5000   -11.3220    61.1950    29.5940    24.6200    45.6020    23.9310     2.4650 
   80.6250   -11.7160    56.8990    26.6010    23.1250    44.8820    23.9110     2.4960 
   80.7500   -12.1520    54.2500    21.7410    19.7030    31.0310    23.9310     2.4810 
   80.8750   -12.6020    53.8100    17.2300    16.1210    16.8990    23.9750     2.4390 
   81.0000   -13.0550    55.4790    14.4640    13.6040    11.5440    24.0040     2.3980 
   81.1250   -13.4630    58.1410    13.7760    12.5490    12.6480    24.0360     2.3850 
   81.2500   -13.8670    57.8620    14.1090    12.3350    16.4320    24.0790     2.3940 
   81.3750   -14.2260    55.0710    14.6660    12.4660    20.6970    24.0900     2.4080 
   81.5000   -14.5320    52.9560    14.7870    12.4780    23.9850    24.0510     2.4010 
   81.6250   -14.7160    52.4740    13.9990    11.9540    22.6730    24.0080     2.3600 
   81.7500   -14.7770    53.8140    12.6320    10.9970    15.8320    23.9710     2.3050 
   81.8750   -14.7460    56.7450    11.1780     9.9060    11.7430    23.9140     2.2580 
   82.0000   -14.6360    59.7350    10.0450     8.9710    10.9290    23.8630     2.2300 
   82.1250   -14.4680    58.5030     9.4250     8.3680    10.7100    23.8500     2.2200 
   82.2500   -14.2240    55.2510     9.1200     8.0100     9.9130    23.8410     2.2110 
   82.3750   -13.9430    55.7460     8.9670     7.8120     9.0380    23.8240     2.1990 
   82.5000   -13.6350    60.7650     8.8540     7.6950     8.5180    23.8210     2.1860 
   82.6250   -13.2780    63.3500     8.7390     7.6150     8.3860    23.8260     2.1810 
   82.7500   -12.9030    61.1600     8.6190     7.5490     8.3040    23.8080     2.1820 
   82.8750   -12.5410    58.6870     8.4920     7.4840     8.2610    23.8000     2.1880 
   83.0000   -12.1890    60.2030     8.3580     7.4090     8.2200    23.8400     2.1950 
   83.1250   -11.8300    63.4700     8.2360     7.3220     8.0420    23.9000     2.1980 
   83.2500   -11.4200    64.4020     8.1380     7.2270     7.7940    23.9620     2.1970 
   83.3750   -10.9590    63.3140     8.0530     7.1160     7.5640    24.0640     2.1920 
   83.5000   -10.4190    62.6200     7.9380     6.9640     7.4940    24.2070     2.1870 
   83.6250    -9.7730    64.0540     7.7180     6.7240     7.3620    24.3370     2.1860 
   83.7500    -9.0670    67.7770     7.3740     6.3910     7.0510    24.4530     2.1930 
   83.8750    -8.3650    74.9650     6.9260     5.9820     6.4820    24.5700     2.2100 
   84.0000    -7.7270    84.2350     6.4430     5.5500     5.7240    24.6470     2.2310 
   84.1250    -7.2110    89.2430     6.0660     5.1910     4.9850    24.6230     2.2490 
   84.2500    -6.8690    88.8730     5.9060     4.9850     4.6090    24.5590     2.2540 
   84.3750    -6.7340    85.5100     6.0320     4.9880     4.6140    24.4730     2.2470 
   84.5000    -6.8240    82.3110     6.4510     5.2180     4.9880    24.3410     2.2310 
   84.6250    -7.1910    79.4800     7.1140     5.6670     5.7100    24.1840     2.2170 
   84.7500    -7.7640    76.6560     7.8190     6.2050     6.6320    24.0650     2.2120 
   84.8750    -8.4230    73.2600     8.3950     6.7100     7.5220    23.9860     2.2160 
   85.0000    -9.1190    68.0520     8.7060     7.0610     8.0870    23.9380     2.2260 
   85.1250    -9.7790    63.9520     8.6630     7.1530     8.1740    23.9470     2.2390 
   85.2500   -10.3790    62.7950     8.4090     7.0500     7.9600    24.0050     2.2480 
   85.3750   -10.9190    63.9290     8.0860     6.8390     7.6680    24.0650     2.2500 
   85.5000   -11.4140    64.9890     7.8210     6.6190     7.4320    24.1150     2.2430 
   85.6250   -11.8740    62.8380     7.7150     6.4820     7.3760    24.1800     2.2290 
   85.7500   -12.2740    59.7130     7.7590     6.4480     7.4550    24.2370     2.2140 
   85.8750   -12.6560    58.6570     7.9280     6.5160     7.6850    24.2690     2.2010 
   86.0000   -13.0490    59.6860     8.1810     6.6640     8.0700    24.3130     2.1920 
   86.1250   -13.4870    58.9660     8.4590     6.8590     8.5490    24.3750     2.1840 
   86.2500   -13.8670    56.6720     8.6910     7.0410     8.9630    24.4030     2.1740 
   86.3750   -14.1140    54.5950     8.8310     7.1700     9.2210    24.4000     2.1640 
   86.5000   -14.2210    53.9680     8.8640     7.2240     9.2980    24.3840     2.1560 
   86.6250   -14.1520    55.7390     8.8140     7.2010     9.2330    24.3190     2.1540 
   86.7500   -13.9590    58.1280     8.7660     7.1580     9.1350    24.2310     2.1600 
   86.8750   -13.6830    59.9830     8.7850     7.1440     9.0790    24.1530     2.1750 
   87.0000   -13.3300    62.1730     8.9050     7.2010     9.0960    24.0680     2.1990 
   87.1250   -12.8860    67.9640     9.1320     7.3580     9.3200    23.9840     2.2300 
   87.2500   -12.4540    75.9230     9.4440     7.6070     9.7290    23.9400     2.2550 
   87.3750   -12.0860    79.5850     9.8980     7.9790    10.1900    23.9190     2.2660 
   87.5000   -11.7740    76.9480    10.6240     8.5480    10.5810    23.8850     2.2610 
   87.6250   -11.5540    72.5400    11.8450     9.4690    11.5050    23.8180     2.2540 
   87.7500   -11.4350    70.5910    13.4720    10.7160    14.5790    23.7400     2.2640 
   87.8750   -11.3940    67.6380    15.2100    12.1240    20.3540    23.6330     2.2990 
   88.0000   -11.4200    59.2300    16.5400    13.3450    27.4980    23.4980     2.3500 
   88.1250   -11.5630    50.3680    16.6720    13.7690    33.2920    23.3500     2.3820 
   88.2500   -11.7370    47.6230    15.5220    13.1920    33.0380    23.1820     2.3730 
   88.3750   -11.9340    50.7410    13.4410    11.7730    23.5620    23.0430     2.3250 
   88.5000   -12.1580    54.1720    11.1800    10.0540    14.0880    22.9880     2.2610 
   88.6250   -12.4100    53.7900     9.5920     8.6920    10.9680    23.0240     2.2070 
