~V
VERS. 2.00: Ver 2.00
~W
STRT.M 49.0000:
STOP.M 245.0000:
STEP.M 0.1250:
NULL. -999.2500:
UWI. F10179:
~C
DEPT.M :
DEN.GM/CC :
GR.API :
RML.OHMM :
RI. :
RXO.OHMM :
CALI.CM :
SP.MV :
~A
# ...
  150.2500     2.5190    50.5360    13.6970    11.8390     8.8660    23.6240   -18.9170 
  150.3750     2.5240    50.4980    13.7770    11.9150    10.0910    24.1180   -18.9430 
  150.5000     2.5330    48.2990    13.8740    12.0170    10.8840    24.2750   -19.0040 
  150.6250     2.5450    47.1700    13.9590    12.1260    10.8270    24.1800   -19.0870 
  150.7500     2.5570    49.4060    14.0620    12.2470    10.7290    24.0200   -19.1820 
  150.8750     2.5630    52.1580    14.2810    12.4360    11.0290    24.0920   -19.2820 
  151.0000     2.5610    52.1470    14.6770    12.7470    11.4530    24.2380   -19.3570 
  151.1250     2.5480    50.7970    15.2500    13.2140    11.1390    24.2770   -19.4230 
  151.2500     2.5230    51.2600    15.9050    13.8050    10.8090    24.1690   -19.4770 
  151.3750     2.4920    53.8140    16.4250    14.3780    11.1040    24.0070   -19.5770 
  151.5000     2.4730    54.5720    16.6430    14.7560    11.9920    23.9130   -19.7260 
  151.6250     2.4730    52.6170    16.4970    14.8290    12.4180    23.9690   -19.8970 
  151.7500     2.4860    50.3220    16.0390    14.5870    11.9040    24.0540   -20.0720 
  151.8750     2.4970    50.1950    15.4210    14.1030    11.0300    24.1650   -20.2450 
  152.0000     2.5000    51.8790    14.8880    13.5940    10.6540    24.1810   -20.4610 
  152.1250     2.4990    53.9480    14.5930    13.2230    10.6730    23.9740   -20.7270 
  152.2500     2.4960    56.3630    14.6060    13.0920    10.5110    23.6320   -21.0750 
  152.3750     2.4880    58.8280    14.9510    13.2530    10.4580    23.2640   -21.4590 
  152.5000     2.4750    62.2390    15.5240    13.6180    10.5330    23.0020   -21.8820 
  152.6250     2.4640    65.1210    16.3180    14.1730    10.3810    22.8190   -22.3510 
  152.7500     2.4600    65.0470    17.3840    14.9570    10.2380    22.7510   -22.8600 
  152.8750     2.4510    62.7820    18.8780    16.1120     9.6540    22.9950   -23.4370 
  153.0000     2.4220    61.5550    20.8570    17.6820    10.4770    23.4660   -24.0670 
  153.1250     2.3710    61.8940    23.4160    19.7390    13.3290    24.0380   -24.7600 
  153.2500     2.3130    62.4760    26.6050    22.3300    19.0200    24.5750   -25.5050 
  153.3750     2.2700    61.8170    30.6720    25.6070    24.7650    25.0400   -26.3010 
  153.5000     2.2470    62.2440    36.0040    29.7500    26.8560    25.4380   -27.0660 
  153.6250     2.2360    63.5910    43.6160    35.4780    29.1450    25.7200   -27.7990 
  153.7500     2.2190    63.5650    54.9910    44.1300    28.7690    25.7500   -28.5110 
  153.8750     2.1830    58.8860    73.2390    58.9030    24.3160    25.3840   -29.1930 
  154.0000     2.1470    53.5560    98.8570    80.8150    21.9850    24.6770   -29.8640 
  154.1250     2.1250    52.5450   129.1110   108.2590    26.1780    24.1730   -30.5160 
  154.2500     2.1220    54.5220   155.8030   133.9010    37.3090    24.2180   -31.1260 
  154.3750     2.1370    53.7600   162.8000   144.1360    52.0920    24.8050   -31.6480 
  154.5000     2.1590    53.2420   152.1800   138.6150    55.6120    25.3680   -32.1130 
  154.6250     2.1820    56.5340   135.1980   124.9410    54.3250    25.6350   -32.5080 
  154.7500     2.2020    60.3620   121.5520   111.8450    53.6280    25.7460   -32.8740 
  154.8750     2.2190    58.4030   116.5080   105.5770    54.1410    25.8910   -33.2440 
  155.0000     2.2310    54.8650   118.6520   105.9770    65.5430    25.9840   -33.5920 
  155.1250     2.2360    53.6330   126.2880   111.7120    80.3840    25.9810   -33.8950 
  155.2500     2.2360    53.0750   136.8430   120.5420    99.4660    25.8700   -34.1520 
  155.3750     2.2370    50.7710   146.3830   129.2210   126.5900    25.6830   -34.3740 
  155.5000     2.2370    49.7700   152.0830   135.1560   135.3420    25.4540   -34.6260 
  155.6250     2.2330    50.5210   154.0840   138.0590   114.2940    25.2880   -34.9330 
  155.7500     2.2280    51.7390   155.1870   139.8080    88.1360    25.2240   -35.2590 
  155.8750     2.2250    53.6530   160.2040   144.4090    83.9890    25.2320   -35.5590 
  156.0000     2.2230    57.0100   171.8060   154.7460    99.2440    25.2550   -35.7880 
  156.1250     2.2150    58.3790   190.6720   171.9500   109.9920    25.2540   -35.9310 
  156.2500     2.2020    54.8160   212.7030   192.9940   121.0440    25.2170   -35.9700 
  156.3750     2.1860    48.0480   219.8500   203.9390   138.5200    25.1260   -35.8590 
  156.5000     2.1730    43.8050   197.7170   190.9920   138.5010    24.9270   -35.5950 
  156.6250     2.1630    45.6320   154.2130   155.1980   117.7870    24.5740   -35.1670 
  156.7500     2.1600    54.7500   110.8160   113.0350    84.6200    24.0430   -34.6170 
  156.8750     2.1670    65.4090    82.0400    81.9000    51.2710    23.6920   -33.9110 
  157.0000     2.1860    70.3550    65.5230    63.4540    31.5140    23.7400   -33.0770 
  157.1250     2.2150    71.2900    58.0830    54.8090    24.8440    23.8370   -32.1520 
  157.2500     2.2430    73.5600    57.0200    52.7110    29.8760    23.8530   -31.1770 
  157.3750     2.2570    75.6880    60.7780    55.3970    41.1450    24.0230   -30.2460 
  157.5000     2.2570    72.5620    66.7380    60.5550    49.2310    24.4680   -29.3840 
  157.6250     2.2480    66.7640    73.2240    66.7090    52.4480    24.9510   -28.6280 
  157.7500     2.2390    63.4530    78.8250    72.3500    57.6620    25.2150   -27.9200 
  157.8750     2.2310    62.8390    82.6950    76.3150    62.9550    25.2410   -27.2480 
  158.0000     2.2260    62.7360    85.5830    79.0720    64.8200    25.0800   -26.6310 
  158.1250     2.2270    62.2930    88.2700    81.2720    66.2330    24.7600   -26.0910 
  158.2500     2.2380    61.4210    91.2910    83.4370    66.8950    24.4820   -25.6460 
  158.3750     2.2540    62.1560    94.3930    85.5270    65.9280    24.3960   -25.2880 
  158.5000     2.2630    65.3780    96.0140    86.4820    65.8840    24.4240   -24.9790 
  158.6250     2.2620    68.8050    94.1090    84.6790    71.4310    24.5240   -24.6840 
  158.7500     2.2550    68.8420    87.4280    78.9920    79.0200    24.7750   -24.4160 
  158.8750     2.2490    67.7240    76.6680    69.8290    77.1660    24.9750   -24.1800 
  159.0000     2.2510    69.2990    65.6740    60.3980    61.4380    24.9160   -24.0080 
  159.1250     2.2650    70.1280    57.0570    52.9270    42.8650    24.7310   -23.8870 
  159.2500     2.2850    68.3940    52.1840    48.5490    34.3180    24.5640   -23.8080 
  159.3750     2.2980    67.6630    51.9760    48.0540    35.3050    24.4140   -23.7450 
  159.5000     2.3010    68.7900    55.2170    50.6510    40.7110    24.3290   -23.6840 
  159.6250     2.2960    70.4150    60.5920    55.6180    47.2960    24.3070   -23.6240 
  159.7500     2.2870    71.0790    65.6180    61.0690    56.1550    24.3100   -23.5480 
  159.8750     2.2790    69.6670    65.9550    62.8020    58.9480    24.2870   -23.4880 
  160.0000     2.2790    66.9130    60.2040    58.4940    55.2050    24.1830   -23.4460 
  160.1250     2.2870    66.1530    49.7950    49.0060    48.5630    23.9810   -23.4130 
  160.2500     2.3060    73.3120    38.1040    37.8340    36.8180    23.7820   -23.3860 
  160.3750     2.3310    83.2490    28.6440    28.8080    24.2500    23.7280   -23.4000 
  160.5000     2.3520    86.5260    22.3040    22.7790    16.9330    23.7680   -23.4150 
  160.6250     2.3640    83.9080    18.9360    19.4290    14.2640    23.8020   -23.4240 
  160.7500     2.3620    82.0330    18.0910    18.2490    11.0160    23.8040   -23.4620 
  160.8750     2.3480    86.1620    19.4590    19.0830    11.0950    23.7310   -23.5520 
  161.0000     2.3300    90.5760    21.8710    21.1530    13.8500    23.5100   -23.6950 
  161.1250     2.3140    90.7300    24.4110    23.7620    18.1870    23.1600   -23.8650 
  161.2500     2.3090    86.1300    26.2850    26.0360    19.2320    22.8840   -24.0070 
  161.3750     2.3210    79.9110    27.1250    27.2340    15.8390    23.0690   -24.0870 
