~V
VERS. 2.00: Ver 2.00
~W
STRT.M 50.0000:
STOP.M 233.0000:
STEP.M 0.1250:
NULL. -999.2500:
UWI. F10166:
~C
DEPT.M :
SP.MV :
DEN.GM/CC :
GR.API :
RML.OHMM :
RI. :
RXO.OHMM :
CALI.CM :
~A
# ...
   61.2500    76.2520     1.9770    49.0430    65.4090     1.7870    13.6320    25.5300 
   61.3750    76.2880     1.9530    52.2810    20.1140     1.7160    14.9870    25.5280 
   61.5000    76.4120     1.9290    54.2270     8.0890     1.6910    16.3520    25.5240 
   61.6250    76.5670     1.9120    55.0320     4.7870     1.7210    16.8520    25.5220 
   61.7500    76.6750     1.9000    54.9920     3.7090     1.7750    16.8070    25.5260 
   61.8750    76.6860     1.8910    55.8820     3.6570     1.8180    17.5610    25.5290 
   62.0000    76.5900     1.8860    57.1660     4.1530     1.8270    20.1970    25.5200 
   62.1250    76.3170     1.8880    57.6050     5.0350     1.8390    24.0940    25.4970 
   62.2500    75.8160     1.8960    56.6030     6.4580     1.9010    26.4940    25.4710 
   62.3750    75.0440     1.9030    55.1870     9.5020     1.9940    26.7010    25.4560 
   62.5000    73.9710     1.9030    54.6180    17.0820     2.0320    26.5330    25.4510 
   62.6250    72.4960     1.8930    54.5100    26.6610     1.8500    28.4500    25.4520 
   62.7500    70.6200     1.8880    54.5780    16.5160     1.4380    31.2260    25.4520 
   62.8750    68.2770     1.9160    55.4580     5.5460     0.9290    32.4470    25.4530 
   63.0000    65.3440     2.0290    57.0700     1.6970     0.5090    31.3630    25.4530 
   63.1250    61.5100     2.2680    56.3470     0.5650     0.2720    35.1860    25.4450 
   63.2500    56.6950     2.4830    54.1980     0.1560     0.1570    18.9590    25.4510 
   63.3750    50.6920     2.5130    54.6530     0.0700     0.1390     5.6440    25.5530 
   63.5000    43.4120     2.3710    60.1900     0.1770     0.2470     4.5260    25.7780 
   63.6250    34.8950     2.1510    67.3590     0.5270     0.6030     4.9740    26.0060 
   63.7500    25.8860     1.9450    72.7250     1.2280     1.3290     5.3000    26.0950 
   63.8750    16.9390     1.7980    76.4130     2.4690     2.5710     5.3360    26.0140 
   64.0000     8.6140     1.7450    77.6870     4.2040     4.2680     5.7260    25.8200 
   64.1250     1.5710     1.8120    75.8830     5.5910     5.8360     7.1420    25.6250 
   64.2500    -4.0600     1.9370    74.7160     6.2000     6.7820     8.5830    25.5230 
   64.3750    -8.2130     2.0530    76.1930     6.3330     7.1710     9.0320    25.5020 
   64.5000   -11.0600     2.1250    79.3090     6.2310     7.2310     8.4180    25.4910 
   64.6250   -12.7850     2.1530    83.1420     5.9610     7.1330     7.6630    25.4660 
   64.7500   -13.9870     2.1510    87.3630     5.7370     7.1210     7.0970    25.4560 
   64.8750   -14.8670     2.1260    88.5430     5.8140     7.4340     6.7450    25.4460 
   65.0000   -15.5540     2.1030    84.2190     6.3890     8.2610     7.4920    25.4150 
   65.1250   -16.2020     2.1350    77.2780     7.5770     9.7020    12.4650    25.3640 
   65.2500   -16.9170     2.2440    71.9440     8.9800    11.3040    20.9070    25.3440 
   65.3750   -17.7610     2.3850    68.4600     9.9050    12.3670    22.6290    25.3920 
   65.5000   -18.6880     2.4640    68.5100     9.7030    12.2590    14.6040    25.4950 
   65.6250   -19.6290     2.4150    71.6910     8.4970    10.9820     9.2350    25.5740 
   65.7500   -20.4480     2.3150    73.1940     7.2700     9.5080     7.8630    25.5790 
   65.8750   -21.0620     2.2230    72.2540     6.4370     8.3710     7.9020    25.5140 
   66.0000   -21.4440     2.1680    72.8870     6.0440     7.7320     7.9300    25.3980 
   66.1250   -21.5870     2.1570    77.6680     5.9900     7.5500     7.5930    25.2510 
   66.2500   -21.6280     2.1730    83.4250     6.0590     7.5720     7.0100    25.1300 
   66.3750   -21.6910     2.2000    89.4870     6.1670     7.6840     6.5780    25.0660 
   66.5000   -21.8880     2.2230    95.1850     6.3080     7.8480     6.4460    25.0450 
   66.6250   -22.3800     2.2210    94.8830     6.5380     8.0850     6.8040    25.0310 
   66.7500   -23.1630     2.1940    86.8390     6.8540     8.3670     7.5680    25.0200 
   66.8750   -24.1910     2.1560    75.2410     7.2090     8.6300     8.4960    25.0320 
   67.0000   -25.3810     2.1220    68.6630     7.5070     8.7860     9.0840    25.0690 
   67.1250   -26.5760     2.1070    69.6420     7.5940     8.7230     9.1130    25.1050 
   67.2500   -27.6510     2.1080    70.6360     7.4280     8.4420     9.1040    25.1190 
   67.3750   -28.5490     2.1130    68.5650     7.0740     8.0000     9.1210    25.1220 
   67.5000   -29.1920     2.1110    66.1480     6.7320     7.5600     9.2100    25.1350 
   67.6250   -29.5510     2.1000    67.5070     6.7800     7.4490     9.3940    25.1620 
   67.7500   -29.6810     2.0990    68.7030     7.5180     7.9590     9.5200    25.1810 
   67.8750   -29.6600     2.1310    67.0930     9.3090     9.5410    11.1140    25.1610 
   68.0000   -29.5160     2.2100    64.1770    12.6150    12.8060    18.5860    25.0910 
   68.1250   -29.3050     2.3410    62.6230    18.2650    18.6290    47.1500    25.0090 
   68.2500   -29.0930     2.4820    62.7830    25.1580    25.7670   108.2150    24.9610 
   68.3750   -28.9080     2.5830    63.6090    29.5680    30.7920   152.0380    24.9460 
   68.5000   -28.8190     2.6060    64.2880    27.4230    29.7560   104.0880    24.9650 
   68.6250   -28.8860     2.5410    65.0450    20.6340    23.1960    44.7120    25.0540 
   68.7500   -29.0790     2.4330    65.6280    14.6990    16.6280    18.9430    25.1820 
   68.8750   -29.3830     2.3150    66.4700    10.8490    11.9890    10.4800    25.2570 
   69.0000   -29.7640     2.2110    66.8150     8.8000     9.2860     8.9850    25.2280 
   69.1250   -30.1800     2.1440    65.7180     8.1660     8.1490     9.3190    25.1450 
   69.2500   -30.5720     2.1100    63.9870     8.2450     7.8590     8.8460    25.1080 
   69.3750   -30.9150     2.0980    63.2680     8.6560     8.0610     8.1560    25.1330 
   69.5000   -31.1930     2.0930    63.9970     9.0710     8.4160     8.2290    25.1800 
   69.6250   -31.3870     2.0930    64.7920     9.2570     8.6460     9.0870    25.1920 
   69.7500   -31.5300     2.0970    64.8500     9.2580     8.7080     9.3500    25.1490 
   69.8750   -31.6300     2.1060    66.0700     9.1820     8.6630     8.9220    25.0580 
   70.0000   -31.6930     2.1180    69.1310     9.0940     8.5780     8.9050    24.9390 
   70.1250   -31.7340     2.1270    70.3560     9.0110     8.4830     9.6670    24.8330 
   70.2500   -31.7680     2.1360    69.3110     8.9200     8.3720    10.2660    24.7910 
   70.3750   -31.8030     2.1500    69.4820     8.8380     8.2460    10.3030    24.8550 
   70.5000   -31.8580     2.1800    72.0980     8.8410     8.1370     9.8310    25.0070 
   70.6250   -31.9340     2.2100    72.2640     9.0730     8.1320     8.6460    25.1790 
   70.7500   -32.0540     2.2000    70.2030     9.5540     8.2760     7.2770    25.3940 
   70.8750   -32.2320     2.1340    68.1520    10.2210     8.5670     8.5890    25.6850 
   71.0000   -32.4600     2.0310    65.2480    10.8980     8.9190    16.3580    25.8520 
   71.1250   -32.7430     1.9350    61.4670    11.2570     9.1260    24.9720    25.5900 
   71.2500   -33.0220     1.8830    60.0730    11.1720     9.0540    19.5370    25.1300 
   71.3750   -33.2790     1.8940    61.1090    10.7330     8.7130    11.2400    24.8170 
   71.5000   -33.4770     1.9560    61.7330    10.1970     8.2450     8.1930    24.7740 
   71.6250   -33.5980     2.0270    61.7950     9.8580     7.8530     8.4960    24.8610 
   71.7500   -33.6600     2.0670    62.6800     9.7870     7.6320     8.4600    24.9370 
   71.8750   -33.6840     2.0770    63.3860     9.9270     7.5750     7.9760    24.9690 
   72.0000   -33.7270     2.0760    63.6220    10.1500     7.6200     7.7400    24.9520 
   72.1250   -33.8290     2.0790    64.7570    10.3230     7.6920     8.1230    24.9180 
   72.2500   -33.9970     2.0880    66.2140    10.4070     7.7460     8.6360    24.8980 
   72.3750   -34.2310     2.1000    66.3690    10.4130     7.7710     8.8300    24.8940 
