~V
VERS. 2.00: Ver 2.00
~W
STRT.M 60.0000:
STOP.M 241.0000:
STEP.M 0.1250:
NULL. -999.2500:
UWI. F10158:
~C
DEPT.M :
SP.MV :
DEN.GM/CC :
GR.API :
RML.OHMM :
RI. :
RXO.OHMM :
CALI.CM :
~A
# ...
  116.2500    67.4910     2.1590    65.5770     9.8750     8.8160    10.9440    26.4410 
  116.3750    68.0770     2.1770    63.9240     9.0120     8.0900    10.3100    26.0930 
  116.5000    68.6340     2.2000    66.7760     8.4590     7.5570     8.9590    25.9950 
  116.6250    69.0630     2.2170    69.8590     8.4070     7.3830     8.1050    25.9950 
  116.7500    69.3550     2.2260    68.5860     8.7380     7.5230     8.4920    25.9940 
  116.8750    69.4980     2.2310    66.7850     9.3100     7.9010     9.6320    25.9950 
  117.0000    69.5000     2.2360    69.5150     9.9320     8.3940    10.3710    25.9940 
  117.1250    69.3610     2.2400    75.4180    10.3700     8.8250    10.3970    25.9760 
  117.2500    69.1360     2.2380    77.9060    10.5490     9.0800    10.5280    25.9440 
  117.3750    68.8690     2.2270    75.5240    10.5260     9.1550    10.7740    25.9020 
  117.5000    68.6040     2.2100    70.3910    10.4240     9.1230    10.9730    25.8310 
  117.6250    68.3880     2.1940    64.2720    10.3500     9.0640    11.0940    25.7220 
  117.7500    68.2300     2.1850    59.6050    10.3400     9.0270    11.1220    25.6240 
  117.8750    68.1420     2.1860    58.7930    10.3930     9.0250    11.1510    25.5730 
  118.0000    68.1560     2.1990    60.8080    10.4850     9.0480    11.3010    25.5780 
  118.1250    68.2860     2.2170    62.7800    10.5780     9.0700    11.4460    25.6870 
  118.2500    68.5020     2.2290    63.8080    10.6380     9.0720    11.4230    25.8900 
  118.3750    68.7790     2.2270    63.6510    10.6390     9.0410    11.3980    26.0870 
  118.5000    69.1010     2.2130    60.8770    10.5620     8.9710    11.5400    26.1830 
  118.6250    69.4470     2.1950    57.4510    10.4010     8.8620    11.7350    26.1870 
  118.7500    69.7720     2.1840    58.6510    10.2040     8.7420    11.8070    26.1880 
  118.8750    70.0710     2.1880    64.4770    10.0200     8.6370    11.7650    26.1930 
  119.0000    70.3440     2.2070    68.9630     9.9200     8.5870    11.6400    26.1920 
  119.1250    70.6080     2.2320    65.9480    10.0130     8.6700    11.5650    26.1900 
  119.2500    70.8650     2.2510    60.1960    10.3190     8.9060    11.6510    26.1930 
  119.3750    71.1020     2.2600    57.8610    10.8130     9.2860    11.8910    26.1990 
  119.5000    71.3220     2.2580    59.4950    11.4030     9.7490    12.3690    26.2030 
  119.6250    71.5370     2.2470    60.8980    11.9060    10.1630    13.2490    26.2020 
  119.7500    71.7670     2.2350    61.4600    12.1560    10.3950    14.2300    26.1980 
  119.8750    72.0330     2.2260    62.6460    12.0580    10.3580    14.7030    26.1940 
  120.0000    72.3520     2.2190    64.0230    11.6220    10.0400    14.1950    26.1960 
  120.1250    72.7610     2.2110    63.1370    10.9520     9.4990    13.0960    26.2000 
  120.2500    73.2540     2.1960    60.8120    10.3090     8.9380    12.2120    26.2030 
  120.3750    73.8250     2.1740    59.8490     9.9230     8.5460    11.6120    26.2030 
  120.5000    74.4520     2.1590    60.1720    10.0170     8.5020    11.2150    26.2000 
  120.6250    75.1240     2.1790    58.7590    10.9480     9.0760    11.2070    26.1910 
  120.7500    75.8380     2.2510    54.3450    12.8280    10.3590    11.7420    26.1830 
  120.8750    76.5670     2.3640    49.4940    15.8050    12.5100    13.3050    26.1820 
  121.0000    77.2860     2.4830    47.5290    19.8060    15.5930    16.6310    26.1840 
  121.1250    77.9610     2.5630    50.6410    24.0740    19.2750    21.6850    26.1820 
  121.2500    78.5720     2.6100    55.4430    26.8490    22.1780    25.8260    26.1770 
  121.3750    79.1000     2.6360    59.2320    26.5500    22.8050    28.0170    26.1790 
  121.5000    79.5090     2.6360    60.8840    22.9730    20.6170    29.5850    26.1930 
  121.6250    79.7490     2.5870    61.3150    17.7050    16.6060    31.1530    26.2140 
  121.7500    79.8510     2.5020    63.4590    13.0020    12.7040    27.3860    26.2380 
  121.8750    79.8490     2.4060    67.8690     9.6100     9.6530    18.3740    26.2580 
  122.0000    79.7880     2.3270    73.1840     7.5150     7.5760    10.5160    26.2730 
  122.1250    79.6830     2.2830    76.1900     6.5270     6.4420     6.9640    26.2960 
  122.2500    79.5720     2.2650    76.6710     6.1700     5.9150     5.8390    26.3490 
  122.3750    79.4810     2.2590    77.0010     6.2390     5.8490     5.7490    26.4210 
  122.5000    79.4290     2.2560    79.0030     6.5780     6.1060     5.8640    26.4750 
  122.6250    79.4230     2.2570    80.5740     7.0640     6.5660     5.9240    26.4890 
  122.7500    79.4430     2.2660    78.5410     7.5440     7.0520     6.0710    26.4880 
  122.8750    79.4790     2.2790    74.8370     7.8900     7.4290     6.9500    26.4860 
  123.0000    79.5170     2.2870    73.7620     7.9780     7.5710     8.1320    26.4930 
  123.1250    79.5370     2.2810    76.8110     7.7100     7.3700     8.0000    26.5310 
  123.2500    79.5200     2.2670    79.0330     7.2200     6.9320     6.9070    26.5910 
  123.3750    79.4550     2.2510    79.1220     6.6530     6.3800     5.9650    26.6530 
  123.5000    79.3520     2.2390    78.7650     6.1820     5.8620     5.6590    26.7000 
  123.6250    79.2060     2.2330    80.6860     6.0240     5.5670     5.5050    26.7250 
  123.7500    79.0090     2.2370    84.0560     6.2370     5.5600     5.2500    26.7360 
  123.8750    78.7710     2.2600    83.6260     6.8470     5.8700     5.1200    26.7410 
  124.0000    78.5090     2.3060    76.1740     7.8250     6.4830     5.4160    26.7460 
  124.1250    78.2270     2.3640    65.8790     9.0500     7.3470     6.6360    26.7440 
  124.2500    77.9350     2.4040    59.7100    10.1840     8.2310     8.3850    26.7400 
  124.3750    77.6180     2.4110    58.3690    10.9350     8.9160     9.7510    26.7390 
  124.5000    77.2630     2.3920    59.0180    11.1750     9.2640    10.2280    26.7390 
  124.6250    76.8710     2.3630    60.3130    10.9760     9.2640    10.1960    26.7360 
  124.7500    76.4650     2.3360    62.4130    10.6730     9.1270    10.1520    26.7300 
  124.8750    76.0400     2.3080    64.4160    10.4540     8.9890    10.0780    26.7260 
  125.0000    75.6040     2.2760    67.0260    10.3800     8.9140     9.9730    26.7320 
  125.1250    75.1980     2.2470    71.0140    10.3960     8.8880    10.0670    26.7550 
  125.2500    74.8520     2.2250    72.2900    10.4050     8.8590    10.3030    26.7790 
  125.3750    74.5940     2.2140    68.6930    10.3880     8.8180    10.5510    26.7910 
  125.5000    74.4460     2.2080    62.9170    10.3640     8.7790    10.8260    26.7920 
  125.6250    74.4420     2.2030    61.1480    10.3820     8.7710    11.0330    26.7900 
  125.7500    74.5530     2.1980    64.1440    10.4760     8.8100    11.1490    26.7860 
  125.8750    74.7730     2.1960    68.0450    10.6300     8.8870    11.2340    26.7830 
  126.0000    75.0880     2.1990    68.5940    10.7420     8.9410    11.3540    26.7840 
  126.1250    75.4710     2.2030    65.8960    10.6080     8.8300    11.4770    26.7860 
  126.2500    75.8860     2.2010    64.8150    10.1650     8.4970    11.4830    26.7820 
  126.3750    76.3260     2.1950    66.6040     9.4550     7.9610    11.2120    26.7770 
  126.5000    76.7880     2.1940    69.6040     8.6330     7.3250    10.1850    26.7750 
  126.6250    77.2500     2.2060    72.0590     7.9430     6.7570     8.1820    26.7730 
  126.7500    77.6800     2.2270    73.5610     7.5310     6.3760     6.5280    26.7450 
  126.8750    78.0590     2.2430    73.2430     7.4550     6.2380     5.9640    26.6920 
  127.0000    78.3740     2.2420    72.7310     7.7170     6.3640     6.3680    26.6460 
  127.1250    78.6070     2.2310    73.6580     8.3130     6.7810     7.1310    26.6360 
  127.2500    78.7790     2.2310    71.3310     9.0650     7.3780     7.6150    26.6420 
  127.3750    78.8940     2.2540    66.0740     9.8040     8.0350     7.9740    26.6440 
