~V
VERS. 2.00: Ver 2.00
~W
STRT.M 60.0000:
STOP.M 241.0000:
STEP.M 0.1250:
NULL. -999.2500:
UWI. F10158:
~C
DEPT.M :
SP.MV :
DEN.GM/CC :
GR.API :
RML.OHMM :
RI. :
RXO.OHMM :
CALI.CM :
~A
# ...
  138.7500    81.3140     2.4930    56.4370    21.8620    20.1640    20.5420    27.2720 
  138.8750    81.2630     2.4790    53.8170    22.4990    20.6380    20.6250    27.2930 
  139.0000    81.2000     2.4730    52.6680    23.3310    21.2940    21.4830    27.2740 
  139.1250    81.1560     2.4780    52.4100    24.1940    22.0280    22.8010    27.2050 
  139.2500    81.1450     2.4890    49.4820    24.8330    22.6340    24.2320    27.0980 
  139.3750    81.1780     2.5060    44.6120    25.0740    22.9520    25.0830    26.9710 
  139.5000    81.2670     2.5250    40.5260    24.8670    22.9040    24.9750    26.8480 
  139.6250    81.4130     2.5430    40.2130    24.2910    22.5040    24.2030    26.7560 
  139.7500    81.5710     2.5540    41.4240    23.6360    21.9780    23.5240    26.7000 
  139.8750    81.7000     2.5550    40.4160    23.0960    21.4900    23.1170    26.6770 
  140.0000    81.7730     2.5480    37.6990    22.7930    21.1600    22.4530    26.6800 
  140.1250    81.7930     2.5380    37.4810    22.7750    21.0570    21.6040    26.7080 
  140.2500    81.7830     2.5300    40.0300    22.8490    21.0580    21.3290    26.7540 
  140.3750    81.7550     2.5260    43.6480    22.7720    20.9830    21.7430    26.8060 
  140.5000    81.7240     2.5260    46.2960    22.3140    20.6370    22.3940    26.8440 
  140.6250    81.6900     2.5260    45.4830    21.3520    19.8900    22.5160    26.8280 
  140.7500    81.6580     2.5220    43.3200    20.2120    18.9660    21.8430    26.8080 
  140.8750    81.6210     2.5140    44.1240    19.2680    18.1450    20.2830    26.8650 
  141.0000    81.5680     2.5070    49.1320    18.8220    17.6740    18.3350    26.9380 
  141.1250    81.4710     2.5140    51.5280    19.0570    17.7390    17.3360    26.9860 
  141.2500    81.3290     2.5330    49.4120    19.6900    18.1740    18.2740    26.9710 
  141.3750    81.1440     2.5520    47.5440    20.4210    18.7600    21.3610    27.0040 
  141.5000    80.9380     2.5580    49.2140    20.9360    19.2350    24.7140    27.0930 
  141.6250    80.7430     2.5420    52.1240    20.9950    19.3590    24.5870    27.1440 
  141.7500    80.5920     2.5200    52.9710    20.7440    19.2030    22.3220    27.1710 
  141.8750    80.4870     2.5050    52.7410    20.3950    18.9250    20.7090    27.1780 
  142.0000    80.4280     2.5010    52.4440    20.1400    18.6910    20.2750    27.1630 
  142.1250    80.4050     2.5030    53.1370    20.0770    18.6020    19.9910    27.1200 
  142.2500    80.4070     2.5050    55.8080    20.0920    18.5790    19.6420    27.0450 
  142.3750    80.4280     2.5040    58.3060    20.0460    18.5110    19.5400    26.9310 
  142.5000    80.4550     2.5030    57.7450    19.8380    18.3130    19.9840    26.7820 
  142.6250    80.4800     2.5010    54.6000    19.4450    17.9570    20.5910    26.3680 
  142.7500    80.5130     2.4970    52.9840    18.9820    17.5300    20.4500    26.3060 
  142.8750    80.5580     2.4900    54.0560    18.5460    17.1060    19.4210    26.2510 
  143.0000    80.6220     2.4820    55.9780    18.2140    16.7520    18.3650    26.2780 
  143.1250    80.7070     2.4780    56.5740    18.0470    16.5300    18.4890    26.3810 
  143.2500    80.8070     2.4770    56.5650    17.9810    16.4090    19.1060    26.4540 
  143.3750    80.9140     2.4770    57.0410    17.9260    16.3290    19.1170    26.4740 
  143.5000    81.0120     2.4770    57.4620    17.8090    16.2240    18.0410    26.4760 
  143.6250    81.0800     2.4770    57.0340    17.5920    16.0520    16.8980    26.4750 
  143.7500    81.1150     2.4780    56.4140    17.3280    15.8430    16.5830    26.5530 
  143.8750    81.1190     2.4800    58.4860    17.0690    15.6310    16.3820    26.7220 
  144.0000    81.1020     2.4850    62.7460    16.8570    15.4440    15.8570    26.8750 
  144.1250    81.0790     2.4920    63.3240    16.7130    15.2910    15.6650    27.0140 
  144.2500    81.0550     2.4970    58.1670    16.6220    15.1660    16.0340    27.1100 
  144.3750    81.0360     2.5000    51.8410    16.5860    15.0770    16.2430    27.1480 
  144.5000    81.0300     2.5010    49.3980    16.5820    15.0210    15.6020    27.1220 
  144.6250    81.0420     2.5040    49.9340    16.5200    14.9400    14.7040    27.0240 
  144.7500    81.0520     2.5090    49.9070    16.3230    14.7590    14.6710    26.8880 
  144.8750    81.0390     2.5170    50.3590    15.9660    14.4460    15.3630    26.7450 
  145.0000    80.9910     2.5240    51.7420    15.4840    14.0190    15.7320    26.6320 
  145.1250    80.8990     2.5280    51.8610    14.9740    13.5470    14.5560    26.5790 
  145.2500    80.7830     2.5280    50.3650    14.5810    13.1470    12.9940    26.5660 
  145.3750    80.6640     2.5230    49.9920    14.4190    12.9120    12.3790    26.5640 
  145.5000    80.5630     2.5150    52.8070    14.5530    12.9070    12.8220    26.4700 
  145.6250    80.5030     2.5110    55.1750    15.0210    13.1820    13.5180    26.4710 
  145.7500    80.4940     2.5130    54.7980    15.6690    13.6330    14.0310    26.4710 
  145.8750    80.5440     2.5180    53.3950    16.3320    14.1400    14.5430    26.4690 
  146.0000    80.6430     2.5220    53.3190    16.8390    14.5650    15.4130    26.4680 
  146.1250    80.7680     2.5190    54.9890    17.0230    14.7580    16.7110    26.4540 
  146.2500    80.8850     2.5120    57.3430    16.9500    14.7370    17.3230    26.4010 
  146.3750    80.9790     2.5060    58.4110    16.7410    14.5740    16.3010    26.2850 
  146.5000    81.0380     2.5060    56.9230    16.5490    14.3800    14.4940    26.1250 
  146.6250    81.0570     2.5130    55.0730    16.5230    14.2760    13.6620    26.0330 
  146.7500    81.0490     2.5220    55.4740    16.6690    14.3000    13.5350    26.0550 
  146.8750    81.0290     2.5290    56.3080    16.9250    14.4330    13.3890    26.1300 
  147.0000    81.0060     2.5340    55.8140    17.1980    14.6130    13.2510    26.1750 
  147.1250    80.9880     2.5390    53.9300    17.4020    14.7730    13.3090    26.1710 
  147.2500    80.9680     2.5410    52.9020    17.5350    14.8860    13.5890    26.1710 
  147.3750    80.9370     2.5380    54.9910    17.6180    14.9550    13.9580    26.1760 
  147.5000    80.8820     2.5310    59.0030    17.6810    14.9970    14.2340    26.1780 
  147.6250    80.8040     2.5230    59.6910    17.7500    15.0260    14.5010    26.1690 
  147.7500    80.7030     2.5180    56.7230    17.8130    15.0400    14.8410    26.1500 
  147.8750    80.5750     2.5150    54.3860    17.8490    15.0260    15.0380    26.1320 
  148.0000    80.4350     2.5070    54.4480    17.8330    14.9740    14.8700    26.1230 
  148.1250    80.3020     2.4950    55.2460    17.7370    14.8710    14.5530    26.1240 
  148.2500    80.1910     2.4860    55.1350    17.5940    14.7360    14.3510    26.1240 
  148.3750    80.1160     2.4870    54.3810    17.4660    14.6080    14.2720    26.1240 
  148.5000    80.0780     2.5010    53.1560    17.4240    14.5350    14.3800    26.1240 
  148.6250    80.0670     2.5190    51.0360    17.5460    14.5780    14.3420    26.1240 
  148.7500    80.0610     2.5290    49.8640    17.8310    14.7510    13.9700    26.1240 
  148.8750    80.0430     2.5270    49.9300    18.2470    15.0460    13.6990    26.1250 
  149.0000    79.9960     2.5200    51.3080    18.6830    15.3940    14.0360    26.1220 
  149.1250    79.9280     2.5150    53.8540    18.9220    15.6410    14.8670    26.1170 
  149.2500    79.8640     2.5170    54.5980    18.8410    15.6660    15.9150    26.1180 
  149.3750    79.8140     2.5250    52.0310    18.4180    15.4250    16.7600    26.1260 
  149.5000    79.7830     2.5320    48.7670    17.7680    14.9790    16.4770    26.1330 
  149.6250    79.7700     2.5360    48.9210    17.1160    14.4760    14.8680    26.1300 
  149.7500    79.7630     2.5350    51.5080    16.6310    14.0610    13.3320    26.1260 
  149.8750    79.7420     2.5320    53.1590    16.3400    13.7780    12.6810    26.1220 
