~V
VERS. 2.00: Ver 2.00
~W
STRT.M 53.0000:
STOP.M 246.0000:
STEP.M 0.1250:
NULL. -999.2500:
UWI. F10192:
~C
DEPT.M :
DEN.GM/CC :
GR.API :
RML.OHMM :
RI. :
RXO.OHMM :
CALI.CM :
SP.MV :
~A
# ...
   98.0000     2.1560    66.7830     8.8310     6.0700     9.1290    22.5310   -27.2000 
   98.1250     2.1680    70.0740     8.7560     6.0610     9.2760    22.6250   -27.3010 
   98.2500     2.1750    72.8590     8.7300     6.0510     9.3940    22.8660   -27.2900 
   98.3750     2.1830    74.3650     8.7720     6.0640     9.4330    23.1630   -27.1850 
   98.5000     2.1910    76.2790     8.8540     6.0980     9.4660    23.4900   -27.0060 
   98.6250     2.1960    77.9540     8.9030     6.1280     9.7210    23.8150   -26.7700 
   98.7500     2.1950    75.6110     8.8140     6.0970     9.7570    23.9380   -26.5200 
   98.8750     2.1910    71.1340     8.5780     5.9820     9.2580    24.0020   -26.2330 
   99.0000     2.1870    69.8880     8.2440     5.7940     8.2700    24.1080   -25.8960 
   99.1250     2.1850    72.3250     7.9100     5.5830     7.4290    24.1830   -25.4700 
   99.2500     2.1890    76.5700     7.7200     5.4380     7.3100    24.1440   -25.0660 
   99.3750     2.1940    78.6690     7.7290     5.4130     7.4670    24.1130   -24.7470 
   99.5000     2.1930    76.6020     7.9350     5.5260     7.8090    24.1490   -24.5060 
   99.6250     2.1790    73.6200     8.2780     5.7500     8.3170    24.2330   -24.2980 
   99.7500     2.1610    73.9390     8.6280     6.0100     9.1860    24.3270   -24.0260 
   99.8750     2.1540    75.0210     8.8280     6.1910     9.7990    24.4360   -23.6790 
  100.0000     2.1680    74.8890     8.7690     6.2070     9.6410    24.4930   -23.2530 
  100.1250     2.1990    75.5320     8.4220     6.0200     9.0360    24.4190   -22.7720 
  100.2500     2.2330    78.3790     7.8470     5.6530     8.4440    24.1670   -22.2670 
  100.3750     2.2640    82.2860     7.2640     5.2440     7.5980    23.8590   -21.7190 
  100.5000     2.2910    88.7600     6.8450     4.9080     6.7540    23.6180   -21.2130 
  100.6250     2.3140    95.3520     6.7090     4.7300     6.0530    23.5080   -20.8430 
  100.7500     2.3280    94.0190     6.9590     4.7950     5.8910    23.5020   -20.6950 
  100.8750     2.3280    88.2660     7.5160     5.0750     6.2280    23.4220   -20.7640 
  101.0000     2.3140    83.7630     8.2900     5.5420     7.2190    23.1900   -21.0430 
  101.1250     2.2920    80.3720     9.1280     6.1280     8.6820    22.9700   -21.4970 
  101.2500     2.2740    75.3250     9.7810     6.6990     9.3560    22.9290   -22.0110 
  101.3750     2.2640    71.4600    10.1020     7.1180     9.4980    23.0580   -22.4850 
  101.5000     2.2550    71.0250    10.0800     7.3210     9.4130    23.2740   -22.8640 
  101.6250     2.2360    73.6290     9.8520     7.3390     9.2720    23.4740   -23.1320 
  101.7500     2.2030    77.7310     9.6380     7.2720     9.1890    23.6670   -23.2770 
  101.8750     2.1660    79.5530     9.5480     7.2220     9.1400    23.9610   -23.2730 
  102.0000     2.1420    75.5140     9.5210     7.1880     9.0260    24.2630   -23.0940 
  102.1250     2.1390    69.8440     9.4010     7.0980     8.9280    24.4270   -22.7540 
  102.2500     2.1610    69.5330     8.9900     6.8250     8.9600    24.3940   -22.2960 
  102.3750     2.2040    73.3580     8.3360     6.3780     8.4830    24.2890   -21.8170 
  102.5000     2.2620    76.7470     7.5990     5.8450     7.1520    24.1940   -21.4020 
  102.6250     2.3160    77.2820     7.0060     5.3650     5.8860    24.0930   -21.1000 
  102.7500     2.3270    75.8130     6.8080     5.1040     5.5950    23.9150   -20.9690 
  102.8750     2.2900    74.6590     7.0010     5.0960     6.0910    23.8150   -21.0020 
  103.0000     2.2320    73.8210     7.5090     5.3330     7.1350    23.8380   -21.1820 
  103.1250     2.1820    71.9660     8.1720     5.7570     8.2890    23.9800   -21.5150 
  103.2500     2.1570    68.6470     8.7650     6.2500     8.8970    24.0620   -21.9820 
  103.3750     2.1490    66.3350     9.1670     6.6770     9.1370    24.0110   -22.5250 
  103.5000     2.1510    66.4760     9.4050     6.9940     9.2930    23.9490   -23.0450 
  103.6250     2.1640    67.7970     9.6130     7.2420     9.3420    23.9720   -23.4680 
  103.7500     2.1850    68.2320     9.9500     7.5110     9.7620    24.0500   -23.7180 
  103.8750     2.2060    68.4310    10.4130     7.8380    10.5040    24.0720   -23.8490 
  104.0000     2.2190    68.6220    10.8900     8.1810    10.7100    23.9730   -23.9490 
  104.1250     2.2170    68.9940    11.2110     8.4400    10.3960    23.7100   -24.0360 
  104.2500     2.1980    68.6660    11.1870     8.4750     9.8770    23.4350   -24.1500 
  104.3750     2.1750    68.8310    10.8830     8.2970     9.4180    23.2810   -24.3010 
  104.5000     2.1610    69.3980    10.4410     7.9820     9.0530    23.2830   -24.4800 
  104.6250     2.1660    68.7770    10.0310     7.6470     8.9880    23.2320   -24.6760 
  104.7500     2.1850    65.3380     9.8030     7.4130     9.0680    23.1180   -24.9420 
  104.8750     2.2000    63.1590     9.7570     7.3110     9.3660    23.0370   -25.2780 
  105.0000     2.2100    65.6110     9.8540     7.3340     9.7060    22.9920   -25.6410 
  105.1250     2.2180    67.8920    10.0350     7.4480     9.8670    23.0380   -25.9830 
  105.2500     2.2190    63.7960    10.2470     7.6150     9.9020    23.2550   -26.2250 
  105.3750     2.2140    59.1940    10.4690     7.7980    10.1680    23.4770   -26.3880 
  105.5000     2.2100    61.5130    10.7100     7.9890    10.4640    23.5620   -26.5290 
  105.6250     2.2090    67.7540    10.9670     8.1810    10.5240    23.4680   -26.6660 
  105.7500     2.1980    69.0680    11.1990     8.3510    10.4350    23.3070   -26.7240 
  105.8750     2.1680    65.6370    11.3420     8.4660    10.4320    23.3100   -26.6810 
  106.0000     2.1260    63.5290    11.3350     8.4890    10.5600    23.4770   -26.5650 
  106.1250     2.0920    64.6650    11.1460     8.3940    10.6710    23.6480   -26.4220 
  106.2500     2.0870    66.8130    10.7810     8.1690    10.5800    23.6730   -26.2760 
  106.3750     2.1090    68.4920    10.3880     7.8940    10.3000    23.5560   -26.1170 
  106.5000     2.1530    70.7240    10.1480     7.6830     9.9270    23.3980   -25.9310 
  106.6250     2.2060    72.8000    10.2330     7.6630     9.6210    23.2520   -25.7200 
  106.7500     2.2580    71.1010    10.7530     7.9450     9.6510    23.0440   -25.5280 
  106.8750     2.3100    66.8180    11.5080     8.4370    10.5030    22.8410   -25.3840 
  107.0000     2.3510    63.7840    12.2460     8.9930    12.7510    22.7980   -25.3370 
  107.1250     2.3520    63.2110    12.6710     9.4020    15.6410    22.9430   -25.4210 
  107.2500     2.2880    64.2750    12.4900     9.4130    14.3040    23.1390   -25.6330 
  107.3750     2.2090    65.6370    11.8890     9.0940    11.2750    23.3580   -25.9150 
  107.5000     2.1570    66.9440    11.1540     8.6190    10.1590    23.6520   -26.2250 
  107.6250     2.1380    67.3710    10.5520     8.1760    10.4170    23.9250   -26.5440 
  107.7500     2.1390    64.8190    10.2630     7.9200    10.8480    24.0250   -26.8830 
  107.8750     2.1450    62.7960    10.2080     7.8430    10.9840    24.0450   -27.2160 
  108.0000     2.1540    63.9210    10.2700     7.8830    10.9370    24.0340   -27.4430 
  108.1250     2.1620    66.0620    10.3420     7.9570    10.8500    24.0080   -27.5020 
  108.2500     2.1650    64.1760    10.3790     8.0030    10.7340    23.9890   -27.4670 
  108.3750     2.1640    60.0620    10.3950     8.0170    10.6010    23.9990   -27.3560 
  108.5000     2.1620    58.4210    10.3730     7.9950    10.4820    24.0280   -27.2030 
  108.6250     2.1600    60.9900    10.2670     7.9160    10.4020    24.0570   -27.0510 
  108.7500     2.1580    65.2480    10.0120     7.7390    10.2610    24.0780   -26.8970 
  108.8750     2.1570    69.0510     9.6510     7.4860     9.9470    24.0830   -26.7360 
  109.0000     2.1610    72.2920     9.2680     7.2050     9.5250    24.0970   -26.6040 
  109.1250     2.1700    74.6370     8.9680     6.9620     9.0560    24.1340   -26.5620 
