~V
VERS. 2.00: Ver 2.00
~W
STRT.M 50.0000:
STOP.M 268.0000:
STEP.M 0.1250:
NULL. -999.2500:
UWI. F10199:
~C
DEPT.M :
GR.API :
RML.OHMM :
RI. :
RXO.OHMM :
CALI.CM :
DEN.GM/CC :
SP.MV :
~A
# ...
   72.5000    58.2490     7.3290     5.9740     7.4530    23.9480     2.1980   -25.7510 
   72.6250    59.6150     7.3710     6.0170     7.5240    23.9520     2.2030   -25.3680 
   72.7500    59.8040     7.3830     6.0350     7.6770    23.9420     2.2020   -24.9480 
   72.8750    58.9640     7.3670     6.0270     7.9250    23.9320     2.2000   -24.5150 
   73.0000    57.9940     7.3380     6.0040     8.1870    23.9150     2.1960   -24.0360 
   73.1250    58.2160     7.3110     5.9770     8.3090    23.8840     2.1940   -23.5290 
   73.2500    58.9530     7.2850     5.9500     8.2210    23.8650     2.1930   -23.0380 
   73.3750    59.8050     7.2440     5.9150     8.0140    23.8590     2.1930   -22.5050 
   73.5000    61.2840     7.1700     5.8610     7.7630    23.8530     2.1970   -21.9180 
   73.6250    63.8750     7.0640     5.7810     7.4710    23.8580     2.2070   -21.3360 
   73.7500    66.4180     6.9660     5.6980     7.1960    23.8770     2.2250   -20.7030 
   73.8750    69.1570     6.9160     5.6400     7.0090    23.9010     2.2490   -20.0970 
   74.0000    73.0790     6.9400     5.6310     7.0010    23.9400     2.2760   -19.5740 
   74.1250    78.3540     7.0380     5.6820     7.2580    23.9720     2.3000   -19.1220 
   74.2500    82.4820     7.1520     5.7650     7.5660    23.9570     2.3110   -18.8200 
   74.3750    82.3710     7.2380     5.8530     7.7190    23.8880     2.3050   -18.6830 
   74.5000    77.9820     7.2720     5.9290     7.7660    23.7840     2.2860   -18.6460 
   74.6250    75.5440     7.2840     6.0030     7.4510    23.6730     2.2670   -18.6840 
   74.7500    74.4770     7.3380     6.1080     7.4430    23.6030     2.2610   -18.7620 
   74.8750    71.6180     7.4760     6.2740     7.5290    23.5840     2.2700   -18.8350 
   75.0000    67.4890     7.6850     6.4950     7.6420    23.5870     2.2900   -18.8350 
   75.1250    66.9870     7.8710     6.7140     7.8180    23.6100     2.3050   -18.6450 
   75.2500    69.3580     7.9070     6.8330     8.0370    23.6620     2.3070   -18.2250 
   75.3750    70.3980     7.7070     6.7700     8.0740    23.7280     2.2980   -17.5990 
   75.5000    69.1710     7.2620     6.4940     7.6270    23.8100     2.2880   -16.7720 
   75.6250    70.9350     6.6530     6.0300     6.9190    23.9300     2.2870   -15.7500 
   75.7500    78.3640     6.0610     5.5230     6.2850    24.0530     2.2960   -14.7430 
   75.8750    89.3900     5.6030     5.0760     5.7380    24.1550     2.3100   -13.7540 
   76.0000    97.3450     5.3480     4.7620     5.3320    24.2310     2.3250   -12.8230 
   76.1250    97.1510     5.3350     4.6330     5.2830    24.2580     2.3360   -12.1200 
   76.2500    94.3170     5.4800     4.6410     5.4320    24.2550     2.3450   -11.6120 
   76.3750    92.9070     5.7010     4.7290     5.7310    24.2570     2.3490   -11.2640 
   76.5000    93.2860     5.8970     4.8280     6.0630    24.2650     2.3490   -11.1450 
   76.6250    91.6000     5.9520     4.8540     6.3990    24.2790     2.3430   -11.2500 
   76.7500    87.7850     5.8760     4.8000     6.4620    24.3240     2.3350   -11.4410 
   76.8750    85.8380     5.8100     4.7420     6.0950    24.4010     2.3280   -11.7510 
   77.0000    86.3620     6.0570     4.8640     5.8070    24.4860     2.3290   -12.1520 
   77.1250    86.6130     7.2630     5.5750     6.1810    24.5580     2.3530   -12.6340 
   77.2500    84.5180     9.7920     7.1780     7.9670    24.6050     2.4020   -13.2350 
   77.3750    78.9010    13.7860     9.9070    12.1050    24.6150     2.4740   -14.0110 
   77.5000    69.2550    18.7660    13.6070    19.6000    24.6090     2.5530   -14.9110 
   77.6250    57.6150    23.2250    17.4020    29.5390    24.5850     2.6070   -15.9480 
   77.7500    50.6710    25.4030    19.8860    38.1480    24.5230     2.6150   -17.0900 
   77.8750    51.3730    24.1500    19.8660    41.2360    24.4390     2.5700   -18.2680 
   78.0000    56.0890    19.8690    17.2180    35.1620    24.3470     2.4860   -19.4820 
   78.1250    57.8140    14.8890    13.5240    22.9780    24.2510     2.3880   -20.5900 
   78.2500    56.6750    11.2660    10.5660    13.8860    24.1790     2.3000   -21.5330 
   78.3750    56.4590     9.2330     8.6630     9.7540    24.1420     2.2350   -22.3110 
   78.5000    58.5120     8.3790     7.6300     8.4300    24.1110     2.1960   -22.9250 
   78.6250    60.0320     8.2890     7.2600     8.2480    24.1010     2.1840   -23.3520 
   78.7500    60.4290     8.4730     7.2090     8.2730    24.1440     2.1870   -23.6050 
   78.8750    59.3320     8.7160     7.3080     8.3020    24.2250     2.1960   -23.7210 
   79.0000    56.7930     8.8960     7.4350     8.3830    24.3240     2.2060   -23.7430 
   79.1250    55.8590     8.9500     7.5120     8.5230    24.4120     2.2100   -23.7030 
   79.2500    56.5000     8.9200     7.5310     8.6350    24.4460     2.2070   -23.6450 
   79.3750    56.0360     8.8530     7.5130     8.6840    24.4300     2.1960   -23.5600 
   79.5000    54.0040     8.7950     7.4850     8.7140    24.3860     2.1790   -23.4860 
   79.6250    52.8740     8.7930     7.4770     8.8220    24.2920     2.1610   -23.4210 
   79.7500    52.9890     8.8480     7.4980     9.0240    24.1530     2.1490   -23.3830 
   79.8750    53.1220     8.9430     7.5390     9.3200    23.9990     2.1490   -23.3440 
   80.0000    53.4720     9.0450     7.5850     9.5960    23.8480     2.1600   -23.2600 
   80.1250    54.9320     9.1060     7.6080     9.6700    23.7360     2.1800   -23.2190 
   80.2500    56.1510     9.0990     7.5930     9.4030    23.6900     2.1980   -23.1870 
   80.3750    55.3470     9.0100     7.5310     8.8640    23.6870     2.2090   -23.1370 
   80.5000    52.8530     8.8540     7.4270     8.4540    23.6940     2.2130   -23.0530 
   80.6250    50.6330     8.6590     7.2940     8.3400    23.7100     2.2110   -22.9280 
   80.7500    49.6450     8.4770     7.1640     8.2960    23.7200     2.2040   -22.8240 
   80.8750    49.7650     8.3520     7.0600     8.2410    23.7140     2.1960   -22.6970 
   81.0000    51.1980     8.3140     7.0050     8.2470    23.7040     2.1880   -22.5160 
   81.1250    52.3120     8.3920     7.0200     8.3160    23.6810     2.1870   -22.2950 
   81.2500    52.1550     8.5500     7.0890     8.3430    23.6390     2.1940   -22.0340 
   81.3750    53.2650     8.7460     7.1890     8.3070    23.5950     2.2080   -21.7450 
   81.5000    57.4810     8.9210     7.2840     8.2240    23.5510     2.2260   -21.4480 
   81.6250    60.8560     8.9920     7.3180     8.0890    23.5280     2.2420   -21.1620 
   81.7500    60.4950     8.9320     7.2660     7.9900    23.5330     2.2520   -20.8470 
   81.8750    58.5390     8.7420     7.1270     7.9610    23.5490     2.2530   -20.5210 
   82.0000    57.6810     8.4700     6.9320     7.9670    23.5710     2.2480   -20.2640 
   82.1250    58.6660     8.2560     6.7690     7.9100    23.6170     2.2400   -19.9920 
   82.2500    61.6960     8.2890     6.7630     7.8930    23.6600     2.2360   -19.7660 
   82.3750    64.8380     8.7610     7.0500     8.1160    23.6920     2.2410   -19.5910 
   82.5000    65.0460     9.7890     7.7380     8.9910    23.7230     2.2590   -19.3850 
   82.6250    62.0930    11.3430     8.8810    11.9600    23.7500     2.2930   -19.1710 
   82.7500    58.8190    12.9430    10.1930    17.0970    23.7560     2.3330   -18.9150 
   82.8750    54.9570    14.0620    11.3080    23.0470    23.7540     2.3630   -18.6450 
   83.0000    49.7760    14.2220    11.8210    28.0690    23.7520     2.3670   -18.3590 
   83.1250    45.9200    13.0830    11.3250    27.4650    23.7350     2.3360   -17.9600 
   83.2500    47.3660    11.2520    10.1470    19.0530    23.7130     2.2910   -17.4290 
   83.3750    53.9580     9.3830     8.7610    11.3190    23.6960     2.2540   -16.8520 
   83.5000    61.8590     7.9710     7.5840     8.0190    23.6790     2.2340   -16.2170 
   83.6250    65.1100     7.2280     6.8430     7.1780    23.6750     2.2320   -15.4710 
