~V
VERS. 2.00: Ver 2.00
~W
STRT.M 53.0000:
STOP.M 246.0000:
STEP.M 0.1250:
NULL. -999.2500:
UWI. F10192:
~C
DEPT.M :
DEN.GM/CC :
GR.API :
RML.OHMM :
RI. :
RXO.OHMM :
CALI.CM :
SP.MV :
~A
# ...
  221.7500     2.5190    66.1180    57.4660    52.7610    48.8870    24.1270   -23.3320 
  221.8750     2.5160    61.0850    54.6560    50.2820    55.8150    24.0750   -23.0130 
  222.0000     2.4580    58.2300    52.1540    48.1530    59.5620    24.0950   -22.7220 
  222.1250     2.3930    60.8650    50.4830    46.6850    52.1880    24.1510   -22.4910 
  222.2500     2.3870    67.0500    50.4050    46.4870    45.1540    24.1960   -22.2430 
  222.3750     2.4390    71.7150    51.3780    47.2600    45.6330    24.1290   -21.9790 
  222.5000     2.5160    72.2640    52.0000    47.9360    53.3460    23.9120   -21.7380 
  222.6250     2.5710    66.9850    50.1210    46.5170    57.0730    23.6270   -21.4970 
  222.7500     2.5790    59.6300    43.5430    40.6520    46.9090    23.2460   -21.2250 
  222.8750     2.5570    57.7590    34.2530    32.1750    36.4760    23.0230   -20.9320 
  223.0000     2.5170    62.6900    25.0090    23.8020    31.4050    23.0250   -20.6340 
  223.1250     2.4680    66.9500    17.7810    17.2860    26.4350    23.2240   -20.3190 
  223.2500     2.4220    64.4480    13.4120    13.2200    17.2530    23.5840   -20.0150 
  223.3750     2.3890    60.9770    10.9390    10.7440    11.3530    23.8260   -19.7600 
  223.5000     2.3710    60.6880     9.7090     9.3630     9.1640    23.9560   -19.4960 
  223.6250     2.3650    61.3510     9.1770     8.6820     8.8100    24.0010   -19.2200 
  223.7500     2.3720    59.2940     8.9420     8.4070     8.5700    23.9890   -18.9620 
  223.8750     2.3830    55.7380     8.7070     8.2200     8.1990    23.9300   -18.7770 
  224.0000     2.3940    54.0230     8.4160     8.0070     7.6030    23.8330   -18.6750 
  224.1250     2.4020    55.7300     8.1060     7.7560     7.1370    23.7270   -18.6460 
  224.2500     2.4100    59.6470     7.8520     7.5150     7.0570    23.6060   -18.6680 
  224.3750     2.4180    61.0180     7.6840     7.3260     7.0910    23.5220   -18.6950 
  224.5000     2.4250    58.8430     7.6120     7.2050     6.9100    23.6020   -18.7910 
  224.6250     2.4270    57.1710     7.6350     7.1540     6.9510    23.8170   -18.9510 
  224.7500     2.4270    57.9800     7.7700     7.1770     7.2080    23.9740   -19.1850 
  224.8750     2.4290    59.5490     7.9940     7.2620     7.1680    24.0020   -19.4270 
  225.0000     2.4340    61.7960     8.2870     7.4080     7.3050    23.9990   -19.6880 
  225.1250     2.4380    67.5930     8.6160     7.6050     7.7850    24.0620   -19.9890 
  225.2500     2.4410    76.2460     8.9380     7.8350     8.3820    24.1570   -20.2650 
  225.3750     2.4430    82.5730     9.2160     8.0590     8.8860    24.2110   -20.5600 
  225.5000     2.4390    84.7770     9.4250     8.2410     9.1270    24.2280   -20.8590 
  225.6250     2.4270    84.7420     9.5610     8.3560     9.2450    24.2330   -21.0940 
  225.7500     2.4140    88.1030     9.6320     8.3920     9.3380    24.2370   -21.2860 
  225.8750     2.4050    94.8030     9.6700     8.3740     9.4100    24.2380   -21.4660 
  226.0000     2.4020    99.9970     9.6930     8.3240     9.4150    24.2360   -21.5590 
  226.1250     2.4010   101.5230     9.7090     8.2610     9.2840    24.2020   -21.6120 
  226.2500     2.3970   104.0600     9.7160     8.1950     9.1700    24.0140   -21.7220 
  226.3750     2.3850   109.2370     9.7010     8.1230     9.0580    23.6090   -21.7930 
  226.5000     2.3720   114.5250     9.6560     8.0420     8.9720    23.1760   -21.8400 
  226.6250     2.3620   118.8830     9.5940     7.9590     8.9030    23.0990   -21.9420 
  226.7500     2.3600   123.3950     9.5960     7.9190     8.8990    23.4850   -22.0020 
  226.8750     2.3630   128.5840     9.7810     7.9910     8.9740    23.9830   -22.0030 
  227.0000     2.3630   131.2540    10.2630     8.2540     8.9970    24.2750   -22.0180 
  227.1250     2.3580   128.7450    11.0720     8.7480     9.3210    24.3640   -21.9360 
  227.2500     2.3520   121.1710    12.0910     9.4430    10.6410    24.3760   -21.7350 
  227.3750     2.3500   114.0160    12.9660    10.1090    12.7970    24.4110   -21.5030 
  227.5000     2.3540   109.8360    13.3680    10.4860    14.5240    24.4610   -21.1840 
  227.6250     2.3640   107.0070    13.0840    10.3640    15.0330    24.4890   -20.7700 
  227.7500     2.3780   103.8340    12.1180     9.6810    12.7200    24.4680   -20.3660 
  227.8750     2.3900   100.5560    10.9890     8.8120     9.8910    24.4400   -19.9770 
  228.0000     2.3950    99.7810    10.1160     8.0730     8.6400    24.4060   -19.5560 
  228.1250     2.3970   102.3370     9.7790     7.6790     8.5970    24.3820   -19.1650 
  228.2500     2.3980   105.6190    10.2320     7.8290     9.0500    24.3670   -18.8310 
  228.3750     2.3950   105.3240    11.3970     8.5010     9.9910    24.3660   -18.5490 
  228.5000     2.3890    99.6960    13.2190     9.7130    12.1420    24.3890   -18.3120 
  228.6250     2.3950    90.1440    13.7570    11.4270    16.0080    24.4090   -18.0660 
  228.7500     2.4220    81.4880    15.9970    13.5330    17.5010    24.3830   -17.7370 
  228.8750     2.4560    79.0750    17.9640    15.6260    19.1120    24.3350   -17.4010 
  229.0000     2.4810    81.2390    19.2470    17.2610    22.3360    24.3210   -17.0750 
  229.1250     2.4860    81.4150    19.5580    18.0350    24.2990    24.3320   -16.7850 
  229.2500     2.4750    76.0750    18.6960    17.5990    23.2610    24.3650   -16.4820 
  229.3750     2.4610    70.6090    17.0780    16.2860    19.7600    24.3770   -16.1900 
  229.5000     2.4510    71.5470    15.0610    14.4370    17.2230    24.3700   -15.9970 
  229.6250     2.4390    78.9350    13.0180    12.4450    16.4330    24.3380   -15.8940 
  229.7500     2.4130    85.5770    11.3260    10.7050    15.2820    24.3150   -15.8970 
  229.8750     2.3820    87.4330    10.0930     9.3680    12.4010    24.3100   -15.9480 
  230.0000     2.3640    87.2980     9.3360     8.4680     9.0240    24.3170   -16.0090 
  230.1250     2.3690    88.6530     9.0430     7.9900     7.6980    24.3320   -16.0830 
  230.2500     2.3950    92.8440     9.3390     8.0260     7.8080    24.3180   -16.2020 
  230.3750     2.4240    97.3520    10.2340     8.5700     8.4800    24.3220   -16.2780 
  230.5000     2.4420    98.0410    11.7840     9.6880     9.2820    24.3540   -16.2720 
  230.6250     2.4460    94.3090    13.9360    11.3880    10.3040    24.3820   -16.2540 
  230.7500     2.4360    89.5850    16.4160    13.5700    13.2950    24.3520   -16.2120 
  230.8750     2.4160    85.1180    18.5420    15.6920    20.1590    24.2820   -16.0890 
  231.0000     2.3870    80.3680    19.6290    17.1030    25.9670    24.2520   -15.9510 
  231.1250     2.3620    77.8680    19.2730    17.2740    24.4010    24.2490   -15.7290 
  231.2500     2.3570    79.9940    17.5590    16.0790    17.6060    24.2150   -15.3730 
  231.3750     2.3700    80.0190    15.4290    14.3210    13.6410    24.2100   -15.0050 
  231.5000     2.3940    74.9870    13.4390    12.5270    12.2780    24.2070   -14.6330 
  231.6250     2.4180    68.9270    11.8340    10.9780    11.9450    24.1140   -14.2150 
  231.7500     2.4190    66.8950    10.6880     9.8050    10.2220    23.9560   -13.8000 
  231.8750     2.3890    67.1960     9.8650     8.9310     8.6710    23.8720   -13.4370 
  232.0000     2.3480    67.8020     9.2970     8.3090     7.8530    23.8120   -13.0600 
  232.1250     2.3240    68.2860     8.9260     7.8940     8.2380    23.6920   -12.7200 
  232.2500     2.3300    69.0990     8.7230     7.6670     8.9670    23.5290   -12.4310 
  232.3750     2.3460    71.5270     8.6220     7.5640     8.8780    23.4510   -12.1580 
  232.5000     2.3600    75.0930     8.6030     7.5590     7.7560    23.5040   -11.9220 
  232.6250     2.3750    77.2040     8.6740     7.6400     7.0600    23.6700   -11.7130 
  232.7500     2.3940    74.5670     8.8630     7.8150     7.5240    23.8510   -11.4820 
  232.8750     2.4060    71.8230     9.1260     8.0490     8.3730    24.0140   -11.2950 
