~V
VERS. 2.00: Ver 2.00
~W
STRT.M 43.0000:
STOP.M 249.0000:
STEP.M 0.1250:
NULL. -999.2500:
UWI. F10197:
~C
DEPT.M :
GR.API :
RML.OHMM :
RI. :
RXO.OHMM :
CALI.CM :
SP.MV :
DEN.GM/CC :
~A
# ...
  223.0000   103.8650     6.9340     5.6730     7.4640    23.9120    -6.0180     2.4030 
  223.1250    99.3790     7.0080     5.7490     7.3120    23.9420    -5.9840     2.4100 
  223.2500    95.1230     7.0550     5.8090     7.3870    23.8990    -5.9810     2.4100 
  223.3750    92.5820     7.0720     5.8440     7.6510    23.7510    -5.9970     2.4010 
  223.5000    91.3050     7.0550     5.8470     7.4550    23.5240    -6.0000     2.3930 
  223.6250    91.5480     6.9900     5.8050     7.0930    23.3910    -5.9840     2.3950 
  223.7500    93.2430     6.8840     5.7250     6.7580    23.2970    -5.9720     2.4030 
  223.8750    94.1360     6.7510     5.6130     6.5440    23.3010    -5.9420     2.4080 
  224.0000    93.7740     6.6220     5.4880     6.3880    23.3030    -5.8470     2.4050 
  224.1250    92.1570     6.5350     5.3770     6.4030    23.3440    -5.7210     2.4000 
  224.2500    90.8290     6.4970     5.2990     6.4370    23.4770    -5.5720     2.3950 
  224.3750    88.1850     6.4970     5.2560     6.4550    23.6600    -5.4430     2.3860 
  224.5000    86.7110     6.5070     5.2300     6.4390    23.6700    -5.3590     2.3730 
  224.6250    89.1590     6.4810     5.1910     6.3350    23.5110    -5.3130     2.3660 
  224.7500    91.4240     6.3980     5.1180     6.2700    23.4230    -5.3010     2.3670 
  224.8750    91.3220     6.2690     5.0130     6.1860    23.5830    -5.2980     2.3690 
  225.0000    88.8050     6.1420     4.9080     5.9240    23.7500    -5.3470     2.3630 
  225.1250    88.8820     6.1020     4.8600     5.7760    23.7900    -5.4290     2.3450 
  225.2500    90.3230     6.1930     4.9020     5.8920    23.7600    -5.4990     2.3310 
  225.3750    89.9130     6.4230     5.0490     6.2940    23.7430    -5.5470     2.3270 
  225.5000    86.6710     6.7600     5.2890     6.7090    23.7240    -5.5910     2.3310 
  225.6250    80.1170     7.1220     5.5780     6.9930    23.6630    -5.6210     2.3370 
  225.7500    71.2560     7.4100     5.8430     6.9820    23.5730    -5.6300     2.3430 
  225.8750    63.8160     7.5700     6.0340     6.8710    23.5240    -5.6630     2.3460 
  226.0000    62.9020     7.5970     6.1270     6.8090    23.5700    -5.6760     2.3440 
  226.1250    65.5990     7.5290     6.1240     6.9190    23.6400    -5.6530     2.3390 
  226.2500    64.1480     7.4480     6.0790     7.1210    23.6810    -5.5910     2.3330 
  226.3750    59.5390     7.4060     6.0320     7.3290    23.7120    -5.5190     2.3300 
  226.5000    57.8930     7.4290     6.0170     7.4170    23.7370    -5.4320     2.3270 
  226.6250    60.6530     7.5400     6.0650     7.3150    23.6510    -5.3210     2.3230 
  226.7500    63.0580     7.7130     6.1700     7.1140    23.5370    -5.1700     2.3260 
  226.8750    63.7630     7.9270     6.3210     6.8650    23.5390    -4.9960     2.3390 
  227.0000    64.7260     8.1560     6.4970     6.7260    23.6690    -4.8340     2.3500 
  227.1250    67.9850     8.3760     6.6750     6.8330    23.7550    -4.6970     2.3480 
  227.2500    71.5800     8.5770     6.8410     7.0380    23.7130    -4.6260     2.3470 
  227.3750    72.8160     8.7560     6.9930     7.3750    23.6420    -4.5330     2.3570 
  227.5000    71.5930     8.9130     7.1330     7.9560    23.6550    -4.4490     2.3740 
  227.6250    67.8140     9.0460     7.2660     8.5200    23.8880    -4.4310     2.3820 
  227.7500    63.9590     9.1630     7.3930     8.7110    24.0160    -4.4490     2.3800 
  227.8750    62.0890     9.2740     7.5110     8.7810    24.0570    -4.4860     2.3740 
  228.0000    63.1610     9.3820     7.6150     8.8030    24.0660    -4.5170     2.3670 
  228.1250    66.4190     9.4900     7.7050     8.7960    24.0520    -4.5180     2.3640 
  228.2500    69.7860     9.5940     7.7860     8.8500    23.9680    -4.5040     2.3660 
  228.3750    72.4810     9.6870     7.8630     9.1490    23.8980    -4.5090     2.3750 
  228.5000    73.8800     9.7610     7.9370     9.2250    23.9250    -4.5100     2.3870 
  228.6250    73.0550     9.8130     8.0090     9.4340    24.0110    -4.5060     2.3960 
  228.7500    70.2370     9.8610     8.0790     9.4390    24.1000    -4.5040     2.4010 
  228.8750    67.6210     9.9140     8.1460     9.3800    24.1590    -4.5030     2.4040 
  229.0000    66.6150     9.9750     8.2110     9.2610    24.1860    -4.5290     2.4090 
  229.1250    65.9980    10.0360     8.2720     9.0750    24.1950    -4.5290     2.4130 
  229.2500    66.8980    10.0810     8.3250     9.2380    24.2170    -4.5440     2.4120 
  229.3750    69.4940    10.1020     8.3670     9.6280    24.2610    -4.5910     2.4110 
  229.5000    71.2260    10.1020     8.3960     9.7320    24.2990    -4.6140     2.4110 
  229.6250    70.8690    10.1030     8.4210     9.5240    24.2770    -4.6490     2.4100 
  229.7500    69.9540    10.1270     8.4560     9.4240    24.2630    -4.7120     2.4080 
  229.8750    70.4480    10.1800     8.5110     9.2820    24.3110    -4.7970     2.4050 
  230.0000    71.7940    10.2520     8.5840     8.9970    24.3380    -4.8770     2.4060 
  230.1250    71.6720    10.2110     8.6630     8.8680    24.3000    -4.9820     2.4100 
  230.2500    70.5090     9.9470     8.7260     8.9360    24.2040    -5.0540     2.4110 
  230.3750    69.1510     9.9850     8.7590     9.0480    24.0830    -5.0800     2.4080 
  230.5000    68.8030     9.9870     8.7600     9.3940    24.0010    -5.1090     2.4010 
  230.6250    69.3710     9.9670     8.7430     9.8420    23.9420    -5.0960     2.3960 
  230.7500    71.3650     9.9520     8.7300    10.0260    23.8870    -5.0660     2.3970 
  230.8750    75.7390     9.9590     8.7360    10.0270    23.8440    -5.0220     2.4040 
  231.0000    79.7700     9.9910     8.7640     9.9040    23.8340    -4.9440     2.4110 
  231.1250    81.0740    10.0480     8.8140     9.8180    23.8710    -4.8930     2.4080 
  231.2500    81.0990    10.1150     8.8730     9.7070    23.9310    -4.8610     2.3940 
  231.3750    80.9930    10.1810     8.9300     9.5950    23.9410    -4.8800     2.3730 
  231.5000    80.0350    10.2360     8.9790     9.4330    23.9250    -4.9740     2.3550 
  231.6250    77.3440    10.2690     9.0080     9.4000    23.8650    -5.1090     2.3500 
  231.7500    74.1500    10.2720     9.0100     9.6190    23.8130    -5.2120     2.3590 
  231.8750    73.3100    10.2360     8.9790     9.8370    23.7440    -5.2840     2.3770 
  232.0000    75.4900    10.1680     8.9200     9.8540    23.7290    -5.3950     2.3940 
  232.1250    77.2320    10.1160     8.8730     9.0910    23.7700    -5.4860     2.3960 
  232.2500    75.5820    10.1390     8.8940     9.3280    23.8850    -5.5850     2.3920 
  232.3750    72.2050    10.2890     9.0250     9.6970    23.9430    -5.6750     2.3900 
  232.5000    69.5640    10.5850     9.2850    10.1550    23.8990    -5.6760     2.3990 
  232.6250    66.8900    10.9980     9.6470    11.9070    23.8720    -5.6320     2.4170 
  232.7500    63.0580    11.3830     9.9850    14.8470    23.8280    -5.6460     2.4370 
  232.8750    60.1730    11.6030    10.1780    17.5680    23.8210    -5.6920     2.4520 
  233.0000    60.9620    11.5790    10.1570    19.2600    23.8600    -5.6880     2.4520 
  233.1250    63.8980    11.3310     9.9390    16.8690    23.8510    -5.6700     2.4300 
  233.2500    67.2770    11.0500     9.6930    13.0530    23.8000    -5.6550     2.4050 
  233.3750    71.3970    10.8900     9.5530    11.5050    23.7660    -5.5800     2.3930 
  233.5000    74.8490    10.9300     9.5870    11.6770    23.7850    -5.4750     2.3990 
  233.6250    73.2610    11.1580     9.7870    12.3820    23.7930    -5.4140     2.4080 
  233.7500    69.0380    11.4210    10.0190    13.0790    23.7630    -5.3500     2.4130 
  233.8750    66.9170    11.5990    10.1740    12.9760    23.5890    -5.2990     2.4160 
  234.0000    67.6830    11.6200    10.1930    11.4650    23.2270    -5.3040     2.4150 
  234.1250    70.0250    11.4930    10.0820    10.3180    22.7510    -5.3360     2.4110 
