~V
VERS. 2.00: Ver 2.00
~W
STRT.M 50.0000:
STOP.M 236.0000:
STEP.M 0.1250:
NULL. -999.2500:
UWI. F10180:
~C
DEPT.M :
SP.MV :
GR.API :
RML.OHMM :
RI. :
RXO.OHMM :
CALI.CM :
DEN.GM/CC :
~A
# ...
   61.2500    -5.5080    89.2540     7.2350     6.8310     9.3620    23.4360     2.2070 
   61.3750    -5.7190    86.5290     7.5690     7.0800     9.5630    23.3310     2.1840 
   61.5000    -5.8530    82.7720     7.7980     7.1270     9.3400    23.2760     2.1730 
   61.6250    -5.9570    80.3210     7.8030     6.9290     8.9040    23.2470     2.1790 
   61.7500    -6.0110    82.2100     7.5550     6.5460     7.9660    23.2620     2.1990 
   61.8750    -6.0450    86.4560     7.1250     6.1290     7.2610    23.3760     2.2230 
   62.0000    -5.9980    89.8980     6.7070     5.8330     7.0430    23.5440     2.2380 
   62.1250    -5.8850    91.2140     6.4290     5.7400     7.8380    23.7230     2.2410 
   62.2500    -5.7830    87.4810     6.3720     5.8870     8.9210    23.8030     2.2320 
   62.3750    -5.5910    78.3530     6.6080     6.3000     9.5950    23.7950     2.2180 
   62.5000    -5.4640    71.7960     7.0690     6.8560    10.5620    23.7750     2.2060 
   62.6250    -5.3770    70.8550     7.6610     7.4110    12.6380    23.7680     2.2000 
   62.7500    -5.3800    71.7500     8.2250     7.7850    15.4720    23.7600     2.2000 
   62.8750    -5.4150    74.8100     8.5160     7.7810    15.0630    23.7350     2.2060 
   63.0000    -5.4500    82.0620     8.4490     7.4460    11.3290    23.7470     2.2120 
   63.1250    -5.5410    90.2540     8.0520     6.8930     8.4200    23.8090     2.2160 
   63.2500    -5.6280    95.4090     7.4500     6.2690     7.5630    23.9130     2.2160 
   63.3750    -5.8030    93.5160     6.8050     5.7090     7.4350    24.0240     2.2120 
   63.5000    -5.9980    87.6310     6.2430     5.2790     7.1550    24.1670     2.2050 
   63.6250    -6.2120    82.5140     5.8210     5.0170     6.6850    24.3070     2.1980 
   63.7500    -6.4810    82.6540     5.5810     4.9720     6.6050    24.2640     2.1990 
   63.8750    -6.7950    84.9590     5.6250     5.2610     7.6800    23.9630     2.2240 
   64.0000    -7.1220    83.3960     5.9790     5.9010    10.0740    23.8010     2.2760 
   64.1250    -7.4550    78.3070     6.6980     6.8970    14.3150    23.8300     2.3490 
   64.2500    -7.7700    74.2460     7.8920     8.1320    21.8900    23.9470     2.4200 
   64.3750    -8.0550    73.8830     9.5050     9.2680    29.2270    24.0980     2.4530 
   64.5000    -8.3410    75.2230    10.9240     9.9370    33.1720    24.2300     2.4380 
   64.6250    -8.5910    76.5560    11.6270     9.9660    28.6390    24.1740     2.3830 
   64.7500    -8.7370    76.1310    11.5030     9.4400    17.6720    23.9520     2.3100 
   64.8750    -8.7540    76.8490    10.7880     8.6140    12.6810    23.8090     2.2460 
   65.0000    -8.7200    79.6710     9.8570     7.7980    10.6570    23.7870     2.2040 
   65.1250    -8.5960    82.0850     8.8430     7.0850    10.1560    23.8190     2.1820 
   65.2500    -8.4150    83.1420     7.8570     6.4760     9.9690    23.8640     2.1750 
   65.3750    -8.1440    84.1150     7.0250     5.9490     9.1890    23.9360     2.1850 
   65.5000    -7.7570    88.5440     6.3960     5.4840     7.6860    24.0380     2.2080 
   65.6250    -7.3440    96.2120     6.0000     5.1050     6.3940    24.1330     2.2420 
   65.7500    -6.8770   102.6210     5.8430     4.8460     5.9730    24.1640     2.2750 
   65.8750    -6.4810   104.6050     5.9460     4.7580     6.1530    24.2320     2.2910 
   66.0000    -6.1690   103.3180     6.2250     4.8110     6.1300    24.3910     2.2880 
   66.1250    -6.0130    99.9950     6.6000     4.9720     5.9640    24.4680     2.2700 
   66.2500    -6.0380    94.0650     6.9760     5.1910     6.1100    24.1490     2.2480 
   66.3750    -6.1470    87.8760     7.2320     5.4000     6.9780    23.5030     2.2300 
   66.5000    -6.3500    85.4570     7.3180     5.5500     7.5300    23.1290     2.2170 
   66.6250    -6.6040    83.7580     7.2350     5.6260     7.2320    23.0960     2.2090 
   66.7500    -6.8500    79.6850     7.0570     5.6680     6.7420    23.1320     2.2030 
   66.8750    -7.0570    77.9480     6.9580     5.7930     7.2290    23.1780     2.2030 
   67.0000    -7.2130    80.4340     7.1090     6.1110     7.9200    23.3080     2.2130 
   67.1250    -7.1880    82.7860     7.6340     6.6760     8.4530    23.5010     2.2410 
   67.2500    -6.9580    80.8420     8.5720     7.4190     9.9870    23.7380     2.2900 
   67.3750    -6.6490    79.2950     9.7120     8.0520    16.1250    24.0780     2.3470 
   67.5000    -6.2730    83.1340    10.4450     8.2420    20.4080    24.3670     2.3900 
   67.6250    -5.8060    91.0910    10.3020     7.8500    13.7550    24.5220     2.4040 
   67.7500    -5.3800    99.1330     9.2840     7.0120     7.1450    24.7320     2.3900 
   67.8750    -4.9960   105.6450     7.9050     6.0740     5.3010    24.9470     2.3680 
   68.0000    -4.5980   108.9150     6.7730     5.3410     4.9310    25.0870     2.3570 
   68.1250    -4.2810   108.3810     6.0250     4.8880     4.9660    25.1170     2.3650 
   68.2500    -4.0980   106.6900     5.5730     4.6550     4.9750    25.1070     2.3840 
   68.3750    -3.9850   106.6410     5.3070     4.5280     4.9770    25.0620     2.4000 
   68.5000    -3.9360   106.0510     5.1350     4.4190     5.0350    25.0510     2.4030 
   68.6250    -3.9890   103.6340     5.0860     4.3740     5.0370    25.0270     2.3920 
   68.7500    -4.0440   102.5860     5.2430     4.5270     4.9720    24.9090     2.3780 
   68.8750    -4.1230   103.1500     5.7800     5.1360     5.4040    24.8000     2.3840 
   69.0000    -4.2620    99.3640     6.7940     6.3110     8.2360    24.7430     2.4190 
   69.1250    -4.4620    88.8900     8.4600     8.0830    17.1260    24.7540     2.4750 
   69.2500    -4.7350    74.6200    10.8130    10.1990    31.2790    24.8030     2.5290 
   69.3750    -5.0880    63.4850    13.2960    11.9070    27.0110    24.7760     2.5530 
   69.5000    -5.5180    59.4750    14.8370    12.5940    16.2680    24.6770     2.5380 
   69.6250    -5.9620    62.0130    14.8880    12.1710    12.5710    24.5510     2.4870 
   69.7500    -6.4210    67.2220    13.7460    11.0690    11.6340    24.5420     2.4110 
   69.8750    -6.8920    68.4560    12.2730     9.9360    10.2450    24.8090     2.3270 
   70.0000    -7.3540    64.5640    11.1630     9.1520     9.6920    25.1230     2.2530 
   70.1250    -7.7200    61.4760    10.5420     8.7520     9.7230    25.3000     2.2020 
   70.2500    -7.9850    62.9770    10.3250     8.6470     9.9450    25.3050     2.1770 
   70.3750    -8.2130    66.9770    10.3700     8.7420    10.0380    25.2230     2.1720 
   70.5000    -8.3410    68.4400    10.4860     8.9250     9.9740    25.1160     2.1720 
   70.6250    -8.3980    67.0740    10.6330     9.1580    10.0250    24.9640     2.1720 
   70.7500    -8.4550    65.3810    10.8510     9.4160    10.3140    24.7660     2.1690 
   70.8750    -8.4530    65.6650    11.2070     9.6630    10.7160    24.6410     2.1650 
   71.0000    -8.3640    67.2260    11.6130     9.8490    11.1750    24.5220     2.1580 
   71.1250    -8.2750    67.0950    11.8910     9.9280    11.4950    24.2840     2.1510 
   71.2500    -8.1860    63.6480    11.8690     9.8700    11.1190    23.9550     2.1450 
   71.3750    -8.0070    60.7930    11.4670     9.6680    10.6760    23.7170     2.1440 
   71.5000    -7.8000    61.0590    10.8940     9.3980    10.7670    23.6730     2.1470 
   71.6250    -7.6490    63.2650    10.3210     9.1300    10.9020    23.7490     2.1530 
   71.7500    -7.4680    65.0550     9.8460     8.9260    10.5450    23.8400     2.1610 
   71.8750    -7.2830    66.0820     9.5450     8.8380    10.1660    23.8500     2.1670 
   72.0000    -7.1830    67.2720     9.4960     8.8310    10.5100    23.8050     2.1700 
   72.1250    -7.0720    67.7090     9.7310     8.8500    11.0850    23.7500     2.1680 
   72.2500    -6.9110    66.3940    10.1250     8.8370    11.1350    23.6910     2.1620 
   72.3750    -6.8320    65.2150    10.4440     8.7530    10.8410    23.6250     2.1600 
