~V
VERS. 2.00: Ver 2.00
~W
STRT.M 49.0000:
STOP.M 245.0000:
STEP.M 0.1250:
NULL. -999.2500:
UWI. F10179:
~C
DEPT.M :
DEN.GM/CC :
GR.API :
RML.OHMM :
RI. :
RXO.OHMM :
CALI.CM :
SP.MV :
~A
# ...
  229.0000     2.4090    63.4770     8.0130     6.9680     5.9220    23.4360   -16.9430 
  229.1250     2.4270    66.5610     8.1200     7.0610     6.0190    23.3740   -16.6860 
  229.2500     2.4450    69.1420     8.1510     7.0880     6.1620    23.4460   -16.3770 
  229.3750     2.4500    68.4440     8.1000     7.0430     6.1340    23.5220   -16.0850 
  229.5000     2.4470    63.4030     8.0080     6.9640     6.0990    23.5710   -15.8350 
  229.6250     2.4450    58.2410     7.9090     6.8780     6.1830    23.6030   -15.6450 
  229.7500     2.4470    57.6750     7.8310     6.8100     6.3650    23.6340   -15.5680 
  229.8750     2.4490    62.7780     7.7950     6.7780     6.4670    23.6270   -15.6630 
  230.0000     2.4520    65.6320     7.7910     6.7750     6.5030    23.5960   -15.8740 
  230.1250     2.4580    64.3510     7.8180     6.7980     6.5010    23.6150   -16.2040 
  230.2500     2.4660    64.3730     7.8730     6.8460     6.5710    23.6390   -16.6690 
  230.3750     2.4750    66.0660     7.9480     6.9120     6.8620    23.6540   -17.2050 
  230.5000     2.4810    65.5870     8.0230     6.9760     7.0310    23.6780   -17.8020 
  230.6250     2.4860    63.5200     8.0810     7.0270     6.8930    23.7090   -18.3810 
  230.7500     2.4910    62.6130     8.1140     7.0560     6.7310    23.7160   -18.9110 
  230.8750     2.4970    64.5940     8.1290     7.0680     6.6640    23.6790   -19.3850 
  231.0000     2.4980    66.9330     8.1540     7.0900     6.6630    23.6820   -19.8370 
  231.1250     2.4900    67.4740     8.2140     7.1420     6.7780    23.6690   -20.2120 
  231.2500     2.4800    66.0040     8.3120     7.2270     6.9730    23.6630   -20.4400 
  231.3750     2.4720    65.4450     8.4230     7.3240     7.1600    23.6760   -20.5980 
  231.5000     2.4670    67.4020     8.5110     7.4010     7.2810    23.6690   -20.6640 
  231.6250     2.4670    68.3030     8.5570     7.4410     7.5260    23.6450   -20.7070 
  231.7500     2.4710    67.6610     8.5660     7.4490     7.9070    23.6250   -20.7780 
  231.8750     2.4730    68.4680     8.5540     7.4390     8.4160    23.6230   -20.8060 
  232.0000     2.4680    70.9330     8.5430     7.4290     8.7770    23.6420   -20.8100 
  232.1250     2.4590    71.7260     8.5330     7.4200     8.5930    23.6400   -20.8360 
  232.2500     2.4530    69.2170     8.5160     7.4050     8.1350    23.6220   -20.8720 
  232.3750     2.4540    66.0350     8.4860     7.3790     8.0110    23.6330   -20.9140 
  232.5000     2.4610    65.1100     8.4490     7.3470     8.0410    23.6420   -20.9860 
  232.6250     2.4700    66.4850     8.4190     7.3210     7.8850    23.6440   -21.0310 
  232.7500     2.4750    67.7920     8.4100     7.3130     7.6570    23.6400   -21.0210 
  232.8750     2.4740    66.2570     8.4400     7.3390     7.5480    23.6410   -21.0230 
  233.0000     2.4700    64.1780     8.5090     7.3990     7.4400    23.6450   -21.0440 
  233.1250     2.4670    63.7280     8.6110     7.4880     7.3950    23.6540   -21.0550 
  233.2500     2.4650    65.0230     8.7330     7.5940     7.5200    23.6580   -21.0850 
  233.3750     2.4670    65.2430     8.8490     7.6950     7.5240    23.6700   -21.1190 
  233.5000     2.4700    65.0230     8.9330     7.7680     7.4780    23.6650   -21.1290 
  233.6250     2.4710    66.5690     8.9680     7.7980     7.4400    23.6470   -21.1700 
  233.7500     2.4680    68.5080     8.9480     7.7810     7.4920    23.6370   -21.2090 
  233.8750     2.4590    68.2970     8.8790     7.7210     7.5080    23.6490   -21.2420 
  234.0000     2.4460    68.1730     8.7990     7.6520     7.5270    23.6650   -21.2470 
  234.1250     2.4350    69.2340     8.7420     7.6020     7.6690    23.6620   -21.2290 
  234.2500     2.4290    69.7200     8.7330     7.5940     7.9780    23.6490   -21.2360 
  234.3750     2.4290    68.2610     8.7870     7.6410     8.1700    23.6460   -21.2780 
  234.5000     2.4310    68.2610     8.8730     7.7150     8.0910    23.6610   -21.3010 
  234.6250     2.4340    68.2610     8.9500     7.7830     7.8660    23.6970   -21.3070 
  234.7500     2.4340    68.2610     8.9860     7.8140     7.8570    23.7350   -21.2810 
  234.8750     2.4310    68.2610     8.9690     7.7990     7.7770    23.7570   -21.2870 
  235.0000     2.4280    68.2610     8.9300     7.7660     7.4370    23.7470   -21.3190 
  235.1250     2.4260    68.2610     8.9040     7.7430     7.2090    23.7350   -21.3520 
  235.2500     2.4230    68.2610     8.9070     7.7460     7.0300    23.7420   -21.3510 
  235.3750     2.4160    68.2610     8.9320     7.7670     6.9600    23.7720   -21.2800 
  235.5000     2.4040    68.2610     8.9450     7.7780     6.7350    23.7930   -21.2640 
  235.6250     2.3930    68.2610     8.9210     7.7580     6.4660    23.8120   -21.2800 
  235.7500     2.3880    68.2610     8.8440     7.6910     6.3310    23.8450   -21.3170 
  235.8750     2.3920    68.2610     8.7020     7.5670     6.1750    23.8720   -21.3240 
  236.0000     2.4000    68.2610     8.5200     7.4090     6.0350    23.8920   -21.3210 
  236.1250     2.4110    68.2610     8.3320     7.2450     5.9900    23.8820   -21.3550 
  236.2500     2.4220    68.2610     8.1810     7.1140     6.0800    23.8420   -21.3990 
  236.3750     2.4330    68.2610     8.1330     7.0730     6.1310    23.7690   -21.4760 
  236.5000     2.4440    68.2610     8.1910     7.1220     6.1620    23.6980   -21.5310 
  236.6250     2.4500    68.2610     8.3320     7.2450     6.1620    23.6540   -21.5410 
  236.7500     2.4490    68.2610     8.5150     7.4040     6.2920    23.6430   -21.5420 
  236.8750     2.4430    68.2610     8.6950     7.5610     6.7460    23.6480   -21.4900 
  237.0000     2.4380    68.2610     8.8440     7.6910     7.4840    23.6650   -21.4540 
  237.1250     2.4370    68.2610     8.9590     7.7910     7.8690    23.6970   -21.4320 
  237.2500     2.4370    68.2610     9.0420     7.8630     7.7590    23.7340   -21.5080 
  237.3750     2.4330    68.2610     9.0920     7.9060     7.8050    23.7610   -21.6270 
  237.5000     2.4230    68.2610     9.1240     7.9340     7.8150    23.7360   -21.7710 
  237.6250     2.4120    68.2610     9.1550     7.9610     7.7210    23.6800   -21.9520 
  237.7500     2.4120    68.2610     9.2030     8.0030     7.5260    23.6440   -22.1390 
  237.8750     2.4270    68.2610     9.2760     8.0660     7.3220    23.6360   -22.3610 
  238.0000     2.4430    68.2610     9.3510     8.1320     7.0710    23.6350   -22.5460 
  238.1250     2.4530    68.2610     9.4060     8.1790     6.8710    23.6280   -22.6810 
  238.2500     2.4600    68.2610     9.4260     8.1960     6.8460    23.6140   -22.7330 
  238.3750     2.4670    68.2610     9.4100     8.1830     6.8290    23.5840   -22.7480 
  238.5000     2.4700    68.2610     9.3830     8.1590     6.7400    23.5710   -22.7130 
  238.6250     2.4680    68.2610     9.3550     8.1350     6.7090    23.5630   -22.6050 
  238.7500     2.4630    68.2610     9.3290     8.1120     6.8360    23.5410   -22.4430 
  238.8750     2.4590    68.2610     9.3140     8.0990     7.0300    23.5060   -22.2710 
  239.0000     2.4570    68.2610     9.3150     8.1000     6.8360    23.4930   -22.0050 
  239.1250     2.4550    68.2610     9.3370     8.1190     6.5880    23.4960   -21.6740 
  239.2500     2.4550    68.2610     9.3720     8.1490     6.4030    23.5070   -21.2800 
  239.3750     2.4580    68.2610     9.3970     8.1710     6.4700    23.4980   -20.8440 
  239.5000     2.4640    68.2610     9.4020     8.1760     6.4790    23.4940   -20.4810 
  239.6250     2.4670    68.2610     9.3910     8.1660     6.4630    23.4930   -20.2420 
  239.7500     2.4680    68.2610     9.3810     8.1570     6.4720    23.4910   -20.1220 
  239.8750     2.4690    68.2610     9.3830     8.1590     6.3610    23.4880   -20.0420 
  240.0000     2.4720    68.2610     9.3880     8.1640     6.2380    23.4880   -20.0230 
  240.1250     2.4780    68.2610     9.3870     8.1630     6.1400    23.4880   -19.9900 
