~V
VERS. 2.00: Ver 2.00
~W
STRT.M 50.0000:
STOP.M 252.0000:
STEP.M 0.1250:
NULL. -999.2500:
UWI. F10101:
~C
DEPT.M :
DEN.GM/CC :
SP.MV :
GR.API :
RML.OHMM :
RI. :
RXO.OHMM :
CALI.CM :
~A
# ...
  230.0000     2.3590     0.8100    98.8100    15.3080    12.5750    20.5620    24.1930 
  230.1250     2.3460     0.8500    99.3080    15.3150    12.9950    18.1410    24.1740 
  230.2500     2.3390     0.8650   102.5590    14.4560    12.6550    15.2350    24.1690 
  230.3750     2.3420     0.8480   101.9900    13.4720    12.0440    13.1040    24.1640 
  230.5000     2.3530     0.9320    96.4240    13.0400    11.6770    12.3200    24.1870 
  230.6250     2.3620     1.0390    93.7720    13.5780    11.9320    11.9670    24.1770 
  230.7500     2.3650     1.1000    96.7810    14.6620    12.6230    13.5170    24.0610 
  230.8750     2.3670     1.2530   100.0110    15.6200    13.3020    16.3710    23.8570 
  231.0000     2.3750     1.4270    99.5930    15.6770    13.3490    18.4330    23.6980 
  231.1250     2.3970     1.5170    92.2630    14.2790    12.2570    15.9380    23.8570 
  231.2500     2.4290     1.6830    79.9130    12.1560    10.5570    11.0320    24.0360 
  231.3750     2.4600     1.8220    67.1450    10.0900     8.8490     7.8780    24.1240 
  231.5000     2.4780     1.8720    58.9990     8.5750     7.5200     6.6840    24.1510 
  231.6250     2.4770     1.9850    57.2510     7.8140     6.7610     6.4260    24.1450 
  231.7500     2.4660     2.0740    59.1020     7.5520     6.4190     6.3020    24.1480 
  231.8750     2.4530     2.0290    62.3700     7.6030     6.3750     6.3440    24.1420 
  232.0000     2.4450     1.9940    64.2030     7.8000     6.5050     6.3490    24.1450 
  232.1250     2.4470     2.0130    62.1920     8.0370     6.7110     6.3280    24.1530 
  232.2500     2.4590     1.9330    57.9360     8.2650     6.9230     6.1300    24.1450 
  232.3750     2.4800     1.8910    54.8710     8.4630     7.1110     6.0240    24.1300 
  232.5000     2.5000     1.9030    56.0660     8.5940     7.2430     6.1470    24.1210 
  232.6250     2.5010     1.8190    58.7370     8.6230     7.2870     6.5170    24.1230 
  232.7500     2.4810     1.7380    58.9680     8.5910     7.2640     6.7440    24.1320 
  232.8750     2.4550     1.7620    59.4700     8.5490     7.2000     6.8660    24.1490 
  233.0000     2.4390     1.7690    63.8790     8.5510     7.1360     6.8950    24.1600 
  233.1250     2.4340     1.7110    69.1330     8.6340     7.1130     6.9970    24.1630 
  233.2500     2.4360     1.7320    69.3700     8.7730     7.1390     7.5210    24.1750 
  233.3750     2.4450     1.6980    66.4110     8.9510     7.2120     8.2180    24.1600 
  233.5000     2.4610     1.6220    65.4430     9.1720     7.3370     8.5610    24.1720 
  233.6250     2.4780     1.6530    67.1560     9.4740     7.5420     8.7490    24.2560 
  233.7500     2.4880     1.6800    68.8750     9.8710     7.8310     8.6150    24.3400 
  233.8750     2.4890     1.6250    69.6110    10.3560     8.2010     8.3900    24.3870 
  234.0000     2.4860     1.6100    69.0290    10.8880     8.6240     8.5780    24.4080 
  234.1250     2.4840     1.5930    67.8440    11.3710     9.0250     9.9070    24.4080 
  234.2500     2.4790     1.5270    65.8040    11.7190     9.3270    11.3910    24.3620 
  234.3750     2.4730     1.5490    62.6290    11.8800     9.4830    11.9610    24.3160 
  234.5000     2.4690     1.5920    60.1870    11.8560     9.4940    11.7600    24.2610 
  234.6250     2.4690     1.5180    61.0550    11.6970     9.3880    11.2720    24.2180 
  234.7500     2.4640     1.4690    64.8660    11.5130     9.2510    10.7410    24.1720 
  234.8750     2.4530     1.5030    67.5960    11.3700     9.1340    10.4860    24.1400 
  235.0000     2.4420     1.4880    66.4190    11.3030     9.0700    10.6940    24.1720 
  235.1250     2.4390     1.4590    65.0120    11.3310     9.0760    11.1580    24.2120 
  235.2500     2.4440     1.4690    67.6960    11.4180     9.1180    11.6250    24.2200 
  235.3750     2.4480     1.4480    72.4560    11.5160     9.1630    12.1440    24.2450 
  235.5000     2.4480     1.3660    73.7520    11.5660     9.1740    12.2140    24.2760 
  235.6250     2.4470     1.3530    71.2690    11.4900     9.1050    11.5540    24.2800 
  235.7500     2.4490     1.3470    72.7210    11.2820     8.9580    10.8230    24.2560 
  235.8750     2.4490     1.2410    76.5980    10.9660     8.7400    10.6990    24.2290 
  236.0000     2.4440     1.1400    76.1130    10.6010     8.4770    10.9760    24.2130 
  236.1250     2.4380     1.1230    69.5260    10.2900     8.2240    11.0700    24.2070 
  236.2500     2.4310     1.0420    65.0960    10.1090     8.0400    11.5020    24.1940 
  236.3750     2.4230     0.9660    64.3070    10.0940     7.9590    11.7030    24.1790 
  236.5000     2.4190     0.9690    62.9890    10.2310     7.9870    11.8520    24.1700 
  236.6250     2.4240     0.8960    62.8940    10.4540     8.1110    11.8080    24.1610 
  236.7500     2.4380     0.8100    67.7220    10.6360     8.2610    12.2430    24.1560 
  236.8750     2.4540     0.8390    72.3070    10.7020     8.3810    12.9530    24.1700 
  237.0000     2.4650     0.8770    70.1430    10.6410     8.4330    13.1320    24.2000 
  237.1250     2.4550     0.8290    64.7120    10.5190     8.4180    12.8970    24.2370 
  237.2500     2.4320     0.8410    63.0740    10.4490     8.3850    12.6570    24.2480 
  237.3750     2.4140     0.7980    63.6070    10.4810     8.3770    12.8330    24.2180 
  237.5000     2.4130     0.6940    63.2020    10.6010     8.4190    12.8350    24.1900 
  237.6250     2.4310     0.6970    62.2220    10.7280     8.5020    12.4330    24.1710 
  237.7500     2.4520     0.7100    61.6970    10.7580     8.5610    10.9710    24.1590 
  237.8750     2.4690     0.6030    61.0910    10.6310     8.5360     9.9580    24.1820 
  238.0000     2.4730     0.4870    62.2050    10.3500     8.3920     9.4060    24.2170 
  238.1250     2.4590     0.4500    64.7540     9.9780     8.1350     8.9100    24.2180 
  238.2500     2.4420     0.3490    64.8830     9.6210     7.8460     8.1950    24.1990 
  238.3750     2.4260     0.2950    63.1350     9.3330     7.5840     7.8290    24.1870 
  238.5000     2.4130     0.3100    62.9160     9.1270     7.3800     7.6400    24.1810 
  238.6250     2.4020     0.2380    63.7120     8.9920     7.2410     7.3160    24.1710 
  238.7500     2.3970     0.1210    63.4170     8.8910     7.1400     7.1470    24.1630 
  238.8750     2.3990     0.0760    63.2110     8.8200     7.0710     6.8010    24.1670 
  239.0000     2.4030    -0.0080    66.5030     8.7830     7.0250     6.3390    24.1560 
  239.1250     2.4060    -0.0920    71.9480     8.7690     6.9880     5.8600    24.1570 
  239.2500     2.4050    -0.1510    74.4980     8.7500     6.9380     5.7760    24.1070 
  239.3750     2.3970    -0.2240    74.6080     8.7060     6.8660     5.8880    23.9820 
  239.5000     2.3810    -0.3490    74.7060     8.6300     6.7780     5.9370    23.8010 
  239.6250     2.3630    -0.4520    74.5450     8.5550     6.7130     5.7930    23.6880 
  239.7500     2.3530    -0.4990    72.5980     8.5520     6.7150     5.6510    23.7340 
  239.8750     2.3480    -0.5870    70.9070     8.6850     6.8190     5.6300    23.9300 
  240.0000     2.3460    -0.5940    71.5060     8.9960     7.0420     6.0410    24.1210 
  240.1250     2.3490    -0.6350    72.6540     9.5050     7.4100     7.5020    24.1860 
  240.2500     2.3620    -0.6610    72.5340    10.1250     7.8810     9.3610    24.1660 
  240.3750     2.3780    -0.6820    72.2680    10.7870     8.4210    10.6390    24.1220 
  240.5000     2.3870    -0.7160    72.7680    11.4380     8.9920    10.8690    24.0480 
  240.6250     2.3900    -0.6670    74.9800    12.0240     9.5490    10.8260    23.9990 
  240.7500     2.3970    -0.6450    76.4920    12.5060    10.0390    11.1220    23.9830 
  240.8750     2.4150    -0.6290    75.6670    12.8210    10.4000    11.8120    24.0120 
  241.0000     2.4480    -0.6180    73.0460    12.9090    10.5720    12.1770    24.0280 
  241.1250     2.4910    -0.5970    71.5920    12.7130    10.4780    11.6660    24.0510 
