~V
VERS. 2.00: Ver 2.00
~W
STRT.M 52.0000:
STOP.M 322.0000:
STEP.M 0.1250:
NULL. -999.2500:
UWI. F10105:
~C
DEPT.M :
GR.API :
RML.OHMM :
RI. :
RXO.OHMM :
CALI.CM :
DEN.GM/CC :
SP.MV :
~A
   52.0000    62.9860     3.5640     0.4000     1.1830    25.4590     1.9500  -999.2500 
   52.1250    61.7690     3.5730     0.3970     1.1330    25.5820     1.9810  -999.2500 
   52.2500    58.3850     3.5980     0.3960     1.0690    25.6910     1.9970  -999.2500 
   52.3750    55.6600     3.6250     0.3980     1.0340    25.7550     1.9980  -999.2500 
   52.5000    53.9400     3.6360     0.4010     1.0270    25.7730     1.9880  -999.2500 
   52.6250    54.6390     3.6060     0.4040     1.0240    25.7700     1.9750   223.7550 
   52.7500    57.3530     3.5360     0.4050     1.0150    25.7750     1.9680   223.7550 
   52.8750    59.0140     3.4380     0.4020     1.0080    25.7780     1.9720   223.7550 
   53.0000    56.9230     3.3430     0.3950     1.0040    25.7790     1.9910   223.7550 
   53.1250    53.3690     3.2820     0.3890     1.0050    25.7790     2.0240   223.7550 
   53.2500    55.1730     3.2560     0.3840     1.0070    25.7790     2.0590   223.7550 
   53.3750    61.1840     3.2420     0.3830     1.0090    25.7740     2.0860   223.7550 
   53.5000    65.6790     3.2140     0.3820     1.0110    25.7600     2.0990   223.7550 
   53.6250    64.3110     3.1480     0.3810     1.0120    25.7310     2.1040   223.7550 
   53.7500    60.1020     3.0570     0.3770     1.0120    25.7160     2.1170   224.0880 
   53.8750    57.0190     2.9630     0.3740     1.0070    25.7140     2.1500   224.9060 
   54.0000    57.7790     2.8860     0.3720     1.0080    25.6960     2.2060   225.7400 
   54.1250    62.4680     2.8370     0.3710     1.0140    25.5870     2.2770   226.4990 
   54.2500    66.7690     2.8000     0.3700     1.0230    25.3330     2.3460   227.1080 
   54.3750    67.5900     2.7560     0.3680     1.0320    24.9970     2.4030   227.5780 
   54.5000    65.0600     2.6910     0.3650     1.0370    24.6870     2.4420   227.8660 
   54.6250    62.1800     2.5980     0.3610     1.0390    24.4990     2.4590   227.6740 
   54.7500    61.9140     2.4950     0.3540     1.0410    24.4030     2.4590   226.9450 
   54.8750    62.1160     2.3980     0.3460     1.0430    24.3630     2.4500   225.7030 
   55.0000    60.8110     2.3150     0.3370     1.0430    24.3460     2.4420   223.9030 
   55.1250    60.5650     2.2450     0.3310     1.0440    24.3210     2.4420   221.7590 
   55.2500    61.6490     2.1760     0.3280     1.0470    24.2770     2.4530   219.6460 
   55.3750    62.0700     2.1040     0.3270     1.0510    24.2190     2.4750   217.6810 
   55.5000    61.2310     2.0890     0.3300     1.0540    24.1360     2.5070   215.8950 
   55.6250    61.0750     2.0200     0.3300     1.0550    24.1180     2.5430   214.4060 
   55.7500    60.4590     1.9580     0.3350     1.0590    24.0230     2.5760   213.2870 
   55.8750    59.3830     1.9070     0.3400     1.0630    23.9360     2.6030   212.4920 
   56.0000    57.0510     1.8600     0.3430     1.0690    23.8720     2.6250   211.8940 
   56.1250    54.7460     1.8140     0.3430     1.0720    23.8100     2.6550   211.1790 
   56.2500    53.0900     1.7710     0.3400     1.0740    23.7390     2.7000   209.7800 
   56.3750    52.8970     1.7400     0.3360     1.0740    23.6770     2.7520   207.3220 
   56.5000    54.9140     1.7290     0.3350     1.0750    23.6470     2.7940   203.7940 
   56.6250    56.2560     1.7360     0.3390     1.0760    23.6410     2.7970   199.2690 
   56.7500    56.4350     1.7430     0.3450     1.0770    23.6400     2.7570   194.1930 
   56.8750    57.4820     1.7320     0.3510     1.0740    23.6380     2.6860   189.1020 
   57.0000    59.7610     1.6940     0.3520     1.0660    23.6400     2.6040   184.2710 
   57.1250    61.8500     1.6350     0.3460     1.0600    23.6410     2.5370   179.8190 
   57.2500    61.8200     1.5860     0.3370     1.0560    23.6410     2.4910   175.9490 
   57.3750    59.5340     1.5710     0.3250     1.0530    23.6410     2.4610   172.8280 
   57.5000    56.9380     1.5870     0.3110     1.0500    23.6410     2.4410   170.4380 
   57.6250    57.1170     1.5520     0.2890     1.0480    23.6410     2.4230   168.7300 
   57.7500    58.7040     1.3650     0.2560     1.0470    23.6410     2.4080   167.3090 
   57.8750    59.4690     0.9970     0.2120     1.0450    23.6410     2.4010   165.6940 
   58.0000    59.8750     0.5430     0.1640     1.0410    23.6400     2.4140   163.7060 
   58.1250    59.8840     0.1860     0.1220     1.0370    23.6380     2.4660   161.0120 
   58.2500    59.5590     0.0100     0.0940     1.0360    23.6430     2.5470   156.9990 
   58.3750    61.7620     0.0270     0.0890     1.0800    23.6660     2.6250   150.7850 
   58.5000    68.9870     0.2520     0.1240     1.3780    23.6980     2.6570   141.4770 
   58.6250    76.9900     0.8330     0.2730     2.4140    23.6440     2.5930   128.3750 
   58.7500    80.1870     1.9100     0.6360     4.2040    23.4380     2.4580   112.9350 
   58.8750    79.1110     3.6450     1.3820     5.6120    23.2260     2.2940    96.1490 
   59.0000    78.2210     5.9890     2.6910     6.0240    23.1010     2.1490    78.7220 
   59.1250    80.6510     8.4600     4.6540     6.2990    23.0330     2.0510    61.2040 
   59.2500    83.7570    10.4110     6.8180     6.8910    22.9940     1.9860    44.4220 
   59.3750    84.4630    11.6400     8.7630     7.4400    22.9800     1.9450    29.4810 
   59.5000    82.6170    12.3090    10.2420     7.5460    22.9770     1.9220    17.3850 
   59.6250    79.4260    12.5630    11.0190     7.2940    22.9830     1.9200     8.8450 
   59.7500    76.5050    12.4390    11.1070     7.1760    22.9850     1.9330     2.5770 
   59.8750    75.2810    11.8880    10.5820     7.0740    22.9850     1.9510    -2.2940 
   60.0000    74.9310    11.0200     9.6920     6.8000    22.9620     1.9690    -6.3670 
   60.1250    72.3040    10.0980     8.7660     6.2800    22.8660     1.9860    -9.6730 
   60.2500    69.0940     9.3710     8.0170     5.9230    22.7310     2.0060   -12.4360 
   60.3750    69.3840     8.9290     7.5030     5.8220    22.7240     2.0300   -14.8110 
   60.5000    73.2130     8.7610     7.2200     5.8900    22.9540     2.0530   -16.8160 
   60.6250    74.7790     8.8120     7.1470     6.0340    23.3540     2.0710   -18.3620 
   60.7500    73.0820     8.9300     7.1680     6.0910    23.6570     2.0800   -19.5900 
   60.8750    71.9440     9.0220     7.2090     6.0490    23.7360     2.0790   -20.5180 
   61.0000    74.9630     9.0430     7.2250     5.9680    23.6450     2.0720   -21.1810 
   61.1250    79.6350     8.9960     7.2110     5.9070    23.5800     2.0630   -21.7860 
   61.2500    80.8260     8.9390     7.1940     5.8760    23.5460     2.0600   -22.3060 
   61.3750    79.8650     8.9110     7.1980     5.8640    23.5390     2.0640   -22.7280 
   61.5000    80.1260     8.9260     7.2320     5.8960    23.5950     2.0740   -23.1100 
   61.6250    82.7330     8.9850     7.2950     6.1100    23.6430     2.0860   -23.5220 
   61.7500    83.8890     9.0650     7.3680     6.3430    23.5850     2.0950   -23.9790 
   61.8750    82.3290     9.1460     7.4360     6.4420    23.5390     2.1000   -24.4420 
   62.0000    79.0020     9.1990     7.4800     6.4910    23.5380     2.1030   -24.8800 
   62.1250    76.0220     9.1720     7.4650     6.6390    23.4970     2.1030   -25.2290 
   62.2500    76.1580     9.0480     7.3790     6.7010    23.4730     2.1050   -25.4930 
   62.3750    78.0000     8.8440     7.2250     6.6090    23.4350     2.1100   -25.6320 
   62.5000    78.4100     8.6140     7.0350     6.3840    23.3200     2.1160   -25.6320 
   62.6250    78.7710     8.4560     6.8720     6.1380    23.3270     2.1220   -25.3830 
   62.7500    80.9380     8.4270     6.7910     5.8760    23.3610     2.1250   -24.9750 
   62.8750    84.1350     8.5390     6.8140     5.8580    23.3770     2.1240   -24.6080 
   63.0000    86.7220     8.7460     6.9260     6.0200    23.3250     2.1240   -24.2820 
   63.1250    87.7820     8.9450     7.0700     6.1340    23.3420     2.1310   -24.0090 
