~V
VERS. 2.00: Ver 2.00
~W
STRT.M 62.0000:
STOP.M 235.0000:
STEP.M 0.1250:
NULL. -999.2500:
UWI. F10157:
~C
DEPT.M :
SP.MV :
DEN.GM/CC :
GR.API :
RML.OHMM :
RI. :
RXO.OHMM :
CALI.CM :
~A
# ...
  140.7500    -2.5420     2.5390    49.2130    19.0640    17.3350    16.0690    25.4780 
  140.8750    -2.6490     2.5460    46.1630    18.5370    16.8360    15.5590    25.5000 
  141.0000    -2.7710     2.5470    45.3750    18.2480    16.5230    16.3710    25.5330 
  141.1250    -2.8960     2.5380    48.0530    18.1500    16.3860    16.4900    25.5660 
  141.2500    -3.0150     2.5260    50.7860    18.1170    16.3280    16.2930    25.5890 
  141.3750    -3.1170     2.5160    51.4840    18.1230    16.3160    16.0170    25.5990 
  141.5000    -3.1960     2.5110    50.2030    18.2080    16.3660    16.3070    25.6000 
  141.6250    -3.2770     2.5130    49.2400    18.4670    16.5500    16.2570    25.5920 
  141.7500    -3.3430     2.5160    49.8250    18.9100    16.8810    15.8650    25.5690 
  141.8750    -3.4070     2.5190    50.7830    19.4820    17.3310    16.4150    25.5290 
  142.0000    -3.4560     2.5200    52.9360    20.0340    17.7920    18.1500    25.4750 
  142.1250    -3.4560     2.5220    56.8420    20.3010    18.0500    19.4220    25.4130 
  142.2500    -3.4120     2.5230    58.6180    20.1560    17.9770    18.9980    25.3490 
  142.3750    -3.3240     2.5220    57.5800    19.6040    17.5520    17.8140    25.2910 
  142.5000    -3.2030     2.5190    55.1070    18.8070    16.8890    16.6750    25.2440 
  142.6250    -3.0710     2.5160    53.7710    18.0660    16.2250    15.7420    25.2150 
  142.7500    -2.9520     2.5170    52.8520    17.5950    15.7550    14.8900    25.2020 
  142.8750    -2.8680     2.5230    52.4870    17.4350    15.5430    14.3470    25.2030 
  143.0000    -2.8190     2.5290    52.4640    17.5090    15.5520    14.6670    25.2130 
  143.1250    -2.8350     2.5260    51.7910    17.6800    15.6950    15.5900    25.2310 
  143.2500    -2.8650     2.5150    51.0920    17.8010    15.8420    15.8820    25.2580 
  143.3750    -2.9000     2.4970    51.3670    17.8280    15.9320    15.1540    25.2940 
  143.5000    -2.9380     2.4810    53.7470    17.7930    15.9650    14.5070    25.3330 
  143.6250    -2.9540     2.4750    56.2800    17.7830    15.9880    14.5840    25.3730 
  143.7500    -2.9760     2.4820    55.9210    17.8150    16.0270    14.8980    25.4080 
  143.8750    -2.9970     2.4940    52.0810    17.8020    16.0240    14.7800    25.4360 
  144.0000    -3.0150     2.5030    47.8690    17.5900    15.8620    14.6550    25.4530 
  144.1250    -3.0420     2.5000    48.0880    16.9990    15.3890    14.4120    25.4630 
  144.2500    -3.0540     2.4850    50.0490    16.1300    14.6760    14.0690    25.4670 
  144.3750    -3.0400     2.4690    50.6530    15.1770    13.8690    12.8970    25.4630 
  144.5000    -3.0040     2.4580    48.5310    14.3800    13.1570    11.2040    25.4530 
  144.6250    -2.9250     2.4510    46.2210    14.0050    12.7540    10.1370    25.4300 
  144.7500    -2.8360     2.4360    46.2650    14.0770    12.6970    10.2930    25.4000 
  144.8750    -2.7510     2.4100    49.3820    14.5640    12.9840    11.2100    25.3730 
  145.0000    -2.6680     2.3820    53.3440    15.3560    13.5540    12.4900    25.3550 
  145.1250    -2.6290     2.3660    54.3840    16.2720    14.2870    13.3700    25.3510 
  145.2500    -2.5890     2.3660    52.8480    17.0930    14.9880    14.1790    25.3580 
  145.3750    -2.5500     2.3780    51.6080    17.6940    15.5340    14.9860    25.3770 
  145.5000    -2.4970     2.3900    51.6670    18.0110    15.8520    15.6720    25.4050 
  145.6250    -2.4160     2.3940    51.6270    17.9820    15.8700    15.0300    25.4330 
  145.7500    -2.3320     2.3940    51.6700    17.7060    15.6570    13.8660    25.4550 
  145.8750    -2.2490     2.3960    52.1950    17.2830    15.2870    13.6920    25.4660 
  146.0000    -2.1730     2.4000    52.9120    16.8330    14.8630    14.6840    25.4670 
  146.1250    -2.1110     2.4010    53.6990    16.4830    14.4960    14.0710    25.4670 
  146.2500    -2.0650     2.3940    54.2160    16.2770    14.2440    12.9230    25.4640 
  146.3750    -2.0250     2.3850    53.3950    16.2170    14.1240    12.4500    25.4560 
  146.5000    -1.9880     2.3800    51.0510    16.2700    14.1210    12.6920    25.4410 
  146.6250    -1.9400     2.3880    49.2080    16.3830    14.1990    13.4820    25.4200 
  146.7500    -1.9030     2.4020    47.4710    16.4800    14.2920    13.7690    25.3910 
  146.8750    -1.8820     2.4150    45.3560    16.5310    14.3660    13.5780    25.3520 
  147.0000    -1.9080     2.4200    45.0540    16.5360    14.4090    13.1310    25.3050 
  147.1250    -1.9780     2.4180    47.1270    16.5070    14.4150    12.5460    25.2530 
  147.2500    -2.0950     2.4130    48.8560    16.4370    14.3780    12.4790    25.2050 
  147.3750    -2.2400     2.4100    49.5190    16.2760    14.2590    13.3980    25.1700 
  147.5000    -2.4020     2.4110    50.6990    15.9750    14.0200    13.9760    25.1470 
  147.6250    -2.5540     2.4170    51.9280    15.5230    13.6500    13.6430    25.1380 
  147.7500    -2.6870     2.4270    51.8840    15.0220    13.2280    12.6100    25.1420 
  147.8750    -2.7980     2.4380    51.3330    14.5690    12.8290    12.0610    25.1560 
  148.0000    -2.8660     2.4460    50.8750    14.2420    12.5180    12.0940    25.1740 
  148.1250    -2.9200     2.4480    49.2080    14.1170    12.3620    12.8140    25.1890 
  148.2500    -2.9480     2.4450    47.3080    14.1570    12.3450    12.2950    25.1980 
  148.3750    -2.9720     2.4420    46.2950    14.3210    12.4370    11.8450    25.2000 
  148.5000    -2.9930     2.4390    46.3100    14.5570    12.5950    11.7340    25.2000 
  148.6250    -3.0180     2.4360    46.4980    14.7940    12.7650    11.9760    25.2000 
  148.7500    -3.0370     2.4320    46.6600    14.9620    12.8900    11.9940    25.2000 
  148.8750    -3.0590     2.4280    47.1550    15.0120    12.9300    11.8910    25.2000 
  149.0000    -3.0800     2.4270    47.4130    14.9250    12.8700    11.7930    25.2000 
  149.1250    -3.1250     2.4290    46.9430    14.7310    12.7250    11.4890    25.2000 
  149.2500    -3.1720     2.4320    47.0160    14.5430    12.5760    11.3100    25.2020 
  149.3750    -3.2290     2.4310    49.0520    14.4450    12.4870    11.3900    25.2110 
  149.5000    -3.2870     2.4270    52.8710    14.4780    12.4960    11.4150    25.2300 
  149.6250    -3.3450     2.4200    55.1680    14.6570    12.6190    11.0710    25.2620 
  149.7500    -3.3910     2.4140    53.9480    14.9230    12.8130    10.7500    25.3000 
  149.8750    -3.4130     2.4090    50.7160    15.2430    13.0520    10.5910    25.3420 
  150.0000    -3.4250     2.4100    50.1070    15.5820    13.3090    10.1930    25.3830 
  150.1250    -3.4090     2.4190    53.2740    15.8900    13.5420     9.7490    25.4170 
  150.2500    -3.4030     2.4320    53.9790    16.1140    13.7090     9.7960    25.4360 
  150.3750    -3.4210     2.4420    52.1200    16.1900    13.7620     9.6400    25.4340 
  150.5000    -3.4760     2.4440    51.9460    16.0630    13.6550     9.2310    25.4120 
  150.6250    -3.5540     2.4370    53.0980    15.6940    13.3460     9.2160    25.3750 
  150.7500    -3.6630     2.4280    51.5440    15.2090    12.9270     9.8200    25.3330 
  150.8750    -3.7910     2.4260    49.1940    14.7710    12.5190    10.2150    25.2920 
  151.0000    -3.9490     2.4350    50.5350    14.5710    12.2670     9.9260    25.2540 
  151.1250    -4.1200     2.4570    53.7230    14.8530    12.3590     9.6650    25.2270 
  151.2500    -4.3200     2.4800    55.1820    15.6360    12.8260    10.2360    25.2180 
  151.3750    -4.5350     2.4970    54.5390    16.8620    13.6550    11.9590    25.2240 
  151.5000    -4.7740     2.5040    53.3470    18.3310    14.7320    13.9190    25.2410 
  151.6250    -5.0220     2.5030    53.1850    19.6370    15.7910    14.9540    25.2620 
  151.7500    -5.2480     2.5010    53.4690    20.4250    16.5290    15.3680    25.2860 
  151.8750    -5.4280     2.5010    53.8390    20.5760    16.7990    14.9990    25.3130 
