~V
VERS. 2.00: Ver 2.00
~W
STRT.M 55.0000:
STOP.M 247.0000:
STEP.M 0.1250:
NULL. -999.2500:
UWI. F10183:
~C
DEPT.M :
SP.MV :
GR.API :
RML.OHMM :
RI. :
RXO.OHMM :
CALI.CM :
DEN.GM/CC :
~A
# ...
  111.2500   -12.2100    63.0790     8.1540     7.1690     8.6560    23.6130     2.1460 
  111.3750   -12.3570    67.9390     8.2410     7.2110     8.7990    23.5540     2.1480 
  111.5000   -12.4820    70.4140     8.3410     7.2720     8.9620    23.5000     2.1480 
  111.6250   -12.6140    67.3650     8.4200     7.3300     9.0980    23.4320     2.1470 
  111.7500   -12.7560    63.2070     8.4570     7.3630     9.1770    23.3460     2.1460 
  111.8750   -12.8940    60.3280     8.4410     7.3580     9.2090    23.2750     2.1480 
  112.0000   -13.0070    59.8890     8.3740     7.3100     9.1950    23.2230     2.1520 
  112.1250   -13.1190    62.0110     8.2670     7.2230     9.1420    23.1820     2.1570 
  112.2500   -13.2540    63.3970     8.1550     7.1180     9.0300    23.1830     2.1620 
  112.3750   -13.3650    62.2970     8.0640     7.0160     8.8850    23.2210     2.1660 
  112.5000   -13.4340    60.6880     8.0080     6.9310     8.7960    23.2550     2.1690 
  112.6250   -13.4080    63.2030     7.9910     6.8740     8.8260    23.2920     2.1700 
  112.7500   -13.2930    66.6180     7.9890     6.8340     8.9230    23.3420     2.1690 
  112.8750   -13.1470    66.6080     7.9780     6.7970     9.0260    23.3680     2.1650 
  113.0000   -12.9940    62.4680     7.9380     6.7530     9.0620    23.3680     2.1590 
  113.1250   -12.7850    59.0840     7.8600     6.6960     8.9510    23.3600     2.1520 
  113.2500   -12.4790    59.8980     7.7730     6.6410     8.7660    23.3190     2.1460 
  113.3750   -12.1030    62.5110     7.7170     6.6120     8.6160    23.2490     2.1420 
  113.5000   -11.7070    64.1200     7.7330     6.6400     8.5740    23.1920     2.1430 
  113.6250   -11.3570    64.1820     7.8520     6.7540     8.7170    23.1440     2.1510 
  113.7500   -11.0630    64.5960     8.0240     6.9230     9.0780    23.0940     2.1670 
  113.8750   -10.8090    63.8060     8.1750     7.0990     9.5870    23.0660     2.1880 
  114.0000   -10.5470    61.3100     8.2270     7.2200    10.1890    23.0590     2.2060 
  114.1250   -10.2230    59.1920     8.1140     7.2130    10.4020    23.0560     2.2140 
  114.2500    -9.8690    57.4590     7.9180     7.0870     9.9180    23.0890     2.2130 
  114.3750    -9.4470    55.9160     7.7010     6.8800     9.0370    23.1740     2.2060 
  114.5000    -8.9050    56.4380     7.5240     6.6470     8.4250    23.2730     2.2020 
  114.6250    -8.1990    60.5200     7.4630     6.4210     8.1010    23.3950     2.2080 
  114.7500    -7.3670    65.0010     7.2250     6.1920     7.8080    23.5580     2.2230 
  114.8750    -6.4160    68.3030     6.9430     5.9360     7.4750    23.7250     2.2460 
  115.0000    -5.4020    72.3820     6.5920     5.6330     7.0230    23.8790     2.2720 
  115.1250    -4.3850    80.2720     6.1980     5.2970     6.2710    24.0400     2.2970 
  115.2500    -3.4210    89.7950     5.8470     4.9850     5.4110    24.1590     2.3180 
  115.3750    -2.5530    96.8680     5.6070     4.7500     4.8350    24.1960     2.3300 
  115.5000    -1.8310    98.1410     5.5140     4.6250     4.6730    24.1960     2.3320 
  115.6250    -1.3150    93.4770     5.5810     4.6360     4.8020    24.1910     2.3220 
  115.7500    -0.9520    86.5210     5.7310     4.7360     5.0160    24.1600     2.3080 
  115.8750    -0.7260    77.9930     5.9010     4.8820     5.3040    24.1270     2.2960 
  116.0000    -0.6230    70.3040     6.0360     5.0320     5.6510    24.1060     2.2910 
  116.1250    -0.6560    66.0450     6.0980     5.1540     6.0430    24.0630     2.2960 
  116.2500    -0.7630    65.7730     6.1240     5.2590     6.1560    24.0210     2.3050 
  116.3750    -0.9700    68.4800     6.1700     5.3800     5.9700    23.9900     2.3100 
  116.5000    -1.2390    71.2790     6.2940     5.5580     5.8370    23.9330     2.3060 
  116.6250    -1.5080    72.5630     6.5350     5.8280     6.0450    23.8430     2.2880 
  116.7500    -1.7820    71.9190     6.8370     6.1550     6.4530    23.7720     2.2620 
  116.8750    -2.0250    69.6580     7.1210     6.4770     6.9850    23.7270     2.2360 
  117.0000    -2.1790    65.7750     7.3000     6.7150     7.4350    23.7200     2.2170 
  117.1250    -2.1640    63.1730     7.2900     6.7710     7.4930    23.8060     2.2140 
  117.2500    -2.0600    64.1380     7.1290     6.6550     7.1800    23.9340     2.2240 
  117.3750    -1.8600    66.6370     6.8760     6.4110     6.7030    24.0550     2.2430 
  117.5000    -1.5870    68.6530     6.6030     6.1000     6.2570    24.1830     2.2640 
  117.6250    -1.3060    72.9540     6.3500     5.7760     5.8400    24.3070     2.2800 
  117.7500    -1.0470    78.9720     6.0970     5.4550     5.5350    24.3790     2.2920 
  117.8750    -0.8610    84.1040     5.8110     5.1280     5.2790    24.4130     2.3030 
  118.0000    -0.7630    87.0940     5.4890     4.7990     5.0390    24.4230     2.3150 
  118.1250    -0.8410    86.0080     5.2520     4.5420     4.8140    24.3810     2.3240 
  118.2500    -1.0530    81.0280     5.3390     4.4920     4.6690    24.3120     2.3310 
  118.3750    -1.3980    76.2650     6.0560     4.8420     5.1120    24.2360     2.3390 
  118.5000    -1.8800    75.5490     7.6940     5.8080     7.0720    24.1200     2.3570 
  118.6250    -2.4830    74.2950    10.5200     7.6900    13.0100    23.9650     2.3950 
  118.7500    -3.1830    66.3940    13.9490    10.2250    21.7920    23.8360     2.4450 
  118.8750    -3.9840    55.5020    17.1200    12.9060    31.1760    23.7250     2.4910 
  119.0000    -4.8580    47.4340    18.9610    14.9500    37.8750    23.6030     2.5060 
  119.1250    -5.7570    44.1980    18.2390    15.2050    33.1130    23.5030     2.4660 
  119.2500    -6.6280    44.2630    15.6580    13.8060    21.0520    23.4310     2.3940 
  119.3750    -7.4080    45.7160    12.5830    11.6770    13.3500    23.3860     2.3160 
  119.5000    -8.0810    47.7170    10.2240     9.8050    10.4450    23.3960     2.2560 
  119.6250    -8.6410    49.6550     9.0970     8.6910     9.7020    23.4550     2.2260 
  119.7500    -9.1190    52.1100     8.7270     8.1330     9.4030    23.4970     2.2150 
  119.8750    -9.4770    51.9580     8.7610     7.9420     9.2620    23.5270     2.2130 
  120.0000    -9.7170    48.1920     8.9320     7.9440     9.1370    23.5630     2.2090 
  120.1250    -9.8880    45.0920     9.0620     8.0060     9.0000    23.5660     2.2000 
  120.2500    -9.9940    46.8690     9.1060     8.0450     8.8720    23.5460     2.1880 
  120.3750   -10.0690    51.8540     9.0860     8.0480     8.7860    23.5430     2.1780 
  120.5000   -10.0950    54.7820     9.0370     8.0240     8.7250    23.5410     2.1730 
  120.6250   -10.0940    54.1950     8.9940     7.9890     8.6830    23.5260     2.1740 
  120.7500   -10.0680    53.3800     8.9670     7.9550     8.7020    23.5300     2.1790 
  120.8750    -9.9820    52.4020     8.9540     7.9190     8.7790    23.5320     2.1840 
  121.0000    -9.8630    52.4450     8.9420     7.8780     8.8700    23.5030     2.1900 
  121.1250    -9.6830    56.1130     8.9240     7.8250     8.9030    23.4790     2.1970 
  121.2500    -9.4940    61.0980     8.9060     7.7680     8.8810    23.4650     2.2040 
  121.3750    -9.3190    62.7340     8.8990     7.7180     8.7930    23.4340     2.2090 
  121.5000    -9.1740    60.4620     8.9160     7.6880     8.6670    23.4060     2.2130 
  121.6250    -9.0560    59.3080     8.9660     7.6930     8.6190    23.3930     2.2150 
  121.7500    -8.9450    59.8600     9.0350     7.7220     8.6370    23.3620     2.2190 
  121.8750    -8.9020    60.2150     9.1080     7.7650     8.7210    23.3430     2.2230 
  122.0000    -8.8990    60.8560     9.1740     7.8090     8.8710    23.3690     2.2270 
  122.1250    -8.9660    58.3040     9.2300     7.8450     8.9230    23.3990     2.2280 
  122.2500    -9.0910    54.3220     9.2850     7.8780     8.9720    23.4280     2.2260 
  122.3750    -9.2300    53.7020     9.3510     7.9160     9.1320    23.4870     2.2210 
