~V
VERS. 2.00: Ver 2.00
~W
STRT.M 55.0000:
STOP.M 248.0000:
STEP.M 0.1250:
NULL. -999.2500:
UWI. F10184:
~C
DEPT.M :
SP.MV :
GR.API :
RML.OHMM :
RI. :
RXO.OHMM :
CALI.CM :
DEN.GM/CC :
~A
# ...
   88.7500    -4.8200    69.3740     9.4860     7.4360     6.9040    22.8810     2.1530 
   88.8750    -5.1560    67.1600     9.3910     7.3170     6.9400    22.9600     2.1460 
   89.0000    -5.3110    66.7320     9.2420     7.2030     6.9900    23.0850     2.1440 
   89.1250    -5.4170    68.0950     9.1370     7.1140     6.9970    23.1860     2.1550 
   89.2500    -5.4850    70.3230     9.3630     7.2070     7.1190    23.2430     2.1750 
   89.3750    -5.4120    72.1010    10.2000     7.6690     7.4690    23.2570     2.2030 
   89.5000    -5.3540    72.3660    11.8230     8.6440     8.1280    23.2800     2.2390 
   89.6250    -5.3730    69.1800    14.3430    10.2900    10.3880    23.4390     2.2810 
   89.7500    -5.3420    64.6570    17.2310    12.3600    16.0950    23.7240     2.3280 
   89.8750    -5.4170    61.0390    19.6450    14.3630    22.1040    23.8770     2.3710 
   90.0000    -5.5560    59.3800    20.5310    15.5120    16.5830    23.6810     2.3840 
   90.1250    -5.6120    59.8550    19.0860    14.9910     9.9730    23.2400     2.3330 
   90.2500    -5.7210    60.7550    16.4140    13.3670     7.7860    22.9430     2.2500 
   90.3750    -5.9530    61.3340    13.6450    11.4090     7.4150    22.7930     2.1870 
   90.5000    -6.1420    60.7600    11.5700     9.7360     7.5480    22.7180     2.1640 
   90.6250    -6.2440    60.5690    10.5790     8.7220     7.6710    22.7320     2.1770 
   90.7500    -6.4140    61.3830    10.3050     8.2260     8.2360    22.7880     2.2000 
   90.8750    -6.5280    61.9850    10.4410     8.0950    10.1670    22.8330     2.2290 
   91.0000    -6.6000    61.1500    10.6960     8.1580    13.9800    22.7950     2.2620 
   91.1250    -6.7920    59.6320    10.7780     8.2260    14.2180    22.6350     2.2850 
   91.2500    -6.9630    58.6100    10.5920     8.1710    10.1500    22.4840     2.2750 
   91.3750    -7.0240    58.4980    10.2250     7.9890     8.0940    22.4260     2.2320 
   91.5000    -7.1190    59.1950     9.8480     7.7590     7.5510    22.4470     2.1830 
   91.6250    -7.2880    59.5670     9.6180     7.5810     7.5530    22.5350     2.1580 
   91.7500    -7.3600    59.5060     9.5140     7.4780     7.5420    22.5910     2.1460 
   91.8750    -7.4270    59.6530     9.4610     7.4120     7.4700    22.5990     2.1380 
   92.0000    -7.5220    60.0050     9.3840     7.3270     7.3280    22.6150     2.1290 
   92.1250    -7.4530    59.8360     9.2510     7.1880     7.1840    22.6690     2.1240 
   92.2500    -7.3720    60.5440     9.1110     7.0300     7.0120    22.7020     2.1260 
   92.3750    -7.3240    61.7220     9.0070     6.8890     6.8350    22.7100     2.1330 
   92.5000    -7.1800    61.8840     8.9600     6.7990     6.7910    22.6940     2.1410 
   92.6250    -7.0480    61.1300     8.9810     6.7790     6.9580    22.6410     2.1470 
   92.7500    -6.9730    61.2670     9.0390     6.8070     7.1700    22.5340     2.1460 
   92.8750    -6.8570    62.1050     9.1040     6.8560     7.2990    22.3990     2.1330 
   93.0000    -6.7710    63.9730     9.1470     6.8900     7.2640    22.3180     2.1120 
   93.1250    -6.7720    67.7690     9.1400     6.8810     7.3400    22.3770     2.0980 
   93.2500    -6.6950    69.6180     9.0910     6.8310     7.3900    22.4630     2.1060 
   93.3750    -6.6050    66.8090     9.0270     6.7610     7.2710    22.4590     2.1290 
   93.5000    -6.6310    63.8710     8.9870     6.7020     7.1520    22.4500     2.1480 
   93.6250    -6.6150    66.0740     9.0140     6.6920     7.1580    22.4740     2.1510 
   93.7500    -6.5340    69.7070     9.1020     6.7330     7.2820    22.4260     2.1500 
   93.8750    -6.5170    70.2600     9.2240     6.8110     7.4790    22.3280     2.1530 
   94.0000    -6.4850    69.0490     9.3290     6.8880     7.6910    22.2510     2.1590 
   94.1250    -6.3940    67.7730     9.3360     6.9140     7.6780    22.2300     2.1640 
   94.2500    -6.3970    65.1570     9.2330     6.8740     7.5390    22.2340     2.1670 
   94.3750    -6.4820    63.0150     9.0420     6.7740     7.4130    22.2560     2.1690 
   94.5000    -6.5040    63.4380     8.8180     6.6420     7.2780    22.2780     2.1700 
   94.6250    -6.5310    65.3990     8.6300     6.5130     7.0430    22.3100     2.1680 
   94.7500    -6.6530    65.1290     8.5130     6.4140     6.8740    22.3550     2.1630 
   94.8750    -6.7020    64.0620     8.4730     6.3560     6.7370    22.3850     2.1540 
   95.0000    -6.7420    64.3070     8.4940     6.3390     6.7290    22.4110     2.1450 
   95.1250    -6.8840    64.9510     8.5390     6.3580     6.9050    22.4570     2.1370 
   95.2500    -6.9590    65.6740     8.5530     6.3810     7.0410    22.5220     2.1290 
   95.3750    -6.9600    66.1860     8.5010     6.3830     7.0470    22.5490     2.1240 
   95.5000    -7.0290    66.0880     8.3730     6.3480     6.9900    22.5570     2.1230 
   95.6250    -7.0690    64.8010     8.1900     6.2700     6.8670    22.5940     2.1270 
   95.7500    -7.0200    64.7050     8.0120     6.1780     6.6590    22.6540     2.1330 
   95.8750    -7.0400    66.8610     7.8770     6.0930     6.5130    22.7420     2.1390 
   96.0000    -7.0290    68.1170     7.7940     6.0240     6.5880    22.8680     2.1460 
   96.1250    -6.8950    67.2750     7.7540     5.9650     6.7670    22.9650     2.1540 
   96.2500    -6.8280    65.5740     7.7190     5.8970     6.7590    22.9880     2.1610 
   96.3750    -6.8160    65.5940     7.6570     5.8130     6.5980    22.9810     2.1640 
   96.5000    -6.7300    68.1880     7.5500     5.7180     6.4370    22.9560     2.1600 
   96.6250    -6.6310    70.0000     7.4310     5.6370     6.3290    22.8650     2.1500 
   96.7500    -6.6170    69.3630     7.3940     5.6140     6.2620    22.7020     2.1420 
   96.8750    -6.5580    68.6930     7.5230     5.6870     6.2840    22.6200     2.1420 
   97.0000    -6.4740    68.8260     7.8440     5.8750     6.3960    22.6930     2.1500 
   97.1250    -6.5200    65.8560     8.2810     6.1560     6.6130    22.9660     2.1650 
   97.2500    -6.5440    61.1470     8.6310     6.4240     6.8150    23.3350     2.1830 
   97.3750    -6.4630    61.2790     8.7360     6.5750     6.9130    23.5270     2.2050 
   97.5000    -6.4070    66.5780     8.5520     6.5430     6.8280    23.4400     2.2270 
   97.6250    -6.4220    69.3540     8.1840     6.3340     6.5300    23.3580     2.2300 
   97.7500    -6.3520    68.3170     7.8540     6.0860     6.3440    23.2610     2.2180 
   97.8750    -6.3370    68.4630     7.6760     5.9000     6.3490    23.0650     2.2050 
   98.0000    -6.3830    69.9460     7.6810     5.8320     6.4900    22.8100     2.2060 
   98.1250    -6.3020    70.2380     7.8310     5.8930     6.5960    22.7040     2.2180 
   98.2500    -6.2330    69.3480     8.0060     6.0040     6.6100    22.6980     2.2270 
   98.3750    -6.2750    70.2690     8.1320     6.1010     6.6910    22.7430     2.2240 
   98.5000    -6.2730    72.9820     8.1690     6.1450     6.8370    22.8240     2.2070 
   98.6250    -6.2040    74.8340     8.1070     6.1210     6.9440    22.8790     2.1890 
   98.7500    -6.2060    73.5120     7.9950     6.0560     6.9600    22.9580     2.1790 
   98.8750    -6.1160    69.2490     7.8720     5.9710     7.0000    23.0710     2.1760 
   99.0000    -6.0110    66.0240     7.7640     5.8840     7.0870    23.1710     2.1760 
   99.1250    -6.0290    67.8660     7.6970     5.8130     7.1880    23.1500     2.1730 
   99.2500    -6.0080    71.5050     7.6730     5.7640     7.1700    23.0790     2.1660 
   99.3750    -5.8900    73.0600     7.6870     5.7400     7.1140    23.0420     2.1570 
   99.5000    -5.7910    72.7230     7.7250     5.7410     7.1190    23.0290     2.1500 
   99.6250    -5.7820    73.7190     7.7680     5.7720     7.1250    22.9960     2.1460 
   99.7500    -5.7400    76.8070     7.7960     5.8160     6.9200    22.9440     2.1450 
   99.8750    -5.6970    79.2390     7.8060     5.8560     6.5900    22.9030     2.1450 
