~V
VERS. 2.00: Ver 2.00
~W
STRT.M 50.0000:
STOP.M 268.0000:
STEP.M 0.1250:
NULL. -999.2500:
UWI. F10199:
~C
DEPT.M :
GR.API :
RML.OHMM :
RI. :
RXO.OHMM :
CALI.CM :
DEN.GM/CC :
SP.MV :
~A
# ...
  185.0000    61.3780    87.0320    92.3570    56.5310    23.8370     2.2610   -21.0690 
  185.1250    62.6440    74.5250    78.7110    49.3780    23.7970     2.2750   -20.9370 
  185.2500    60.7490    65.8830    69.1660    46.5600    23.7290     2.2900   -20.8830 
  185.3750    60.0350    60.9520    63.4540    45.2270    23.6460     2.3030   -20.8570 
  185.5000    62.8610    59.6440    61.3930    45.3300    23.5410     2.3090   -20.8500 
  185.6250    65.0880    62.3630    63.3750    47.6370    23.4110     2.3030   -20.9000 
  185.7500    64.4710    68.0950    68.4610    49.2910    23.2770     2.2880   -20.9930 
  185.8750    63.5850    76.0850    75.9940    49.4000    23.1320     2.2680   -21.1230 
  186.0000    64.8460    85.2290    84.9240    48.5100    22.9880     2.2510   -21.2400 
  186.1250    66.2270    94.0560    93.7550    47.5390    22.8620     2.2410   -21.3580 
  186.2500    65.4940   101.5360   101.2770    46.5210    22.7580     2.2370   -21.3990 
  186.3750    64.0030   107.4180   107.1330    45.2000    22.6920     2.2380   -21.3940 
  186.5000    63.8290   112.0240   111.6180    42.6120    22.6550     2.2380   -21.3380 
  186.6250    65.6000   115.6520   115.0900    41.3230    22.6260     2.2330   -21.1730 
  186.7500    65.2270   118.2760   117.6410    42.6130    22.6050     2.2240   -20.9720 
  186.8750    60.8450   119.1190   118.5880    45.8960    22.5940     2.2150   -20.7200 
  187.0000    56.2470   117.2430   117.0220    48.7190    22.5850     2.2080   -20.5020 
  187.1250    57.4980   111.5820   111.8230    47.0750    22.5930     2.2060   -20.2770 
  187.2500    61.7200   103.2020   103.8740    43.4280    22.6190     2.2060   -20.0350 
  187.3750    63.8360    93.4360    94.3640    41.0090    22.6630     2.2070   -19.8470 
  187.5000    62.6360    83.9130    84.8480    41.3850    22.7420     2.2070   -19.6590 
  187.6250    60.8990    76.5740    77.2380    42.0660    22.8590     2.2090   -19.5390 
  187.7500    61.5160    72.2780    72.4580    41.5480    22.9860     2.2120   -19.4120 
  187.8750    64.3830    71.6760    71.1740    40.2890    23.1300     2.2150   -19.2530 
  188.0000    66.4050    75.1440    73.8020    39.9170    23.2860     2.2170   -19.0730 
  188.1250    63.6320    83.3170    81.0730    42.5760    23.4400     2.2160   -18.9160 
  188.2500    58.0330    94.5730    91.5390    49.3950    23.5940     2.2120   -18.7130 
  188.3750    53.9660   106.8220   103.2850    61.6900    23.7400     2.2040   -18.4550 
  188.5000    53.5140   116.8840   113.2880    77.9150    23.8530     2.1990   -18.1580 
  188.6250    52.5500   119.8640   116.8300    90.7210    23.9160     2.2090   -17.8240 
  188.7500    49.5180   114.6410   112.6100   100.4660    23.9240     2.2370   -17.5230 
  188.8750    47.7540   102.7110   101.6880    98.0460    23.8840     2.2790   -17.1910 
  189.0000    49.7220    88.4000    87.7770    84.5980    23.8360     2.3210   -16.8150 
  189.1250    52.7740    76.9590    75.7920    63.5780    23.8210     2.3400   -16.4500 
  189.2500    53.6900    70.1160    67.9190    48.2430    23.8260     2.3310   -16.1650 
  189.3750    55.0550    67.6980    64.3080    45.0450    23.8470     2.3020   -15.8940 
  189.5000    58.6760    68.5350    64.0580    41.5640    23.8800     2.2700   -15.6430 
  189.6250    62.6180    70.8400    65.7470    46.4080    23.9170     2.2520   -15.4110 
  189.7500    63.7940    72.2670    67.1990    52.9330    23.9640     2.2460   -15.1640 
  189.8750    61.4410    71.3980    67.0420    58.3060    24.0050     2.2510   -14.9120 
  190.0000    56.7460    67.7770    64.6260    62.4610    24.0310     2.2620   -14.6670 
  190.1250    52.8800    62.0540    60.1690    61.8940    24.0370     2.2780   -14.3720 
  190.2500    53.1860    56.2040    55.2570    57.3050    24.0020     2.3020   -13.9860 
  190.3750    57.4450    51.2550    50.8130    52.6060    23.9420     2.3360   -13.6000 
  190.5000    63.0430    47.3260    47.0200    47.4860    23.8980     2.3790   -13.2380 
  190.6250    65.3740    43.6400    43.2160    44.4410    23.8860     2.4230   -12.8070 
  190.7500    63.4580    39.0820    38.4670    41.1900    23.8980     2.4590   -12.3500 
  190.8750    59.6490    33.1670    32.3590    37.4550    23.9190     2.4780   -11.9580 
  191.0000    58.1820    26.2670    25.3290    31.7520    23.9350     2.4700   -11.5840 
  191.1250    61.0150    19.7410    18.8410    22.4170    23.9500     2.4300   -11.3400 
  191.2500    63.6130    14.7750    13.9660    13.6650    23.9830     2.3750   -11.2610 
  191.3750    63.1270    11.7330    10.8950     8.9710    24.0230     2.3260   -11.3190 
  191.5000    61.5670    10.3960     9.3490     7.7080    24.0660     2.2950   -11.5660 
  191.6250    64.2710    10.4230     9.0600     8.2660    24.1200     2.2920   -12.0410 
  191.7500    70.6710    11.0690     9.4380     9.4270    24.1720     2.3050   -12.6430 
  191.8750    77.3500    11.9240    10.1630    10.8730    24.2270     2.3230   -13.3190 
  192.0000    81.1900    12.6880    10.9540    12.0350    24.2850     2.3360   -14.0380 
  192.1250    81.9330    13.2650    11.6270    11.6270    24.3290     2.3440   -14.6680 
  192.2500    80.7810    13.9660    12.3190    11.5090    24.3580     2.3510   -15.1370 
  192.3750    78.7000    15.2420    13.3600    12.4190    24.3690     2.3630   -15.4170 
  192.5000    75.5280    17.4460    15.0860    15.6270    24.3510     2.3890   -15.4780 
  192.6250    70.8230    20.5580    17.6040    23.3710    24.3010     2.4360   -15.2710 
  192.7500    66.2940    23.5510    20.1610    33.2520    24.2450     2.4960   -14.8770 
  192.8750    60.3190    25.2240    21.7680    42.9950    24.1790     2.5560   -14.3230 
  193.0000    53.3510    24.5190    21.3850    47.6150    24.1110     2.5940   -13.6110 
  193.1250    49.5110    20.7350    18.2940    35.0540    24.0650     2.5890   -12.8200 
  193.2500    48.2760    15.7510    14.1110    19.1740    24.0220     2.5510   -12.0760 
  193.3750    46.0550    11.1150    10.2940     9.8040    23.9790     2.4920   -11.3490 
  193.5000    42.8280     7.5200     7.5020     6.3270    23.9530     2.4250   -10.6930 
  193.6250    44.4420     5.9970     5.8500     5.6000    23.9330     2.3600   -10.1810 
  193.7500    48.0670     5.2580     4.9150     5.4790    23.9200     2.3050    -9.7930 
  193.8750    48.9440     5.0280     4.5020     5.4240    23.8990     2.2600    -9.5610 
  194.0000    47.7410     5.1190     4.4620     5.3650    23.8570     2.2230    -9.5150 
  194.1250    48.3500     5.4170     4.7030     5.3320    23.8270     2.1950    -9.5980 
  194.2500    49.6220     5.7810     5.0650     5.4610    23.8130     2.1750    -9.7900 
  194.3750    48.9080     6.1280     5.4520     5.6310    23.7970     2.1690   -10.0970 
  194.5000    47.6010     6.3920     5.7810     5.7140    23.7480     2.1790   -10.4430 
  194.6250    48.7150     6.5260     5.9820     5.7170    23.6690     2.2070   -10.9010 
  194.7500    50.0550     6.5890     6.0850     5.8250    23.6180     2.2390   -11.3920 
  194.8750    50.2960     6.6630     6.1510     6.0010    23.6380     2.2680   -11.8790 
  195.0000    49.8600     6.8410     6.2610     6.1990    23.6950     2.2880   -12.3960 
  195.1250    51.9570     7.2210     6.5030     6.4420    23.7320     2.3010   -12.9640 
  195.2500    57.6590     7.7560     6.8680     6.9830    23.7480     2.3100   -13.5250 
  195.3750    66.3250     8.3550     7.3020     7.8960    23.7630     2.3150   -14.1230 
  195.5000    74.7360     8.8890     7.7080     8.9880    23.7730     2.3160   -14.6910 
  195.6250    81.2560     9.1970     7.9530     9.8100    23.7790     2.3130   -15.1870 
  195.7500    86.0710     9.2310     7.9970     9.9670    23.7840     2.3100   -15.6860 
  195.8750    89.7400     9.0300     7.8700     9.6040    23.7970     2.3080   -16.1900 
  196.0000    91.1520     8.6800     7.6550     9.1670    23.8500     2.3110   -16.6690 
  196.1250    88.7350     8.3030     7.4450     8.8970    23.9600     2.3220   -17.1190 
