~V
VERS. 2.00: Ver 2.00
~W
STRT.M 49.0000:
STOP.M 290.0000:
STEP.M 0.1250:
NULL. -999.2500:
UWI. F10103:
~C
DEPT.M :
DEN.GM/CC :
SP.MV :
GR.API :
RML.OHMM :
RI. :
RXO.OHMM :
CALI.CM :
~A
# ...
  217.7500     2.5180   -14.1610    43.8580    41.1020    41.4510    30.6400    21.8000 
  217.8750     2.4440   -13.6380    43.4000    25.5120    25.5730    14.9610    21.7430 
  218.0000     2.3730   -13.1400    45.1960    16.4740    16.4090     7.6860    22.0630 
  218.1250     2.3190   -12.6760    48.8280    11.7240    11.5610     6.0750    22.5810 
  218.2500     2.2830   -12.2800    50.9870     9.7260     9.3770     5.8080    22.9470 
  218.3750     2.2530   -11.9530    51.1390     8.8770     8.3250     5.8930    23.2680 
  218.5000     2.2250   -11.7100    51.6360     8.5530     7.8630     5.9170    23.6530 
  218.6250     2.1990   -11.5400    53.7110     8.3690     7.6420     5.9970    23.9850 
  218.7500     2.1850   -11.4450    55.3040     8.1070     7.4320     6.1100    24.3870 
  218.8750     2.1850   -11.4140    54.1810     7.7850     7.1750     6.2750    24.7710 
  219.0000     2.1930   -11.4590    51.0610     7.5310     6.9510     6.5640    24.7920 
  219.1250     2.1930   -11.5810    49.8100     7.4770     6.8700     6.3610    24.4630 
  219.2500     2.1610   -11.7880    53.2070     7.7320     7.0360     5.8890    24.2510 
  219.3750     2.0920   -12.0420    60.1000     8.2010     7.3850     6.0980    24.3050 
  219.5000     2.0040   -12.3170    66.7540     8.7750     7.8300     6.7930    24.6300 
  219.6250     1.9340   -12.6130    68.5150     9.3500     8.2740     6.6860    25.5240 
  219.7500     1.9260   -12.9190    63.8960     9.8240     8.6550     6.5140    27.0260 
  219.8750     1.9780   -13.2310    59.4420    10.2620     9.0120     7.1590    28.3270 
  220.0000     2.0720   -13.5370    59.2520    10.6900     9.4050     8.8820    28.5640 
  220.1250     2.1730   -13.8080    61.1710    11.0280     9.8470    11.3150    27.4940 
  220.2500     2.2370   -14.0340    63.0590    11.4000    10.2450    12.7460    25.8750 
  220.3750     2.2530   -14.2210    67.2010    11.5250    10.4540    12.9030    25.0460 
  220.5000     2.2360   -14.3780    71.1790    11.4540    10.3840    12.1490    24.8940 
  220.6250     2.2090   -14.5100    72.1610    11.1600    10.0730    10.2220    25.1520 
  220.7500     2.1910   -14.6330    70.2780    10.8710     9.7110     8.8320    25.6220 
  220.8750     2.1880   -14.7400    69.0360    10.8670     9.5340     8.5210    26.0170 
  221.0000     2.2010   -14.8350    68.7560    11.2700     9.6690     9.3450    26.1320 
  221.1250     2.2280   -14.9130    68.2080    12.0530    10.1310    11.6390    25.9760 
  221.2500     2.2620   -14.9620    68.1270    13.0590    10.8590    14.7060    25.7350 
  221.3750     2.2960   -14.9880    69.4990    13.9980    11.6280    16.5940    25.5610 
  221.5000     2.3270   -14.9860    72.5960    14.6600    12.2530    16.4510    25.5390 
  221.6250     2.3530   -14.9490    75.1000    14.9270    12.5910    15.5470    25.6220 
  221.7500     2.3750   -14.8620    73.0460    14.7630    12.5460    14.4950    25.7540 
  221.8750     2.3890   -14.7470    68.9240    14.3800    12.2530    13.5950    25.7490 
  222.0000     2.3930   -14.6120    67.4370    13.9420    11.8430    12.9800    25.5430 
  222.1250     2.3860   -14.4700    70.0100    13.5780    11.4390    13.0820    25.1880 
  222.2500     2.3750   -14.3260    72.5920    13.3670    11.1370    13.1180    24.9270 
  222.3750     2.3700   -14.1720    72.5860    13.2510    10.9300    13.2010    24.8040 
  222.5000     2.3770   -14.0000    70.9550    13.1650    10.7860    13.6600    24.8100 
  222.6250     2.3920   -13.8080    69.1330    13.0730    10.6770    14.3810    24.8790 
  222.7500     2.4050   -13.6110    66.9800    13.0290    10.6290    13.8260    24.9620 
  222.8750     2.4080   -13.4060    65.7910    13.1560    10.7110    12.2260    25.0730 
  223.0000     2.4030   -13.1710    67.9330    13.5780    11.0090    12.0100    25.2200 
  223.1250     2.3940   -12.9060    72.3220    14.3090    11.5530    14.3970    25.3590 
  223.2500     2.3870   -12.5800    73.2410    15.1360    12.2340    17.2710    25.5900 
  223.3750     2.3770   -12.1890    70.1520    15.6210    12.7360    18.7710    25.7630 
  223.5000     2.3570   -11.7570    67.8940    15.3980    12.7580    19.1020    25.7740 
  223.6250     2.3220   -11.2950    69.7660    14.3060    12.1030    15.9790    25.6420 
  223.7500     2.2770   -10.7850    70.6630    12.4730    10.7750    11.1910    25.4870 
  223.8750     2.2340   -10.2340    67.6240    10.5420     9.2600     7.4100    25.6300 
  224.0000     2.2020    -9.6620    61.6430     8.9440     7.9150     5.5120    26.2300 
  224.1250     2.1770    -9.0910    55.7210     7.8780     6.9310     4.9960    26.9840 
  224.2500     2.1470    -8.5650    52.5170     7.3920     6.3930     4.9170    27.3320 
  224.3750     2.1100    -8.1180    54.3180     7.2620     6.1620     4.9950    27.4390 
  224.5000     2.0770    -7.7450    60.2250     7.3580     6.1560     5.1290    27.4070 
  224.6250     2.0690    -7.4380    65.7410     7.5780     6.2930     5.2260    27.6140 
  224.7500     2.1060    -7.2030    67.6500     7.8450     6.5040     5.3930    28.0740 
  224.8750     2.1780    -7.0280    67.5690     8.0770     6.7050     5.6340    28.4760 
  225.0000     2.2630    -6.9010    66.3160     8.2070     6.8340     5.8750    28.4060 
  225.1250     2.3340    -6.8000    64.2890     8.1740     6.8360     5.9620    27.6910 
  225.2500     2.3680    -6.7290    62.6090     7.9270     6.6570     5.8440    26.5670 
  225.3750     2.3750    -6.6830    62.0290     7.5490     6.3530     5.6140    25.5940 
  225.5000     2.3690    -6.6690    62.3920     7.1400     5.9960     5.3320    25.1670 
  225.6250     2.3600    -6.6990    63.9840     6.8130     5.6710     5.2090    25.3800 
  225.7500     2.3520    -6.7980    65.9970     6.6960     5.4840     5.2800    25.8200 
  225.8750     2.3490    -6.9550    68.4650     6.7970     5.4560     5.6050    25.6410 
  226.0000     2.3490    -7.1700    72.0780     7.0830     5.5810     6.0870    24.7430 
  226.1250     2.3530    -7.4290    76.1120     7.4830     5.8220     6.6500    23.9680 
  226.2500     2.3600    -7.7090    79.1160     7.8910     6.1190     7.2940    23.7070 
  226.3750     2.3640    -7.9990    81.2680     8.2160     6.4010     7.8530    23.6440 
  226.5000     2.3660    -8.2830    82.2570     8.4270     6.6370     7.9250    23.6160 
  226.6250     2.3630    -8.5470    79.7940     8.5470     6.8220     7.6770    23.6090 
  226.7500     2.3550    -8.7600    74.0790     8.6350     6.9760     7.6520    23.6270 
  226.8750     2.3450    -8.9260    69.7690     8.7440     7.1260     7.9790    23.6330 
  227.0000     2.3370    -9.0340    67.6220     8.8780     7.2720     8.2570    23.6420 
  227.1250     2.3300    -9.1000    65.8670     9.0120     7.4000     8.3310    23.6540 
  227.2500     2.3290    -9.1250    62.0740     9.1030     7.4800     8.2570    23.6630 
  227.3750     2.3300    -9.1080    58.9400     9.1320     7.5010     8.1990    23.6500 
  227.5000     2.3340    -9.0520    60.0940     9.0840     7.4490     8.1300    23.6220 
  227.6250     2.3370    -8.9570    65.4880     8.9370     7.3130     7.9400    23.5650 
  227.7500     2.3370    -8.8330    68.9280     8.6360     7.0580     7.6620    23.4450 
  227.8750     2.3350    -8.7050    66.9830     8.2020     6.7090     7.3730    23.3260 
  228.0000     2.3340    -8.5980    64.3320     7.7050     6.3170     7.0240    23.2710 
  228.1250     2.3360    -8.5160    64.3530     7.2860     5.9780     6.5980    23.3210 
  228.2500     2.3450    -8.4830    67.1930     7.1920     5.8600     6.3890    23.4610 
  228.3750     2.3570    -8.4950    71.1700     7.5550     6.0580     6.9700    23.6490 
  228.5000     2.3690    -8.5370    74.3600     8.4510     6.6510     8.5250    23.8490 
  228.6250     2.3750    -8.6000    75.3970     9.8470     7.6690    10.6920    23.9570 
  228.7500     2.3710    -8.6960    72.3270    11.5840     9.0870    12.5480    23.9380 
  228.8750     2.3620    -8.8110    68.1660    13.2650    10.6320    14.8090    23.8560 
