~V
VERS. 2.00: Ver 2.00
~W
STRT.M 60.0000:
STOP.M 220.0000:
STEP.M 0.1250:
NULL. -999.2500:
UWI. F10154:
~C
DEPT.M :
GR.API :
RML.OHMM :
RI. :
RXO.OHMM :
CALI.CM :
DEN.GM/CC :
SP.MV :
~A
# ...
  127.5000    77.6080    22.2560    18.3420    21.4280    25.3620     2.1560   -17.4970 
  127.6250    77.3410    22.5640    18.7490    22.0980    25.4690     2.1540   -17.6550 
  127.7500    74.4380    22.4380    18.7590    22.5720    25.5090     2.1570   -17.8010 
  127.8750    72.9990    22.0570    18.5190    22.6160    25.4910     2.1630   -17.9800 
  128.0000    73.4500    21.5790    18.1480    22.2720    25.4600     2.1670   -18.1890 
  128.1250    71.6960    21.1890    17.8020    21.1110    25.4550     2.1680   -18.3570 
  128.2500    69.1090    21.0080    17.6210    19.8540    25.4710     2.1660   -18.4600 
  128.3750    68.8270    21.0670    17.6740    19.2050    25.4570     2.1650   -18.5190 
  128.5000    70.6380    21.2910    17.9410    19.3530    25.4610     2.1660   -18.5740 
  128.6250    71.3320    21.4910    18.2930    19.8900    25.4830     2.1710   -18.6050 
  128.7500    70.6920    21.4870    18.5070    20.3190    25.4980     2.1770   -18.5680 
  128.8750    70.3060    21.2140    18.4530    20.4870    25.5020     2.1830   -18.4470 
  129.0000    71.1990    20.7340    18.1350    20.3750    25.4840     2.1860   -18.2810 
  129.1250    73.0190    20.2230    17.6980    19.4370    25.4350     2.1850   -18.0910 
  129.2500    72.6690    19.8780    17.3670    18.2010    25.4040     2.1800   -17.9020 
  129.3750    70.2520    19.7870    17.2590    17.4600    25.4110     2.1710   -17.7420 
  129.5000    68.6870    19.9330    17.3880    17.5330    25.4580     2.1620   -17.6270 
  129.6250    68.6190    20.1700    17.6450    18.0240    25.4960     2.1550   -17.5560 
  129.7500    68.0660    20.2560    17.7990    18.6230    25.5110     2.1520   -17.4940 
  129.8750    67.0690    20.0280    17.6750    18.9800    25.5120     2.1500   -17.4460 
  130.0000    68.4880    19.4620    17.2070    18.2920    25.5050     2.1470   -17.4180 
  130.1250    71.8520    18.7510    16.5340    17.2390    25.4960     2.1410   -17.4170 
  130.2500    73.4040    18.3070    16.0390    16.2030    25.4930     2.1470   -17.3760 
  130.3750    72.8350    18.4980    16.0390    15.5370    25.4890     2.1840   -17.2270 
  130.5000    70.4110    19.5680    16.7590    15.0420    25.4480     2.2620   -16.9810 
  130.6250    66.7800    21.6420    18.4170    17.2700    25.3230     2.3740   -16.6820 
  130.7500    64.8670    24.1440    20.6730    24.3290    25.0760     2.4800   -16.3380 
  130.8750    65.4920    26.3650    22.9640    34.2280    24.7880     2.5530   -15.9250 
  131.0000    66.5450    27.5460    24.4590    34.3760    24.5550     2.5790   -15.4920 
  131.1250    65.3670    27.0410    24.2850    27.5440    24.4440     2.5670   -15.0850 
  131.2500    63.2500    25.4200    22.9210    22.9660    24.3350     2.5440   -14.7470 
  131.3750    62.2090    23.3980    21.1120    20.9090    24.2570     2.5260   -14.4830 
  131.5000    62.7070    21.6350    19.5180    18.8120    24.1920     2.5190   -14.2450 
  131.6250    66.4600    20.5520    18.5200    17.4410    24.1390     2.5230   -14.0140 
  131.7500    70.6990    19.9560    17.9620    17.1340    24.1500     2.5320   -13.8460 
  131.8750    70.8090    19.5990    17.6500    18.1450    24.2760     2.5410   -13.7910 
  132.0000    64.9880    19.2610    17.4000    19.3490    24.3920     2.5440   -13.8000 
  132.1250    57.1800    18.8210    17.0720    18.2190    24.3480     2.5410   -13.8070 
  132.2500    52.1140    18.3330    16.6720    16.2360    24.2830     2.5340   -13.8200 
  132.3750    51.6850    17.9110    16.2840    15.8360    24.2710     2.5270   -13.8820 
  132.5000    54.2150    17.6610    16.0150    16.9550    24.2510     2.5240   -13.9770 
  132.6250    56.4910    17.6700    15.9860    16.6060    24.2500     2.5230   -14.0470 
  132.7500    57.9310    17.8660    16.1690    15.6790    24.2780     2.5210   -14.1170 
  132.8750    59.2480    18.1700    16.4900    15.4900    24.3420     2.5150   -14.2170 
  133.0000    60.3990    18.4860    16.8420    16.2980    24.4500     2.5040   -14.3030 
  133.1250    60.8570    18.6940    17.0870    16.9090    24.5210     2.4890   -14.3340 
  133.2500    61.8650    18.7160    17.1420    16.5780    24.5580     2.4770   -14.3100 
  133.3750    64.4410    18.4950    16.9530    16.8540    24.6490     2.4740   -14.2510 
  133.5000    68.0450    18.0280    16.5170    17.4440    24.7180     2.4820   -14.1990 
  133.6250    70.3810    17.3660    15.8930    17.3990    24.7150     2.4960   -14.1550 
  133.7500    69.4020    16.6780    15.2480    15.9860    24.6830     2.5030   -14.0810 
  133.8750    67.7500    16.0990    14.7020    14.8280    24.6280     2.4960   -13.9590 
  134.0000    68.2510    15.7390    14.3530    13.9280    24.6210     2.4740   -13.8400 
  134.1250    69.3550    15.7100    14.3250    13.6940    24.7870     2.4490   -13.7860 
  134.2500    67.6860    15.9590    14.5840    14.3930    24.8950     2.4340   -13.7290 
  134.3750    63.8000    16.4230    15.0730    15.2670    24.8290     2.4330   -13.6130 
  134.5000    60.6260    17.0110    15.6870    16.2360    24.6280     2.4440   -13.4410 
  134.6250    59.3370    17.6070    16.2830    17.2430    24.4440     2.4560   -13.2670 
  134.7500    60.2460    18.0970    16.7510    17.6500    24.4060     2.4630   -13.1110 
  134.8750    62.7570    18.3860    17.0310    16.5150    24.4280     2.4620   -12.9470 
  135.0000    65.7760    18.3840    17.0750    15.5580    24.4440     2.4570   -12.7490 
  135.1250    69.1270    17.9640    16.7500    15.1290    24.4370     2.4520   -12.5160 
  135.2500    69.9870    17.2010    16.0610    14.8580    24.4440     2.4500   -12.3150 
  135.3750    68.9890    16.2130    15.0880    14.0970    24.4920     2.4550   -12.1680 
  135.5000    68.7090    15.1970    14.0330    13.0620    24.5240     2.4680   -12.0630 
  135.6250    68.6870    14.4380    13.1870    11.6040    24.5140     2.4830   -12.0270 
  135.7500    66.4830    14.0920    12.7060    10.4800    24.4970     2.4920   -12.0630 
  135.8750    63.3630    14.2290    12.6550    10.8320    24.4810     2.4890   -12.1430 
  136.0000    62.9410    14.8030    13.0090    12.5160    24.5090     2.4750   -12.2330 
  136.1250    65.1080    15.6740    13.6850    14.1320    24.5860     2.4560   -12.3360 
  136.2500    66.9640    16.5540    14.4370    14.4570    24.6220     2.4430   -12.4680 
  136.3750    67.5460    17.2640    15.0900    14.6790    24.5030     2.4390   -12.6200 
  136.5000    67.9990    17.7270    15.5470    15.0600    24.3420     2.4410   -12.7490 
  136.6250    69.1060    17.9450    15.7890    15.4580    24.3180     2.4410   -12.8030 
  136.7500    68.5800    18.0620    15.9330    15.2030    24.4140     2.4380   -12.8010 
  136.8750    65.7200    18.1720    16.0490    15.1100    24.5100     2.4340   -12.7850 
  137.0000    62.4510    18.3430    16.1800    15.7940    24.5500     2.4350   -12.7820 
  137.1250    61.8540    18.6160    16.3570    16.5850    24.5150     2.4430   -12.7650 
  137.2500    61.7540    18.9530    16.5850    16.2980    24.4850     2.4540   -12.7130 
  137.3750    59.2460    19.2920    16.8520    16.2710    24.4970     2.4670   -12.6710 
  137.5000    56.4050    19.5520    17.1100    16.6790    24.5140     2.4790   -12.6710 
  137.6250    57.3490    19.6260    17.2610    17.4690    24.4510     2.4890   -12.7200 
  137.7500    60.5960    19.5100    17.2520    17.8020    24.3250     2.4970   -12.7620 
  137.8750    61.4230    19.2420    17.0790    18.2450    24.2260     2.5020   -12.7950 
  138.0000    58.9700    18.9040    16.7940    16.9960    24.1770     2.5050   -12.8140 
  138.1250    56.9560    18.6010    16.5030    16.0420    24.2170     2.5070   -12.8130 
  138.2500    56.3400    18.3720    16.2930    15.6560    24.3080     2.5070   -12.7880 
  138.3750    56.3210    18.1980    16.1860    15.6740    24.3980     2.5070   -12.7200 
  138.5000    57.2100    18.0430    16.1510    16.0600    24.5000     2.5070   -12.6510 
  138.6250    59.5680    17.8990    16.1360    16.2300    24.6070     2.5080   -12.5920 
