~V
VERS. 2.00: Ver 2.00
~W
STRT.M 50.0000:
STOP.M 294.0000:
STEP.M 0.1250:
NULL. -999.2500:
UWI. F10104:
~C
DEPT.M :
GR.API :
RML.OHMM :
RI. :
RXO.OHMM :
CALI.CM :
DEN.GM/CC :
SP.MV :
~A
# ...
  128.7500    95.7480     8.0410     6.2670     8.3070    26.6170     2.1720   -18.6670 
  128.8750    91.2520     8.5770     6.6500     8.9950    26.7030     2.2040   -18.8790 
  129.0000    87.5000     9.3480     7.2550    11.0830    26.5660     2.2490   -19.1560 
  129.1250    83.9560    10.2360     8.0650    15.2340    26.3710     2.3140   -19.5450 
  129.2500    82.7230    10.7980     8.7700    16.9320    26.5370     2.3670   -20.0360 
  129.3750    83.9100    10.6120     8.9940    12.4120    27.3880     2.3580   -20.6080 
  129.5000    83.6310     9.6620     8.5740     9.6650    28.3180     2.2780   -21.2150 
  129.6250    79.7200     8.5110     7.7500     9.1890    28.3480     2.1900   -21.8060 
  129.7500    76.9250     7.7720     7.0300     9.2510    27.6820     2.1400   -22.3390 
  129.8750    75.8110     7.5690     6.6230     9.2430    26.3130     2.1210   -22.7940 
  130.0000    71.7580     7.7440     6.5270     9.2150    25.5280     2.1130   -23.1390 
  130.1250    66.5990     8.0000     6.6270     9.1310    25.4900     2.1070   -23.3230 
  130.2500    67.3270     8.1310     6.7450     9.1530    25.2700     2.1020   -23.3570 
  130.3750    74.0650     8.1550     6.8270     9.2340    25.2490     2.0990   -23.2720 
  130.5000    80.2080     8.1680     6.8700     9.1560    25.4530     2.0990   -23.1110 
  130.6250    80.1810     8.2130     6.8760     9.0840    25.5470     2.1010   -22.8850 
  130.7500    79.2560     8.2500     6.8600     9.0430    25.6560     2.1040   -22.6050 
  130.8750    81.2320     8.2440     6.8340     8.9360    25.7490     2.1050   -22.2610 
  131.0000    83.3260     8.2020     6.8040     8.7170    25.4020     2.1000   -21.8550 
  131.1250    82.9600     8.1650     6.7790     8.5930    24.7510     2.0910   -21.3400 
  131.2500    83.7300     8.1590     6.7580     8.6400    24.5200     2.0820   -20.7090 
  131.3750    87.6720     8.1610     6.7320     8.8120    24.6400     2.0770   -19.9270 
  131.5000    90.9280     8.1200     6.6760     8.6060    24.7400     2.0810   -18.9830 
  131.6250    90.2640     7.9570     6.5390     8.6450    24.8740     2.0900   -17.8720 
  131.7500    90.7050     7.6530     6.3000     8.0900    24.8100     2.1040   -16.6710 
  131.8750    95.2190     7.2260     5.9670     7.0570    24.6700     2.1240   -15.4410 
  132.0000   102.3480     6.7420     5.5900     6.3050    24.8040     2.1560   -14.2420 
  132.1250   107.4950     6.3060     5.2520     5.9470    25.7660     2.1930   -13.1460 
  132.2500   109.5410     5.9850     5.0010     5.8130    26.7100     2.2210   -12.1830 
  132.3750   111.6740     5.8140     4.8460     5.6720    26.3500     2.2370   -11.4000 
  132.5000   113.9730     5.7990     4.7690     5.7000    25.7470     2.2470   -10.8080 
  132.6250   111.9880     5.9300     4.7500     5.7990    25.9420     2.2540   -10.4450 
  132.7500   108.1070     6.1200     4.7530     5.8540    26.2600     2.2580   -10.2510 
  132.8750   107.8910     6.2930     4.7700     5.7370    26.0060     2.2610   -10.1840 
  133.0000   111.5150     6.3980     4.8040     5.6940    26.0600     2.2620   -10.2120 
  133.1250   112.5140     6.4320     4.8750     5.8670    26.7980     2.2620   -10.2920 
  133.2500   107.4980     6.4680     4.9830     6.0990    27.1770     2.2600   -10.4020 
  133.3750   101.0770     6.5260     5.1150     6.3560    27.2900     2.2540   -10.5260 
  133.5000    99.0090     6.5730     5.2310     6.4740    27.7610     2.2450   -10.6660 
  133.6250   104.4890     6.5490     5.2750     6.2810    27.7940     2.2370   -10.8110 
  133.7500   109.7040     6.4880     5.2640     6.1230    27.8900     2.2340   -10.9720 
  133.8750   110.1520     6.4850     5.2550     6.2530    27.8640     2.2350   -11.1460 
  134.0000   108.3940     6.6180     5.3050     6.5640    27.9850     2.2330   -11.3270 
  134.1250   107.7120     6.8770     5.4360     6.7690    27.7420     2.2280   -11.5420 
  134.2500   105.7460     7.0900     5.5710     6.9250    27.7660     2.2300   -11.7820 
  134.3750   101.8020     7.1010     5.6200     7.0110    27.6330     2.2390   -12.0500 
  134.5000    98.1120     6.8760     5.5350     6.9220    26.9600     2.2470   -12.3480 
  134.6250    96.9640     6.5350     5.3530     6.4660    25.6260     2.2460   -12.7090 
  134.7500    97.6760     6.2900     5.2010     6.3120    25.1010     2.2400   -13.1030 
  134.8750    98.4750     6.2600     5.1610     6.3130    25.0410     2.2340   -13.5380 
  135.0000    99.2870     6.4970     5.2800     6.2870    25.0980     2.2300   -13.9980 
  135.1250    98.2120     7.0410     5.6040     6.6540    25.0720     2.2250   -14.4430 
  135.2500    94.1180     7.7460     6.0800     7.5870    24.9920     2.2110   -14.8200 
  135.3750    87.7270     8.4260     6.6180     8.4850    25.1300     2.1910   -15.0870 
  135.5000    82.1730     8.8510     7.0590     8.5470    25.8140     2.1720   -15.2020 
  135.6250    80.7680     8.7480     7.1620     8.2190    26.8250     2.1640   -15.0930 
  135.7500    83.5890     8.1930     6.9110     7.9700    27.1860     2.1650   -14.8100 
  135.8750    88.3550     7.3590     6.4050     7.5560    27.0300     2.1750   -14.3750 
  136.0000    91.6580     6.4650     5.8100     6.7620    26.8230     2.1940   -13.8370 
  136.1250    93.8750     5.7490     5.2820     6.1010    26.3510     2.2220   -13.2430 
  136.2500    97.2060     5.3110     4.8830     5.7920    26.9520     2.2470   -12.6690 
  136.3750   101.2200     5.1610     4.6310     5.7090    27.4290     2.2620   -12.1560 
  136.5000   104.6160     5.2050     4.5140     5.5200    26.8470     2.2700   -11.7460 
  136.6250   110.7740     5.2860     4.5100     5.3500    26.4340     2.2740   -11.4760 
  136.7500   118.1720     5.3050     4.5600     5.3300    26.4050     2.2780   -11.3260 
  136.8750   120.6610     5.2880     4.6420     5.3640    27.0170     2.2790   -11.2570 
  137.0000   116.5210     5.3100     4.7550     5.4790    27.2550     2.2790   -11.2410 
  137.1250   110.5980     5.4250     4.9080     5.6120    27.2830     2.2800   -11.2650 
  137.2500   107.4010     5.5930     5.0770     5.6270    26.9750     2.2860   -11.3090 
  137.3750   107.2870     5.7840     5.2370     5.5680    26.6450     2.2980   -11.3820 
  137.5000   109.3550     6.0030     5.3830     5.4770    25.9950     2.3110   -11.4630 
  137.6250   109.1610     6.3110     5.5480     5.6510    25.5810     2.3180   -11.5560 
  137.7500   104.3260     6.6950     5.7560     6.1210    25.0220     2.3140   -11.6380 
  137.8750    96.9670     7.0730     5.9730     6.6660    24.5120     2.2990   -11.7050 
  138.0000    89.5720     7.3160     6.1140     7.0480    24.4530     2.2820   -11.7520 
  138.1250    83.9490     7.2680     6.0620     7.3430    25.1020     2.2800   -11.7870 
  138.2500    82.2260     6.9990     5.8510     7.4080    25.7040     2.2940   -11.8350 
  138.3750    85.8870     6.6840     5.5980     6.9550    25.4510     2.3180   -11.9150 
  138.5000    92.0670     6.5920     5.4710     6.3180    25.2530     2.3430   -12.0590 
  138.6250    92.9260     7.1340     5.7210     6.2830    25.3520     2.3600   -12.3020 
  138.7500    88.4680     8.4760     6.4870     7.3920    26.0560     2.3730   -12.6490 
  138.8750    84.0760    10.6920     7.8940    10.3410    26.6280     2.3830   -13.1190 
  139.0000    83.4860    13.5130     9.8840    14.3260    26.4550     2.3880   -13.7210 
  139.1250    84.9420    15.7980    11.8680    14.7890    25.9210     2.3640   -14.4140 
  139.2500    85.6870    16.3290    12.8940    11.9810    26.2760     2.3060   -15.1380 
  139.3750    85.4340    15.1560    12.6840     9.8340    26.6790     2.2390   -15.8390 
  139.5000    84.3330    13.4870    11.8270     9.2290    26.7590     2.1930   -16.4880 
  139.6250    80.5700    12.5150    11.1700     9.5440    26.7740     2.1830   -17.0470 
  139.7500    75.3780    12.3120    11.0000    10.3260    27.2920     2.1880   -17.5360 
  139.8750    70.4000    12.5360    11.1960    11.4950    27.6120     2.1960   -17.9380 
