~V
VERS. 2.00: Ver 2.00
~W
STRT.M 50.0000:
STOP.M 207.0000:
STEP.M 0.1250:
NULL. -999.2500:
UWI. F10134:
~C
DEPT.M :
SP.MV :
DEN.GM/CC :
GR.API :
RML.OHMM :
RI. :
RXO.OHMM :
CALI.CM :
~A
# ...
  162.5000     1.0190     2.3190    79.5610    26.8190    23.7030    21.3600    26.4040 
  162.6250     1.0170     2.3190    77.6170    27.5680    23.7360    22.9580    26.2290 
  162.7500     0.9820     2.3170    76.7090    29.3350    24.6290    25.1700    26.1400 
  162.8750     0.9050     2.3120    76.8570    32.1160    26.3830    26.8530    26.2030 
  163.0000     0.7970     2.3050    75.2080    35.9870    29.0210    27.4050    26.2770 
  163.1250     0.6770     2.2980    73.8320    41.3690    32.8350    32.6350    26.1550 
  163.2500     0.5720     2.2940    73.9830    48.3110    37.8600    38.0720    25.9430 
  163.3750     0.4980     2.2900    71.7810    57.0620    44.3250    42.7840    25.8720 
  163.5000     0.4750     2.2810    66.4590    67.7280    52.3900    49.4020    26.0550 
  163.6250     0.5130     2.2640    63.4180    79.9750    61.9130    64.4020    26.2720 
  163.7500     0.5930     2.2430    63.4250    91.9810    71.4380    88.3230    26.2190 
  163.8750     0.6890     2.2250    63.9330   101.7530    79.3290    88.9500    25.9900 
  164.0000     0.7830     2.2130    64.0080   107.6560    84.1960    78.6080    25.8480 
  164.1250     0.8620     2.2090    63.8690   108.9840    85.2690    88.0640    25.8430 
  164.2500     0.9240     2.2110    63.0290   108.4230    84.5190    92.0440    25.7880 
  164.3750     0.9630     2.2210    62.3450   108.4750    83.9130    82.6130    25.7210 
  164.5000     0.9740     2.2340    62.4760   111.2180    85.2210    74.8680    25.7710 
  164.6250     0.9720     2.2430    62.3360   118.9790    90.4700    74.6460    25.9070 
  164.7500     0.9660     2.2390    60.2560   132.0960   100.1590    83.0850    25.9920 
  164.8750     0.9650     2.2260    57.2120   150.8230   114.6970   105.3300    26.0200 
  165.0000     0.9750     2.2080    55.1610   174.1730   133.4390   148.0780    26.0410 
  165.1250     1.0060     2.1960    55.2230   198.9890   154.0960   193.5490    26.0810 
  165.2500     1.0610     2.1950    55.8480   219.7550   172.3510   216.6640    26.1280 
  165.3750     1.1260     2.2070    56.7320   231.6310   184.4550   225.6710    26.1800 
  165.5000     1.1760     2.2280    57.1450   231.5110   187.7110   224.6950    26.2260 
  165.6250     1.1760     2.2500    56.3310   217.1840   179.6530   202.6190    26.2530 
  165.7500     1.1330     2.2650    55.8210   193.2700   163.1400   169.4050    26.2530 
  165.8750     1.0610     2.2680    56.3360   163.7030   140.7660   145.0690    26.1950 
  166.0000     0.9650     2.2630    57.8720   133.4230   116.3330   119.9030    26.0660 
  166.1250     0.8510     2.2600    59.6870   108.1620    94.7940   100.1600    25.9290 
  166.2500     0.7540     2.2670    61.6320    89.7160    78.5420    78.1420    25.8400 
  166.3750     0.6980     2.2790    64.2820    78.0830    68.0090    58.2190    25.7830 
  166.5000     0.7140     2.2820    66.1450    72.2210    62.4570    47.9470    25.7310 
  166.6250     0.8070     2.2680    65.0080    71.2170    61.1010    47.2600    25.7120 
  166.7500     0.9480     2.2460    62.1270    72.7170    61.8890    56.5400    25.6800 
  166.8750     1.1100     2.2250    61.8720    75.4780    63.7340    62.0720    25.5380 
  167.0000     1.2860     2.2130    66.0860    78.7830    65.9890    57.2120    25.2420 
  167.1250     1.4720     2.2080    70.1420    83.0650    68.8980    48.7750    24.8920 
  167.2500     1.6490     2.2090    69.7950    89.6980    73.5660    46.3590    24.6480 
  167.3750     1.8040     2.2210    64.9980   100.6550    81.7050    49.7580    24.5970 
  167.5000     1.9360     2.2570    59.3730   117.9750    95.2420    63.1970    24.7570 
  167.6250     2.0300     2.3320    55.2670   144.8620   117.3130    90.8100    25.0370 
  167.7500     2.0930     2.4270    52.7890   180.3440   147.4240   137.9780    25.2350 
  167.8750     2.1140     2.5110    52.8920   221.1070   183.3460   192.1630    25.2620 
  168.0000     2.0920     2.5610    55.3830   255.8050   216.9020   205.4940    25.1350 
  168.1250     2.0240     2.5810    57.9020   254.4600   225.4150   147.3370    24.9020 
  168.2500     1.9260     2.6000    57.7480   209.2980   196.2810    94.8700    24.6470 
  168.3750     1.8330     2.6300    57.9160   142.5140   139.4970    79.2330    24.4580 
  168.5000     1.7650     2.6630    60.2690    84.3910    82.8350    72.3430    24.3710 
  168.6250     1.7170     2.6720    62.9810    49.5100    47.2200    55.2160    24.3770 
  168.7500     1.6760     2.6530    65.9230    29.8910    27.7990    36.7740    24.4350 
  168.8750     1.6150     2.6190    69.8410    19.6290    18.1850    20.7410    24.4990 
  169.0000     1.5150     2.5900    73.5030    14.6440    13.6680    11.9860    24.5210 
  169.1250     1.3680     2.5690    73.9630    12.7480    11.8350    12.3320    24.4900 
  169.2500     1.1910     2.5410    70.4370    12.0320    11.0280    17.3590    24.4670 
  169.3750     1.0110     2.4990    64.1130    11.7780    10.7120    17.2940    24.4640 
  169.5000     0.8660     2.4480    56.7120    11.5970    10.5870    11.5520    24.4470 
  169.6250     0.8220     2.4040    50.6100    11.3240    10.4910     9.5320    24.3980 
  169.7500     0.8910     2.3760    46.8740    11.0250    10.3980     9.9800    24.3490 
  169.8750     1.0720     2.3630    44.5210    10.8070    10.3560    10.4070    24.3210 
  170.0000     1.3410     2.3580    44.2840    10.7150    10.3910     9.3130    24.3160 
  170.1250     1.6530     2.3580    46.7570    10.7210    10.4660     8.3900    24.3030 
  170.2500     1.9530     2.3600    49.6620    10.7670    10.5080     8.3500    24.2480 
  170.3750     2.1940     2.3650    50.1090    10.8750    10.4950     8.8200    24.1820 
  170.5000     2.3490     2.3710    46.1880    11.0550    10.4320     9.3720    24.1980 
  170.6250     2.4160     2.3750    41.7510    11.2400    10.3190     9.5580    24.4340 
  170.7500     2.4200     2.3770    40.4130    11.3230    10.1650     9.3580    24.7880 
  170.8750     2.3810     2.3780    41.2260    11.2630     9.9810     8.8300    25.0660 
  171.0000     2.3100     2.3770    42.5370    11.0960     9.7840     8.5530    25.1480 
  171.1250     2.2150     2.3730    43.7480    10.9360     9.6030     9.0400    25.0790 
  171.2500     2.0960     2.3700    43.7040    10.8700     9.4470     9.9750    25.0250 
  171.3750     1.9520     2.3650    42.9010    10.9000     9.3220    10.3560    25.0110 
  171.5000     1.7770     2.3590    43.8720    10.9730     9.2290    10.3320    25.0110 
  171.6250     1.5570     2.3490    47.3750    11.0160     9.1670    10.3680    25.0090 
  171.7500     1.3060     2.3390    48.3020    11.0030     9.1180    10.0830    25.0110 
  171.8750     1.0440     2.3340    45.9070    10.9590     9.0790     9.7110    25.0160 
  172.0000     0.7800     2.3340    43.7910    10.9220     9.0570     9.7000    25.0170 
  172.1250     0.5200     2.3330    43.9150    10.9350     9.0710     9.6400    25.0110 
  172.2500     0.2720     2.3250    44.7650    10.9890     9.1230     9.2420    25.0070 
  172.3750     0.0300     2.3110    46.2480    11.0640     9.2030     9.2900    25.0080 
  172.5000    -0.2010     2.2980    47.3270    11.1270     9.2850     9.7000    25.0120 
  172.6250    -0.3920     2.2920    46.4520    11.1420     9.3240    10.0260    25.0120 
  172.7500    -0.5440     2.2910    46.2850    11.1180     9.3040    10.0400    25.0150 
  172.8750    -0.6460     2.2910    48.4780    11.0600     9.2220     9.8250    25.0210 
  173.0000    -0.6820     2.2910    50.2690    10.9620     9.0880     9.9440    25.0170 
  173.1250    -0.6290     2.2930    48.4990    10.8070     8.9060    10.1510    24.9950 
  173.2500    -0.5110     2.2970    46.0440    10.6020     8.7030    10.6060    24.9730 
  173.3750    -0.3520     2.3020    46.0220    10.3520     8.4950    10.2960    24.9630 
  173.5000    -0.1870     2.3030    47.7080    10.0840     8.2970     9.1600    24.9610 
  173.6250    -0.0620     2.3000    50.0350     9.8680     8.1370     8.9950    24.9600 
