~V
VERS. 2.00: Ver 2.00
~W
STRT.M 43.0000:
STOP.M 249.0000:
STEP.M 0.1250:
NULL. -999.2500:
UWI. F10197:
~C
DEPT.M :
GR.API :
RML.OHMM :
RI. :
RXO.OHMM :
CALI.CM :
SP.MV :
DEN.GM/CC :
~A
# ...
  189.2500    74.4690    28.4670    23.3230    24.6470    23.0160   -23.3430     2.1190 
  189.3750    71.8300    35.0330    28.4620    32.9280    23.9170   -23.4880     2.0840 
  189.5000    69.4820    43.2320    35.2620    41.2320    24.4370   -23.5600     2.0560 
  189.6250    68.1460    51.8480    42.9420    55.8910    24.6120   -23.6050     2.0650 
  189.7500    67.3680    58.2550    49.0620    79.8970    24.6730   -23.6080     2.1020 
  189.8750    65.4060    59.9150    51.0770    86.9780    24.7480   -23.5790     2.1500 
  190.0000    62.2030    56.0380    48.0840    78.0880    24.9280   -23.5170     2.1920 
  190.1250    63.0530    48.4630    41.7190    57.8160    25.0760   -23.4250     2.2210 
  190.2500    67.1510    41.0080    35.3590    36.6710    25.3060   -23.3000     2.2380 
  190.3750    69.4320    35.3250    30.3900    23.4360    25.4740   -23.2020     2.2450 
  190.5000    67.6640    31.8650    27.1870    18.9590    25.5170   -23.1440     2.2520 
  190.6250    65.9100    30.7980    25.9170    20.6090    25.4230   -23.0960     2.2690 
  190.7500    67.9450    31.4970    26.1230    25.8590    25.3870   -23.0530     2.2830 
  190.8750    70.5970    33.7750    27.7350    30.3360    25.3980   -22.9600     2.2780 
  191.0000    70.7650    37.4010    30.7210    27.3520    25.3670   -22.8210     2.2510 
  191.1250    68.1910    41.7820    34.9000    28.9800    24.9810   -22.6360     2.2210 
  191.2500    64.8240    45.4270    38.9980    34.7050    24.2640   -22.4430     2.2060 
  191.3750    61.9170    46.7930    41.4050    40.4940    23.4650   -22.2400     2.2110 
  191.5000    61.5850    44.9690    40.8330    39.6970    22.8840   -22.0520     2.2310 
  191.6250    65.9890    40.3360    37.1940    30.8150    22.6350   -21.8890     2.2520 
  191.7500    71.1970    35.3100    32.7420    21.9470    22.6720   -21.7710     2.2650 
  191.8750    72.4780    31.3120    28.8900    18.2610    22.9850   -21.7450     2.2720 
  192.0000    68.6610    28.8050    26.1920    19.1850    23.6760   -21.7960     2.2770 
  192.1250    65.6320    27.6950    24.7090    23.4300    24.3670   -21.9210     2.2780 
  192.2500    67.8330    27.3160    23.9550    26.1080    24.8190   -22.1070     2.2680 
  192.3750    72.8970    27.4970    23.7680    23.4180    24.8790   -22.3390     2.2530 
  192.5000    76.4090    28.4450    24.2160    19.7920    24.7900   -22.5950     2.2440 
  192.6250    75.8520    31.0080    25.8530    21.3460    24.7200   -22.8870     2.2420 
  192.7500    71.7000    35.6600    29.1110    24.7500    24.5140   -23.1720     2.2360 
  192.8750    65.0570    42.8610    34.5820    30.6270    24.0030   -23.4210     2.2260 
  193.0000    59.4460    52.7640    42.7180    33.0890    23.1700   -23.6510     2.2150 
  193.1250    60.3990    65.1330    53.6570    29.8580    22.3200   -23.8450     2.2030 
  193.2500    64.9700    77.8890    65.3560    28.5160    21.8150   -24.0140     2.1890 
  193.3750    68.2590    88.9640    75.6290    29.8760    21.7590   -24.1520     2.1750 
  193.5000    67.4840    97.0690    83.0510    32.5270    21.8880   -24.2430     2.1680 
  193.6250    64.6160   102.0090    87.3000    35.3850    22.1020   -24.2510     2.1720 
  193.7500    65.1560   105.2160    89.7840    37.9980    22.3980   -24.1700     2.1770 
  193.8750    69.3600   107.2990    91.2050    39.0400    22.6270   -24.0200     2.1770 
  194.0000    72.7610   108.6090    91.9950    38.7230    22.6080   -23.8160     2.1750 
  194.1250    69.3620   109.4620    92.4610    38.8290    22.6660   -23.5490     2.1760 
  194.2500    62.7130   110.5250    93.0990    38.8640    22.7910   -23.2420     2.1800 
  194.3750    58.9620   112.5080    94.4840    38.6610    22.8020   -22.9260     2.1850 
  194.5000    60.4220   116.2440    97.3630    41.1550    22.7500   -22.6070     2.1910 
  194.6250    63.4660   123.2490   103.1160    43.7430    22.6750   -22.2880     2.1970 
  194.7500    61.9810   133.7100   111.9010    46.8050    22.5610   -21.9880     2.2050 
  194.8750    57.3920   147.0080   123.1960    49.1890    22.4290   -21.7330     2.2130 
  195.0000    55.3140   160.9140   135.2930    52.7060    22.3930   -21.5090     2.2210 
  195.1250    58.8060   171.3630   145.1500    60.5950    22.4350   -21.3000     2.2190 
  195.2500    63.1110   176.4850   151.0420    78.2270    22.7590   -21.0630     2.2100 
  195.3750    65.0970   176.2610   152.5610   110.4140    23.3360   -20.7850     2.2010 
  195.5000    64.2810   171.8110   150.2800   151.3980    24.1330   -20.4890     2.2000 
  195.6250    61.4260   164.0130   144.7110   168.2130    24.5340   -20.2000     2.2090 
  195.7500    59.1380   154.4480   137.2380   172.2930    24.6670   -19.9580     2.2180 
  195.8750    59.6690   144.1880   128.7660   157.3310    24.6540   -19.7360     2.2230 
  196.0000    63.3960   134.4740   120.3440   124.0030    24.6240   -19.4760     2.2250 
  196.1250    66.4160   126.8710   113.3030    99.3670    24.6020   -19.1700     2.2340 
  196.2500    67.0280   121.8680   108.2760    94.5880    24.5810   -18.8660     2.2510 
  196.3750    65.7350   119.6620   105.6110   106.4300    24.5070   -18.5900     2.2760 
  196.5000    64.3350   119.9520   105.2190   121.0070    24.3170   -18.3230     2.3130 
  196.6250    61.7800   121.9750   106.6420   122.7670    24.1580   -18.0480     2.3800 
  196.7500    56.9160   124.2040   108.5850   121.6320    24.0570   -17.7120     2.4700 
  196.8750    51.5570   125.7250   110.2310   124.0270    24.0150   -17.3030     2.5610 
  197.0000    49.0910   125.9300   110.9600   135.2560    24.0110   -16.8940     2.6240 
  197.1250    50.0530   124.0470   110.0340   139.3150    24.0240   -16.5500     2.6480 
  197.2500    51.2070   119.7650   107.1950   138.6470    24.0320   -16.2290     2.6560 
  197.3750    51.4630   112.0430   101.6700   134.3840    24.0140   -15.9000     2.6590 
  197.5000    52.6390    99.5600    92.1800   124.0610    23.9560   -15.5940     2.6600 
  197.6250    57.3810    82.0110    77.4810   109.6670    23.8740   -15.3200     2.6640 
  197.7500    62.5520    63.4730    60.5950    93.3670    23.8240   -15.0600     2.6730 
  197.8750    63.9610    47.1540    44.8320    69.1660    23.7410   -14.8700     2.6810 
  198.0000    61.0570    32.8180    32.3580    43.7830    23.6080   -14.7830     2.6810 
  198.1250    59.4420    24.7810    24.0790    27.3160    23.4380   -14.7610     2.6760 
  198.2500    61.9090    19.3270    18.5700    18.8400    23.2900   -14.7460     2.6680 
  198.3750    65.6110    15.7520    14.9920    14.4070    23.0260   -14.7490     2.6500 
  198.5000    67.7170    13.5070    12.7260    11.9460    22.6380   -14.7890     2.6140 
  198.6250    68.7830    12.2900    11.4690    10.3070    22.3590   -14.8880     2.5610 
  198.7500    71.6170    11.5930    10.7470     9.7930    22.4180   -15.0660     2.5140 
  198.8750    76.0060    11.1520    10.3010     9.5520    22.7560   -15.2680     2.4830 
  199.0000    80.5090    10.7610     9.9210     9.1070    23.1600   -15.4420     2.4680 
  199.1250    84.6070    10.2740     9.4480     8.7930    23.4530   -15.6280     2.4620 
  199.2500    87.6000     9.6950     8.8730     8.2370    23.5590   -15.8870     2.4620 
  199.3750    89.1060     9.1120     8.2640     7.4900    23.5640   -16.2250     2.4680 
  199.5000    89.5540     8.6470     7.7310     7.1290    23.5420   -16.5590     2.4740 
  199.6250    90.1830     8.4340     7.3950     7.3490    23.4690   -16.8520     2.4690 
  199.7500    89.1180     8.4400     7.2460     8.1310    23.3710   -17.1750     2.4510 
  199.8750    85.0890     8.6020     7.2430     9.2790    23.2810   -17.5260     2.4260 
  200.0000    80.1050     8.8420     7.3140    10.1330    23.2390   -17.8590     2.3990 
  200.1250    79.4530     9.1030     7.4000    11.1070    23.4840   -18.1700     2.3670 
  200.2500    82.6300     9.3960     7.5010    11.2930    24.0030   -18.4330     2.3270 
  200.3750    84.6230     9.8020     7.6790    10.9820    24.4720   -18.6630     2.2910 
