~V
VERS. 2.00: Ver 2.00
~W
STRT.M 56.0000:
STOP.M 221.0000:
STEP.M 0.1250:
NULL. -999.2500:
UWI. F10169:
~C
DEPT.M :
GR.API :
RML.OHMM :
RI. :
RXO.OHMM :
CALI.CM :
SP.MV :
DEN.GM/CC :
~A
# ...
  191.0000    49.0220     8.5790     7.3860     6.9130    25.7590   -12.9290     2.3240 
  191.1250    49.9270     9.0080     8.1580     7.6160    25.7310   -13.0190     2.3270 
  191.2500    50.2570     9.0340     8.5310     7.5760    25.7010   -13.1240     2.3320 
  191.3750    50.7700     8.9150     8.6640     7.0690    25.6840   -13.2810     2.3340 
  191.5000    52.9320     8.7540     8.6460     6.6650    25.6660   -13.4520     2.3300 
  191.6250    56.5300     8.5880     8.5280     6.6030    25.6270   -13.6660     2.3260 
  191.7500    56.9020     8.4080     8.3080     7.0380    25.5990   -13.8840     2.3260 
  191.8750    53.6870     8.2060     8.0030     6.8890    25.6380   -14.1330     2.3190 
  192.0000    50.5310     8.0060     7.6480     6.3090    25.8640   -14.4090     2.2960 
  192.1250    50.4530     7.8580     7.3100     5.5710    26.2620   -14.7090     2.2620 
  192.2500    52.1530     7.8390     7.0830     5.0410    26.5900   -15.0240     2.2280 
  192.3750    53.1260     7.9480     6.9930     5.0940    26.5440   -15.3170     2.2130 
  192.5000    53.5670     8.1580     7.0300     5.5800    26.2220   -15.5870     2.2290 
  192.6250    52.5260     8.4200     7.1560     6.3190    25.8600   -15.8200     2.2660 
  192.7500    51.1540     8.6820     7.3320     6.8240    25.7160   -16.0200     2.2930 
  192.8750    51.8000     8.9140     7.5090     7.0360    25.5890   -16.1770     2.3020 
  193.0000    53.6400     9.1030     7.6640     7.3850    25.3930   -16.2700     2.3120 
  193.1250    55.1540     9.2400     7.7780     7.7560    25.2710   -16.3390     2.3350 
  193.2500    55.9430     9.3100     7.8300     7.9300    25.2420   -16.3600     2.3600 
  193.3750    57.1980     9.3290     7.8310     7.9020    25.2490   -16.4060     2.3730 
  193.5000    59.2410     9.3190     7.7950     7.5420    25.2480   -16.4570     2.3750 
  193.6250    61.2390     9.3120     7.7450     6.9020    25.2290   -16.5590     2.3730 
  193.7500    65.3440     9.3420     7.7080     6.6100    25.1570   -16.7390     2.3720 
  193.8750    69.9120     9.3940     7.6810     6.7560    25.0390   -17.0320     2.3720 
  194.0000    73.0050     9.4280     7.6450     7.0480    24.9250   -17.4260     2.3710 
  194.1250    74.8270     9.3980     7.5730     7.1370    24.8260   -17.9140     2.3670 
  194.2500    77.5820     9.2640     7.4460     6.9610    24.8140   -18.4780     2.3660 
  194.3750    80.5450     9.0780     7.2910     6.8410    24.8520   -19.0860     2.3730 
  194.5000    80.2380     8.9250     7.1600     6.8340    24.8470   -19.7160     2.3850 
  194.6250    76.8410     8.9250     7.1300     6.9080    24.7860   -20.3550     2.3910 
  194.7500    75.4670     9.2460     7.3210     7.0640    24.7030   -20.9700     2.3850 
  194.8750    77.1860     9.8980     7.7560     7.2740    24.7020   -21.5240     2.3770 
  195.0000    80.4140    10.8170     8.4170     7.8650    24.8070   -22.0140     2.3740 
  195.1250    83.1730    11.8020     9.1860     9.3610    24.8490   -22.4550     2.3770 
  195.2500    83.7480    12.4500     9.7780    11.9110    24.7600   -22.8390     2.3830 
  195.3750    84.8960    12.5230     9.9600    12.8590    24.7170   -23.1630     2.3870 
  195.5000    87.8230    12.0330     9.6830    12.2240    24.7360   -23.4500     2.3900 
  195.6250    89.9360    11.2590     9.1120     9.7500    24.6270   -23.6940     2.3860 
  195.7500    88.1030    10.6270     8.5400     7.8850    24.4700   -23.9140     2.3740 
  195.8750    84.4790    10.3690     8.1790     7.2830    24.5630   -24.1270     2.3590 
  196.0000    82.9710    10.5220     8.0990     7.9080    24.8060   -24.3590     2.3520 
  196.1250    84.7650    11.0130     8.2870     9.3410    24.9810   -24.5790     2.3500 
  196.2500    89.7920    11.7330     8.7080    10.6480    25.0250   -24.7940     2.3490 
  196.3750    94.8700    12.5430     9.2560    11.3310    25.0210   -24.9630     2.3480 
  196.5000    96.1540    13.4220     9.9010    11.8570    24.9970   -25.0870     2.3540 
  196.6250    91.6430    14.3970    10.6480    13.4550    24.9710   -25.1040     2.3680 
  196.7500    83.4440    15.5000    11.5340    15.2040    24.9610   -24.9860     2.3890 
  196.8750    76.3610    16.7260    12.5650    16.6770    24.9570   -24.6950     2.4150 
  197.0000    70.7540    18.1760    13.8080    18.7110    24.9570   -24.2200     2.4480 
  197.1250    66.8340    20.0790    15.3970    21.0610    24.9560   -23.6020     2.4850 
  197.2500    64.5770    23.0610    17.7410    22.6600    24.9460   -22.8620     2.5220 
  197.3750    63.2720    27.5090    21.1980    24.4490    24.9220   -22.0700     2.5540 
  197.5000    62.5160    33.5530    26.0560    29.9020    24.8800   -21.2230     2.5760 
  197.6250    62.4910    40.2130    31.8130    41.4330    24.8040   -20.4100     2.5810 
  197.7500    64.2720    43.4350    35.5370    56.7990    24.6220   -19.6520     2.5630 
  197.8750    67.6620    40.0190    34.1670    67.0830    24.3940   -19.0310     2.5410 
  198.0000    70.4040    31.4040    28.0700    54.4810    24.2940   -18.5470     2.5280 
  198.1250    72.0660    22.2410    20.6890    29.3360    24.4520   -18.1640     2.5230 
  198.2500    75.3370    16.0470    15.1580    15.0300    24.7560   -17.8410     2.5060 
  198.3750    80.5400    12.4970    11.6790     9.7430    24.9900   -17.5440     2.4740 
  198.5000    84.3280    10.8080     9.7580     8.8720    25.0870   -17.2810     2.4440 
  198.6250    85.6820    10.2540     8.8730     9.4950    25.1090   -17.0230     2.4300 
  198.7500    89.2630    10.2830     8.6700     9.8060    25.1270   -16.7450     2.4340 
  198.8750    92.6060    10.3430     8.6850     9.5690    25.1670   -16.3880     2.4370 
  199.0000    92.2110    10.2090     8.6800     9.0450    25.2060   -15.9350     2.4300 
  199.1250    90.1430     9.8580     8.5440     8.5460    25.2160   -15.3750     2.4170 
  199.2500    88.7690     9.3790     8.2730     8.3160    25.2060   -14.7310     2.4100 
  199.3750    85.8020     8.8880     7.9460     8.0920    25.2260   -14.0440     2.4100 
  199.5000    80.7780     8.4190     7.6030     7.3810    25.2580   -13.3390     2.4130 
  199.6250    75.9430     7.9920     7.2730     6.3240    25.2850   -12.6220     2.4140 
  199.7500    74.0000     7.6450     6.9880     5.7760    25.2780   -11.9450     2.4150 
  199.8750    76.4810     7.3910     6.7640     5.5680    25.2550   -11.3100     2.4150 
  200.0000    82.1490     7.2350     6.6100     5.4920    25.1890   -10.7670     2.4130 
  200.1250    86.2080     7.1600     6.5230     5.4620    25.1030   -10.3520     2.4140 
  200.2500    85.2830     7.1400     6.4970     5.4700    24.9870   -10.0840     2.4220 
  200.3750    82.3900     7.1310     6.4990     5.5060    24.8390    -9.9120     2.4310 
  200.5000    78.6840     7.1190     6.5090     5.5870    24.6980    -9.8080     2.4330 
  200.6250    75.2900     7.0970     6.5130     5.6360    24.7150    -9.7530     2.4240 
  200.7500    75.0920     7.0680     6.5030     5.5360    25.0310    -9.7560     2.4040 
  200.8750    78.2190     7.0380     6.4830     5.3840    25.4740    -9.8270     2.3800 
  201.0000    81.1670     7.0170     6.4620     5.3850    25.6780    -9.9520     2.3600 
  201.1250    81.5450     7.0130     6.4470     5.5630    25.6070   -10.1010     2.3450 
  201.2500    81.1640     7.0340     6.4430     5.6600    25.4200   -10.3130     2.3370 
  201.3750    80.6760     7.0640     6.4410     5.7610    25.2180   -10.5680     2.3390 
  201.5000    80.0780     7.0800     6.4250     5.8080    25.0850   -10.8920     2.3560 
  201.6250    80.3810     7.0600     6.3810     5.8810    25.0470   -11.2550     2.3770 
  201.7500    82.6390     7.0060     6.3110     6.0300    25.0700   -11.7030     2.3890 
  201.8750    84.3350     6.9820     6.2620     6.0750    25.0980   -12.1890     2.3890 
  202.0000    85.0330     7.0770     6.3030     6.0310    25.1250   -12.6460     2.3820 
  202.1250    86.4350     7.3830     6.5080     6.2130    25.1540   -13.1350     2.3680 
