~V
VERS. 2.00: Ver 2.00
~W
STRT.M 52.0000:
STOP.M 322.0000:
STEP.M 0.1250:
NULL. -999.2500:
UWI. F10105:
~C
DEPT.M :
GR.API :
RML.OHMM :
RI. :
RXO.OHMM :
CALI.CM :
DEN.GM/CC :
SP.MV :
~A
# ...
  288.2500    87.2580    15.6440    12.4380    17.9000    26.3430     2.3720     0.4600 
  288.3750    87.9130    18.1630    14.3720    19.8380    26.2930     2.3150     0.1250 
  288.5000    89.2260    21.2290    16.9520    21.4890    26.2270     2.2790    -0.3010 
  288.6250    86.4640    25.0230    20.2540    24.4680    26.2310     2.2620    -0.6760 
  288.7500    80.8200    29.7800    24.2740    29.4460    26.3020     2.2560    -0.9460 
  288.8750    76.2810    35.5000    29.1190    35.3030    26.3610     2.2580    -1.1740 
  289.0000    74.2840    41.5950    34.6500    41.5480    26.3670     2.2660    -1.4360 
  289.1250    73.8290    46.8560    40.1100    46.5810    26.3690     2.2690    -1.7270 
  289.2500    73.6820    50.4940    44.3720    54.8620    26.4030     2.2620    -2.0000 
  289.3750    73.1330    52.1690    46.7100    64.1300    26.4220     2.2450    -2.2490 
  289.5000    73.2510    52.0360    47.1180    65.8510    26.4260     2.2250    -2.4710 
  289.6250    75.3830    50.7580    46.1720    57.3270    26.4260     2.2090    -2.6700 
  289.7500    77.8310    49.4380    44.9880    48.7290    26.4260     2.2030    -2.8910 
  289.8750    78.3330    48.6020    44.1160    46.1240    26.4260     2.2020    -3.0790 
  290.0000    75.7290    48.4290    43.8190    47.1550    26.4260     2.2030    -3.2420 
  290.1250    73.1110    48.8900    44.2140    49.0510    26.4260     2.2030    -3.4350 
  290.2500    73.3170    49.6140    45.0150    48.1570    26.4260     2.2000    -3.6090 
  290.3750    74.3950    50.3530    45.9920    48.8960    26.4270     2.1980    -3.7000 
  290.5000    74.8550    50.9530    46.9820    51.2770    26.4290     2.1970    -3.7170 
  290.6250    75.5490    51.3210    47.8860    54.0220    26.4260     2.2000    -3.7200 
  290.7500    77.1330    51.4980    48.6430    55.5080    26.4100     2.2060    -3.7230 
  290.8750    78.4280    51.5420    49.2050    55.3220    26.3700     2.2130    -3.7860 
  291.0000    79.1720    51.3980    49.5880    55.2330    26.3030     2.2190    -3.8830 
  291.1250    80.1120    50.3310    49.6250    56.0850    26.2130     2.2230    -3.9540 
  291.2500    80.1310    47.7320    48.7410    54.6140    26.1000     2.2280    -4.0060 
  291.3750    79.4240    43.3810    46.0220    51.8590    26.0210     2.2310    -4.1050 
  291.5000    79.6830    37.5760    40.9200    50.4420    25.9790     2.2310    -4.2590 
  291.6250    81.5190    31.0220    33.9370    44.4300    25.9320     2.2300    -4.4150 
  291.7500    85.5730    24.9170    27.1350    33.0470    25.9490     2.2310    -4.4560 
  291.8750    90.2650    20.2000    21.7870    22.0700    26.0600     2.2390    -4.3590 
  292.0000    92.8260    17.3110    18.3490    16.6080    26.2100     2.2580    -4.1910 
  292.1250    91.6690    16.4500    16.9850    15.4530    26.3890     2.2870    -3.9990 
  292.2500    88.6690    16.9210    17.0970    17.5660    26.5110     2.3150    -3.8150 
  292.3750    86.0180    18.1380    18.3310    21.7570    26.5170     2.3360    -3.7060 
  292.5000    84.2930    19.2950    20.0060    25.0970    26.4220     2.3470    -3.7040 
  292.6250    85.0850    19.3260    20.6940    26.9290    26.2840     2.3510    -3.7000 
  292.7500    87.4960    18.0240    19.6240    25.6040    26.0810     2.3520    -3.7320 
  292.8750    89.4370    15.7740    17.2040    20.4470    25.8780     2.3530    -3.8010 
  293.0000    90.1300    13.3190    14.4640    15.7140    25.7760     2.3510    -3.8650 
  293.1250    90.2470    11.4230    12.3110    10.1040    25.8300     2.3490    -3.9590 
  293.2500    88.8620    10.2140    10.8760     9.5930    25.9930     2.3540    -4.0870 
  293.3750    87.9690     9.5550    10.0350    11.8800    26.1090     2.3710    -4.1540 
  293.5000    90.2000     9.2190     9.5750    12.6060    26.0260     2.4000    -4.1540 
  293.6250    96.1720     9.0160     9.3190     9.9990    25.8560     2.4260    -4.3020 
  293.7500   101.6400     8.8310     9.1230     8.8370    25.6890     2.4390    -4.6350 
  293.8750   104.5040     8.6620     8.9630     8.7290    25.5870     2.4350    -5.1250 
  294.0000   105.7780     8.5270     8.8450     9.2590    25.5690     2.4220    -5.7260 
  294.1250   105.5270     8.4390     8.7870    10.0620    25.5680     2.4100    -6.3290 
  294.2500   103.9040     8.3770     8.7560    10.0090    25.5730     2.4010    -6.9010 
  294.3750   101.5420     8.3370     8.7200     9.1600    25.6510     2.3930    -7.4450 
  294.5000    99.2900     8.3360     8.6880     8.5130    25.8780     2.3830    -7.9460 
  294.6250    99.7770     8.4120     8.7100     8.5310    26.0920     2.3720    -8.3340 
  294.7500   100.6770     8.5450     8.7940     8.7710    26.1570     2.3610    -8.5960 
  294.8750   100.6160     8.6870     8.9020     9.0190    26.0870     2.3500    -8.7100 
  295.0000    99.8620     8.7770     8.9730     9.0010    25.9810     2.3390    -8.7220 
  295.1250    98.6480     8.7530     8.9240     8.6620    25.9680     2.3270    -8.7220 
  295.2500    96.1260     8.6380     8.7580     8.2550    25.9800     2.3170    -8.6610 
  295.3750    92.9680     8.4820     8.5220     8.2240    25.9960     2.3130    -8.5110 
  295.5000    92.4740     8.3530     8.2900     8.5610    25.9800     2.3170    -8.3090 
  295.6250    95.4150     8.3300     8.1460     9.2020    25.9380     2.3220    -8.2040 
  295.7500    97.9580     8.4280     8.1190     9.6450    25.8890     2.3250    -8.1860 
  295.8750    99.3090     8.6430     8.2130     9.7250    25.8670     2.3250    -8.2410 
  296.0000   100.2280     8.9580     8.4150     9.5710    25.8940     2.3260    -8.4570 
  296.1250   101.2430     9.3640     8.7150     9.9750    25.9690     2.3330    -8.9130 
  296.2500   100.8590     9.8420     9.0890    10.6970    26.0720     2.3390    -9.5420 
  296.3750    98.3500    10.3960     9.5450    11.6560    26.1380     2.3360   -10.2770 
  296.5000    95.8820    11.0180    10.0890    12.9990    26.1570     2.3200   -11.0520 
  296.6250    93.4830    11.6840    10.7130    14.1090    26.1570     2.2980   -11.6770 
  296.7500    91.1690    12.3300    11.3570    14.3960    26.1490     2.2850   -12.2140 
  296.8750    90.3300    12.9040    11.9630    14.9980    26.1430     2.2860   -12.7290 
  297.0000    90.6870    13.3660    12.4760    15.4330    26.1580     2.2960   -13.1050 
  297.1250    90.4810    13.6920    12.8570    14.9460    26.1730     2.3010   -13.2580 
  297.2500    91.5200    13.9280    13.1490    14.8970    26.1430     2.2950   -13.2840 
  297.3750    94.6480    14.1110    13.3950    15.4570    26.0900     2.2820   -13.2820 
  297.5000    96.1920    14.2690    13.6240    16.1270    26.0770     2.2750   -13.3520 
  297.6250    92.6110    14.4120    13.8510    16.5350    26.1290     2.2820   -13.5170 
  297.7500    88.3920    14.5150    14.0680    16.1840    26.1530     2.2970   -13.6750 
  297.8750    85.9350    14.5090    14.2200    15.4250    26.1510     2.3100   -13.7740 
  298.0000    85.2570    14.2950    14.1920    14.8420    26.1910     2.3140   -13.7900 
  298.1250    86.7050    13.7250    13.7860    15.8080    26.2700     2.3080   -13.7220 
  298.2500    91.1000    12.8350    12.9920    16.2340    26.2980     2.2980   -13.5610 
  298.3750    96.5250    11.7110    11.8730    14.8800    26.2350     2.2900   -13.2490 
  298.5000   100.3460    10.5190    10.6030    11.6010    26.1860     2.2880   -12.6800 
  298.6250   100.0350     9.5020     9.4490     9.5750    26.2110     2.2950   -11.9290 
  298.7500    97.7320     8.8120     8.5830     9.0950    26.2850     2.3090   -11.1630 
  298.8750    97.0990     8.5350     8.0920     9.2570    26.3380     2.3230   -10.4580 
  299.0000    97.4740     8.6990     8.0110     9.2430    26.3630     2.3330    -9.9740 
  299.1250    96.1780     9.3420     8.4090     9.9190    26.3690     2.3320    -9.7980 
  299.2500    92.7080    10.3090     9.1820    11.4390    26.3530     2.3230    -9.9150 
  299.3750    87.2210    11.4760    10.2580    13.2410    26.3240     2.3130   -10.3000 
