~V
VERS. 2.00: Ver 2.00
~W
STRT.M 50.0000:
STOP.M 211.0000:
STEP.M 0.1250:
NULL. -999.2500:
UWI. F10140:
~C
DEPT.M :
DEN.GM/CC :
GR.API :
RML.OHMM :
RI. :
RXO.OHMM :
CALI.CM :
SP.MV :
~A
# ...
   61.2500     2.1530    56.9980     1.0390     0.1850    -0.3900    25.7710   289.9990 
   61.3750     2.2060    57.7550     0.9350     0.1820    -0.3900    25.7530   289.9990 
   61.5000     2.2550    58.5360     0.8460     0.1690    -0.3900    25.7380   289.1990 
   61.6250     2.2730    55.8100     0.8300     0.1570    -0.3900    25.7170   285.6470 
   61.7500     2.2510    51.9930     0.8610     0.1490    -0.3900    25.6930   279.3490 
   61.8750     2.1990    49.1860     0.8970     0.1440    -0.3900    25.6740   270.1750 
   62.0000     2.1410    47.6580     0.8990     0.1450    -0.3900    25.6680   258.1230 
   62.1250     2.1100    49.6380     0.8440     0.1580    -0.3900    25.6740   243.0260 
   62.2500     2.1080    56.3670     0.7570     0.1840    -0.3900    25.6870   225.4310 
   62.3750     2.1240    63.6130     0.6600     0.2100    -0.3900    25.7070   205.5120 
   62.5000     2.1390    65.0980     0.5640     0.2170    -0.3900    25.7300   184.1660 
   62.6250     2.1340    61.7920     0.4500     0.1890    -0.3900    25.7450   163.3060 
   62.7500     2.1100    60.6010     0.2960     0.1370    -0.3900    25.7450   143.6800 
   62.8750     2.0760    61.0450     0.0980     0.0830    -0.3900    25.7350   125.6280 
   63.0000     2.0510    59.5410    -0.1120     0.0480    -0.3840    25.7180   109.4350 
   63.1250     2.0690    57.2720    -0.2760     0.0470    -0.3600    25.7030    95.4930 
   63.2500     2.1480    57.8550    -0.3700     0.0700    -0.3090    25.7100    83.4210 
   63.3750     2.2850    59.1770    -0.3980     0.1030    -0.1750    25.7700    72.8820 
   63.5000     2.4500    58.3670    -0.3740     0.1380     0.1720    25.9350    63.6690 
   63.6250     2.5710    58.9810    -0.2990     0.1830     1.2580    26.3030    55.4110 
   63.7500     2.6030    63.3880    -0.1630     0.2560     2.8520    26.8230    47.4270 
   63.8750     2.5410    68.4320     0.0730     0.3960     5.0310    27.3620    39.4880 
   64.0000     2.4180    73.5190     0.4610     0.6590     6.6090    27.7430    31.3490 
   64.1250     2.2880    78.6020     1.0750     1.1480     6.6460    27.7810    22.9850 
   64.2500     2.1900    80.8910     1.8440     1.8580     6.7420    27.4640    14.7710 
   64.3750     2.1300    77.8960     2.6530     2.7230     6.8640    26.8510     7.1270 
   64.5000     2.1010    73.3330     3.3700     3.6100     7.0410    26.1110     0.2250 
   64.6250     2.1000    72.9930     3.8860     4.3570     7.4840    25.5740    -5.5500 
   64.7500     2.1140    75.6470     4.2510     4.9320     8.2250    25.4140   -10.2100 
   64.8750     2.1370    79.6760     4.5280     5.3590     8.4810    25.5010   -13.7270 
   65.0000     2.1600    84.3770     4.7650     5.6660     8.4000    25.6200   -16.0930 
   65.1250     2.1760    85.4580     4.9750     5.8610     8.6160    25.6020   -17.5660 
   65.2500     2.1850    80.8530     5.1650     5.9930     9.2890    25.4670   -18.6250 
   65.3750     2.1900    75.0280     5.3390     6.0970     9.3830    25.3650   -19.5210 
   65.5000     2.1950    73.4260     5.5050     6.1950     9.2050    25.4320   -20.3170 
   65.6250     2.2020    75.6530     5.6750     6.3020     9.3370    25.6490   -20.9910 
   65.7500     2.2090    78.0010     5.8530     6.4160     9.7720    25.8310   -21.6200 
   65.8750     2.2120    79.5920     6.0350     6.5230     9.9420    25.9360   -22.1610 
   66.0000     2.2080    80.3150     6.2020     6.6070     9.4050    26.0140   -22.7030 
   66.1250     2.1930    79.4850     6.3220     6.6450     8.6470    26.0770   -23.2760 
   66.2500     2.1730    76.7480     6.3830     6.6370     7.9090    26.0890   -23.8990 
   66.3750     2.1560    73.3940     6.3790     6.5830     7.5980    26.0620   -24.5380 
   66.5000     2.1450    71.2430     6.3180     6.4940     7.8140    26.0350   -25.1640 
   66.6250     2.1410    73.2870     6.2140     6.3810     7.9660    26.0800   -25.7570 
   66.7500     2.1350    77.3610     6.1030     6.2680     7.4800    26.2060   -26.2680 
   66.8750     2.1250    78.7380     6.0190     6.1790     7.0490    26.3800   -26.6510 
   67.0000     2.1160    76.4520     5.9950     6.1390     6.8510    26.5530   -26.8320 
   67.1250     2.1130    74.3430     6.0610     6.1770     6.9290    26.6890   -26.7400 
   67.2500     2.1170    73.6150     6.1870     6.2750     7.3070    26.7780   -26.4080 
   67.3750     2.1230    72.5000     6.3270     6.4040     7.8340    26.8230   -25.8360 
   67.5000     2.1230    71.0520     6.4230     6.5090     7.9990    26.8630   -25.0410 
   67.6250     2.1180    74.0820     6.4040     6.5120     7.7040    26.9780   -24.0070 
   67.7500     2.1170    80.0100     6.2720     6.3970     7.4850    27.1620   -22.7510 
   67.8750     2.1260    83.4290     6.0590     6.1830     7.1220    27.4780   -21.3720 
   68.0000     2.1480    83.8170     5.8160     5.9180     6.6310    27.9860   -19.8800 
   68.1250     2.1780    83.2020     5.6110     5.6660     6.3490    28.5270   -18.3470 
   68.2500     2.2070    84.2770     5.4740     5.4620     6.6100    28.8080   -16.8380 
   68.3750     2.2290    87.9810     5.4050     5.3140     6.8950    28.7390   -15.3700 
   68.5000     2.2430    91.6340     5.3870     5.2160     6.8920    28.4440   -14.0210 
   68.6250     2.2500    93.6940     5.4020     5.1560     6.5820    28.1690   -12.9190 
   68.7500     2.2530    94.9260     5.4310     5.1180     6.2520    28.0980   -12.0770 
   68.8750     2.2540    96.3820     5.4780     5.1000     6.1930    28.2410   -11.5370 
   69.0000     2.2550    95.7350     5.5530     5.1120     6.4630    28.4840   -11.2800 
   69.1250     2.2580    90.9170     5.6750     5.1740     6.8330    28.6880   -11.2260 
   69.2500     2.2610    88.1890     5.8410     5.2900     6.9780    28.7690   -11.3760 
   69.3750     2.2600    91.0320     6.0520     5.4630     7.0760    28.7270   -11.7470 
   69.5000     2.2530    96.1650     6.2970     5.6830     7.3460    28.5740   -12.2780 
   69.6250     2.2380    95.2940     6.5410     5.9220     7.6870    28.2800   -12.9450 
   69.7500     2.2210    87.5040     6.7290     6.1260     7.7540    27.8680   -13.6490 
   69.8750     2.2070    79.1790     6.8130     6.2410     7.7280    27.4120   -14.3580 
   70.0000     2.1990    74.9570     6.7700     6.2350     7.8800    27.0340   -15.0740 
   70.1250     2.1990    74.8160     6.6160     6.1000     7.9650    26.8080   -15.7850 
   70.2500     2.2020    75.8980     6.4420     5.9150     7.7720    26.5870   -16.4960 
   70.3750     2.2060    79.6150     6.3190     5.7490     7.4410    26.2270   -17.1860 
   70.5000     2.2080    85.7300     6.2970     5.6550     7.1640    25.6720   -17.8500 
   70.6250     2.2050    90.1270     6.3990     5.6770     7.1300    24.9910   -18.5400 
   70.7500     2.1990    89.8640     6.5690     5.7910     7.5460    24.4580   -19.3570 
   70.8750     2.1920    87.8050     6.7550     5.9570     7.8890    24.2600   -20.2350 
   71.0000     2.1850    87.4360     6.9110     6.1270     8.0200    24.3970   -21.1790 
   71.1250     2.1800    86.2790     6.9990     6.2460     8.3380    24.7830   -22.1750 
   71.2500     2.1770    81.9970     7.0300     6.3030     8.4320    25.2100   -23.0930 
   71.3750     2.1760    77.0450     7.0280     6.3080     8.5540    25.4720   -23.9230 
   71.5000     2.1770    74.9290     7.0220     6.2890     8.8240    25.4300   -24.6380 
   71.6250     2.1810    79.3470     7.0380     6.2750     9.2600    25.1030   -25.0630 
   71.7500     2.1870    85.8270     7.0730     6.2750     9.0190    24.7200   -25.1880 
   71.8750     2.1940    90.4310     7.1000     6.2680     8.5880    24.4750   -25.0610 
   72.0000     2.2030    91.5790     7.0800     6.2180     8.6330    24.4870   -24.7130 
   72.1250     2.2110    91.6970     6.9990     6.0980     9.4570    24.7240   -24.1130 
   72.2500     2.2180    92.7730     6.9510     5.9720    10.1620    25.0820   -23.3050 
   72.3750     2.2200    93.5340     7.0940     5.9510     9.1540    25.5760   -22.3120 
