~V
VERS. 2.00: Ver 2.00
~W
STRT.M 59.0000:
STOP.M 202.0000:
STEP.M 0.1250:
NULL. -999.2500:
UWI. F10133:
~C
DEPT.M :
GR.API :
RML.OHMM :
RI. :
RXO.OHMM :
CALI.CM :
SP.MV :
DEN.GM/CC :
~A
# ...
   81.5000    59.1150     7.0320     6.1600     8.4480    33.2640   -23.2850     2.1280 
   81.6250    63.3510     7.0880     6.1670     8.6190    33.0610   -23.2230     2.1060 
   81.7500    63.9130     7.1190     6.1680     8.8980    33.1630   -23.1000     2.1010 
   81.8750    60.5270     7.1230     6.1680     9.0870    33.4960   -22.9630     2.1020 
   82.0000    59.2520     7.1160     6.1750     9.1950    33.8830   -22.8660     2.0970 
   82.1250    63.8770     7.1210     6.2040     9.0460    34.2090   -22.6770     2.0690 
   82.2500    67.5870     7.1350     6.2510     8.7630    34.1840   -22.3970     2.0260 
   82.3750    67.9010     7.1340     6.3030     8.4550    33.8270   -22.1300     1.9880 
   82.5000    68.3280     7.0940     6.3360     8.4000    33.4890   -21.8300     1.9760 
   82.6250    71.1220     7.0100     6.3210     7.9770    33.2260   -21.4240     2.0030 
   82.7500    74.3670     6.9220     6.2690     7.5100    33.0900   -21.0920     2.0540 
   82.8750    77.9430     6.8720     6.2040     7.1180    32.8140   -20.8560     2.1120 
   83.0000    81.2640     6.8880     6.1570     7.2600    32.2350   -20.6470     2.1650 
   83.1250    79.4720     6.9830     6.1630     7.8320    31.9650   -20.6220     2.2010 
   83.2500    73.7430     7.1260     6.2160     8.5340    31.9070   -20.7670     2.2170 
   83.3750    68.6880     7.2920     6.3000     8.7470    31.7960   -20.9770     2.2130 
   83.5000    65.8760     7.4510     6.3890     8.8670    31.4660   -21.2650     2.1910 
   83.6250    64.0710     7.5650     6.4570     9.1310    31.1360   -21.6470     2.1580 
   83.7500    63.7630     7.6180     6.4920     9.2830    30.9770   -21.9410     2.1290 
   83.8750    65.6350     7.5940     6.4810     9.4010    30.9760   -22.0920     2.1070 
   84.0000    69.1460     7.4920     6.4130     8.9850    31.0100   -22.1520     2.0910 
   84.1250    73.3160     7.3250     6.2810     8.1820    30.6830   -21.9830     2.0800 
   84.2500    77.6840     7.1560     6.1250     7.9120    29.9630   -21.6220     2.0790 
   84.3750    81.1970     7.0510     5.9950     8.2360    29.3490   -21.2330     2.0920 
   84.5000    83.0010     7.0700     5.9450     7.4580    29.0460   -20.9210     2.1200 
   84.6250    86.3650     7.2620     6.0350     6.8950    28.8390   -20.7120     2.1570 
   84.7500    91.3110     7.5680     6.2410     7.7840    28.6560   -20.6470     2.1920 
   84.8750    92.6080     7.9030     6.5160     9.1150    28.5120   -20.7510     2.2170 
   85.0000    86.8490     8.1530     6.7780     9.8790    28.4200   -20.9350     2.2340 
   85.1250    79.3260     8.1740     6.9010    10.1820    28.4500   -21.1640     2.2410 
   85.2500    77.1670     7.9600     6.8330    10.3030    28.4810   -21.4850     2.2400 
   85.3750    79.0020     7.5700     6.5900    10.3240    28.4350   -21.7920     2.2270 
   85.5000    81.3620     7.1340     6.2560    10.1880    28.4100   -21.9010     2.2070 
   85.6250    84.0100     6.8300     5.9530     9.7380    28.2700   -21.8340     2.1880 
   85.7500    85.6240     6.7420     5.7720     8.7300    27.9890   -21.6660     2.1790 
   85.8750    84.7630     6.8750     5.7540     7.5460    27.8430   -21.3480     2.1810 
   86.0000    81.6530     7.1630     5.8940     7.3340    27.9350   -20.9440     2.1900 
   86.1250    77.4410     7.4760     6.1410     8.0680    28.2420   -20.5400     2.1960 
   86.2500    74.0010     7.6740     6.3690     8.9470    28.5750   -20.0140     2.1910 
   86.3750    73.0360     7.6870     6.4890     9.4880    28.9030   -19.3920     2.1720 
   86.5000    75.3560     7.5140     6.4550     9.4910    29.3010   -18.8150     2.1450 
   86.6250    76.2080     7.2140     6.2740     8.5830    29.4510   -18.1700     2.1210 
   86.7500    74.2160     6.9050     6.0440     7.8060    29.1280   -17.4520     2.1110 
   86.8750    73.0510     6.6560     5.8320     7.3570    28.7540   -16.7980     2.1170 
   87.0000    74.6770     6.4970     5.6780     7.2860    28.6120   -16.2050     2.1370 
   87.1250    78.2980     6.4380     5.6100     7.5030    28.6640   -15.6390     2.1640 
   87.2500    81.1320     6.4390     5.6040     7.7510    28.8020   -15.2380     2.1910 
   87.3750    82.2530     6.4780     5.6420     8.0620    29.0240   -15.0110     2.2160 
   87.5000    81.1210     6.5460     5.7110     8.3080    29.4180   -14.8270     2.2390 
   87.6250    78.6380     6.6570     5.8150     8.2940    30.0160   -14.7740     2.2560 
   87.7500    76.4890     6.8190     5.9580     8.1600    30.5680   -14.8550     2.2620 
   87.8750    74.3320     7.0290     6.1470     8.3060    31.0440   -14.8860     2.2510 
   88.0000    72.8330     7.2400     6.3650     8.7250    31.5640   -14.7800     2.2170 
   88.1250    73.0160     7.3370     6.5290     8.7500    31.9940   -14.5530     2.1560 
   88.2500    74.4820     7.2380     6.5460     8.3600    31.9230   -14.1030     2.0850 
   88.3750    77.8960     6.9110     6.3540     7.5550    30.8730   -13.3460     2.0280 
   88.5000    82.8390     6.4030     5.9590     6.5580    28.9850   -12.3950     2.0060 
   88.6250    86.3640     5.8410     5.4530     5.4570    27.3520   -11.3300     2.0390 
   88.7500    86.1320     5.3830     4.9910     4.6630    26.4050   -10.1800     2.1080 
   88.8750    84.7180     5.1220     4.6580     4.5810    26.0300    -9.1400     2.1860 
   89.0000    85.7630     5.1020     4.5050     4.7720    25.9830    -8.3740     2.2510 
   89.1250    90.5660     5.3600     4.5870     5.2730    25.9900    -7.8830     2.2830 
   89.2500    92.6530     5.8060     4.8620     5.9230    25.8000    -7.7400     2.2930 
   89.3750    90.1610     6.3670     5.2830     6.8230    25.5610    -8.0180     2.2940 
   89.5000    86.3870     6.9540     5.7890     7.3100    25.4640    -8.6440     2.2980 
   89.6250    84.3180     7.4560     6.2920     8.9320    25.6280    -9.6140     2.3050 
   89.7500    82.2770     7.8070     6.6950    10.5160    25.9140   -10.8180     2.3060 
   89.8750    79.1640     7.9710     6.9290    10.4420    26.2090   -12.0680     2.2900 
   90.0000    77.5420     7.9570     6.9790    10.2580    26.4300   -13.2300     2.2540 
   90.1250    78.2840     7.7980     6.8630    10.2080    26.3870   -14.3130     2.2090 
   90.2500    79.2900     7.6150     6.6910     9.9690    25.9090   -15.2290     2.1800 
   90.3750    79.2100     7.5160     6.5550     9.4360    25.1580   -15.9350     2.1810 
   90.5000    77.8210     7.6150     6.5460     9.3470    24.7270   -16.4660     2.2150 
   90.6250    76.2760     8.0440     6.7730     9.6250    24.8080   -16.7760     2.2590 
   90.7500    76.8310     8.7450     7.2330     9.7990    25.0520   -16.8540     2.2800 
   90.8750    80.2470     9.5860     7.8910     9.5330    25.1890   -16.8230     2.2560 
   91.0000    82.1080    10.3410     8.6100     8.7050    25.3000   -16.7910     2.1900 
   91.1250    79.1370    10.6900     9.1110     7.8070    25.6440   -16.7120     2.1070 
   91.2500    76.2610    10.5690     9.2180     7.6050    25.8550   -16.6450     2.0470 
   91.3750    76.6460    10.0620     8.9350     8.3020    25.6910   -16.6570     2.0280 
   91.5000    77.6580     9.3810     8.4270     9.4080    25.2740   -16.6890     2.0510 
   91.6250    78.2960     8.7960     7.9220     9.9670    24.9330   -16.7240     2.0990 
   91.7500    81.2680     8.4440     7.5560    10.2140    24.8400   -16.8760     2.1470 
   91.8750    84.9380     8.3300     7.3570    10.3920    24.8480   -17.0550     2.1840 
   92.0000    85.4950     8.3780     7.2930    10.4770    24.8660   -17.1670     2.2050 
   92.1250    82.2700     8.4860     7.3190    10.4020    24.8900   -17.3000     2.2110 
   92.2500    79.4680     8.5850     7.3840    10.2180    24.8810   -17.4120     2.2090 
   92.3750    79.8860     8.6890     7.4880    10.1450    24.8890   -17.4410     2.2090 
   92.5000    84.4260     8.8440     7.6470    10.2960    24.9630   -17.4730     2.2160 
   92.6250    88.1850     9.0810     7.8850    10.4950    25.0860   -17.4390     2.2310 
