~V
VERS. 2.00: Ver 2.00
~W
STRT.M 50.0000:
STOP.M 237.0000:
STEP.M 0.1250:
NULL. -999.2500:
UWI. F10163:
~C
DEPT.M :
DEN.GM/CC :
GR.API :
RML.OHMM :
RI. :
RXO.OHMM :
CALI.CM :
SP.MV :
~A
# ...
  196.2500     2.3620    59.5890    11.7070     9.1540     9.0190    24.3730   -11.4350 
  196.3750     2.3290    59.3860    12.5570     9.7480    10.9130    24.4450   -11.5890 
  196.5000     2.2920    56.9510    13.6330    10.5500    14.3590    25.0060   -11.6760 
  196.6250     2.2710    51.2680    14.6710    11.4120    17.4090    25.6790   -11.7550 
  196.7500     2.2720    47.6830    15.3010    12.0490    18.0220    26.0290   -11.8440 
  196.8750     2.2890    48.8790    15.2190    12.1870    17.0620    25.9630   -11.8730 
  197.0000     2.3080    52.0850    14.3220    11.6760    16.0560    25.7480   -11.7740 
  197.1250     2.3160    54.3820    12.7690    10.5700    13.6950    25.9260   -11.5750 
  197.2500     2.3190    54.7900    11.1400     9.3130    10.5890    26.0350   -11.3370 
  197.3750     2.3270    53.9330     9.1540     8.1980     8.3850    25.9590   -11.0950 
  197.5000     2.3440    54.4450     8.1390     7.3810     7.0970    25.6230   -10.9130 
  197.6250     2.3630    61.4220     7.8670     6.9430     6.7680    25.3970   -10.8640 
  197.7500     2.3710    73.7850     7.8940     6.7720     7.1180    25.5430   -10.9310 
  197.8750     2.3610    87.7010     8.0610     6.7740     7.3160    25.6910   -11.1220 
  198.0000     2.3400    97.8460     8.2290     6.8500     7.0020    25.6390   -11.4810 
  198.1250     2.3240    99.4050     8.3100     6.9120     6.9270    25.2520   -12.0130 
  198.2500     2.3240    96.8160     8.3260     6.9350     7.1370    25.1320   -12.6370 
  198.3750     2.3390    97.1190     8.3330     6.9380     7.1230    24.7870   -13.3850 
  198.5000     2.3600   100.5710     8.3800     6.9580     7.0240    24.5880   -14.2210 
  198.6250     2.3720   101.5020     8.4840     7.0210     7.3530    24.7940   -15.0350 
  198.7500     2.3670    99.7090     8.6160     7.1190     7.5910    24.9510   -15.7320 
  198.8750     2.3480    98.0090     8.7820     7.2600     7.6840    24.9030   -16.3150 
  199.0000     2.3200    94.7940     9.0330     7.4850     7.7160    25.1700   -16.7420 
  199.1250     2.2990    86.0950     9.4500     7.8570     7.9770    25.6300   -16.9050 
  199.2500     2.2970    80.1730     9.9790     8.3260     8.5580    25.9510   -16.8490 
  199.3750     2.3150    82.5140    10.4730     8.7810     9.5700    26.0400   -16.5360 
  199.5000     2.3460    87.9980    10.7290     9.0700    10.8660    25.7910   -15.9490 
  199.6250     2.3700    89.4240    10.5580     9.0260    11.4680    25.6160   -15.1080 
  199.7500     2.3790    88.9840    10.1270     8.7330    10.9000    25.6520   -14.2000 
  199.8750     2.3740    90.2550     9.6700     8.3350     8.9360    25.6240   -13.3240 
  200.0000     2.3660    90.4020     9.3950     7.9990     7.3380    25.8540   -12.5370 
  200.1250     2.3620    88.1420     9.4220     7.8630     7.7750    26.0500   -11.9160 
  200.2500     2.3550    88.1140     9.6420     7.9050     8.8040    26.0990   -11.4990 
  200.3750     2.3370    89.7580     9.9290     8.0570     9.3310    25.9890   -11.2570 
  200.5000     2.3080    90.3090    10.1530     8.2240     9.2520    26.2990   -11.1630 
  200.6250     2.2820    90.4010    10.2050     8.3110     8.9120    26.8180   -11.2110 
  200.7500     2.2730    92.5010    10.1530     8.3300     8.8820    26.8250   -11.3470 
  200.8750     2.2840    95.2270    10.1810     8.3800     9.0540    25.9440   -11.5050 
  201.0000     2.3140    96.4350    10.5550     8.6250     9.3060    24.9950   -11.6400 
  201.1250     2.3590    96.7040    11.6060     9.3210     9.8450    24.7950   -11.7370 
  201.2500     2.4140    96.5320    13.2180    10.4820    10.6210    24.5610   -11.7830 
  201.3750     2.4750    94.2210    15.0080    11.9460    12.4180    24.3830   -11.7690 
  201.5000     2.5310    90.6500    16.2200    13.2110    16.9310    24.2570   -11.7070 
  201.6250     2.5470    87.0380    15.6710    13.2810    24.1640    24.0850   -11.6210 
  201.7500     2.5070    81.5200    13.5110    11.9950    23.6070    24.1670   -11.4720 
  201.8750     2.4180    74.0340    10.6540     9.9150    14.4570    24.0400   -11.2260 
  202.0000     2.3110    67.9050     8.1280     7.8430     7.5220    23.9130   -10.8520 
  202.1250     2.2260    66.0150     6.5610     6.3610     5.5130    23.9280   -10.3320 
  202.2500     2.1800    65.7330     5.7630     5.4650     4.9410    23.8870    -9.6740 
  202.3750     2.1750    67.0200     5.5220     5.0630     4.8650    23.6640    -8.9250 
  202.5000     2.2050    71.7860     5.6320     5.0310     4.9480    23.7130    -8.0930 
  202.6250     2.2530    76.5780     5.9290     5.2560     5.0860    23.8570    -7.2340 
  202.7500     2.3010    77.1490     6.2500     5.5750     5.3810    24.2850    -6.4390 
  202.8750     2.3440    77.1470     6.5220     5.9020     5.7040    24.3850    -5.7180 
  203.0000     2.3760    80.3670     6.6990     6.1680     5.9950    24.4170    -5.1390 
  203.1250     2.3980    84.2960     6.7120     6.2880     6.2900    24.4460    -4.6880 
  203.2500     2.4090    86.0470     6.5630     6.2570     6.3780    24.3590    -4.2850 
  203.3750     2.4100    85.2030     6.2890     6.0900     6.3880    24.2070    -3.9780 
  203.5000     2.3990    83.1090     5.9630     5.8360     6.2640    23.9880    -3.7660 
  203.6250     2.3760    78.2410     5.6900     5.5650     5.8010    23.4300    -3.5690 
  203.7500     2.3510    70.7680     5.5280     5.3450     5.2730    22.5500    -3.3330 
  203.8750     2.3340    64.6420     5.4920     5.2120     4.9860    21.9730    -3.0640 
  204.0000     2.3290    64.2290     5.5630     5.1770     4.8840    21.5500    -2.7470 
  204.1250     2.3370    71.1030     5.7030     5.2320     4.8520    21.2660    -2.3610 
  204.2500     2.3500    77.8030     5.8630     5.3310     4.9290    21.2420    -1.8890 
  204.3750     2.3610    80.7670     6.0190     5.4460     5.0010    21.5540    -1.3260 
  204.5000     2.3680    80.5680     6.1650     5.5540     5.1490    22.5310    -0.7330 
  204.6250     2.3690    76.2820     6.2920     5.6380     5.3110    23.1730    -0.0900 
  204.7500     2.3680    71.5670     6.3890     5.6980     5.4330    23.2640     0.5800 
  204.8750     2.3670    69.7590     6.4470     5.7370     5.5500    23.3820     1.2040 
  205.0000     2.3650    71.7090     6.4780     5.7690     5.6530    23.3850     1.7700 
  205.1250     2.3600    74.4920     6.5330     5.8270     5.7110    23.4550     2.1930 
  205.2500     2.3490    75.8230     6.6880     5.9430     5.7680    23.5060     2.3590 
  205.3750     2.3310    75.6460     7.0120     6.1530     5.9350    23.4240     2.3150 
  205.5000     2.3080    75.3840     7.5380     6.4880     6.3300    23.5070     2.1300 
  205.6250     2.2910    76.6620     8.2880     6.9980     6.8980    23.5600     1.7680 
  205.7500     2.2850    78.8830     9.1810     7.6570     7.7750    23.6080     1.1990 
  205.8750     2.2950    79.0630    10.1460     8.4310     8.4290    23.6150     0.4200 
  206.0000     2.3130    78.1240    11.1000     9.2620     9.0350    23.5550    -0.5130 
  206.1250     2.3310    80.1160    11.9500    10.0650     9.8620    23.6280    -1.4450 
  206.2500     2.3400    83.8410    12.6730    10.7830    10.5470    23.6830    -2.2890 
  206.3750     2.3400    83.7710    13.2890    11.4090    10.8870    23.6940    -3.0320 
  206.5000     2.3320    78.5570    13.8560    11.9860    11.3560    23.6910    -3.6680 
  206.6250     2.3210    75.3230    14.4300    12.5740    12.4040    23.6760    -4.2040 
  206.7500     2.3090    76.7100    15.0030    13.1930    13.5430    23.6520    -4.6300 
  206.8750     2.2970    78.3210    15.4930    13.7970    15.1460    23.6650    -4.8400 
  207.0000     2.2890    77.6740    15.7650    14.2680    16.6330    23.6170    -4.8220 
  207.1250     2.2910    76.4060    15.6000    14.3900    16.1100    23.6010    -4.7530 
  207.2500     2.3020    76.6720    15.0020    14.1130    12.6290    23.5750    -4.7210 
  207.3750     2.3190    77.1320    14.0290    13.4560     9.3700    23.4840    -4.6850 
