~V
VERS. 2.00: Ver 2.00
~W
STRT.M 49.0000:
STOP.M 290.0000:
STEP.M 0.1250:
NULL. -999.2500:
UWI. F10103:
~C
DEPT.M :
DEN.GM/CC :
SP.MV :
GR.API :
RML.OHMM :
RI. :
RXO.OHMM :
CALI.CM :
~A
# ...
   60.2500     2.2470    -4.5500    69.7990     6.3880     6.9470     7.0610    24.2560 
   60.3750     2.2430    -4.9010    72.1040     6.2230     6.7490     7.2310    24.2200 
   60.5000     2.2400    -5.1980    76.3600     5.9470     6.4730     7.4240    24.1690 
   60.6250     2.2410    -5.4410    80.1550     5.6730     6.2150     7.3400    24.1360 
   60.7500     2.2490    -5.6320    81.4360     5.6290     6.1650     7.2380    24.1310 
   60.8750     2.2650    -5.7870    82.1310     5.9800     6.4660     7.5210    24.1450 
   61.0000     2.2930    -5.9350    81.0400     6.8150     7.2120     9.4400    24.1780 
   61.1250     2.3330    -6.1210    76.0500     8.0680     8.3570    13.5010    24.2390 
   61.2500     2.3860    -6.3320    69.0290     9.4220     9.6320    20.1490    24.3310 
   61.3750     2.4410    -6.5920    63.3800    10.3430    10.5450    29.8980    24.4220 
   61.5000     2.4840    -6.9140    61.7520    10.3890    10.6810    28.5890    24.4800 
   61.6250     2.5000    -7.2910    63.9780     9.4090     9.8830    14.4280    24.5310 
   61.7500     2.4790    -7.7440    71.1000     7.8070     8.4490     7.9950    24.6100 
   61.8750     2.4400    -8.2720    79.1270     6.4440     7.1190     6.5890    24.7110 
   62.0000     2.4020    -8.8700    82.3360     5.6690     6.2490     6.6610    24.7980 
   62.1250     2.3730    -9.5350    80.7410     5.5000     5.9320     6.7310    24.8560 
   62.2500     2.3550   -10.2760    79.3920     5.8610     6.1820     6.8480    24.8960 
   62.3750     2.3380   -11.0640    81.4340     6.4870     6.7750     7.1590    24.9010 
   62.5000     2.3180   -11.8570    81.6060     7.2240     7.5590     7.7640    24.8540 
   62.6250     2.2910   -12.6130    73.6110     7.9270     8.3680     8.8830    24.7470 
   62.7500     2.2620   -13.3130    64.5830     8.4290     8.9920     9.8290    24.5520 
   62.8750     2.2360   -13.9420    63.3110     8.6680     9.3330    10.2710    24.3520 
   63.0000     2.2160   -14.4910    66.3680     8.6460     9.3950    10.6350    24.2360 
   63.1250     2.2030   -14.9250    68.1560     8.4870     9.2830    11.0270    24.2140 
   63.2500     2.1970   -15.1310    67.7820     8.3820     9.1480    11.2400    24.2300 
   63.3750     2.1960   -15.1580    66.6120     8.3890     9.0750    11.3380    24.2370 
   63.5000     2.1970   -15.0580    62.7420     8.4590     9.0510    11.4390    24.2400 
   63.6250     2.2000   -14.8630    58.0370     8.5070     9.0160    11.2310    24.2440 
   63.7500     2.2090   -14.5500    58.9920     8.4030     8.8710    10.5800    24.2440 
   63.8750     2.2240   -14.1810    62.3860     8.1010     8.5790     9.4800    24.2420 
   64.0000     2.2440   -13.7690    64.1370     7.6150     8.1330     8.5640    24.2350 
   64.1250     2.2670   -13.3390    62.9680     7.0210     7.5620     8.3530    24.2210 
   64.2500     2.2890   -13.0100    63.9930     6.4500     6.9490     7.8410    24.2000 
   64.3750     2.3070   -12.8590    70.2480     6.0570     6.4300     6.6620    24.2030 
   64.5000     2.3190   -12.9170    78.5730     5.9600     6.1170     5.9830    24.2290 
   64.6250     2.3240   -13.1870    82.0000     6.2080     6.0850     6.3280    24.2490 
   64.7500     2.3180   -13.6950    77.1320     6.7990     6.3910     7.4690    24.2550 
   64.8750     2.3010   -14.3210    69.1460     7.5660     6.9240     9.4280    24.2550 
   65.0000     2.2770   -15.0000    61.5360     8.3610     7.5840    11.1030    24.2550 
   65.1250     2.2510   -15.7080    57.0440     9.0590     8.2520    11.6420    24.2550 
   65.2500     2.2310   -16.3950    54.8250     9.5990     8.8060    11.5540    24.2550 
   65.3750     2.2210   -16.9680    53.3490    10.0690     9.2370    11.4460    24.2540 
   65.5000     2.2210   -17.3680    51.7740    10.5200     9.5760    11.4020    24.2500 
   65.6250     2.2320   -17.6060    49.8620    10.9230     9.8480    11.6450    24.2380 
   65.7500     2.2510   -17.6860    49.1230    11.1350     9.9990    12.5350    24.2080 
   65.8750     2.2680   -17.7000    49.1380    11.0610     9.9600    14.1000    24.1530 
   66.0000     2.2760   -17.7130    49.9190    10.6570     9.6690    14.9620    24.0780 
   66.1250     2.2690   -17.7440    51.6280     9.9890     9.1510    11.9690    24.0130 
   66.2500     2.2470   -17.7540    54.1880     9.2630     8.5420    10.2940    24.0080 
   66.3750     2.2210   -17.7350    54.4260     8.7280     8.0410     9.6620    24.0480 
   66.5000     2.1980   -17.7230    51.2200     8.4920     7.7510     9.6030    24.1220 
   66.6250     2.1800   -17.7060    48.4220     8.5390     7.6880     9.7890    24.2050 
   66.7500     2.1610   -17.6850    51.6880     8.7680     7.8120    10.0430    24.2620 
   66.8750     2.1390   -17.6340    56.5600     8.9960     7.9840    10.1690    24.2260 
   67.0000     2.1130   -17.5120    58.1510     9.1270     8.1150    10.1000    24.1570 
   67.1250     2.0900   -17.3030    56.3600     9.1250     8.1530     9.9440    24.0950 
   67.2500     2.0790   -16.9970    56.2590     8.9910     8.0710    10.0010    24.0050 
   67.3750     2.0820   -16.6460    58.7340     8.7800     7.9070    10.0360    23.8530 
   67.5000     2.1010   -16.2590    59.9150     8.5190     7.6810     9.8450    23.6690 
   67.6250     2.1310   -15.8640    58.8780     8.2290     7.4190     9.3140    23.5510 
   67.7500     2.1650   -15.4850    59.6310     7.9430     7.1500     8.6690    23.5680 
   67.8750     2.1940   -15.1450    62.9790     7.7170     6.9180     8.2630    23.6410 
   68.0000     2.2140   -14.8750    66.2310     7.6040     6.7670     8.2570    23.6940 
   68.1250     2.2220   -14.6960    67.8160     7.6400     6.7270     8.3020    23.7280 
   68.2500     2.2200   -14.6450    67.2520     7.8320     6.8180     8.6090    23.7800 
   68.3750     2.2110   -14.6570    65.7360     8.0880     6.9840     9.1360    23.8360 
   68.5000     2.2000   -14.6860    64.6380     8.3200     7.1630     9.6320    23.8700 
   68.6250     2.1900   -14.6920    64.6550     8.4410     7.2860     9.7270    23.8700 
   68.7500     2.1850   -14.6480    63.7520     8.3720     7.2730     9.6620    23.8440 
   68.8750     2.1850   -14.5590    61.1420     8.1590     7.1350     9.5080    23.7960 
   69.0000     2.1900   -14.4210    59.5280     7.8800     6.9160     9.1590    23.7220 
   69.1250     2.1980   -14.2430    61.7310     7.6380     6.6910     8.6250    23.6410 
   69.2500     2.2060   -14.0370    66.5060     7.5630     6.5620     8.2390    23.6200 
   69.3750     2.2110   -13.8260    69.0070     7.6920     6.5770     8.4530    23.6370 
   69.5000     2.2140   -13.6220    68.3890     8.0300     6.7590     8.9640    23.6630 
   69.6250     2.2190   -13.4320    65.6670     8.5360     7.0960     9.4850    23.6860 
   69.7500     2.2290   -13.2140    63.0130     9.1180     7.5430    10.5130    23.7270 
   69.8750     2.2460   -12.9490    62.7930     9.6220     7.9850    12.3030    23.7850 
   70.0000     2.2660   -12.6180    64.9280     9.9200     8.3140    14.2220    23.8330 
   70.1250     2.2810   -12.1790    66.8920     9.9200     8.4350    14.8410    23.8460 
   70.2500     2.2830   -11.5910    66.1860     9.5450     8.2490    12.3280    23.8470 
   70.3750     2.2720   -10.8940    66.5790     8.9230     7.8260    10.3090    23.8780 
   70.5000     2.2550   -10.1200    69.8730     8.1880     7.2580     9.1490    23.9750 
   70.6250     2.2430    -9.3240    75.3570     7.4860     6.6670     8.1260    24.1540 
   70.7500     2.2460    -8.5820    81.1890     6.9800     6.1920     7.0350    24.3640 
   70.8750     2.2610    -7.9110    84.2880     6.7110     5.8910     6.5320    24.5350 
   71.0000     2.2820    -7.3210    84.6090     6.6700     5.7700     6.4950    24.6450 
   71.1250     2.3030    -6.8470    83.6860     6.7970     5.7960     6.7780    24.6960 
   71.2500     2.3160    -6.5150    82.7460     6.9930     5.9080     7.1590    24.6830 
   71.3750     2.3180    -6.2940    81.6390     7.1410     6.0190     7.3270    24.6260 
