~V
VERS. 2.00: Ver 2.00
~W
STRT.M 55.0000:
STOP.M 215.0000:
STEP.M 0.1250:
NULL. -999.2500:
UWI. F10125:
~C
DEPT.M :
GR.API :
RML.OHMM :
RI. :
RXO.OHMM :
CALI.CM :
DEN.GM/CC :
SP.MV :
~A
# ...
  167.5000    98.0280    10.1400     7.4750     8.5530    24.9760     2.3530   -24.7910 
  167.6250    96.1280     9.7980     7.3310     8.5750    25.1310     2.3330   -24.1960 
  167.7500    92.1680     9.2710     7.0500     8.4540    25.1700     2.3040   -23.5060 
  167.8750    85.2230     8.6500     6.6960     7.8760    25.0670     2.2770   -22.7650 
  168.0000    74.7940     8.0370     6.3390     6.9720    24.6740     2.2720   -21.9820 
  168.1250    63.3870     7.5460     6.0520     6.2920    24.0840     2.3070   -21.1750 
  168.2500    55.1540     7.2070     5.8580     6.0410    23.6080     2.3570   -20.3670 
  168.3750    50.5140     7.0130     5.7560     5.8370    23.4900     2.3930   -19.6150 
  168.5000    47.2680     6.9250     5.7270     5.6850    23.6700     2.4070   -18.9110 
  168.6250    45.1650     6.8890     5.7520     5.5740    23.9330     2.4070   -18.2930 
  168.7500    47.3470     6.8560     5.7960     5.4770    24.0970     2.4020   -17.7780 
  168.8750    53.0160     6.8230     5.8470     5.4140    24.1480     2.3940   -17.3600 
  169.0000    55.2860     6.8030     5.8990     5.3500    23.9760     2.3860   -17.0480 
  169.1250    50.5970     6.8010     5.9460     5.3440    23.2550     2.3800   -16.8680 
  169.2500    46.8310     6.7930     5.9710     5.3290    22.3080     2.3780   -16.7970 
  169.3750    48.3860     6.7510     5.9560     5.3380    21.7050     2.3820   -16.7680 
  169.5000    54.4390     6.6490     5.8820     5.4740    21.5790     2.3870   -16.7910 
  169.6250    60.7260     6.4770     5.7460     5.5810    21.3680     2.3910   -16.8650 
  169.7500    67.4070     6.2830     5.5860     5.6350    20.6990     2.3970   -16.9790 
  169.8750    74.0800     6.1380     5.4530     5.7820    19.8740     2.4070   -17.1070 
  170.0000    78.1670     6.1180     5.3980     6.3950    19.2970     2.4200   -17.2410 
  170.1250    77.5530     6.3240     5.4830     5.5820    19.5040     2.4280   -17.3690 
  170.2500    77.8230     6.5980     5.7080     5.4780    20.2550     2.4200   -17.4600 
  170.3750    82.2310     6.7570     6.0600     5.9460    21.0500     2.3890   -17.5420 
  170.5000    89.7250     7.1310     6.5020     6.8890    21.5460     2.3470   -17.6240 
  170.6250    96.8020     7.5340     6.9860     7.7090    21.7120     2.3180   -17.7320 
  170.7500    99.6560     8.0920     7.4930     8.5490    21.7690     2.3160   -17.8280 
  170.8750    96.4730     8.7260     8.0790     9.3880    21.8280     2.3370   -17.9200 
  171.0000    88.4460     9.5460     8.8390    10.2270    22.0100     2.3680   -18.0200 
  171.1250    79.8790    10.6710     9.8810    10.7560    22.2970     2.3860   -18.1250 
  171.2500    75.3150    12.0130    11.1230    11.5400    22.5300     2.3830   -18.2450 
  171.3750    75.8130    13.3910    12.3990    14.2570    22.7000     2.3740   -18.3840 
  171.5000    78.3500    14.4970    13.4230    18.2020    22.9140     2.3710   -18.5130 
  171.6250    78.3990    14.8900    13.7870    18.7890    23.1600     2.3720   -18.6230 
  171.7500    77.1430    14.6340    13.5500    14.8290    23.3140     2.3670   -18.7200 
  171.8750    78.8700    14.0080    12.9700    12.8520    23.3760     2.3580   -18.7990 
  172.0000    83.8760    13.3670    12.3770    13.1880    23.4250     2.3560   -18.8480 
  172.1250    87.1590    13.0670    12.0990    14.1340    23.5100     2.3640   -18.8780 
  172.2500    85.3860    13.2180    12.2390    14.2860    23.5940     2.3750   -18.8870 
  172.3750    81.0580    13.8630    12.8360    15.2740    23.6330     2.3760   -18.8770 
  172.5000    77.7660    14.9840    13.8740    17.2260    23.6300     2.3670   -18.8710 
  172.6250    77.9410    16.6290    15.3970    16.1660    23.6460     2.3570   -18.8700 
  172.7500    79.3730    18.6920    17.3070    18.8670    23.6740     2.3560   -18.8850 
  172.8750    80.8900    21.0500    19.4900    22.9820    23.7140     2.3620   -18.9140 
  173.0000    80.6160    23.4380    21.7020    25.7900    23.8120     2.3610   -18.9610 
  173.1250    77.2550    25.3790    23.4990    23.0470    23.9860     2.3400   -19.0140 
  173.2500    75.4010    26.5880    24.6190    22.0370    24.0760     2.3150   -19.0790 
  173.3750    77.6140    26.9530    24.9570    23.6390    24.0980     2.3020   -19.1400 
  173.5000    82.4280    26.5940    24.6240    22.5860    24.0840     2.3070   -19.1860 
  173.6250    86.5220    25.8020    23.8910    23.0420    24.0520     2.3180   -19.2330 
  173.7500    88.8040    25.0620    23.2050    25.1680    24.0100     2.3280   -19.2740 
  173.8750    88.5250    24.8020    22.9650    29.7200    23.9740     2.3370   -19.3140 
  174.0000    85.6970    25.5690    23.6750    33.4670    23.9350     2.3460   -19.3680 
  174.1250    82.1060    28.5740    26.4580    38.7450    23.8420     2.3460   -19.4250 
  174.2500    77.9690    34.9900    32.3980    47.8650    23.7570     2.3330   -19.4950 
  174.3750    71.7410    46.9540    43.4760    57.0960    23.6470     2.3070   -19.5920 
  174.5000    64.3530    71.5750    62.2220    60.1250    23.4830     2.2740   -19.7020 
  174.6250    60.6510   103.5880    91.7320    62.3070    23.4120     2.2460   -19.8120 
  174.7500    61.2480   142.4310   126.1880    69.7340    23.4850     2.2160   -19.9060 
  174.8750    63.2700   175.3520   154.5510    78.8270    23.5840     2.1810   -19.9860 
  175.0000    64.3110   187.3440   166.0840    80.4100    23.6510     2.1640   -20.0550 
  175.1250    63.8010   177.2330   158.8650    72.5720    23.7070     2.1960   -20.1020 
  175.2500    64.5970   160.8300   144.6530    67.5220    23.8300     2.2550   -20.1210 
  175.3750    66.9110   141.2460   127.1280    57.0440    23.8910     2.3080   -20.1130 
  175.5000    69.2430   116.0600   104.9430    47.2510    23.7620     2.3410   -20.0840 
  175.6250    71.6200    85.5900    77.6760    40.2860    23.4640     2.3550   -20.0320 
  175.7500    73.7580    57.5070    52.0330    36.2340    23.2640     2.3500   -19.9830 
  175.8750    75.3180    36.5060    32.8790    24.4550    23.4080     2.3210   -19.9060 
  176.0000    77.7780    23.0450    20.8850    12.5810    23.9680     2.2800   -19.8080 
  176.1250    82.2950    15.9970    14.7670     9.0440    24.5240     2.2490   -19.7040 
  176.2500    86.6480    12.3310    11.5020     8.0270    24.7910     2.2370   -19.5940 
  176.3750    88.5320    10.7640     9.9180     7.8640    24.8520     2.2430   -19.4840 
  176.5000    89.1270    10.4220     9.3600     8.0360    24.8240     2.2590   -19.3920 
  176.6250    89.7090    10.6800     9.4330     8.4950    24.7560     2.2810   -19.2890 
  176.7500    88.3660    10.9890     9.6840     8.5800    24.8400     2.3050   -19.1750 
  176.8750    85.2650    11.1810     9.9170     8.3400    25.0440     2.3280   -19.0970 
  177.0000    82.3590    11.2500    10.0620     8.2260    25.3540     2.3470   -19.0370 
  177.1250    81.6590    11.2570    10.1250     8.4450    25.5450     2.3560   -19.0150 
  177.2500    83.2870    11.2540    10.1480     8.7810    25.5980     2.3550   -19.0150 
  177.3750    86.0120    11.2500    10.1340     8.9650    25.3820     2.3500   -19.0280 
  177.5000    86.5840    11.2400    10.0760     9.2240    25.0790     2.3490   -19.0420 
  177.6250    84.4410    11.2010     9.9460     9.1500    24.9040     2.3590   -19.0760 
  177.7500    84.8190    11.1250     9.7500     9.1810    24.9320     2.3750   -19.1170 
  177.8750    87.9400    11.0150     9.5030     8.9240    24.9820     2.3860   -19.1580 
  178.0000    89.2330    10.8920     9.2400     8.7280    24.9510     2.3910   -19.1930 
  178.1250    87.2970    10.7950     9.0140     8.8740    24.9050     2.3890   -19.2100 
  178.2500    86.6520    10.7530     8.8530     9.0070    24.8730     2.3860   -19.2110 
  178.3750    87.6830    10.7750     8.7660     9.2720    24.8770     2.3830   -19.1980 
  178.5000    88.4640    10.8570     8.7450    10.1450    24.8450     2.3820   -19.1730 
  178.6250    89.7900    10.9880     8.7720    11.1820    24.7770     2.3840   -19.1120 
