~V
VERS. 2.00: Ver 2.00
~W
STRT.M 60.0000:
STOP.M 245.0000:
STEP.M 0.1250:
NULL. -999.2500:
UWI. F10162:
~C
DEPT.M :
SP.MV :
DEN.GM/CC :
GR.API :
RML.OHMM :
RI. :
RXO.OHMM :
CALI.CM :
~A
   60.0000    66.6530     2.2420    57.8040     0.1670     0.3340     3.7840    25.7620 
   60.1250    54.7910     1.9760    67.8070     0.6800     0.7090     4.6960    27.1270 
   60.2500    43.4110     1.7580    78.2310     1.4050     1.2960     4.7250    29.6860 
   60.3750    32.6050     1.6290    83.5870     2.1540     2.0190     4.3250    33.0170 
   60.5000    22.4910     1.6090    84.4170     2.6940     2.7090     4.1860    34.4320 
   60.6250    13.8610     1.7060    88.6120     2.9170     3.2340     4.2510    32.2350 
   60.7500     7.3460     1.8610    96.9350     3.0360     3.6710     4.4290    28.1030 
   60.8750     3.2610     2.0190   102.8930     3.2110     4.0930     4.7700    25.5230 
   61.0000     0.8230     2.1400   101.9940     3.4970     4.5240     5.1250    24.5660 
   61.1250    -1.0280     2.2040    97.0710     3.8850     4.9660     5.6540    24.3360 
   61.2500    -2.8260     2.2370    95.0460     4.3160     5.4150     6.0650    24.1920 
   61.3750    -4.6140     2.2580    92.9930     4.7410     5.8540     6.2080    24.0570 
   61.5000    -6.4020     2.2760    88.1210     5.0980     6.2280     6.5590    23.8780 
   61.6250    -8.1520     2.2910    84.7860     5.2950     6.4250     7.4950    23.7530 
   61.7500    -9.7920     2.3000    87.1790     5.3300     6.4160     7.7770    23.7300 
   61.8750   -11.1970     2.3010    91.1770     5.2450     6.2300     7.2650    23.7810 
   62.0000   -12.3030     2.2920    91.6580     5.1240     5.9650     6.5090    23.8860 
   62.1250   -13.2110     2.2710    90.1750     5.0690     5.7500     6.0470    24.0650 
   62.2500   -14.0690     2.2470    91.4150     5.1160     5.6520     6.3200    24.2030 
   62.3750   -14.7730     2.2280    93.0450     5.2530     5.6860     6.6980    24.2850 
   62.5000   -15.2840     2.2160    91.7050     5.4390     5.8250     6.9290    24.3610 
   62.6250   -15.8420     2.2070    87.0020     5.6230     6.0140     7.1370    24.5330 
   62.7500   -16.5440     2.1940    83.5500     5.7760     6.1900     7.5260    24.7240 
   62.8750   -17.3310     2.1780    82.8970     5.9060     6.3370     7.4910    24.7800 
   63.0000   -18.1580     2.1650    82.3940     6.0360     6.4710     7.7290    24.6270 
   63.1250   -18.8790     2.1600    79.8410     6.1840     6.6170     7.7640    24.3900 
   63.2500   -19.4320     2.1620    78.3030     6.3300     6.7660     7.6410    24.2600 
   63.3750   -19.9140     2.1650    79.2240     6.4120     6.8630     7.7650    24.1490 
   63.5000   -20.2070     2.1680    81.6160     6.3440     6.8140     8.0830    24.1240 
   63.6250   -20.1120     2.1770    84.1280     6.0210     6.4900     7.9380    24.3630 
   63.7500   -19.6810     2.1930    86.4660     5.5160     5.9450     7.6340    24.7440 
   63.8750   -19.1260     2.2140    89.3980     4.9820     5.3090     6.7740    25.0910 
   64.0000   -18.6830     2.2310    95.3000     4.6360     4.7870     5.5100    25.2800 
   64.1250   -18.3700     2.2500   102.4190     4.7860     4.6790     5.1140    25.2780 
   64.2500   -18.1440     2.2910   102.0560     5.5510     5.1330     5.4160    25.2800 
   64.3750   -18.1130     2.3660    90.9060     7.0390     6.2900     7.2700    25.3300 
   64.5000   -18.4300     2.4670    78.3580     9.1920     8.1920    12.7880    25.3540 
   64.6250   -19.1360     2.5490    73.1440    11.4360    10.5370    26.2510    25.1860 
   64.7500   -20.1970     2.5710    70.6620    12.7460    12.2380    29.6570    24.9310 
   64.8750   -21.5270     2.5230    66.5610    12.5480    12.4120    20.0800    24.6260 
   65.0000   -22.8480     2.4280    62.3250    11.0980    11.1740    11.3810    24.3940 
   65.1250   -24.1270     2.3300    62.8320     9.3230     9.4760     8.9680    24.3460 
   65.2500   -25.4120     2.2530    65.5410     8.0240     8.1260     8.4050    24.4120 
   65.3750   -26.5830     2.1980    66.1030     7.3350     7.2860     8.4960    24.5770 
   65.5000   -27.5580     2.1540    63.0240     7.1080     6.8820     8.4990    24.9250 
   65.6250   -28.3000     2.1200    60.7230     7.1600     6.7850     8.3190    25.3390 
   65.7500   -28.8550     2.1000    63.1090     7.2830     6.7960     8.1070    25.4760 
   65.8750   -29.2710     2.0980    68.3290     7.3960     6.8370     8.1110    25.1450 
   66.0000   -29.6400     2.1120    72.3830     7.4610     6.8700     8.1590    24.7420 
   66.1250   -29.9760     2.1340    72.3420     7.4490     6.8700     8.1950    24.6270 
   66.2500   -30.2820     2.1550    69.8920     7.3680     6.8250     8.2430    24.7480 
   66.3750   -30.5280     2.1650    67.6720     7.2410     6.7300     8.2690    25.0470 
   66.5000   -30.6650     2.1600    67.1810     7.1120     6.5970     8.1930    25.6440 
   66.6250   -30.6720     2.1360    67.3880     7.0540     6.4680     7.8090    26.7040 
   66.7500   -30.6420     2.1040    66.3360     7.1020     6.3910     7.5690    28.0350 
   66.8750   -30.6120     2.0770    63.9070     7.2550     6.3870     7.9250    29.0930 
   67.0000   -30.5190     2.0640    62.5230     7.4720     6.4500     9.5030    29.4910 
   67.1250   -30.3510     2.0680    61.9180     7.6730     6.5490    13.8230    29.1280 
   67.2500   -30.1590     2.0800    59.3130     7.7890     6.6200    15.7810    28.5110 
   67.3750   -29.9180     2.0960    56.5350     7.7930     6.6230    11.3090    28.0660 
   67.5000   -29.6940     2.1100    58.1560     7.7010     6.5430     8.0110    27.8510 
   67.6250   -29.6390     2.1120    62.9220     7.5630     6.3930     7.2910    27.6990 
   67.7500   -29.6300     2.0960    63.7880     7.4530     6.2350     7.3060    27.6610 
   67.8750   -29.4870     2.0650    61.8680     7.4140     6.1150     7.3490    27.7980 
   68.0000   -29.3010     2.0350    60.6340     7.4640     6.0670     7.4520    27.8780 
   68.1250   -29.2200     2.0280    60.4170     7.6000     6.1120     7.8220    27.4830 
   68.2500   -29.1350     2.0460    60.7740     7.7570     6.2120     8.2790    26.5620 
   68.3750   -29.0700     2.0780    62.7890     7.8770     6.3240     8.8360    25.5850 
   68.5000   -29.0680     2.1040    66.0290     7.9000     6.3910     9.1570    25.1150 
   68.6250   -28.9520     2.1110    68.9210     7.7720     6.3390     8.9440    25.0740 
   68.7500   -28.7120     2.1100    71.6840     7.5380     6.1790     8.6100    25.1800 
   68.8750   -28.4330     2.1150    74.8010     7.2630     5.9530     8.1030    25.2960 
   69.0000   -28.1430     2.1350    78.2150     7.0330     5.7300     7.7950    25.2720 
   69.1250   -27.7590     2.1620    81.8270     6.9430     5.5830     7.2700    25.0340 
   69.2500   -27.3480     2.1830    84.0150     7.0030     5.5330     7.1160    24.7160 
   69.3750   -26.9930     2.1920    83.5160     7.1840     5.5770     7.3880    24.5270 
   69.5000   -26.7130     2.1900    80.4220     7.4220     5.6820     8.1190    24.4670 
   69.6250   -26.4920     2.1840    76.0520     7.6210     5.7970     8.5600    24.4690 
   69.7500   -26.3310     2.1780    72.7480     7.7100     5.8690     8.8640    24.4950 
   69.8750   -26.3190     2.1730    72.0730     7.6700     5.8730     9.0740    24.5160 
   70.0000   -26.3410     2.1620    73.2290     7.5360     5.8100     9.0780    24.5110 
   70.1250   -26.2790     2.1370    73.5250     7.4240     5.7270     9.0400    24.4800 
   70.2500   -26.1940     2.0990    72.4710     7.4970     5.7140     9.1220    24.4710 
   70.3750   -25.9850     2.0640    71.5400     7.9180     5.8780     9.1730    24.5280 
   70.5000   -25.4560     2.0600    70.5870     8.8060     6.3460     9.2380    24.6330 
   70.6250   -24.6190     2.1260    67.5350    10.1850     7.2790    10.2680    24.7210 
   70.7500   -23.6430     2.2450    63.1240    11.6460     8.5240    13.4240    24.4830 
   70.8750   -22.4720     2.3770    62.3770    12.6630     9.7140    21.7610    24.2120 
   71.0000   -21.1380     2.4720    68.1490    12.7420    10.2740    29.7250    24.1050 
   71.1250   -19.8320     2.4910    79.0470    11.6150     9.6620    24.8310    24.1050 
