~V
VERS. 2.00: Ver 2.00
~W
STRT.M 55.0000:
STOP.M 288.0000:
STEP.M 0.1250:
NULL. -999.2500:
UWI. F10106:
~C
DEPT.M :
DEN.GM/CC :
SP.MV :
GR.API :
RML.OHMM :
RI. :
RXO.OHMM :
CALI.CM :
~A
# ...
  280.0000     2.3200     0.4730    89.1250     7.2980     6.4900     7.5590    24.1570 
  280.1250     2.3140     0.4270    89.1250     7.3780     6.6400     7.7500    24.0950 
  280.2500     2.3070     0.4210    89.1250     7.3070     6.6450     7.7220    23.9970 
  280.3750     2.2950     0.4400    89.1250     7.1550     6.5580     7.4840    23.9120 
  280.5000     2.2810     0.4480    89.1250     6.9940     6.4420     6.8520    23.8930 
  280.6250     2.2670     0.4490    89.1250     6.8800     6.3520     6.3150    23.9430 
  280.7500     2.2600     0.4410    89.1250     6.8130     6.2990     5.9900    24.0060 
  280.8750     2.2610     0.4240    89.1250     6.7780     6.2750     5.8400    24.0380 
  281.0000     2.2680     0.4020    89.1250     6.7620     6.2670     5.7280    24.0430 
  281.1250     2.2790     0.3850    89.1250     6.7560     6.2660     5.5690    24.0570 
  281.2500     2.2900     0.3570    89.1250     6.7530     6.2670     5.3910    24.1030 
  281.3750     2.3010     0.3120    89.1250     6.7520     6.2680     5.3160    24.1760 
  281.5000     2.3110     0.2580    89.1250     6.7530     6.2670     5.3790    24.2600 
  281.6250     2.3200     0.2360    89.1250     6.7540     6.2660     5.4720    24.3250 
  281.7500     2.3280     0.2210    89.1250     6.7530     6.2630     5.7020    24.3550 
  281.8750     2.3350     0.2090    89.1250     6.7510     6.2600     5.9970    24.3730 
  282.0000     2.3410     0.2070    89.1250     6.7480     6.2570     6.3610    24.3870 
  282.1250     2.3460     0.1800    89.1250     6.7430     6.2540     6.6790    24.3850 
  282.2500     2.3500     0.1370    89.1250     6.7390     6.2520     6.7340    24.3420 
  282.3750     2.3520     0.0730    89.1250     6.7360     6.2520     6.4500    24.2570 
  282.5000     2.3530     0.0210    89.1250     6.7350     6.2530     5.9660    24.1520 
  282.6250     2.3550    -0.0500    89.1250     6.7370     6.2550     5.4890    24.0630 
  282.7500     2.3580    -0.1100    89.1250     6.7390     6.2570     5.1970    24.0560 
  282.8750     2.3620    -0.1840    89.1250     6.7410     6.2570     5.0580    24.1320 
  283.0000     2.3680    -0.2670    89.1250     6.7420     6.2560     5.0970    24.2100 
  283.1250     2.3730    -0.3140    89.1250     6.7420     6.2550     5.5980    24.3000 
  283.2500     2.3720    -0.3530    89.1250     6.7420     6.2550     6.8650    24.4530 
  283.3750     2.3620    -0.3780    89.1250     6.7420     6.2550     8.8800    24.7010 
  283.5000     2.3430    -0.4000    89.1250     6.7420     6.2550    11.3250    25.0060 
  283.6250     2.3290    -0.4110    89.1250     6.7420     6.2550    13.5610    25.2210 
  283.7500     2.3360    -0.4280    89.1250     6.7420     6.2550    15.0060    25.2120 
  283.8750     2.3720    -0.4440    89.1250     6.7420     6.2550    17.9550    25.0130 
  284.0000     2.4290    -0.4590    89.1250     6.7420     6.2550    24.4190    24.7290 
  284.1250     2.4860    -0.4770    89.1250     6.7420     6.2550    33.4250    24.4830 
  284.2500     2.5180    -0.5070    89.1250     6.7420     6.2550    42.2860    24.3600 
  284.3750     2.5190    -0.5310    89.1250     6.7420     6.2550    43.7620    24.3400 
  284.5000     2.4990    -0.5790    89.1250     6.7420     6.2550    35.8350    24.3360 
  284.6250     2.4810    -0.6380    89.1250     6.7420     6.2550    26.5730    24.2520 
  284.7500     2.4740    -0.7160    89.1250     6.7420     6.2550    22.4800    24.1350 
  284.8750     2.4740    -0.8110    89.1250     6.7420     6.2550    20.2780    23.9760 
  285.0000     2.4650    -0.9740    89.1250     6.7420     6.2550    22.1700    23.7400 
  285.1250     2.4260    -1.4580    89.1250     6.7420     6.2550    25.6520    23.3550 
  285.2500     2.3890    -2.0940    89.1250     6.7420     6.2550    30.0180    22.8050 
  285.3750     2.2520    -2.7350    89.1250     6.7420     6.2550    31.7750    22.1030 
  285.5000     2.1750    -3.3560    89.1250     6.7420     6.2550    26.5580    21.4140 
  285.6250     2.1200    -3.9750    89.1250     6.7420     6.2550    23.2260    20.9550 
  285.7500     2.0880    -4.5570    89.1250     6.7420     6.2550    21.9360    20.7970 
  285.8750     2.0740    -5.0990    89.1250     6.7420     6.2550    21.8280    20.7690 
  286.0000     2.0700    -5.5580    89.1250     6.7420     6.2550    21.8270    20.7690 
  286.1250     2.0700    -5.5580    89.1250     6.7420     6.2550    21.8210    20.7690 
  286.2500     2.0690    -5.5580    89.1250     6.7420     6.2550    21.8190    20.7690 
  286.3750     2.0670  -999.2500    89.1250     6.7420     6.2550    21.8170    20.7690 
  286.5000     2.0650  -999.2500    89.1250     6.7420     6.2550    21.8150    20.7690 
  286.6250     2.0620  -999.2500    89.1250     6.7420     6.2550    21.8140    20.7690 
  286.7500     2.0610  -999.2500    89.1250     6.7420     6.2550    21.8110    20.7690 
  286.8750     2.0610  -999.2500    89.1250     6.7420     6.2550    21.8080    20.7690 
  287.0000     2.0620  -999.2500    89.1250     6.7420     6.2550    21.8050    20.7690 
  287.1250     2.0620  -999.2500    89.1250     6.7420     6.2550    21.8020    20.7680 
  287.2500     2.0610  -999.2500    89.1250     6.7420     6.2550    21.7970    20.7660 
  287.3750     2.0600  -999.2500    89.1250     6.7420     6.2550    21.7860    20.7620 
  287.5000  -999.2500  -999.2500    89.1250     6.7420     6.2550    21.7700    20.7540 
  287.6250  -999.2500  -999.2500    89.1250     6.7420     6.2550    21.7510    20.7420 
  287.7500  -999.2500  -999.2500    89.1250     6.7420     6.2550    21.7400    20.7300 
  287.8750  -999.2500  -999.2500    89.1250     6.7420     6.2550    21.7350    20.7210 
  288.0000  -999.2500  -999.2500    89.1250     6.7420     6.2550    21.7320    20.7160 
