~V
VERS. 2.00: Ver 2.00
~W
STRT.M 59.0000:
STOP.M 212.0000:
STEP.M 0.1250:
NULL. -999.2500:
UWI. F10143:
~C
DEPT.M :
GR.API :
RML.OHMM :
RI. :
RXO.OHMM :
CALI.CM :
SP.MV :
DEN.GM/CC :
~A
# ...
  205.2500    66.9640     9.2150     8.7180     7.2980    25.0370   -15.5920     2.2320 
  205.3750    66.9640     8.8570     8.3670     7.3060    25.0100   -15.5420     2.2380 
  205.5000    66.9640     8.7080     8.1330     9.3780    24.9890   -15.4920     2.2440 
  205.6250    66.9640     8.7230     8.0240    13.6900    25.0160   -15.4170     2.2540 
  205.7500    66.9640     8.7630     7.9720    14.7660    25.0470   -15.3250     2.2690 
  205.8750    66.9640     8.7510     7.9360     9.9210    25.0310   -15.2210     2.2820 
  206.0000    66.9640     8.6710     7.9030     7.3740    24.9740   -15.1170     2.2860 
  206.1250    66.9640     8.5540     7.8840     7.4810    24.9290   -15.0120     2.2850 
  206.2500    66.9640     8.4550     7.8780     7.6220    24.9010   -14.9080     2.2840 
  206.3750    66.9640     8.3980     7.8820     7.4800    24.9370   -14.8040     2.2830 
  206.5000    66.9640     8.3750     7.8910     7.6010    24.9940   -14.7080     2.2890 
  206.6250    66.9640     8.3890     7.9000     7.6470    25.0130   -14.6380     2.3050 
  206.7500    66.9640     8.4350     7.9040     7.8430    25.0040   -14.5830     2.3220 
  206.8750    66.9640     8.5070     7.9050     8.1840    24.9790   -14.5440     2.3350 
  207.0000    66.9640     8.5880     7.9110     8.4210    24.9810   -14.5170     2.3390 
  207.1250    66.9640     8.6460     7.9270     8.0240    25.0170   -14.5020     2.3370 
  207.2500    66.9640     8.6590     7.9490     7.8350    25.0360   -14.5000     2.3380 
  207.3750    66.9640     8.6290     7.9730     7.8600    25.0290   -14.5000     2.3480 
  207.5000    66.9640     8.5840     7.9950     7.2810    25.0200   -14.4960     2.3600 
  207.6250    66.9640     8.5570     8.0060     6.7980    25.0190   -14.4790     2.3600 
  207.7500    66.9640     8.5600     8.0090     6.7980    25.0170   -14.4580     2.3540 
  207.8750    66.9640     8.5680     8.0100     7.0200    25.0110   -14.4370     2.3480 
  208.0000    66.9640     8.5680     8.0100     7.6480    25.0020   -14.4170     2.3390 
  208.1250    66.9640     8.5680     8.0100     8.6070    25.0250   -14.3960     2.3190 
  208.2500    66.9640     8.5680     8.0100     9.4620    25.0730   -14.4010     2.3050 
  208.3750    66.9640     8.5680     8.0100     9.6570    25.0700   -14.4610     2.3130 
  208.5000    66.9640     8.5680     8.0100     9.6780    24.9960   -14.5630     2.3410 
  208.6250    66.9640     8.5680     8.0100     9.3590    24.8900   -14.8000     2.3660 
  208.7500    66.9640     8.5680     8.0100     9.0070    24.8430   -15.0090     2.3650 
  208.8750    66.9640     8.5680     8.0100     8.3440    24.8690   -15.1950     2.3490 
  209.0000    66.9640     8.5680     8.0100     7.6300    24.9250   -15.3810     2.3370 
  209.1250    66.9640     8.5680     8.0100     7.1710    24.9510   -15.5940     2.3440 
  209.2500    66.9640     8.5680     8.0100     7.0840    24.9540   -15.6370     2.3490 
  209.3750    66.9640     8.5680     8.0100     7.5820    24.9760   -15.6370     2.3380 
  209.5000    66.9640     8.5680     8.0100     8.2760    25.0340  -999.2500     2.3190 
  209.6250    66.9640     8.5680     8.0100     7.4850    25.0730  -999.2500     2.3090 
  209.7500    66.9640     8.5680     8.0100     6.7540    25.0890  -999.2500     2.2940 
  209.8750    66.9640     8.5680     8.0100     6.1610    25.1130  -999.2500     2.2400 
  210.0000    66.9640     8.5680     8.0100     5.8680    25.2060  -999.2500     2.1170 
  210.1250    66.9640     8.5680     8.0100     5.3010    24.7820  -999.2500     1.9100 
  210.2500    66.9640     8.5680     8.0100     4.5810    23.5380  -999.2500     1.6830 
  210.3750    66.9640     8.5680     8.0100     4.0140    22.1670  -999.2500     1.5130 
  210.5000    66.9640     8.5680     8.0100     3.8070    21.5450  -999.2500     1.4260 
  210.6250    66.9640     8.5680     8.0100     3.8060    21.5350  -999.2500     1.4060 
  210.7500    66.9640     8.5680     8.0100     3.8060    21.5350  -999.2500     1.4040 
  210.8750    66.9640     8.5680     8.0100     3.8050    21.5350  -999.2500     1.4040 
  211.0000    66.9640     8.5680     8.0100     3.8040    21.5350  -999.2500     1.4030 
  211.1250    66.9640     8.5680     8.0100     3.8040    21.5350  -999.2500     1.4010 
  211.2500    66.9640     8.5680     8.0100     3.8040    21.5350  -999.2500     1.4000 
  211.3750    66.9640     8.5680     8.0100     3.8040    21.5350  -999.2500     1.4000 
  211.5000    66.9640     8.5680     8.0100     3.8040    21.5350  -999.2500     1.3960 
  211.6250    66.9640     8.5680     8.0100     3.8030    21.5350  -999.2500     1.3950 
  211.7500    66.9640     8.5680     8.0100     3.8040    21.5350  -999.2500     1.3900 
  211.8750    66.9640     8.5680     8.0100     3.8040    21.5350  -999.2500     1.3860 
  212.0000    66.9640     8.5680     8.0100     3.8030    21.5350  -999.2500     1.3970 
