~V
VERS. 2.00: Ver 2.00
~W
STRT.M 57.0000:
STOP.M 214.0000:
STEP.M 0.1250:
NULL. -999.2500:
UWI. F10147:
~C
DEPT.M :
SP.MV :
GR.API :
RML.OHMM :
RI. :
RXO.OHMM :
CALI.CM :
DEN.GM/CC :
~A
# ...
  124.5000    -5.8300    49.6400    21.2620    21.4310    18.6000    24.9670     2.5890 
  124.6250    -5.8350    50.0880    21.4430    21.7090    18.5150    24.9940     2.5860 
  124.7500    -5.8520    49.8270    21.8760    22.1580    18.7000    24.9990     2.5830 
  124.8750    -5.8710    48.6740    22.6990    22.8920    19.2370    24.9750     2.5760 
  125.0000    -5.8930    47.3220    23.8960    23.9310    20.1040    24.9460     2.5650 
  125.1250    -5.9190    46.6110    25.3040    25.1680    21.5520    24.9290     2.5530 
  125.2500    -5.9390    46.4920    26.6740    26.4010    23.7790    24.9210     2.5480 
  125.3750    -5.9600    46.3780    27.6610    27.3120    26.0470    24.9200     2.5510 
  125.5000    -5.9890    46.0440    28.0700    27.7090    27.0550    24.9210     2.5610 
  125.6250    -6.0170    45.6120    27.9460    27.6180    26.2640    24.9250     2.5690 
  125.7500    -6.0440    45.4700    27.4990    27.2240    24.3270    24.9280     2.5690 
  125.8750    -6.0760    45.4640    27.0470    26.8120    22.6520    24.9150     2.5630 
  126.0000    -6.0970    45.3220    26.7920    26.5810    22.1290    24.8870     2.5570 
  126.1250    -6.1150    45.3750    26.7090    26.5430    22.6080    24.8770     2.5570 
  126.2500    -6.1450    46.1110    26.6230    26.5650    23.3880    24.8920     2.5640 
  126.3750    -6.1670    47.6020    26.2940    26.4230    23.6100    24.9020     2.5710 
  126.5000    -6.1760    49.1530    25.6530    25.9990    22.8130    24.9130     2.5690 
  126.6250    -6.1920    50.2660    24.8350    25.3490    21.1130    24.9220     2.5560 
  126.7500    -6.2130    51.1890    24.0510    24.6320    19.0850    24.9000     2.5380 
  126.8750    -6.2230    52.6670    23.4680    24.0110    17.7680    24.8850     2.5240 
  127.0000    -6.2370    54.5260    23.0520    23.5110    17.9480    24.9180     2.5210 
  127.1250    -6.2550    54.9990    22.6560    23.0440    19.3490    24.9620     2.5270 
  127.2500    -6.2550    53.0840    22.1750    22.5260    20.4510    24.9480     2.5350 
  127.3750    -6.2590    51.3640    21.6480    21.9800    19.5510    24.8940     2.5400 
  127.5000    -6.2840    52.8530    21.2790    21.5730    17.3910    24.8850     2.5360 
  127.6250    -6.3020    56.0350    21.3140    21.5210    16.2960    24.9280     2.5290 
  127.7500    -6.3130    56.4640    21.9030    21.9780    17.5080    24.9570     2.5240 
  127.8750    -6.3350    52.5320    23.0340    22.9770    20.2920    24.9480     2.5260 
  128.0000    -6.3550    47.8210    24.3910    24.2650    22.7250    24.9180     2.5350 
  128.1250    -6.3750    45.2050    25.5270    25.4400    23.5030    24.8690     2.5480 
  128.2500    -6.4040    44.0020    26.1090    26.1590    22.7180    24.8230     2.5620 
  128.3750    -6.4290    43.1950    26.0100    26.2290    21.5000    24.8160     2.5710 
  128.5000    -6.4500    43.0690    25.4930    25.8270    20.8160    24.8550     2.5780 
  128.6250    -6.4800    43.6110    24.9260    25.2760    20.8030    24.9100     2.5820 
  128.7500    -6.5100    43.7590    24.5000    24.7860    21.2260    24.9720     2.5840 
  128.8750    -6.5360    43.7580    24.1620    24.3740    21.8160    25.0340     2.5820 
  129.0000    -6.5750    44.7830    23.6660    23.8620    22.1540    25.0470     2.5750 
  129.1250    -6.6150    46.2990    22.7990    23.0540    21.8730    24.9840     2.5670 
  129.2500    -6.6480    47.1400    21.5400    21.8880    20.8580    24.8890     2.5620 
  129.3750    -6.6830    48.4760    20.0970    20.4990    19.1700    24.8340     2.5620 
  129.5000    -6.7190    51.2380    18.7880    19.1570    17.2250    24.8330     2.5680 
  129.6250    -6.7520    53.5000    17.8230    18.0840    15.7030    24.8740     2.5770 
  129.7500    -6.7820    53.5640    17.2400    17.3650    15.1830    24.9320     2.5830 
  129.8750    -6.8130    53.6430    16.9710    16.9820    15.5540    24.9600     2.5820 
  130.0000    -6.8390    55.4770    16.8510    16.7980    15.7920    24.9090     2.5720 
  130.1250    -6.8590    57.3860    16.7340    16.6720    15.2530    24.7800     2.5570 
  130.2500    -6.8850    56.9510    16.5560    16.5330    14.3880    24.6410     2.5440 
  130.3750    -6.9240    54.7330    16.3060    16.3640    14.0180    24.5470     2.5390 
  130.5000    -6.9640    52.9700    16.0200    16.1840    14.0820    24.5080     2.5440 
  130.6250    -7.0010    52.7080    15.7300    16.0030    14.0510    24.5060     2.5520 
  130.7500    -7.0480    54.9010    15.4540    15.8040    13.8130    24.5280     2.5580 
  130.8750    -7.0970    60.5740    15.2050    15.5560    13.4820    24.5880     2.5560 
  131.0000    -7.1440    67.5600    15.0010    15.2720    13.0300    24.7120     2.5470 
  131.1250    -7.1960    72.2020    14.8900    15.0180    12.4490    24.8950     2.5340 
  131.2500    -7.2420    73.6270    14.9380    14.8830    11.9180    25.0850     2.5220 
  131.3750    -7.2780    74.7690    15.2240    14.9670    11.6460    25.2640     2.5110 
  131.5000    -7.3210    77.8710    15.7370    15.2720    11.6580    25.4560     2.5020 
  131.6250    -7.3640    81.3370    16.3760    15.7170    12.0120    25.6250     2.4930 
  131.7500    -7.3950    82.2630    16.9930    16.1770    12.7660    25.7110     2.4820 
  131.8750    -7.4270    80.2130    17.3860    16.4920    13.5440    25.7170     2.4700 
  132.0000    -7.4580    78.0840    17.4640    16.5690    13.8150    25.6780     2.4540 
  132.1250    -7.4850    77.9570    17.2740    16.4130    13.5590    25.5800     2.4360 
  132.2500    -7.5220    78.7020    16.9410    16.0980    13.1700    25.4380     2.4210 
  132.3750    -7.5580    78.9190    16.6250    15.7410    12.8500    25.3320     2.4150 
  132.5000    -7.5760    79.0720    16.4430    15.4590    12.5490    25.2930     2.4180 
  132.6250    -7.5920    80.0850    16.4500    15.3250    12.3780    25.2770     2.4280 
  132.7500    -7.6220    81.4030    16.6440    15.3650    12.6010    25.2570     2.4400 
  132.8750    -7.6510    80.1880    16.8290    15.5760    13.3780    25.2380     2.4510 
  133.0000    -7.6730    75.8400    16.8220    15.9020    14.4530    25.2080     2.4620 
  133.1250    -7.6930    71.5020    16.7220    16.2610    15.2970    25.1720     2.4740 
  133.2500    -7.7030    69.8650    16.7690    16.5910    15.5300    25.1660     2.4870 
  133.3750    -7.7110    70.3410    17.0420    16.8500    15.2920    25.2250     2.4940 
  133.5000    -7.7300    71.0650    17.4030    17.0660    15.0920    25.2810     2.4930 
  133.6250    -7.7440    71.4540    17.7970    17.3140    15.2400    25.2820     2.4870 
  133.7500    -7.7510    71.3100    18.2950    17.6710    15.8760    25.2490     2.4830 
  133.8750    -7.7510    69.9400    18.9460    18.2040    17.2070    25.2150     2.4840 
  134.0000    -7.7440    68.2640    19.7160    18.9000    18.8250    25.1970     2.4880 
  134.1250    -7.7430    68.1020    20.5310    19.6860    19.8090    25.1980     2.4920 
  134.2500    -7.7420    70.1260    21.3110    20.4670    19.7890    25.1890     2.4920 
  134.3750    -7.7260    72.9640    21.9410    21.1050    19.4870    25.1580     2.4890 
  134.5000    -7.7020    75.0050    22.3050    21.4780    19.6320    25.1230     2.4860 
  134.6250    -7.6800    76.2940    22.3050    21.4950    19.9480    25.1260     2.4860 
  134.7500    -7.6440    76.1420    21.8790    21.1020    19.7550    25.1710     2.4900 
  134.8750    -7.5990    73.3460    21.0350    20.2980    18.8190    25.2190     2.4970 
  135.0000    -7.5620    70.1340    19.9500    19.2360    17.4700    25.2460     2.5000 
  135.1250    -7.5220    70.0810    18.8750    18.1430    16.0710    25.2500     2.4990 
  135.2500    -7.4780    72.8760    18.0310    17.2270    14.8790    25.2300     2.4950 
  135.3750    -7.4330    74.2170    17.5950    16.6830    14.2120    25.2100     2.4920 
  135.5000    -7.3900    73.5060    17.5620    16.5510    14.2570    25.2180     2.4940 
  135.6250    -7.3440    73.4570    17.8140    16.7470    15.0840    25.2470     2.5040 
