~V
VERS. 2.00: Ver 2.00
~W
STRT.M 50.0000:
STOP.M 230.0000:
STEP.M 0.1250:
NULL. -999.2500:
UWI. F10167:
~C
DEPT.M :
DEN.GM/CC :
GR.API :
RML.OHMM :
RI. :
RXO.OHMM :
CALI.CM :
SP.MV :
~A
# ...
  117.5000     2.2290    78.3240     7.7360     6.6080     8.0550    22.4360   -10.2220 
  117.6250     2.2090    76.6360     7.6660     6.5520     7.9790    22.4240   -10.3150 
  117.7500     2.1880    74.4870     7.6690     6.5630     8.0210    22.3640   -10.2400 
  117.8750     2.1760    72.9850     7.7210     6.6290     8.2600    22.3050   -10.1320 
  118.0000     2.1740    74.1100     7.7920     6.7220     8.6930    22.3070   -10.0110 
  118.1250     2.1830    76.9340     7.8550     6.8090     8.9570    22.4060    -9.7730 
  118.2500     2.1930    77.4790     7.8990     6.8710     8.8240    22.5370    -9.5500 
  118.3750     2.1990    75.3030     7.9150     6.8970     8.6780    22.6780    -9.3180 
  118.5000     2.1990    71.8420     7.8870     6.8720     8.7150    22.7820    -8.9430 
  118.6250     2.1920    70.7670     7.7630     6.7630     8.8170    22.8490    -8.4160 
  118.7500     2.1790    73.7130     7.5220     6.5550     8.8420    22.9460    -7.8600 
  118.8750     2.1630    81.3030     7.1820     6.2560     8.6810    23.0990    -7.2140 
  119.0000     2.1470    89.6230     6.8360     5.9240     7.9630    23.3160    -6.5170 
  119.1250     2.1420    92.6430     6.7400     5.7190     7.0970    23.6600    -5.9630 
  119.2500     2.1610    90.8740     7.1520     5.8250     6.7640    23.9130    -5.4880 
  119.3750     2.2180    85.0490     8.3270     6.4540     7.0780    23.9390    -5.0330 
  119.5000     2.3170    77.0850    10.4040     7.8280     8.4510    23.8280    -4.6430 
  119.6250     2.4420    70.3440    13.3100    10.1960    12.5730    23.7610    -4.4910 
  119.7500     2.5550    66.6160    16.1770    13.0380    20.9060    23.7360    -4.5540 
  119.8750     2.6210    67.1470    17.9600    15.4390    30.1990    23.7010    -4.8120 
  120.0000     2.6190    70.8010    17.9040    16.3710    32.7500    23.5960    -5.2770 
  120.1250     2.5450    72.8070    15.9210    15.2070    24.3010    23.5490    -5.8260 
  120.2500     2.4380    71.0750    13.3240    13.0270    16.1330    23.3540    -6.2860 
  120.3750     2.3320    68.6060    11.0460    10.8310    11.7620    23.1460    -6.6930 
  120.5000     2.2560    69.4020     9.5790     9.2300    10.1770    23.0630    -7.0780 
  120.6250     2.2360    70.9540     9.0900     8.4560     9.7150    23.1150    -7.2230 
  120.7500     2.2630    70.7110     9.1270     8.2130    10.2810    23.2490    -7.0780 
  120.8750     2.3190    70.9490     9.3490     8.2640    11.8410    23.4760    -6.7190 
  121.0000     2.3780    70.9400     9.4960     8.3720    13.1040    23.8120    -6.0870 
  121.1250     2.4060    66.3920     9.3990     8.3410    10.4510    24.1510    -5.2110 
  121.2500     2.3950    60.2280     9.1700     8.1820     9.3460    24.4180    -4.3600 
  121.3750     2.3580    58.2590     8.9980     8.0210     8.5720    24.5970    -3.5950 
  121.5000     2.3250    61.3890     9.0760     8.0210     7.9990    24.7630    -2.8420 
  121.6250     2.3330    64.3720     9.6120     8.3830     7.9110    24.9380    -2.2090 
  121.7500     2.3800    64.6180    10.6030     9.1400     9.4300    25.0020    -1.7500 
  121.8750     2.4470    63.3480    12.0570    10.3280    11.9990    24.8740    -1.4000 
  122.0000     2.5060    61.0870    13.9470    11.9570    14.4170    24.7290    -1.1710 
  122.1250     2.5410    57.8100    16.2000    14.0340    13.8760    24.6470    -1.0930 
  122.2500     2.5590    54.2380    18.4630    16.2700    17.4040    24.5920    -1.0280 
  122.3750     2.5730    51.3480    20.2960    18.2660    24.6490    24.5170    -0.9100 
  122.5000     2.5830    50.5500    21.2600    19.5510    29.6510    24.4600    -0.8460 
  122.6250     2.5750    52.7480    21.0430    19.6900    29.0170    24.4820    -0.8540 
  122.7500     2.5430    54.8800    20.2460    19.0940    25.2310    24.5750    -0.8170 
  122.8750     2.4930    55.2170    19.6220    18.3580    18.1080    24.5940    -0.8000 
  123.0000     2.4440    53.5300    19.9390    18.1580    15.2020    24.5840    -0.8450 
  123.1250     2.4200    49.6960    21.9670    19.2720    18.8090    24.6480    -0.8480 
  123.2500     2.4290    46.2930    25.4620    21.7740    25.2840    24.6970    -0.8030 
  123.3750     2.4650    45.1350    29.9280    25.4900    30.0090    24.6430    -0.7970 
  123.5000     2.5140    44.8270    34.4770    29.7910    34.5830    24.5430    -0.8000 
  123.6250     2.5600    44.5000    37.7250    33.4440    40.7910    24.5670    -0.7220 
  123.7500     2.5920    45.7150    39.0360    35.5190    41.0330    24.6260    -0.6720 
  123.8750     2.6070    47.8380    38.4020    35.7320    34.9250    24.6430    -0.6370 
  124.0000     2.6030    48.1240    36.3960    34.4280    31.3830    24.6290    -0.5380 
  124.1250     2.5830    46.1660    33.8410    32.2690    31.1140    24.7260    -0.4310 
  124.2500     2.5540    45.2530    31.5150    30.0880    28.9030    24.7620    -0.3850 
  124.3750     2.5290    46.3310    29.7150    28.2530    24.8970    24.7060    -0.3100 
  124.5000     2.5160    47.9660    28.5130    26.9170    22.6580    24.6390    -0.1880 
  124.6250     2.5190    48.7840    27.9060    26.1560    22.8730    24.6620    -0.1460 
  124.7500     2.5290    47.0720    27.6550    25.7860    23.6210    24.7050    -0.1010 
  124.8750     2.5400    43.8550    27.6240    25.6880    22.9880    24.7300     0.0150 
  125.0000     2.5490    41.3680    27.7200    25.7580    22.5420    24.7180     0.1180 
  125.1250     2.5580    40.4620    27.9340    25.9610    25.7250    24.7180     0.1640 
  125.2500     2.5700    39.5850    28.2760    26.2870    27.8550    24.7410     0.2550 
  125.3750     2.5840    38.3080    28.7290    26.7420    26.7120    24.7810     0.3460 
  125.5000     2.5990    38.6910    29.1680    27.2480    24.1830    24.8150     0.3540 
  125.6250     2.6120    41.0100    29.2570    27.5410    24.6210    24.8150     0.3590 
  125.7500     2.6200    42.4330    28.7640    27.3780    27.3120    24.8100     0.4120 
  125.8750     2.6230    42.9390    27.6180    26.6340    28.4700    24.8280     0.4080 
  126.0000     2.6180    43.6540    25.9610    25.3730    26.5620    24.8380     0.3360 
  126.1250     2.6050    44.7250    24.0940    23.7900    20.8130    24.7910     0.3320 
  126.2500     2.5880    45.4290    22.3770    22.2150    17.7750    24.7160     0.3560 
  126.3750     2.5700    46.6700    20.9910    20.8390    17.6820    24.7150     0.3420 
  126.5000     2.5540    47.9570    20.0010    19.7730    19.2980    24.7480     0.3760 
  126.6250     2.5440    48.5150    19.4460    19.1100    18.1350    24.7050     0.4940 
  126.7500     2.5400    48.0230    19.1990    18.7630    16.3960    24.6750     0.6020 
  126.8750     2.5420    46.9830    19.1840    18.6760    16.1060    24.6900     0.7480 
  127.0000     2.5440    45.5690    19.3090    18.7650    17.7050    24.6400     0.9990 
  127.1250     2.5410    44.6100    19.4430    18.9150    19.0480    24.5000     1.2830 
  127.2500     2.5320    45.2220    19.4560    18.9850    18.9310    24.3910     1.5140 
  127.3750     2.5220    46.8230    19.2800    18.8840    17.9880    24.4080     1.7200 
  127.5000     2.5160    46.6770    18.9210    18.5840    17.3380    24.5300     1.9270 
  127.6250     2.5230    43.9090    18.4590    18.1260    17.2050    24.6570     2.1000 
  127.7500     2.5360    41.9880    18.0550    17.6590    17.2850    24.7470     2.2040 
  127.8750     2.5510    42.6070    17.8360    17.3070    17.1510    24.7790     2.2220 
  128.0000     2.5620    43.8160    17.9140    17.1890    16.3180    24.7840     2.2080 
  128.1250     2.5650    44.7130    18.4350    17.4630    16.4840    24.7820     2.1870 
  128.2500     2.5660    46.3690    19.3190    18.1060    16.6100    24.7730     2.1540 
  128.3750     2.5680    46.5120    20.4220    19.0380    16.6370    24.7530     2.1590 
  128.5000     2.5720    43.8520    21.4960    20.0640    18.1560    24.7220     2.1960 
  128.6250     2.5750    42.3440    22.1620    20.8370    21.4010    24.6950     2.2390 
