~V
VERS. 2.00: Ver 2.00
~W
STRT.M 55.0000:
STOP.M 224.0000:
STEP.M 0.1250:
NULL. -999.2500:
UWI. F10137:
~C
DEPT.M :
DEN.GM/CC :
SP.MV :
GR.API :
RML.OHMM :
RI. :
RXO.OHMM :
CALI.CM :
~A
# ...
  100.0000     2.1980   -29.6440    61.0290    11.0390     8.7740    13.1200    25.6760 
  100.1250     2.2760   -29.7340    61.2800    11.7370     9.1930    22.7700    25.8320 
  100.2500     2.3770   -29.7470    60.7740    12.2510     9.5280    38.2450    26.0120 
  100.3750     2.4580   -29.6880    59.7830    12.2580     9.5790    44.8150    26.1320 
  100.5000     2.4640   -29.5740    59.7020    11.7450     9.3170    34.5770    26.0750 
  100.6250     2.3890   -29.4380    60.9430    10.9860     8.8770    20.5270    25.8630 
  100.7500     2.2830   -29.3020    63.0080    10.2980     8.4410    13.0340    25.5860 
  100.8750     2.2040   -29.1630    64.8330     9.9500     8.1840    11.0480    25.2920 
  101.0000     2.1620   -28.9940    64.7160     9.9870     8.1720    11.1690    25.0620 
  101.1250     2.1450   -28.7780    61.7900    10.2930     8.3690    11.4420    24.9800 
  101.2500     2.1400   -28.5250    57.8720    10.7180     8.6970    11.4300    25.0260 
  101.3750     2.1400   -28.2470    56.6860    11.1230     9.0680    11.3480    25.1330 
  101.5000     2.1420   -27.9570    58.7410    11.4550     9.4150    11.3360    25.2630 
  101.6250     2.1410   -27.6350    61.1360    11.6950     9.6950    11.4830    25.3660 
  101.7500     2.1390   -27.2490    61.8240    11.7770     9.8420    11.6790    25.4140 
  101.8750     2.1440   -26.7750    62.1220    11.5240     9.7190    11.7280    25.4260 
  102.0000     2.1560   -26.2400    64.4190    10.8330     9.2490    11.5020    25.4600 
  102.1250     2.1750   -25.6950    69.4160     9.7580     8.4670    10.6270    25.6050 
  102.2500     2.1970   -25.1710    75.3890     8.4860     7.5020     8.8140    25.9410 
  102.3750     2.2110   -24.6970    79.2640     7.3040     6.5620     6.8330    26.4030 
  102.5000     2.2140   -24.2970    80.4690     6.4370     5.8210     5.7850    26.8200 
  102.6250     2.2090   -23.9880    80.3120     5.9940     5.3780     5.5730    27.0780 
  102.7500     2.2030   -23.7920    79.8420     6.0210     5.2870     5.4650    27.1580 
  102.8750     2.1920   -23.7390    79.1390     6.5540     5.5980     5.4630    27.0230 
  103.0000     2.1770   -23.8010    78.3770     7.4600     6.2440     5.9630    26.6610 
  103.1250     2.1650   -23.9230    78.7680     8.4680     7.0450     7.0570    26.2320 
  103.2500     2.1630   -24.0620    79.8920     9.2450     7.7610     8.2410    25.9620 
  103.3750     2.1630   -24.1870    80.0020     9.4410     8.0950     8.6110    25.9800 
  103.5000     2.1570   -24.2790    79.9620     9.0610     7.9740     8.0500    26.2500 
  103.6250     2.1440   -24.3360    81.2710     8.4060     7.5630     6.9670    26.6120 
  103.7500     2.1300   -24.3710    82.4320     7.7850     7.0740     6.1970    26.8580 
  103.8750     2.1240   -24.4000    80.9770     7.3790     6.6650     6.2010    26.8880 
  104.0000     2.1270   -24.4330    78.6040     7.1370     6.3510     6.5060    26.7920 
  104.1250     2.1370   -24.4940    78.6670     6.9110     6.0680     6.9180    26.7010 
  104.2500     2.1520   -24.6090    81.4500     6.6140     5.7730     7.0760    26.7410 
  104.3750     2.1730   -24.7900    84.0810     6.3410     5.5210     6.5480    26.9390 
  104.5000     2.2000   -25.0200    83.6200     6.3530     5.4680     5.9630    27.1230 
  104.6250     2.2360   -25.2710    80.3260     6.9390     5.7980     6.1360    27.1460 
  104.7500     2.2810   -25.5160    76.8760     8.3250     6.6810     7.9390    27.0580 
  104.8750     2.3350   -25.7630    75.1710    10.6540     8.2930    12.9610    26.9740 
  105.0000     2.3950   -26.0570    75.2420    13.5510    10.4840    22.2420    26.9120 
  105.1250     2.4410   -26.4210    76.3210    16.1130    12.6790    29.3050    26.8070 
  105.2500     2.4420   -26.8260    77.2710    17.3310    14.0900    27.4590    26.5820 
  105.3750     2.3870   -27.2310    77.0330    16.7160    14.1460    20.3650    26.1910 
  105.5000     2.3090   -27.6170    76.3200    15.0430    13.2230    14.6790    25.7860 
  105.6250     2.2420   -27.9750    75.6330    13.3890    12.0620    11.8890    25.5680 
  105.7500     2.1980   -28.2940    73.6380    12.2950    11.1090    10.8580    25.5530 
  105.8750     2.1760   -28.5480    71.7570    11.8850    10.5500    10.5510    25.5840 
  106.0000     2.1660   -28.7240    72.7080    11.9250    10.3100    10.3310    25.5660 
  106.1250     2.1580   -28.8170    75.6230    12.1130    10.2380    10.2560    25.5270 
  106.2500     2.1540   -28.8270    76.7090    12.2540    10.2220    10.4440    25.5030 
  106.3750     2.1550   -28.7510    74.1630    12.2580    10.1930    10.5020    25.4980 
  106.5000     2.1580   -28.5980    70.6430    12.1800    10.1470    10.4120    25.4980 
  106.6250     2.1560   -28.3950    68.8440    12.1130    10.1140    10.4550    25.4980 
  106.7500     2.1500   -28.1530    69.0580    12.1060    10.1210    10.6230    25.4990 
  106.8750     2.1430   -27.8820    70.3720    12.1640    10.1770    10.8160    25.5060 
  107.0000     2.1370   -27.5910    71.6740    12.2760    10.2820    10.9210    25.5250 
  107.1250     2.1310   -27.2730    72.0160    12.4630    10.4500    10.9450    25.5530 
  107.2500     2.1270   -26.9080    70.2660    12.7760    10.7170    10.8460    25.5810 
  107.3750     2.1240   -26.5050    66.1800    13.2820    11.1280    10.6170    25.6130 
  107.5000     2.1250   -26.1060    62.3290    13.9750    11.6770    10.4580    25.6430 
  107.6250     2.1310   -25.7320    61.3680    14.7740    12.3080    10.8740    25.6740 
  107.7500     2.1430   -25.3820    62.2270    15.5390    12.9220    11.9110    25.7010 
  107.8750     2.1570   -25.0360    62.0090    15.9880    13.3190    12.1400    25.7150 
  108.0000     2.1630   -24.6820    61.4810    15.8430    13.2850    11.1860    25.7320 
  108.1250     2.1600   -24.3110    62.6560    14.9550    12.6860    10.2090    25.7820 
  108.2500     2.1530   -23.9320    64.7000    13.3760    11.5430     9.8110    25.8860 
  108.3750     2.1530   -23.5790    66.5140    11.4210    10.0670     9.5300    26.0650 
  108.5000     2.1650   -23.2730    70.5270     9.5430     8.5880     8.6720    26.3350 
  108.6250     2.1880   -23.0130    76.8560     8.0550     7.3490     7.1560    26.6360 
  108.7500     2.2140   -22.7980    80.8910     7.0590     6.4500     5.8270    26.8370 
  108.8750     2.2410   -22.6510    80.4410     6.5430     5.9150     5.4890    26.9030 
  109.0000     2.2650   -22.5700    79.0170     6.3660     5.6690     5.6810    26.9250 
  109.1250     2.2760   -22.5590    78.8820     6.3830     5.6200     5.8270    26.9590 
  109.2500     2.2710   -22.6300    78.6960     6.5160     5.7070     5.9010    26.9810 
  109.3750     2.2590   -22.7670    78.2160     6.7290     5.8900     5.9250    26.9780 
  109.5000     2.2470   -22.9340    78.0980     7.0060     6.1330     6.0940    26.9570 
  109.6250     2.2400   -23.1160    77.4260     7.3180     6.3990     6.8630    26.9090 
  109.7500     2.2360   -23.3090    75.9160     7.5860     6.6260     8.0380    26.8400 
  109.8750     2.2290   -23.4930    75.4780     7.6710     6.7090     7.6910    26.7580 
  110.0000     2.2150   -23.6500    77.0030     7.5240     6.6090     6.9050    26.6810 
  110.1250     2.2010   -23.7680    79.6290     7.2120     6.3700     6.8040    26.7050 
  110.2500     2.1920   -23.8380    82.5460     6.8520     6.0740     6.6470    26.9120 
  110.3750     2.1910   -23.8870    84.6120     6.5790     5.8220     6.1710    27.1760 
  110.5000     2.1920   -23.9500    84.3870     6.4500     5.6660     6.0280    27.3320 
  110.6250     2.1930   -23.9980    82.2420     6.4350     5.6050     6.5770    27.3770 
  110.7500     2.1950   -24.0010    81.2640     6.4780     5.6110     7.0720    27.3820 
  110.8750     2.1980   -23.9860    83.2570     6.5430     5.6630     6.7720    27.3720 
  111.0000     2.1980   -23.9900    84.9250     6.6270     5.7490     6.2080    27.3120 
  111.1250     2.1910   -24.0400    83.0960     6.7340     5.8580     5.9790    27.1520 
