~V
VERS. 2.00: Ver 2.00
~W
STRT.M 50.0000:
STOP.M 284.0000:
STEP.M 0.1250:
NULL. -999.2500:
UWI. F10107:
~C
DEPT.M :
DEN.GM/CC :
SP.MV :
GR.API :
RML.OHMM :
RI. :
RXO.OHMM :
CALI.CM :
~A
# ...
  218.7500     2.2590   -20.1990    49.4610    63.7660    63.6420    61.6010    23.8010 
  218.8750     2.2600   -20.1840    51.0310    63.0080    62.4540    59.6530    23.8270 
  219.0000     2.2600   -20.1830    54.4620    64.8540    63.6850    58.6820    23.8430 
  219.1250     2.2560   -20.1920    58.3360    70.2280    68.2290    58.9060    23.8480 
  219.2500     2.2470   -20.2290    58.1970    78.9160    75.9660    62.4470    23.8600 
  219.3750     2.2350   -20.3040    54.6540    90.6530    86.7660    71.8340    23.8870 
  219.5000     2.2200   -20.4110    51.6910   104.2200    99.6060    86.1510    23.9080 
  219.6250     2.2060   -20.5390    50.0660   116.5840   111.7580   103.6650    23.9140 
  219.7500     2.1940   -20.6670    49.5080   124.2880   119.8100   121.5990    23.9120 
  219.8750     2.1880   -20.7840    49.6370   124.9260   121.3050   136.0770    23.8970 
  220.0000     2.1890   -20.8880    49.5700   118.3330   115.8330   135.4960    23.8580 
  220.1250     2.1960   -20.9870    49.3710   106.9590   105.3300   111.5720    23.8060 
  220.2500     2.2050   -21.0710    49.9030    95.7490    94.4790    89.2820    23.7840 
  220.3750     2.2130   -21.1440    51.7900    87.0690    85.7540    78.8110    23.7790 
  220.5000     2.2170   -21.2090    54.8910    81.5200    80.0080    76.4720    23.7790 
  220.6250     2.2180   -21.2740    58.3450    78.8930    77.2440    76.8170    23.7790 
  220.7500     2.2170   -21.3340    60.2810    77.7760    76.1180    78.6150    23.7790 
  220.8750     2.2160   -21.3920    60.0320    77.4470    75.8990    79.4740    23.7790 
  221.0000     2.2140   -21.4350    59.0680    77.4590    76.0940    78.2320    23.7790 
  221.1250     2.2130   -21.4400    60.9940    77.6620    76.4840    76.3780    23.7670 
  221.2500     2.2130   -21.4240    65.3590    78.0250    76.9920    76.3820    23.7310 
  221.3750     2.2140   -21.3960    68.2300    78.5460    77.6060    77.4140    23.6740 
  221.5000     2.2180   -21.3630    67.0810    79.1380    78.2490    78.0950    23.6260 
  221.6250     2.2230   -21.3220    66.7460    79.6190    78.7310    78.4460    23.5910 
  221.7500     2.2270   -21.2780    70.2040    79.8880    78.9390    79.0800    23.5790 
  221.8750     2.2300   -21.2270    73.5970    79.9890    78.8850    80.0840    23.5760 
  222.0000     2.2320   -21.1760    72.2310    80.1120    78.7340    79.2380    23.5760 
  222.1250     2.2320   -21.1290    66.3910    80.6030    78.8170    78.8100    23.5760 
  222.2500     2.2290   -21.0890    60.9580    81.6100    79.3340    77.1150    23.5760 
  222.3750     2.2250   -21.0550    58.5890    83.0960    80.2980    75.5450    23.5810 
  222.5000     2.2190   -21.0250    58.5060    84.7970    81.5040    74.2770    23.6000 
  222.6250     2.2140   -21.0200    57.8890    86.2200    82.5100    74.0420    23.6440 
  222.7500     2.2120   -21.0370    57.6340    87.1090    83.0310    75.9210    23.6760 
  222.8750     2.2170   -21.0760    58.5000    87.5810    83.1300    83.2030    23.6900 
  223.0000     2.2340   -21.1240    57.8520    88.0880    83.1900    88.0000    23.6900 
  223.1250     2.2640   -21.1640    53.8270    89.3330    83.8590    86.0840    23.6530 
  223.2500     2.3000   -21.1730    49.3900    91.4650    85.3390    82.3750    23.5520 
  223.3750     2.3330   -21.1430    47.1340    94.1790    87.4220    84.3630    23.4320 
  223.5000     2.3530   -21.0900    46.5040    96.7780    89.5180    94.0090    23.4220 
  223.6250     2.3480   -21.0250    46.3730    98.2830    90.7360   106.3530    23.4890 
  223.7500     2.3240   -20.9590    47.3680    98.5060    90.8240   111.6160    23.5590 
  223.8750     2.2900   -20.8980    49.5610    97.7320    89.9850   107.9180    23.6050 
  224.0000     2.2570   -20.8310    52.6510    96.5820    88.7620   100.5800    23.6010 
  224.1250     2.2330   -20.7550    55.5920    95.7320    87.8120    98.9420    23.5130 
  224.2500     2.2190   -20.6820    57.2230    95.2810    87.3170   102.6380    23.3910 
  224.3750     2.2110   -20.6300    56.5090    94.9030    87.0380   109.3810    23.2880 
  224.5000     2.2070   -20.5910    53.6930    94.1070    86.5390   111.3280    23.2630 
  224.6250     2.2100   -20.5450    52.9730    92.2710    85.2330   105.7300    23.3280 
  224.7500     2.2190   -20.4860    55.2730    89.2590    82.9050   100.1380    23.4280 
  224.8750     2.2310   -20.4160    57.1080    85.0000    79.4170    97.8200    23.4900 
  225.0000     2.2440   -20.3410    56.9580    79.5880    74.7860    96.5730    23.5080 
  225.1250     2.2530   -20.2640    56.8710    73.2410    69.1370    93.5530    23.4950 
  225.2500     2.2590   -20.1840    59.0420    66.6930    63.1440    87.7480    23.4350 
  225.3750     2.2640   -20.0950    60.9920    60.5980    57.4160    79.2680    23.3030 
  225.5000     2.2680   -20.0070    59.4400    55.5540    52.5360    69.7210    23.1380 
  225.6250     2.2710   -19.9360    54.4070    52.1990    49.1320    62.3210    23.0580 
  225.7500     2.2710   -19.8740    52.2540    50.3050    47.0570    58.5120    23.0360 
  225.8750     2.2700   -19.8190    55.5480    49.5570    46.0670    55.9210    23.0340 
  226.0000     2.2660   -19.7680    59.2150    49.4360    45.7280    54.3280    23.0340 
  226.1250     2.2600   -19.7220    58.0690    49.2930    45.4810    57.7070    23.0410 
  226.2500     2.2530   -19.6860    55.8520    48.6730    44.8730    61.2590    23.0600 
  226.3750     2.2460   -19.6550    55.1970    47.4890    43.7850    63.4090    23.0820 
  226.5000     2.2410   -19.6110    55.5640    45.9250    42.3480    58.8560    23.0790 
  226.6250     2.2400   -19.5370    56.2590    44.3260    40.8510    51.4330    23.0380 
  226.7500     2.2410   -19.4380    56.8840    42.9300    39.5130    47.5790    22.9960 
  226.8750     2.2440   -19.3140    56.0350    41.7200    38.3330    49.2230    22.9790 
  227.0000     2.2500   -19.1770    54.0290    40.5160    37.1670    52.7040    22.9760 
  227.1250     2.2590   -19.0150    52.1120    39.0070    35.7550    52.3320    22.9670 
  227.2500     2.2700   -18.8250    51.8170    37.0670    33.9760    47.7870    22.9340 
  227.3750     2.2820   -18.6000    53.7210    34.7150    31.8350    42.3830    22.8670 
  227.5000     2.2940   -18.3550    56.2370    32.1320    29.4840    37.4870    22.7950 
  227.6250     2.3040   -18.1080    54.8190    29.6520    27.2200    33.4730    22.7530 
  227.7500     2.3120   -17.8590    52.9130    27.5530    25.2930    30.4660    22.7210 
  227.8750     2.3190   -17.6000    54.3850    25.9770    23.8280    26.7990    22.6870 
  228.0000     2.3240   -17.3260    57.4440    24.9360    22.8400    22.7780    22.6540 
  228.1250     2.3270   -17.0610    58.4990    24.3570    22.2790    20.5400    22.6420 
  228.2500     2.3300   -16.8150    59.1240    23.9350    21.8860    20.6110    22.6380 
  228.3750     2.3310   -16.5990    61.1050    23.4520    21.4650    21.2510    22.6380 
  228.5000     2.3320   -16.4070    63.2240    22.6030    20.8710    21.1150    22.6360 
  228.6250     2.3320   -16.2310    63.5280    21.4380    20.0380    19.7510    22.6300 
  228.7500     2.3330   -16.0760    61.6750    20.0620    19.1110    18.4900    22.6230 
  228.8750     2.3350   -15.9460    58.1740    18.5730    18.2410    17.7710    22.6190 
  229.0000     2.3400   -15.8450    56.7760    17.8310    17.5450    16.6980    22.6190 
  229.1250     2.3460   -15.7690    60.4750    17.5480    17.0930    15.2400    22.6090 
  229.2500     2.3500   -15.7050    63.5800    17.4370    16.8040    14.9360    22.5820 
  229.3750     2.3520   -15.6440    62.7430    17.4100    16.6100    15.3330    22.5390 
  229.5000     2.3530   -15.5880    59.6980    17.4240    16.4690    15.6450    22.4830 
  229.6250     2.3550   -15.5550    57.4890    17.5710    16.4420    15.6080    22.4380 
  229.7500     2.3630   -15.5410    56.9120    18.0170    16.6560    15.8750    22.4200 
  229.8750     2.3800   -15.5430    56.8100    18.9500    17.2740    16.5500    22.4330 
