~V
VERS. 2.00: Ver 2.00
~W
STRT.M 55.0000:
STOP.M 247.0000:
STEP.M 0.1250:
NULL. -999.2500:
UWI. F10183:
~C
DEPT.M :
SP.MV :
GR.API :
RML.OHMM :
RI. :
RXO.OHMM :
CALI.CM :
DEN.GM/CC :
~A
# ...
  223.7500    -4.0710    54.4250     8.6620     7.2970     7.5090    23.8450     2.4130 
  223.8750    -4.1050    52.2650     8.7010     7.2970     7.4320    23.8810     2.4000 
  224.0000    -4.1020    50.4440     8.8440     7.3860     7.4100    23.9040     2.3930 
  224.1250    -4.1470    51.0720     9.1230     7.6010     7.6780    23.9190     2.3950 
  224.2500    -4.2110    53.1240     9.4830     7.9030     8.6220    23.9440     2.4010 
  224.3750    -4.2570    55.3300     9.8590     8.2450     9.8990    23.9410     2.4080 
  224.5000    -4.2910    56.8260    10.1840     8.5670    10.8850    23.9120     2.4130 
  224.6250    -4.3000    58.2950    10.3860     8.8020    11.1650    23.9250     2.4170 
  224.7500    -4.3030    60.3610    10.4780     8.9390    11.1040    23.9510     2.4220 
  224.8750    -4.3150    62.6520    10.4910     8.9920    10.9170    23.9520     2.4290 
  225.0000    -4.3760    62.3430    10.4720     8.9930    10.5050    23.9700     2.4340 
  225.1250    -4.4240    58.1650    10.4690     8.9810    10.0750    24.0110     2.4370 
  225.2500    -4.4590    54.4800    10.5000     8.9860     9.8050    24.0150     2.4350 
  225.3750    -4.5120    54.8880    10.5620     9.0150     9.7780    24.0090     2.4290 
  225.5000    -4.5470    59.2790    10.6360     9.0620     9.9550    24.0190     2.4220 
  225.6250    -4.5560    62.9560    10.7000     9.1110     9.9670    23.9890     2.4160 
  225.7500    -4.5500    63.9190    10.7400     9.1520     9.9120    23.9450     2.4160 
  225.8750    -4.5530    63.0680    10.7580     9.1800     9.9310    23.9330     2.4220 
  226.0000    -4.5780    61.6380    10.7620     9.1990     9.8840    23.9150     2.4330 
  226.1250    -4.6110    60.0860    10.7700     9.2220     9.7110    23.8790     2.4470 
  226.2500    -4.6570    58.4280    10.7960     9.2570     9.5990    23.8760     2.4570 
  226.3750    -4.7120    58.3490    10.8450     9.3090     9.8370    23.8900     2.4610 
  226.5000    -4.7670    59.2940    10.9150     9.3760    10.3620    23.8890     2.4570 
  226.6250    -4.8320    59.3090    10.9930     9.4480    10.9350    23.9470     2.4460 
  226.7500    -4.9130    57.5120    11.0640     9.5140    11.3150    24.0400     2.4330 
  226.8750    -5.0030    55.9050    11.1180     9.5650    11.4960    24.0900     2.4230 
  227.0000    -5.0600    55.8180    11.1520     9.6010    11.6160    24.1180     2.4170 
  227.1250    -5.0960    56.1080    11.1720     9.6270    11.9700    24.1570     2.4140 
  227.2500    -5.1270    56.5640    11.1990     9.6590    12.0230    24.1620     2.4120 
  227.3750    -5.1620    56.9570    11.2450     9.7100    11.7250    24.1500     2.4120 
  227.5000    -5.1760    58.2260    11.3240     9.7900    11.4850    24.1610     2.4120 
  227.6250    -5.1410    59.4720    11.4400     9.9050    11.2140    24.1770     2.4130 
  227.7500    -5.1120    59.2190    11.5740    10.0370    11.0630    24.1470     2.4140 
  227.8750    -5.0230    58.9730    11.7050    10.1710    10.9340    24.1210     2.4150 
  228.0000    -4.9380    58.4960    11.8120    10.2880    10.8550    24.1260     2.4170 
  228.1250    -4.8830    57.6770    11.8720    10.3680    10.9050    24.1000     2.4190 
  228.2500    -4.8370    56.6180    11.8890    10.4120    10.7570    24.0580     2.4210 
  228.3750    -4.8000    56.9600    11.8710    10.4230    10.5140    24.0490     2.4220 
  228.5000    -4.7910    58.8820    11.8320    10.4100    10.2790    24.0340     2.4180 
  228.6250    -4.8220    58.3460    11.7840    10.3840    10.2680    23.9970     2.4110 
  228.7500    -4.8490    57.0660    11.7480    10.3660    10.5830    23.9920     2.4040 
  228.8750    -4.9410    56.4210    11.7400    10.3690    11.0060    24.0040     2.4020 
  229.0000    -5.0170    55.9380    11.7710    10.4070    11.2780    23.9730     2.4080 
  229.1250    -5.0570    55.7210    11.8470    10.4850    11.5900    23.9050     2.4240 
  229.2500    -5.0690    55.7170    11.9400    10.5830    12.0310    23.8780     2.4440 
  229.3750    -5.0860    55.7650    12.0200    10.6760    12.4400    23.8720     2.4600 
  229.5000    -5.0960    55.0720    12.0580    10.7380    12.4250    23.8300     2.4660 
  229.6250    -5.1510    55.7660    12.0270    10.7410    11.8150    23.7710     2.4630 
  229.7500    -5.1850    59.2370    11.9450    10.6950    11.1330    23.7450     2.4530 
  229.8750    -5.2090    62.0480    11.8420    10.6200    10.7690    23.7400     2.4400 
  230.0000    -5.2610    61.4160    11.7540    10.5470    10.7570    23.7160     2.4250 
  230.1250    -5.3270    59.1420    11.7190    10.5110    10.8950    23.7220     2.4120 
  230.2500    -5.4200    58.8400    11.7380    10.5240    11.0050    23.7940     2.4000 
  230.3750    -5.4760    61.7340    11.7990    10.5830    11.0130    23.8710     2.3920 
  230.5000    -5.5420    65.9390    11.8830    10.6770    10.9690    23.8720     2.3910 
  230.6250    -5.5470    68.3440    11.9720    10.7920    10.7790    23.8290     2.3970 
  230.7500    -5.5850    66.8940    12.0510    10.9090    10.8120    23.8410     2.4080 
  230.8750    -5.6050    62.3000    12.1130    11.0130    11.5280    23.9260     2.4200 
  231.0000    -5.5850    58.8370    12.1480    11.0920    13.1880    24.0280     2.4280 
  231.1250    -5.5800    59.0700    12.1440    11.1300    15.1670    24.0940     2.4270 
  231.2500    -5.5270    60.0550    12.1110    11.1330    16.8550    24.1500     2.4190 
  231.3750    -5.5010    60.0830    12.0630    11.1120    17.2000    24.2230     2.4080 
  231.5000    -5.4870    60.6600    12.0250    11.0890    14.8020    24.2930     2.4000 
  231.6250    -5.4440    63.4720    12.0320    11.0970    13.3060    24.2900     2.4010 
  231.7500    -5.3860    65.5330    12.0960    11.1530    12.6740    24.2400     2.4100 
  231.8750    -5.3330    66.0210    12.2220    11.2690    12.5450    24.2200     2.4250 
  232.0000    -5.2980    66.1990    12.4120    11.4490    12.6970    24.2530     2.4400 
  232.1250    -5.2920    65.7010    12.6760    11.7060    13.4210    24.2870     2.4510 
  232.2500    -5.2860    63.7150    12.9930    12.0210    15.1680    24.2640     2.4570 
  232.3750    -5.2520    62.2890    13.3410    12.3730    17.5050    24.2360     2.4610 
  232.5000    -5.1940    62.7310    13.6790    12.7280    18.9880    24.2480     2.4660 
  232.6250    -5.1560    62.0620    13.9490    13.0290    19.7060    24.2560     2.4740 
  232.7500    -5.1390    59.8320    14.1260    13.2470    18.4560    24.2390     2.4810 
  232.8750    -5.1130    58.9080    14.2130    13.3730    17.1390    24.2260     2.4860 
  233.0000    -5.0840    60.7710    14.2410    13.4320    16.0870    24.2460     2.4870 
  233.1250    -5.0200    62.6490    14.2610    13.4640    15.4940    24.2660     2.4860 
  233.2500    -5.0380    62.7210    14.3050    13.5120    15.4040    24.2410     2.4880 
  233.3750    -5.0930    62.9280    14.3710    13.5790    16.1380    24.1970     2.4940 
  233.5000    -5.1270    63.1660    14.4310    13.6510    17.8350    24.1690     2.5040 
  233.6250    -5.1820    62.3140    14.4440    13.6910    19.7760    24.1930     2.5140 
  233.7500    -5.2090    61.2900    14.4020    13.6880    20.4950    24.2010     2.5210 
  233.8750    -5.2550    61.5140    14.3120    13.6430    19.3500    24.1770     2.5220 
  234.0000    -5.3530    62.3230    14.1950    13.5710    17.6680    24.1630     2.5180 
  234.1250    -5.4640    61.3730    14.0680    13.4890    17.0360    24.1750     2.5110 
  234.2500    -5.5020    60.1120    13.9320    13.3990    17.2640    24.1840     2.5030 
  234.3750    -5.4860    60.6630    13.7730    13.2890    17.8160    24.1540     2.4950 
  234.5000    -5.4870    62.1370    13.5720    13.1350    18.4080    24.1200     2.4880 
  234.6250    -5.4700    62.9550    13.3050    12.9120    18.5770    24.1380     2.4810 
  234.7500    -5.4780    62.8570    12.9940    12.6360    17.9400    24.1460     2.4770 
  234.8750    -5.5270    61.6810    12.6690    12.3330    16.2910    24.0970     2.4760 
