~V
VERS. 2.00: Ver 2.00
~W
STRT.M 57.0000:
STOP.M 247.0000:
STEP.M 0.1250:
NULL. -999.2500:
UWI. F10194:
~C
DEPT.M :
SP.MV :
DEN.GM/CC :
GR.API :
RML.OHMM :
RI. :
RXO.OHMM :
CALI.CM :
~A
   57.0000  -999.2500     0.0000  -999.2500  -999.2500  -999.2500  -999.2500  -999.2500 
   57.1250  -999.2500     0.8950  -999.2500  -999.2500  -999.2500  -999.2500  -999.2500 
   57.2500    77.5190     1.7900  -999.2500  -999.2500  -999.2500  -999.2500  -999.2500 
   57.3750    77.5190     1.9830  -999.2500  -999.2500  -999.2500  -999.2500  -999.2500 
   57.5000    77.5190     1.9750  -999.2500  -999.2500  -999.2500  -999.2500  -999.2500 
   57.6250    77.5190     1.9680  -999.2500  -999.2500  -999.2500  -999.2500  -999.2500 
   57.7500    77.5190     1.9610  -999.2500  -999.2500  -999.2500  -999.2500  -999.2500 
   57.8750    77.7130     1.9500  -999.2500  -999.2500  -999.2500  -999.2500  -999.2500 
   58.0000    78.2260     1.9370  -999.2500  -999.2500  -999.2500  -999.2500  -999.2500 
   58.1250    79.0090     1.9290  -999.2500  -999.2500  -999.2500  -999.2500  -999.2500 
   58.2500    79.9470     1.9310     0.0000     0.0000     0.0000     0.0000     0.0000 
   58.3750    80.9050     1.9420     0.0000     0.0000     0.0000     0.0000     0.0000 
   58.5000    81.8280     1.9570     0.0000     0.0000     0.0000     0.0000     0.0000 
   58.6250    82.6940     1.9720    22.2310 21557.3180     0.0680     5.0570    11.3490 
   58.7500    83.4160     1.9810    44.2350 43114.2850     0.1390    11.6630    22.6980 
   58.8750    83.8900     1.9750    48.4390 47904.6840     0.1560    16.0670    25.2200 
   59.0000    84.1580     1.9590    46.8850 47904.6840     0.1580    20.5230    25.2210 
   59.1250    84.3080     1.9460    45.0100 47904.6840     0.1570    29.1270    25.2270 
   59.2500    84.3900     1.9470    43.5790 47904.6840     0.1560   895.1340    25.2430 
   59.3750    84.3950     1.9650    43.3690 47904.6840     0.1530  2552.0830    25.2530 
   59.5000    84.2420     1.9920    44.4820 47904.6840     0.1500  4360.9820    25.2460 
   59.6250    83.8660     2.0220    45.2270 47904.6840     0.1480  6797.2430    25.2290 
   59.7500    83.3130     2.0480    43.9140 47904.6840     0.1460  6646.4990    25.2180 
   59.8750    82.6340     2.0610    41.8670 47904.6840     0.1470  2356.3220    25.2190 
   60.0000    81.8190     2.0580    42.0960 47904.6840     0.1480    39.6040    25.2270 
   60.1250    80.8800     2.0400    44.3680 47904.6840     0.1500    12.9250    25.2350 
   60.2500    79.8530     2.0130    46.2600 47904.6840     0.1520     8.8850    25.2290 
   60.3750    78.8330     1.9840    47.5560 47904.6840     0.1540    10.5310    25.2150 
   60.5000    77.8870     1.9610    49.5300 47904.6840     0.1560    13.3250    25.2050 
   60.6250    76.9850     1.9480    51.9750 47904.6840     0.1580    15.1200    25.2000 
   60.7500    76.1140     1.9470    53.6660 47904.6840     0.1600    14.5350    25.1960 
   60.8750    75.3080     1.9520    53.9920 47904.6840     0.1590    14.6640    25.1960 
   61.0000    74.5300     1.9530    54.0280 47904.6840     0.1580    16.5020    25.1960 
   61.1250    73.7100     1.9460    55.5430 47904.6840     0.1570    17.7370    25.1890 
   61.2500    72.8770     1.9300    58.9170 47904.6840     0.1570    15.3810    25.1690 
   61.3750    72.1260     1.9130    61.7320 47904.6840     0.1580    10.5580    25.1500 
   61.5000    71.5540     1.9030    61.4800 47904.6840     0.1590     7.4110    25.1420 
   61.6250    71.2340     1.9000    58.8910 47904.6840     0.1610     5.9400    25.1380 
   61.7500    71.1590     1.9020    56.5680 47904.6840     0.1630     5.1900    25.1360 
   61.8750    71.2730     1.9080    55.5440 47904.6840     0.1630     4.8980    25.1410 
   62.0000    71.5570     1.9160    54.9310 47904.6840     0.1630     4.4710    25.1460 
   62.1250    72.0200     1.9210    54.5030 47904.6840     0.1620     3.5980    25.1460 
   62.2500    72.6240     1.9170    54.5220 47904.6840     0.1610     2.5860    25.1420 
   62.3750    73.2450     1.9040    54.0620 47202.1680     0.1600     2.0550    25.1410 
   62.5000    73.7360     1.8960    52.8770 43191.6330     0.1580     2.0020    25.1410 
   62.6250    74.0420     1.9020    51.8990 35132.9880     0.1560     2.1570    25.1410 
   62.7500    74.1300     1.9200    51.4890 24170.7170     0.1530     2.3490    25.1410 
   62.8750    73.8380     1.9550    51.3600  7965.2730     0.1460     2.3850    25.1410 
   63.0000    72.9470     2.0140    51.2380   151.8070     0.1360     2.2550    25.1410 
   63.1250    71.2020     2.0980    50.9930    10.9750     0.1240     2.0060    25.1410 
   63.2500    68.3150     2.2000    50.6560     1.6630     0.1140     1.6110    25.1410 
   63.3750    63.8500     2.3140    50.2220     0.2490     0.1120     1.1150    25.1390 
   63.5000    57.5840     2.4280    49.2120    -0.0110     0.1330     1.1210    25.1350 
   63.6250    49.4220     2.5220    48.1720     0.0310     0.2020     1.9710    25.1310 
   63.7500    39.5720     2.5500    48.7950     0.3060     0.3640     3.6090    25.1340 
   63.8750    28.6770     2.4750    51.3500     0.9120     0.7070     5.9170    25.2140 
   64.0000    17.6050     2.3300    54.7940     1.8900     1.2870     7.7640    25.4300 
   64.1250     7.0600     2.1830    59.1330     3.1440     2.0950     8.2030    25.7480 
   64.2500    -2.5110     2.0730    64.1990     4.4530     3.0540     7.7800    26.0570 
   64.3750   -10.6020     2.0120    68.2000     5.3740     3.9920     7.4900    26.2850 
   64.5000   -16.9380     1.9980    70.5630     5.6960     4.7520     7.6070    26.4050 
   64.6250   -21.4400     2.0210    72.3260     5.7050     5.3090     8.0990    26.4080 
   64.7500   -24.2770     2.0590    74.0350     5.7790     5.7340     8.7830    26.3430 
   64.8750   -25.8590     2.0830    75.3340     6.0770     6.0850     9.2470    26.2960 
   65.0000   -26.7480     2.0830    75.9800     6.5160     6.3730     9.3140    26.3000 
   65.1250   -27.3820     2.0700    76.1170     6.9450     6.5800     9.2390    26.3620 
   65.2500   -27.9460     2.0530    76.5660     7.2450     6.6890     9.1970    26.4800 
   65.3750   -28.4440     2.0450    77.8810     7.3580     6.6930     9.2010    26.6270 
   65.5000   -28.8430     2.0530    79.3270     7.3470     6.6220     9.1820    26.7420 
   65.6250   -29.1680     2.0770    80.8610     7.3110     6.5140     9.0710    26.8120 
   65.7500   -29.4740     2.1080    83.6290     7.3080     6.4020     8.9280    26.8690 
   65.8750   -29.8090     2.1340    87.1430     7.3510     6.3180     8.9340    26.9290 
   66.0000   -30.1750     2.1470    89.4190     7.4190     6.2770     8.9990    27.0190 
   66.1250   -30.5850     2.1450    89.5450     7.4990     6.2900     8.9820    27.1540 
   66.2500   -31.0890     2.1250    86.9100     7.6000     6.3650     8.9430    27.3130 
   66.3750   -31.7360     2.0950    81.6010     7.7600     6.5200     8.9530    27.4710 
   66.5000   -32.4930     2.0710    76.3010     8.0000     6.7490     8.9700    27.6070 
   66.6250   -33.2620     2.0670    72.6760     8.3080     7.0210     8.9120    27.7180 
   66.7500   -33.9520     2.0920    69.6190     8.6360     7.2880     8.6630    27.9350 
   66.8750   -34.5530     2.1580    66.5560     8.9030     7.4810     8.2710    28.4120 
   67.0000   -35.1570     2.2430    64.8670     9.0470     7.5520     7.9850    29.0050 
   67.1250   -35.7200     2.2910    65.2000     9.0490     7.4990     8.1440    29.3230 
   67.2500   -36.1580     2.2610    66.1000     8.9290     7.3500     8.7660    29.2760 
   67.3750   -36.5030     2.1890    66.1530     8.7300     7.1580     9.4150    29.1380 
   67.5000   -36.7910     2.1280    65.5030     8.5030     6.9730     9.7820    29.1050 
   67.6250   -37.0520     2.0890    64.6490     8.2860     6.8200     9.8540    29.1810 
   67.7500   -37.3200     2.0500    64.0630     8.0960     6.6970     9.6870    29.3190 
   67.8750   -37.5620     2.0050    63.9160     7.9350     6.5900     9.3380    29.4690 
   68.0000   -37.7170     1.9650    64.2280     7.7990     6.4840     8.9580    29.5670 
   68.1250   -37.8350     1.9400    64.8440     7.6890     6.3810     8.7550    29.5730 
