~V
VERS. 2.00: Ver 2.00
~W
STRT.M 53.0000:
STOP.M 219.0000:
STEP.M 0.1250:
NULL. -999.2500:
UWI. F10171:
~C
DEPT.M :
SP.MV :
DEN.GM/CC :
GR.API :
RML.OHMM :
RI. :
RXO.OHMM :
CALI.CM :
~A
   53.0000    79.6600  -999.2500  -999.2500  -999.2500  -999.2500  -999.2500  -999.2500 
   53.1250    80.5570  -999.2500  -999.2500  -999.2500  -999.2500  -999.2500  -999.2500 
   53.2500    81.4210  -999.2500  -999.2500  -999.2500  -999.2500  -999.2500  -999.2500 
   53.3750    82.1730  -999.2500  -999.2500  -999.2500  -999.2500  -999.2500  -999.2500 
   53.5000    82.8820  -999.2500  -999.2500  -999.2500  -999.2500  -999.2500  -999.2500 
   53.6250    83.4910  -999.2500  -999.2500  -999.2500  -999.2500  -999.2500  -999.2500 
   53.7500    84.0390  -999.2500  -999.2500  -999.2500  -999.2500  -999.2500  -999.2500 
   53.8750    84.5520  -999.2500  -999.2500  -999.2500  -999.2500  -999.2500  -999.2500 
   54.0000    85.0520  -999.2500  -999.2500  -999.2500  -999.2500  -999.2500  -999.2500 
   54.1250    85.6260  -999.2500  -999.2500  -999.2500  -999.2500  -999.2500  -999.2500 
   54.2500    86.3100  -999.2500  -999.2500  -999.2500  -999.2500  -999.2500  -999.2500 
   54.3750    87.0760  -999.2500  -999.2500  -999.2500  -999.2500  -999.2500  -999.2500 
   54.5000    87.8630  -999.2500  -999.2500  -999.2500  -999.2500  -999.2500  -999.2500 
   54.6250    88.6730  -999.2500  -999.2500  -999.2500  -999.2500  -999.2500  -999.2500 
   54.7500    89.4220  -999.2500  -999.2500  -999.2500  -999.2500  -999.2500  -999.2500 
   54.8750    89.9750  -999.2500  -999.2500  -999.2500  -999.2500  -999.2500  -999.2500 
   55.0000    90.3410  -999.2500  -999.2500  -999.2500  -999.2500  -999.2500  -999.2500 
   55.1250    90.4230  -999.2500  -999.2500  -999.2500  -999.2500  -999.2500  -999.2500 
   55.2500    90.2040  -999.2500  -999.2500  -999.2500  -999.2500  -999.2500  -999.2500 
   55.3750    89.6850  -999.2500  -999.2500  -999.2500  -999.2500  -999.2500  -999.2500 
   55.5000    88.9190  -999.2500  -999.2500  -999.2500  -999.2500  -999.2500  -999.2500 
   55.6250    87.9880  -999.2500  -999.2500  -999.2500  -999.2500  -999.2500  -999.2500 
   55.7500    86.9200  -999.2500  -999.2500  -999.2500  -999.2500  -999.2500  -999.2500 
   55.8750    85.7710  -999.2500  -999.2500  -999.2500  -999.2500  -999.2500  -999.2500 
   56.0000    84.6220  -999.2500  -999.2500  -999.2500  -999.2500  -999.2500  -999.2500 
   56.1250    83.5870  -999.2500  -999.2500  -999.2500  -999.2500  -999.2500  -999.2500 
   56.2500    82.6900  -999.2500  -999.2500  -999.2500  -999.2500  -999.2500  -999.2500 
   56.3750    81.9470  -999.2500  -999.2500  -999.2500  -999.2500  -999.2500  -999.2500 
   56.5000    81.3140  -999.2500  -999.2500  -999.2500  -999.2500  -999.2500  -999.2500 
   56.6250    80.6710  -999.2500  -999.2500  -999.2500  -999.2500  -999.2500  -999.2500 
   56.7500    80.1020  -999.2500  -999.2500  -999.2500  -999.2500  -999.2500  -999.2500 
   56.8750    79.5770  -999.2500  -999.2500  -999.2500  -999.2500  -999.2500  -999.2500 
   57.0000    79.0890  -999.2500  -999.2500  -999.2500  -999.2500  -999.2500  -999.2500 
   57.1250    78.6510  -999.2500  -999.2500  -999.2500  -999.2500  -999.2500  -999.2500 
   57.2500    78.1920  -999.2500  -999.2500  -999.2500  -999.2500  -999.2500  -999.2500 
   57.3750    77.7300  -999.2500  -999.2500  -999.2500  -999.2500  -999.2500  -999.2500 
   57.5000    77.3740  -999.2500    35.7090     4.3210     0.7080     0.0010    25.7450 
   57.6250    77.2020  -999.2500    35.7090     4.3210     0.7080     0.0010    25.7450 
   57.7500    77.1910  -999.2500    35.0370     4.1570     0.7020     0.0010    25.7410 
   57.8750    77.4660  -999.2500    36.2950     4.0280     0.7000     0.0020    25.7250 
   58.0000    77.9260  -999.2500    39.8310     4.0120     0.7070     0.0020    25.7000 
   58.1250    78.4930     0.0000    44.4650     4.0890     0.7230     0.0010    25.6830 
   58.2500    79.2360     0.0000    48.8430     4.1900     0.7430     0.0000    25.6760 
   58.3750    80.1630     0.0000    52.1530     4.2250     0.7590     0.0000    25.6760 
   58.5000    81.1190     0.0000    53.4720     4.1690     0.7670     0.0000    25.6760 
   58.6250    82.1200     0.0000    52.6010     4.0390     0.7680     0.0010    25.6760 
   58.7500    83.1170     0.0000    49.6290     3.8770     0.7640     0.0010    25.6750 
   58.8750    84.0220     2.0640    47.0530     3.7220     0.7580     0.0050    25.6740 
   59.0000    84.8540     2.0770    45.6880     3.5950     0.7540     0.0100    25.6740 
   59.1250    85.5800     2.0860    45.0660     3.5010     0.7530     0.0120    25.6740 
   59.2500    86.1570     2.0720    45.6370     3.4350     0.7600     0.0120    25.6720 
   59.3750    86.5290     2.0460    46.7850     3.3810     0.7720     0.0190    25.6670 
   59.5000    86.7830     2.0370    46.4490     3.3190     0.7840     0.0370    25.6670 
   59.6250    86.8570     2.0430    44.3530     3.2470     0.7940     0.0600    25.6690 
   59.7500    86.8160     2.0570    42.3270     3.1700     0.8030     0.1330    25.6740 
   59.8750    86.6360     2.0900    42.5320     3.0960     0.8110     0.3440    25.6750 
   60.0000    86.3400     2.1470    44.0120     3.0270     0.8200     1.0230    25.6740 
   60.1250    86.0070     2.2140    44.5110     2.9570     0.8280     2.3710    25.6690 
   60.2500    85.6140     2.2630    42.2300     2.8800     0.8350     2.0420    25.6650 
   60.3750    85.2450     2.2640    39.9570     2.7970     0.8410     1.7700    25.6630 
   60.5000    84.8170     2.2140    41.0970     2.7130     0.8440     3.1300    25.6600 
   60.6250    84.3900     2.1160    43.1500     2.6260     0.8440     4.3950    25.6530 
   60.7500    83.9050     1.9970    42.6720     2.5330     0.8410     5.3400    25.6400 
   60.8750    83.2150     1.9050    40.8140     2.4440     0.8330     2.4020    25.6180 
   61.0000    82.3480     1.8560    39.6640     2.3790     0.8240     1.6980    25.6090 
   61.1250    81.2210     1.8440    38.3830     2.3690     0.8160     1.4660    25.6070 
   61.2500    79.7610     1.8560    36.2990     2.4260     0.8040     1.4710    25.6070 
   61.3750    77.8070     1.8920    34.9770     2.4780     0.7760     1.7190    25.6020 
   61.5000    75.3080     1.9530    34.1050     2.2470     0.7070     1.8860    25.5800 
   61.6250    72.1450     2.0380    33.4100     1.4740     0.5730     1.8310    25.5370 
   61.7500    68.2800     2.1440    34.3630     0.4500     0.3910     1.8530    25.4870 
   61.8750    63.4930     2.2690    38.6630    -0.2400     0.2290     1.7970    25.4620 
   62.0000    57.8000     2.4080    44.4800    -0.5970     0.1240     1.4180    25.4200 
   62.1250    51.1780     2.5420    48.1130    -0.7480     0.0740     1.0490    25.2970 
   62.2500    43.6950     2.6310    48.3820    -0.7720     0.0720     1.0280    25.0530 
   62.3750    35.4130     2.6030    49.9540    -0.6690     0.1440     1.7090    24.7360 
   62.5000    26.9620     2.4810    55.1540    -0.4220     0.3230     3.3080    24.4730 
   62.6250    18.8230     2.3300    60.7540     0.0310     0.6770     5.0600    24.4080 
   62.7500    11.2300     2.1960    63.5120     1.7440     1.2800     5.6000    24.7570 
   62.8750     4.6400     2.0880    63.7240     2.6820     2.2240     5.0320    25.9390 
   63.0000    -1.0380     2.0090    64.2750     3.6630     3.4210     4.6830    27.2230 
   63.1250    -5.7820     1.9950    64.4710     4.6460     4.7940     5.9810    27.2110 
   63.2500    -9.5400     2.0630    62.1350     5.6660     6.2340    10.2720    25.9190 
   63.3750   -12.2210     2.1670    57.7000     6.6300     7.4880    16.3220    24.9370 
   63.5000   -14.3070     2.1980    56.1170     7.2920     8.2930    13.5010    24.5880 
   63.6250   -16.0900     2.1450    59.4120     7.5150     8.5460    10.3310    24.5390 
   63.7500   -17.6640     2.0910    64.0200     7.4040     8.3920     9.2200    24.5360 
   63.8750   -19.1570     2.0840    64.1210     7.2200     8.1180     8.9530    24.5820 
   64.0000   -20.4960     2.0950    62.0410     7.1620     7.9600     8.7880    24.6750 
   64.1250   -21.5550     2.1030    62.1920     7.2480     7.9450     8.8620    24.7750 
