~V
VERS. 2.00: Ver 2.00
~W
STRT.M 64.0000:
STOP.M 215.0000:
STEP.M 0.1250:
NULL. -999.2500:
UWI. F10146:
~C
DEPT.M :
DEN.GM/CC :
GR.API :
RML.OHMM :
RI. :
RXO.OHMM :
CALI.CM :
SP.MV :
~A
# ...
  142.7500     2.1890    67.8440    26.9980    22.6410    26.9510    31.3500   -18.4780 
  142.8750     2.1830    68.7700    27.5490    23.0420    26.2800    31.2290   -18.4340 
  143.0000     2.1790    66.6530    27.9680    23.3610    25.2710    30.8570   -18.3750 
  143.1250     2.1760    65.7470    28.2360    23.5610    25.0300    30.6430   -18.2970 
  143.2500     2.1720    67.5330    28.4160    23.6930    25.0920    30.6070   -18.1940 
  143.3750     2.1650    67.2510    28.5280    23.7950    25.7630    30.6290   -18.0680 
  143.5000     2.1550    62.1530    28.5720    23.8920    26.1560    30.7510   -17.9510 
  143.6250     2.1470    58.0430    28.5450    23.9970    26.4580    30.9150   -17.8580 
  143.7500     2.1440    57.5770    28.4860    24.1110    26.0150    30.9860   -17.7730 
  143.8750     2.1450    59.2060    28.4480    24.2480    25.1700    31.0700   -17.6650 
  144.0000     2.1480    60.8910    28.4810    24.4310    23.5520    31.3460   -17.5760 
  144.1250     2.1510    61.9990    28.5610    24.6570    22.7460    31.4430   -17.4840 
  144.2500     2.1520    62.8040    28.4630    24.7840    21.8280    31.5630   -17.3640 
  144.3750     2.1500    64.3410    27.8270    24.5390    20.6360    31.4410   -17.2810 
  144.5000     2.1480    66.1910    26.3210    23.6130    20.1120    31.3090   -17.1890 
  144.6250     2.1490    66.1150    23.7730    21.7660    19.5670    30.9890   -17.0740 
  144.7500     2.1540    65.4560    20.7990    19.4330    17.7420    30.7500   -16.9980 
  144.8750     2.1640    67.9080    18.0260    17.1050    14.7960    30.4490   -16.9360 
  145.0000     2.1790    73.1820    15.9440    15.2090    11.8890    30.2850   -16.8560 
  145.1250     2.1970    75.9740    14.8990    14.0770    10.0940    30.2150   -16.8480 
  145.2500     2.2120    76.1380    14.6210    13.5840    10.0620    30.2040   -16.8580 
  145.3750     2.2220    77.4190    14.8400    13.5750    11.3110    30.1890   -16.8770 
  145.5000     2.2260    79.0650    15.2140    13.8080    12.9260    30.1590   -16.9020 
  145.6250     2.2270    76.9860    15.3290    13.9500    12.8740    30.0420   -16.8790 
  145.7500     2.2280    72.8040    15.0440    13.7930    12.3110    29.9870   -16.8610 
  145.8750     2.2330    70.3930    14.4870    13.3690    12.0360    29.9660   -16.8570 
  146.0000     2.2400    69.6500    13.9670    12.8910    11.6910    29.9630   -16.8200 
  146.1250     2.2480    68.6020    13.9210    12.7000    11.1470    29.9630   -16.7610 
  146.2500     2.2530    68.9240    14.5190    12.9850    11.1220    29.9640   -16.6900 
  146.3750     2.2530    70.3270    15.8130    13.8490    12.3260    29.9750   -16.5740 
  146.5000     2.2470    69.9790    17.7170    15.3010    15.4310    30.0280   -16.4810 
  146.6250     2.2350    66.8780    20.0430    17.2890    20.3330    30.1860   -16.4070 
  146.7500     2.2250    64.7630    22.3490    19.4540    23.0790    30.3490   -16.3030 
  146.8750     2.2190    65.8100    24.2620    21.4480    23.6760    30.5060   -16.2030 
  147.0000     2.2200    68.0500    25.4960    22.9340    24.2120    30.4290   -16.1060 
  147.1250     2.2250    66.6830    25.8650    23.6350    25.1550    30.3500   -16.0090 
  147.2500     2.2270    60.7790    25.6590    23.7490    25.1480    30.3210   -15.9670 
  147.3750     2.2210    55.4350    25.0270    23.4040    22.7410    30.2930   -15.9440 
  147.5000     2.2070    56.1550    24.0060    22.6480    18.8830    30.2760   -15.9020 
  147.6250     2.1910    60.8850    22.4880    21.3960    16.7970    30.4330   -15.9060 
  147.7500     2.1800    63.0350    20.5820    19.7580    18.1300    30.4180   -15.9160 
  147.8750     2.1810    62.8620    18.5190    17.9260    17.8290    30.0250   -15.9350 
  148.0000     2.1940    63.5620    16.6410    16.1980    14.0280    29.4670   -16.0270 
  148.1250     2.2150    68.0060    15.3460    14.9200    10.2850    29.2020   -16.1350 
  148.2500     2.2330    73.3680    14.7230    14.1830     8.7560    29.0760   -16.2240 
  148.3750     2.2440    76.7830    14.8180    14.0450     9.7310    29.0380   -16.3540 
  148.5000     2.2480    76.1250    15.5800    14.5090    11.7860    29.0240   -16.4940 
  148.6250     2.2470    72.7250    16.8630    15.5350    13.1020    28.9780   -16.6250 
  148.7500     2.2420    70.4340    18.1880    16.7470    13.9600    28.8850   -16.7400 
  148.8750     2.2330    70.1640    19.0860    17.7270    15.8520    28.8700   -16.8000 
  149.0000     2.2180    70.8230    19.1250    18.0140    17.9880    28.8550   -16.8020 
  149.1250     2.2060    70.6670    17.9770    17.1790    18.6600    28.7650   -16.7620 
  149.2500     2.2020    70.5000    16.1530    15.6080    15.8550    28.5470   -16.7090 
  149.3750     2.2130    73.0690    14.2500    13.8250    11.8400    28.4330   -16.6430 
  149.5000     2.2350    79.2490    12.8640    12.3600     9.3140    28.4100   -16.5490 
  149.6250     2.2570    84.7400    12.6100    11.7320     8.1720    28.4090   -16.4650 
  149.7500     2.2670    83.6690    13.5080    12.0100     8.7250    28.4130   -16.4200 
  149.8750     2.2610    76.5720    15.5020    13.2290    11.2210    28.4350   -16.4020 
  150.0000     2.2430    69.8390    18.3180    15.2930    16.1340    28.5460   -16.4000 
  150.1250     2.2190    69.5900    21.2900    17.8460    19.9820    28.6030   -16.4560 
  150.2500     2.1980    69.7940    23.4550    20.0260    21.2620    28.6830   -16.5020 
  150.3750     2.1840    66.2770    24.2470    21.1590    21.4310    28.6660   -16.5440 
  150.5000     2.1790    63.4330    23.7860    21.1110    21.1940    28.5020   -16.6230 
  150.6250     2.1830    67.3030    22.8210    20.3560    19.6240    28.4160   -16.7000 
  150.7500     2.1940    72.2310    22.2500    19.7100    17.1080    28.2430   -16.7800 
  150.8750     2.2050    71.7050    22.3830    19.5330    15.8150    28.1960   -16.8650 
  151.0000     2.2140    65.7750    23.1210    19.8650    18.3710    28.5060   -16.9190 
  151.1250     2.2160    60.3890    23.9880    20.4480    21.4710    28.7800   -16.9320 
  151.2500     2.2140    58.3850    24.3330    20.7620    22.7950    28.7600   -16.9500 
  151.3750     2.2100    61.0370    23.7730    20.4420    22.1040    28.5540   -16.9970 
  151.5000     2.2060    67.4850    22.3140    19.3990    20.1930    28.2020   -17.0190 
  151.6250     2.2020    73.9140    20.3910    17.8860    17.4300    27.7390   -17.0200 
  151.7500     2.2000    75.9300    18.6730    16.4350    15.2830    27.5530   -16.9750 
  151.8750     2.1990    74.8350    17.4430    15.3090    13.8630    27.4770   -16.9120 
  152.0000     2.2000    73.8580    16.7370    14.5890    13.1190    27.4590   -16.8390 
  152.1250     2.2010    73.7720    16.4520    14.2590    13.1120    27.4550   -16.7470 
  152.2500     2.2030    72.1400    16.2720    14.0880    13.2770    27.4460   -16.6300 
  152.3750     2.2040    67.9750    16.0030    13.9080    13.4610    27.3840   -16.4820 
  152.5000     2.2060    64.5560    15.5840    13.6260    13.3960    27.2900   -16.3050 
  152.6250     2.2090    66.2760    15.1300    13.2820    12.4870    27.1890   -16.1260 
  152.7500     2.2120    71.7060    14.8610    13.0350    11.3310    27.1560   -15.9530 
  152.8750     2.2150    77.4100    14.9230    13.0140    10.9680    27.1510   -15.7570 
  153.0000     2.2160    79.7700    15.3360    13.2780    11.8480    27.1500   -15.5520 
  153.1250     2.2150    77.7300    15.9440    13.7740    12.7860    27.1510   -15.3710 
  153.2500     2.2100    74.3210    16.3820    14.2350    13.4130    27.1540   -15.1810 
  153.3750     2.2000    73.0250    16.3610    14.3970    13.7960    27.1760   -15.0280 
  153.5000     2.1860    72.9890    15.7760    14.1020    13.8740    27.2090   -14.9140 
  153.6250     2.1760    73.3180    14.7970    13.3980    13.1820    27.2150   -14.8580 
  153.7500     2.1740    75.5160    13.8830    12.6480    12.1440    27.2160   -14.8550 
  153.8750     2.1860    79.3820    13.3090    12.1040    11.3170    27.2190   -14.9470 
