~V
VERS. 2.00: Ver 2.00
~W
STRT.M 50.0000:
STOP.M 211.0000:
STEP.M 0.1250:
NULL. -999.2500:
UWI. F10140:
~C
DEPT.M :
DEN.GM/CC :
GR.API :
RML.OHMM :
RI. :
RXO.OHMM :
CALI.CM :
SP.MV :
~A
# ...
  151.2500     2.3170    88.1880     9.5540     7.9190    10.8940    28.5260    -9.8720 
  151.3750     2.3410    89.4760     9.1850     7.2880     8.3380    28.5700    -9.8700 
  151.5000     2.3680    85.3140     9.6500     7.2830    16.2450    28.6710    -9.8860 
  151.6250     2.3870    81.4620    11.0480     8.0840    15.4680    28.8330    -9.9110 
  151.7500     2.3910    80.8860    12.9490     9.5340    15.6530    29.0130    -9.9340 
  151.8750     2.3790    80.7910    14.8410    11.3890    15.9930    29.1530    -9.9400 
  152.0000     2.3530    78.7270    16.0750    13.0800    16.2920    29.2240    -9.9060 
  152.1250     2.3220    77.5830    15.9180    13.5970    15.9720    29.2230    -9.8240 
  152.2500     2.2970    80.5160    14.5890    12.7710    14.7920    29.2140    -9.7080 
  152.3750     2.2850    85.4410    12.6000    11.0690    12.3120    29.2160    -9.5710 
  152.5000     2.2930    89.4580    10.6240     9.2090     9.7150    29.2110    -9.4690 
  152.6250     2.3200    91.4040     9.3460     7.8180     7.1300    29.2240    -9.3970 
  152.7500     2.3550    91.1290     8.9770     7.0600     6.3260    29.2970    -9.3700 
  152.8750     2.3860    90.0480     9.6620     7.0250     6.4390    29.4400    -9.4350 
  153.0000     2.4030    89.8430    11.5470     7.8460     7.4420    29.6330    -9.6050 
  153.1250     2.3970    88.5020    14.9490     9.9560    12.4150    29.8270    -9.8210 
  153.2500     2.3750    85.1730    19.4680    13.4190    23.0760    29.9750   -10.0460 
  153.3750     2.3470    82.0200    24.4970    18.1740    32.8820    30.0860   -10.2670 
  153.5000     2.3200    80.8750    29.0660    23.5400    35.8180    30.1880   -10.4330 
  153.6250     2.3050    79.5830    31.8010    27.8500    39.5580    30.2920   -10.5560 
  153.7500     2.3010    76.4240    32.4050    30.0190    39.3710    30.3970   -10.6440 
  153.8750     2.3070    74.0440    30.9990    29.9120    35.2450    30.5090   -10.6870 
  154.0000     2.3160    72.6660    28.0250    27.8670    29.3850    30.6290   -10.6850 
  154.1250     2.3180    72.9450    23.9360    24.1320    27.4660    30.7210   -10.6990 
  154.2500     2.3120    76.7910    19.5610    19.7060    26.8940    30.7650   -10.7440 
  154.3750     2.3030    82.3570    15.5080    15.4260    24.1860    30.7630   -10.8190 
  154.5000     2.3020    86.1400    12.2970    11.9380    15.4350    30.7450   -10.9380 
  154.6250     2.3180    84.1360    10.4800     9.7220     8.7900    30.7710   -11.1080 
  154.7500     2.3460    82.1060    10.0810     8.6130     7.1270    30.8700   -11.3080 
  154.8750     2.3770    84.3890    11.4190     8.6510     7.2980    31.0380   -11.5130 
  155.0000     2.3960    87.5840    15.1130    10.1790     8.9170    31.2530   -11.7590 
  155.1250     2.3890    83.6870    22.9770    14.8280    16.5120    31.5400   -12.0920 
  155.2500     2.3630    75.2960    36.0840    24.3810    46.6660    31.8870   -12.4700 
  155.3750     2.3250    69.1710    55.6730    41.2890   125.7210    32.2550   -12.8880 
  155.5000     2.2880    67.8010    80.9050    66.5750   209.6750    32.6150   -13.3720 
  155.6250     2.2600    68.8060   105.5220    95.0030   188.3360    32.8270   -13.9360 
  155.7500     2.2430    70.5650   120.7660   113.7890   179.8210    32.9320   -14.5480 
  155.8750     2.2340    72.9680   122.9420   117.1530   156.7500    32.9030   -15.1900 
  156.0000     2.2320    75.6700   115.0390   109.5120   145.2260    32.8030   -15.8120 
  156.1250     2.2390    77.1890   103.7960    98.6010   125.0180    32.9280   -16.3700 
  156.2500     2.2530    77.1340    94.4960    89.2210   115.7000    33.1550   -16.8820 
  156.3750     2.2710    74.8410    88.1540    82.3320   104.5380    33.3680   -17.3490 
  156.5000     2.2910    71.8940    84.5720    78.0970    93.5580    33.3730   -17.7810 
  156.6250     2.3070    70.2050    83.5400    76.6860    89.6620    33.3400   -18.2100 
  156.7500     2.3170    70.1650    83.9090    77.0640    93.5640    33.3370   -18.6460 
  156.8750     2.3200    71.7690    84.8250    78.3890    97.2390    33.3370   -19.0820 
  157.0000     2.3150    73.2490    85.4370    79.7320   105.9190    33.3360   -19.5240 
  157.1250     2.3080    72.5660    84.9410    80.1090   104.7670    33.3180   -19.9960 
  157.2500     2.3010    73.1900    83.4300    79.3480    96.4990    33.2880   -20.4750 
  157.3750     2.2960    77.0380    81.3430    77.7760    86.6240    33.2490   -20.9480 
  157.5000     2.2930    83.0670    79.3360    76.0450    82.1200    33.2180   -21.3840 
  157.6250     2.2920    88.7490    78.1770    74.9550    80.2110    33.2370   -21.7030 
  157.7500     2.2950    93.7420    78.0990    74.8140    78.9550    33.2760   -21.9550 
  157.8750     2.3020    94.2550    79.1850    75.7260    78.1980    33.3200   -22.1800 
  158.0000     2.3140    87.3020    81.4120    77.6910    75.7190    33.3250   -22.3950 
  158.1250     2.3310    78.5650    84.8690    80.8660    84.0720    33.3030   -22.6140 
  158.2500     2.3530    74.8690    89.1990    84.9930    84.2780    33.2570   -22.8530 
  158.3750     2.3720    73.0390    94.1020    89.8150    85.3420    33.1950   -23.0880 
  158.5000     2.3800    69.5160    99.1190    94.8710    90.9230    33.1420   -23.2980 
  158.6250     2.3680    66.2090   103.5390    99.4300    97.5340    33.0990   -23.5010 
  158.7500     2.3450    65.8730   106.9260   102.9780   104.3970    33.0750   -23.6980 
  158.8750     2.3190    66.8430   109.1150   105.2520   100.3060    33.0860   -23.8790 
  159.0000     2.3040    67.9050   110.2830   106.3110    90.9740    33.1200   -24.0020 
  159.1250     2.3070    69.0200   110.9290   106.4850    91.4000    33.1650   -24.0720 
  159.2500     2.3200    70.7720   111.8910   106.6230    95.2360    33.2130   -24.1180 
  159.3750     2.3310    72.3300   113.8520   107.4300    88.4560    33.2510   -24.1950 
  159.5000     2.3300    72.1790   117.5430   109.5930    82.1160    33.2930   -24.3160 
  159.6250     2.3130    71.9020   123.9030   114.2100    77.8450    33.3260   -24.3880 
  159.7500     2.2880    72.3210   132.5590   121.5180    85.3500    33.3170   -24.3880 
  159.8750     2.2630    72.2740   143.4810   131.6220   102.7720    33.2880   -24.3470 
  160.0000     2.2410    70.2660   156.4910   143.8850   112.3560    33.2460   -24.2960 
  160.1250     2.2220    66.9270   170.2570   156.4070   114.1950    33.1880   -24.2020 
  160.2500     2.2040    64.4470   182.0400   166.5600   121.1290    33.1510   -24.0740 
  160.3750     2.1850    62.7140   190.1110   172.7890   125.8460    33.1190   -23.9610 
  160.5000     2.1650    61.3010   194.6190   175.2200   120.4550    33.1080   -23.8920 
  160.6250     2.1460    60.9520   197.3780   175.6530   102.6450    33.1810   -23.9220 
  160.7500     2.1260    61.0260   201.3270   177.1760    87.8290    33.2900   -23.9920 
  160.8750     2.1090    61.3850   208.0070   181.6600    76.2120    33.3980   -24.0410 
  161.0000     2.0980    62.5380   217.2940   189.4200    71.1320    33.4620   -24.0500 
  161.1250     2.0940    62.7190   226.7210   198.5210    76.8100    33.4550   -23.9710 
  161.2500     2.0940    60.1450   232.5400   205.0060   104.0170    33.4210   -23.8210 
  161.3750     2.0960    57.2160   232.3050   205.9660   138.5120    33.3630   -23.5370 
  161.5000     2.0980    56.8730   225.7820   200.5910   150.4580    33.2850   -23.0790 
  161.6250     2.1020    58.2030   214.8690   190.4640   121.6110    33.2370   -22.4930 
  161.7500     2.1100    59.1940   203.7230   179.9380   103.9800    33.2060   -21.8380 
  161.8750     2.1210    62.8390   194.5930   171.4380   102.7020    33.2000   -21.1580 
  162.0000     2.1330    69.7300   188.2870   165.9330   101.2760    33.1970   -20.5220 
  162.1250     2.1430    73.9090   184.3010   163.3670   102.6840    33.1960   -20.0250 
  162.2500     2.1490    72.8330   180.1220   161.5070   110.6200    33.2040   -19.5890 
  162.3750     2.1540    68.5170   173.4020   157.9470   122.8100    33.2250   -19.1480 
