~V
VERS. 2.00: Ver 2.00
~W
STRT.M 55.0000:
STOP.M 242.0000:
STEP.M 0.1250:
NULL. -999.2500:
UWI. F10187:
~C
DEPT.M :
GR.API :
RML.OHMM :
RI. :
RXO.OHMM :
CALI.CM :
DEN.GM/CC :
SP.MV :
~A
# ...
  212.5000    67.1280    36.6810    36.4340    41.9100    24.3820     2.2690    -7.7070 
  212.6250    66.7510    38.0060    38.1540    41.9010    24.4060     2.2650    -8.0310 
  212.7500    65.2820    38.6070    38.8140    40.8950    24.4080     2.2620    -8.2810 
  212.8750    64.1690    38.7840    38.7420    40.2780    24.4350     2.2550    -8.4910 
  213.0000    64.2680    38.8970    38.3990    39.8770    24.5220     2.2430    -8.7480 
  213.1250    64.4320    39.3590    38.2220    38.3990    24.6010     2.2320    -9.0920 
  213.2500    64.2590    40.4740    38.4950    38.1540    24.6470     2.2340    -9.4700 
  213.3750    64.4960    42.6320    39.5890    40.9670    24.6550     2.2510    -9.8370 
  213.5000    65.5200    46.3410    42.0190    44.8140    24.6110     2.2770   -10.2250 
  213.6250    66.2290    52.6710    46.8670    50.1920    24.5710     2.2970   -10.7500 
  213.7500    65.5820    61.9590    54.6390    60.1980    24.6080     2.2990   -11.4470 
  213.8750    63.0390    74.6410    65.9610    86.7740    24.7540     2.2830   -12.2290 
  214.0000    60.1950    90.6040    80.8620   130.4970    24.9210     2.2560   -12.9640 
  214.1250    60.5450   108.7530    98.2480   151.7580    25.0440     2.2290   -13.5700 
  214.2500    61.5710   126.1090   114.9030   125.6150    25.1350     2.2080   -14.1120 
  214.3750    61.6600   140.2050   128.2280   102.1590    25.1550     2.1930   -14.6390 
  214.5000    61.5090   149.7560   136.9440   119.7210    25.1400     2.1820   -15.0720 
  214.6250    63.1380   154.7340   141.2560   143.2340    25.1280     2.1760   -15.3210 
  214.7500    65.0360   157.4750   143.7630   153.9960    25.1290     2.1740   -15.4080 
  214.8750    64.8790   158.9590   145.6330   164.1230    25.1330     2.1780   -15.4200 
  215.0000    62.4250   159.1730   146.9540   175.9810    25.1480     2.1830   -15.4620 
  215.1250    60.3900   157.0670   146.7350   174.0780    25.1950     2.1910   -15.5240 
  215.2500    61.4890   152.4450   144.4060   178.0710    25.2600     2.1980   -15.5350 
  215.3750    65.3080   145.3440   139.7440   181.3180    25.2960     2.2050   -15.4770 
  215.5000    68.4290   136.0530   132.8400   170.7270    25.2970     2.2090   -15.4210 
  215.6250    67.5650   124.6440   123.4510   149.9330    25.3310     2.2080   -15.4520 
  215.7500    64.6960   112.0090   112.1490   135.7100    25.3760     2.2060   -15.5930 
  215.8750    61.6300    99.1550    99.6870   138.4530    25.3540     2.2070   -15.7390 
  216.0000    59.8810    87.4740    87.5580   130.2170    25.1530     2.2120   -15.7970 
  216.1250    62.8490    78.8320    78.0680    93.0950    24.8560     2.2200   -15.7390 
  216.2500    67.9590    73.3900    71.9420    63.4340    24.7170     2.2230   -15.5990 
  216.3750    72.7370    70.7170    69.0200    52.9650    24.7320     2.2190   -15.4850 
  216.5000    74.4110    69.6540    68.2890    54.4310    24.7770     2.2100   -15.4550 
  216.6250    72.1980    68.4120    67.9850    69.1480    24.8280     2.2030   -15.3460 
  216.7500    71.2070    65.6770    66.2770    82.0800    24.7970     2.2000   -15.0450 
  216.8750    71.9880    61.4180    62.6590    70.9620    24.7320     2.2000   -14.6390 
  217.0000    73.2000    56.7320    58.0560    58.3140    24.6890     2.2040   -14.2530 
  217.1250    71.6970    53.6640    54.6030    52.3750    24.6630     2.2240   -13.9440 
  217.2500    68.6420    53.2840    53.8100    51.2630    24.6210     2.2750   -13.6090 
  217.3750    66.5900    55.6350    56.4080    57.7500    24.5560     2.3620   -13.1120 
  217.5000    65.3380    59.2610    61.9130    74.3550    24.5150     2.4760   -12.4400 
  217.6250    64.6210    60.1060    66.4880    97.8560    24.4620     2.5880   -11.6970 
  217.7500    62.5820    55.0810    63.7400   106.1970    24.4070     2.6690   -10.9300 
  217.8750    60.1980    44.2350    51.4330    97.9010    24.3720     2.7010   -10.1170 
  218.0000    60.4120    30.8810    34.8280    77.5840    24.3610     2.6780    -9.1840 
  218.1250    62.2540    19.7810    21.6560    38.9040    24.3580     2.6030    -8.1700 
  218.2500    63.6430    12.4880    13.3750    15.4290    24.3720     2.5020    -7.3310 
  218.3750    64.6740     8.4260     8.8030     7.3060    24.4300     2.4030    -6.8090 
  218.5000    67.5220     6.4910     6.5000     5.6730    24.5190     2.3320    -6.5590 
  218.6250    74.5380     5.9730     5.6300     5.7160    24.4410     2.3110    -6.6010 
  218.7500    83.3760     6.1740     5.5070     5.6210    24.3520     2.3260    -6.9320 
  218.8750    89.9980     6.8210     5.9150     6.3110    24.4210     2.3590    -7.5040 
  219.0000    90.3590     7.6450     6.6470     7.7680    24.6070     2.3910    -8.3050 
  219.1250    86.6190     8.3300     7.4500     8.4700    24.7450     2.4080    -9.3250 
  219.2500    84.8350     8.7170     8.0920     8.7700    24.6750     2.4110   -10.3730 
  219.3750    84.6980     8.8130     8.4680     9.0480    24.5670     2.4060   -11.2940 
  219.5000    84.1810     8.7330     8.5750     9.1460    24.4180     2.3990   -12.0440 
  219.6250    85.1240     8.6110     8.4660     8.9170    24.3680     2.3990   -12.6100 
  219.7500    88.4660     8.5250     8.2790     8.7310    24.3500     2.4050   -13.0750 
  219.8750    91.0820     8.4800     8.0760     8.9470    24.3360     2.4160   -13.5150 
  220.0000    91.3410     8.4740     7.8880     9.0970    24.3090     2.4230   -13.8970 
  220.1250    94.5670     8.5510     7.7640     9.0850    24.2980     2.4160   -14.1390 
  220.2500   101.6180     8.7620     7.7510     9.2730    24.3060     2.3930   -14.2970 
  220.3750   106.7250     9.1700     7.9090     9.4750    24.3260     2.3640   -14.4440 
  220.5000   104.6010     9.8570     8.2870     9.8170    24.3190     2.3440   -14.5890 
  220.6250    97.2910    10.7810     8.9570    10.8730    24.2390     2.3470   -14.7210 
  220.7500    91.4210    11.5770     9.8550    12.7730    24.1330     2.3680   -14.8410 
  220.8750    87.0170    12.1520    10.8950    14.5290    24.0730     2.3950   -14.9450 
  221.0000    83.2160    12.7110    11.9410    15.5990    24.0650     2.4100   -15.0320 
  221.1250    81.1780    13.3960    12.7940    15.9350    24.0500     2.4010   -15.0470 
  221.2500    81.0700    13.9350    13.3580    16.1490    24.0480     2.3780   -14.9350 
  221.3750    81.1480    14.0910    13.5990    16.2610    24.1470     2.3530   -14.6810 
  221.5000    79.9270    13.8900    13.5280    15.9750    24.2670     2.3390   -14.3610 
  221.6250    80.2160    13.3750    13.1430    15.4890    24.3190     2.3380   -13.9710 
  221.7500    83.7070    12.6880    12.5400    14.5970    24.3030     2.3410   -13.4440 
  221.8750    88.3990    11.9450    11.8040    13.5820    24.2950     2.3390   -12.7560 
  222.0000    91.2030    11.2880    11.0680    12.5260    24.3050     2.3320   -11.9700 
  222.1250    90.1750    10.9080    10.5180    11.9690    24.3070     2.3310   -11.1820 
  222.2500    88.3990    10.8450    10.2260    11.6600    24.2560     2.3480   -10.4560 
  222.3750    85.7900    11.0630    10.2090    11.5080    24.1660     2.3850    -9.8120 
  222.5000    82.8820    11.4390    10.4150    13.1100    24.0990     2.4320    -9.2110 
  222.6250    83.9860    11.7800    10.7370    14.3770    24.0160     2.4690    -8.6150 
  222.7500    87.7800    11.9440    11.0070    14.2300    23.9420     2.4850    -8.0390 
  222.8750    89.6820    11.9000    11.1210    13.5690    23.9090     2.4790    -7.5390 
  223.0000    87.5940    11.7100    11.0570    13.2730    23.9650     2.4560    -7.1300 
  223.1250    85.8160    11.5400    10.8930    13.2490    24.0190     2.4240    -6.8130 
  223.2500    85.3830    11.5760    10.8110    13.1580    24.0690     2.3950    -6.4890 
  223.3750    84.3490    11.9340    10.9470    13.0720    24.1180     2.3790    -6.1440 
  223.5000    82.9910    12.6350    11.3850    13.5360    24.1460     2.3810    -5.8000 
  223.6250    82.6690    13.5790    12.1500    15.0140    24.1460     2.4040    -5.4380 
