~V
VERS. 2.00: Ver 2.00
~W
STRT.M 60.0000:
STOP.M 241.0000:
STEP.M 0.1250:
NULL. -999.2500:
UWI. F10158:
~C
DEPT.M :
SP.MV :
DEN.GM/CC :
GR.API :
RML.OHMM :
RI. :
RXO.OHMM :
CALI.CM :
~A
# ...
  161.2500    72.0620     2.0910    55.0770   173.8100   162.5330   105.2370    31.3600 
  161.3750    72.1320     2.0920    55.5070   157.1150   144.2870   100.6900    31.3410 
  161.5000    72.2190     2.0750    55.4150   136.7820   123.8050    99.2970    31.1290 
  161.6250    72.3290     2.0490    54.3880   118.9360   106.9590    97.3330    30.5480 
  161.7500    72.4730     2.0300    55.4150   106.4200    95.5330    95.3630    29.9230 
  161.8750    72.6460     2.0290    59.7970    99.5980    89.3950    93.3420    29.5450 
  162.0000    72.8380     2.0520    64.1600    97.6630    87.5680    91.2840    29.3810 
  162.1250    73.0370     2.1000    64.6630    99.7230    89.0530    89.3510    29.1940 
  162.2500    73.2300     2.1460    64.6500   103.4640    91.7550    87.7150    28.9980 
  162.3750    73.4080     2.1710    65.9830   107.2660    94.3070    86.6850    28.9020 
  162.5000    73.5820     2.1670    65.4120   109.7320    95.6380    86.3200    28.9130 
  162.6250    73.7540     2.1440    62.0390   109.6680    94.9110    86.6450    28.9700 
  162.7500    73.9220     2.1250    60.6540   107.6010    92.6920    87.4800    28.9930 
  162.8750    74.0850     2.1230    61.2860   104.4360    89.8070    88.5790    28.9230 
  163.0000    74.2490     2.1370    61.7970   101.3960    87.2980    89.6740    28.7790 
  163.1250    74.4270     2.1520    61.8040    99.8970    86.3160    90.4070    28.6700 
  163.2500    74.6170     2.1600    62.1410   100.2420    86.9380    90.6770    28.6050 
  163.3750    74.8050     2.1640    62.4910   102.1800    88.8030    90.5470    28.4220 
  163.5000    74.9790     2.1710    62.7900   104.8880    91.1040    90.3020    27.9860 
  163.6250    75.1350     2.1840    64.7560   107.1930    92.8440    90.5560    27.3980 
  163.7500    75.2750     2.1950    66.9510   108.8710    94.0580    91.8040    26.9320 
  163.8750    75.4000     2.2010    68.2020   110.9890    95.8480    94.2480    26.6450 
  164.0000    75.5140     2.2010    67.5690   115.4480    99.8390    97.6540    26.4230 
  164.1250    75.6180     2.1950    65.9470   124.2440   107.4560   101.8020    26.1640 
  164.2500    75.7190     2.1880    65.0250   135.2360   116.5600   106.1450    25.8940 
  164.3750    75.8200     2.1830    63.8800   143.6690   122.8640   110.2300    25.6440 
  164.5000    75.9090     2.1810    63.2970   143.2680   121.0340   112.7630    25.4050 
  164.6250    75.9640     2.1870    65.6230   129.7920   108.2930   112.4960    25.1480 
  164.7500    75.9730     2.2000    69.4660   111.1370    92.3440   109.3820    24.8980 
  164.8750    75.9240     2.2170    72.7520    95.2060    79.9570   103.9890    24.7040 
  165.0000    75.8180     2.2330    73.1960    87.2090    75.0380    97.3500    24.5850 
  165.1250    75.6600     2.2410    70.9240    91.3720    80.6450    90.8340    24.5060 
  165.2500    75.4710     2.2400    68.2260   106.9500    95.7140    86.2840    24.4110 
  165.3750    75.2820     2.2320    66.9600   133.2140   119.5040    84.6300    24.2870 
  165.5000    75.1140     2.2230    66.8790   166.0030   148.5320    86.2210    24.1770 
  165.6250    74.9830     2.2160    66.5760   194.5610   173.2170    91.5070    24.1270 
  165.7500    74.8940     2.2140    67.7170   209.8010   185.4680    99.7820    24.0880 
  165.8750    74.8510     2.2120    68.0960   212.0100   186.2230   110.7970    24.0240 
  166.0000    74.8410     2.2070    65.5830   209.1280   183.3210   123.0980    23.9510 
  166.1250    74.8550     2.2010    63.3990   210.2510   184.4900   134.9120    23.9180 
  166.2500    74.8770     2.1960    64.5450   215.9030   189.1750   144.3880    23.9150 
  166.3750    74.8920     2.1950    65.5220   220.7590   192.3050   151.1710    23.9160 
  166.5000    74.8970     2.2000    64.4010   218.1950   188.1860   155.0430    23.9190 
  166.6250    74.9000     2.2090    65.7190   203.6740   173.6820   155.2640    23.9240 
  166.7500    74.9000     2.2190    69.6150   183.1770   154.9830   152.3950    23.9240 
  166.8750    74.8920     2.2290    70.7010   163.4360   138.0420   147.4430    23.9210 
  167.0000    74.8780     2.2340    66.4900   149.3810   126.5600   142.5120    23.9160 
  167.1250    74.8430     2.2310    63.0450   143.4580   122.0080   138.8140    23.9090 
  167.2500    74.7770     2.2170    64.6670   142.6820   121.6030   136.5380    23.9690 
  167.3750    74.6850     2.1940    68.9710   144.4520   123.1090   135.3970    24.2040 
  167.5000    74.5610     2.1700    70.7010   146.3460   124.5020   135.0270    24.5790 
  167.6250    74.3920     2.1580    67.7970   146.5650   124.4080   135.2180    24.8250 
  167.7500    74.2010     2.1610    64.5670   145.5310   123.4390   135.5250    24.7930 
  167.8750    74.0090     2.1770    65.1450   144.4680   122.8030   135.9170    24.5530 
  168.0000    73.8340     2.1980    68.1550   144.6940   123.6840   136.3580    24.2640 
  168.1250    73.7090     2.2160    67.6640   147.7420   127.4390   136.9030    24.0620 
  168.2500    73.6220     2.2240    65.5820   154.2130   134.4780   137.6010    23.9780 
  168.3750    73.5570     2.2190    64.5310   165.3000   145.7930   138.4930    23.9740 
  168.5000    73.5050     2.1990    65.0840   182.7950   162.8460   139.7910    23.9750 
  168.6250    73.4730     2.1690    63.8080   210.5430   188.8590   141.9930    23.9370 
  168.7500    73.4580     2.1400    61.0000   247.8560   223.3430   146.1930    23.8490 
  168.8750    73.4580     2.1240    59.7870   290.9300   263.3210   152.7520    23.6950 
  169.0000    73.4610     2.1220    59.7940   329.7240   299.9940   161.8190    23.5070 
  169.1250    73.4600     2.1320    60.3070   346.6510   316.9430   173.1530    23.3710 
  169.2500    73.4680     2.1440    61.8180   340.2900   312.7560   185.8080    23.3150 
  169.3750    73.4880     2.1560    63.6490   319.8230   296.3660   199.3080    23.3070 
  169.5000    73.5090     2.1670    63.4400   297.9980   279.2880   212.7920    23.3070 
  169.6250    73.5190     2.1800    60.5800   285.2260   270.0660   224.7350    23.3050 
  169.7500    73.5090     2.1920    60.8400   282.5530   269.0000   234.3220    23.3030 
  169.8750    73.4900     2.2000    64.2540   287.4180   273.4500   241.3550    23.3040 
  170.0000    73.4950     2.2010    67.1020   294.3240   278.1960   243.0720    23.3110 
  170.1250    73.5420     2.1930    67.5020   294.9300   275.3980   235.6570    23.3140 
  170.2500    73.6180     2.1840    66.4510   285.3410   262.4890   221.1120    23.3120 
  170.3750    73.7180     2.1750    64.0820   265.8030   240.7390   201.0190    23.3120 
  170.5000    73.8380     2.1710    63.3310   239.4270   213.6500   177.5860    23.3170 
  170.6250    73.9690     2.1750    66.5900   209.5690   184.5070   153.7220    23.3200 
  170.7500    74.1050     2.1870    69.7810   179.5080   156.0820   131.9710    23.3190 
  170.8750    74.2290     2.2090    70.4690   151.4410   130.3720   114.2830    23.3200 
  171.0000    74.3190     2.2360    69.4920   127.6790   109.2760   102.2080    23.3200 
  171.1250    74.3430     2.2510    66.8310   111.1200    95.0580    97.1730    23.3060 
  171.2500    74.3040     2.2420    62.5450   101.2630    86.8910    94.1360    23.3670 
  171.3750    74.2180     2.2100    59.0660    97.6800    84.2190    91.8070    23.7600 
  171.5000    74.1030     2.1680    57.7800    99.3650    85.9880    90.2060    24.5440 
  171.6250    73.9770     2.1380    58.1110   104.6230    90.5300    89.3880    25.1050 
  171.7500    73.8530     2.1340    58.9150   109.8100    94.7330    89.3840    25.0180 
  171.8750    73.7280     2.1540    59.6300   112.3790    96.5610    90.0540    24.5910 
  172.0000    73.6100     2.1800    61.1390   111.3080    95.4090    90.9170    24.3240 
  172.1250    73.5020     2.1870    62.6910   107.6130    92.5170    91.8300    24.3530 
  172.2500    73.3940     2.1600    62.5650   104.4380    90.5770    92.6460    24.6900 
  172.3750    73.2750     2.1260    59.9160   103.7950    91.1690    93.3180    25.6230 
