~V
VERS. 2.00: Ver 2.00
~W
STRT.M 52.0000:
STOP.M 233.0000:
STEP.M 0.1250:
NULL. -999.2500:
UWI. F10175:
~C
DEPT.M :
GR.API :
RML.OHMM :
RI. :
RXO.OHMM :
CALI.CM :
DEN.GM/CC :
SP.MV :
~A
# ...
  164.5000    70.1500   157.0120   152.1660   138.5090    25.3870     2.2320   -15.8150 
  164.6250    67.1040   163.5050   158.4720   140.7000    25.3580     2.2270   -15.5800 
  164.7500    64.2940   169.1440   163.9490   152.4290    25.3170     2.2190   -15.8960 
  164.8750    62.8480   173.6410   168.1830   170.6610    25.2830     2.2120   -16.8130 
  165.0000    62.7310   176.9510   171.0570   178.2570    25.2560     2.2110   -18.1050 
  165.1250    63.8060   179.2510   172.7960   173.2620    25.2030     2.2180   -19.4950 
  165.2500    64.2900   181.2330   174.2680   169.7970    25.1540     2.2290   -20.5930 
  165.3750    63.5310   183.3240   176.0370   169.4520    25.1180     2.2380   -21.2200 
  165.5000    62.7520   185.7170   178.3640   172.9710    25.1300     2.2400   -21.4110 
  165.6250    62.1990   188.2910   181.1390   191.5910    25.1280     2.2330   -21.4610 
  165.7500    62.1950   190.6130   183.8060   210.3480    25.1030     2.2210   -21.4470 
  165.8750    63.7580   192.2280   185.8960   205.9210    25.0640     2.2110   -21.2040 
  166.0000    66.2320   192.6620   186.9950   176.1500    25.0350     2.2060   -20.7970 
  166.1250    66.8110   191.0780   186.3660   163.2100    25.0000     2.2080   -20.4550 
  166.2500    66.0620   187.2850   183.6820   168.6940    24.9860     2.2160   -20.4120 
  166.3750    65.9810   181.1140   178.4990   179.8450    25.0310     2.2250   -20.7320 
  166.5000    66.1420   172.8170   170.7910   173.2750    25.0590     2.2330   -21.6120 
  166.6250    65.6390   163.0430   161.0990   169.9280    25.0920     2.2360   -22.8640 
  166.7500    65.9150   153.1430   151.0840   147.4530    25.1080     2.2320   -24.0190 
  166.8750    67.7020   143.9020   141.7810   122.1500    25.0790     2.2210   -24.9700 
  167.0000    69.4100   135.4320   133.5980   106.6440    25.0420     2.2040   -25.6680 
  167.1250    69.3510   127.4770   126.3670   111.3210    25.0040     2.1880   -25.9450 
  167.2500    68.5280   119.8490   119.3400   122.4990    24.9520     2.1800   -26.0920 
  167.3750    66.9540   112.7060   112.1780   121.9180    24.8970     2.1830   -26.3220 
  167.5000    65.8510   106.1880   104.9920   110.0850    24.8540     2.1950   -26.3540 
  167.6250    67.0360   100.6900    98.5320    92.2600    24.8460     2.2100   -25.8930 
  167.7500    69.4010    96.6370    93.5300    84.9010    24.8500     2.2200   -25.0990 
  167.8750    70.9310    94.4600    90.5180    85.8800    24.8540     2.2250   -23.9170 
  168.0000    71.1380    94.1720    89.6110    84.1430    24.8670     2.2240   -22.5760 
  168.1250    70.4430    95.4620    90.5340    85.7230    24.9050     2.2220   -21.3580 
  168.2500    69.7340    97.1870    91.9490    92.4170    24.9670     2.2220   -20.1500 
  168.3750    67.8550    98.5610    92.8630   100.6420    25.0230     2.2250   -18.7040 
  168.5000    65.4830    99.1560    92.7340   102.2950    25.0740     2.2330   -16.9540 
  168.6250    65.7100    99.0450    91.6760    97.8750    25.1350     2.2440   -15.2680 
  168.7500    67.3100    98.9930    90.6850    89.3850    25.1540     2.2560   -13.8970 
  168.8750    66.7940    99.6360    90.5410    84.9750    25.1340     2.2650   -12.9620 
  169.0000    63.7840   101.2970    91.6250    87.7370    25.0750     2.2670   -12.4640 
  169.1250    62.7880   103.7610    93.7750    95.8100    25.0460     2.2640   -12.1890 
  169.2500    64.7840   105.7620    95.8590   104.8170    25.0230     2.2630   -11.8460 
  169.3750    66.8130   105.7080    96.4910   107.4150    25.0100     2.2750   -11.5180 
  169.5000    67.8920   102.0140    93.8250   103.1850    25.0130     2.3070   -11.3510 
  169.6250    67.5260    93.2620    85.4580    95.2220    25.0360     2.3590   -11.3440 
  169.7500    66.1370    81.3250    73.1160    87.2740    24.9960     2.4100   -11.2960 
  169.8750    65.0000    68.5030    59.7670    78.6160    24.7680     2.4330   -11.0630 
  170.0000    64.6900    57.2330    48.3410    51.2290    24.5490     2.4100   -10.4580 
  170.1250    64.6930    49.8590    41.1030    32.8760    24.5600     2.3400    -9.5730 
  170.2500    65.7280    46.2740    37.5730    29.0090    24.7530     2.2690    -8.7820 
  170.3750    66.5250    45.9550    37.1140    39.9150    24.9730     2.2410    -8.1860 
  170.5000    65.4870    47.8500    38.8190    55.3090    25.0520     2.2830    -7.6630 
  170.6250    62.6240    50.4050    41.5400    56.3350    24.9770     2.3910    -7.1700 
  170.7500    59.9280    51.7510    43.4570    63.1980    24.7860     2.5100    -6.6930 
  170.8750    57.5880    50.7140    43.0750    60.8220    24.5930     2.6030    -6.3080 
  171.0000    56.0510    46.9210    39.7220    47.8220    24.5420     2.6540    -6.0980 
  171.1250    57.9000    40.7610    33.9190    37.6950    24.5120     2.6720    -5.9440 
  171.2500    62.1010    33.9870    27.7230    30.6760    24.4860     2.6830    -5.7740 
  171.3750    64.7960    27.8160    22.3470    24.1970    24.4620     2.6960    -5.5610 
  171.5000    64.3550    23.0390    18.3880    18.1080    24.4900     2.7050    -5.3860 
  171.6250    62.1340    20.1600    16.1240    13.5530    24.5300     2.7000    -5.2760 
  171.7500    59.3660    18.5690    14.9820    11.6560    24.5320     2.6870    -5.1850 
  171.8750    55.9450    17.6510    14.4790    13.3690    24.5570     2.6760    -5.0800 
  172.0000    53.4020    16.7320    13.9760    17.0550    24.6480     2.6740    -4.8750 
  172.1250    53.1450    15.2000    12.7120    19.9610    24.7540     2.6750    -4.6450 
  172.2500    52.4250    13.0380    10.7180    17.7760    24.8220     2.6650    -4.4480 
  172.3750    49.8940    10.4790     8.4750    13.2450    24.9720     2.6360    -4.2800 
  172.5000    46.9590     7.9170     6.5010     6.9460    25.2100     2.5920    -4.1630 
  172.6250    45.9450     5.9070     5.1430     4.9770    25.3620     2.5480    -4.0810 
  172.7500    45.7860     4.6430     4.2900     4.3810    25.2410     2.5130    -3.9950 
  172.8750    45.6940     4.0580     3.8270     4.3390    25.5380     2.4870    -3.8900 
  173.0000    46.8050     3.9000     3.6330     4.2100    26.2910     2.4660    -3.8010 
  173.1250    50.1230     3.9340     3.6140     4.0960    26.6130     2.4450    -3.7570 
  173.2500    54.5980     4.0180     3.6660     4.1690    26.5360     2.4250    -3.7360 
  173.3750    58.1730     4.1360     3.7640     4.2910    26.1680     2.4110    -3.7000 
  173.5000    58.8760     4.2860     3.9120     4.2780    25.6590     2.4050    -3.6450 
  173.6250    56.0640     4.4640     4.1090     4.1920    25.3160     2.4090    -3.5890 
  173.7500    54.0090     4.6410     4.3160     4.4250    25.0690     2.4170    -3.5520 
  173.8750    55.3650     4.7850     4.4840     4.8720    24.7750     2.4190    -3.5780 
  174.0000    58.1450     4.8710     4.5690     4.9500    24.6720     2.4090    -3.6260 
  174.1250    58.1740     4.8870     4.5430     4.5680    24.9180     2.3860    -3.6600 
  174.2500    56.9070     4.8730     4.4580     4.1750    25.0920     2.3580    -3.6580 
  174.3750    56.3030     4.8700     4.3700     4.0560    24.7770     2.3350    -3.6330 
  174.5000    56.5450     4.9140     4.3310     4.3950    24.3170     2.3220    -3.5810 
  174.6250    56.4390     5.0280     4.3760     4.7700    24.5200     2.3250    -3.4900 
  174.7500    54.6880     5.1880     4.4850     5.1090    24.8350     2.3410    -3.3830 
  174.8750    51.2580     5.3650     4.6240     5.5390    24.9490     2.3660    -3.2770 
  175.0000    47.3050     5.5270     4.7580     5.7400    24.9090     2.3930    -3.2440 
  175.1250    45.0140     5.6450     4.8540     5.7210    24.8330     2.4120    -3.3240 
  175.2500    44.5140     5.7160     4.9070     5.6200    24.8210     2.4180    -3.4610 
  175.3750    44.5690     5.7460     4.9190     5.4980    24.8070     2.4150    -3.6180 
  175.5000    44.8340     5.7440     4.9000     5.4210    24.7390     2.4070    -3.7430 
  175.6250    44.7430     5.7260     4.8610     5.3960    24.6910     2.4020    -3.7550 
