~V
VERS. 2.00: Ver 2.00
~W
STRT.M 50.0000:
STOP.M 294.0000:
STEP.M 0.1250:
NULL. -999.2500:
UWI. F10104:
~C
DEPT.M :
GR.API :
RML.OHMM :
RI. :
RXO.OHMM :
CALI.CM :
DEN.GM/CC :
SP.MV :
~A
# ...
  140.0000    68.0080    12.7250    11.4520    13.2720    26.6560     2.2020   -18.2420 
  140.1250    71.1050    12.4680    11.3960    13.6820    25.9370     2.2010   -18.4590 
  140.2500    75.4540    11.8750    10.9880    13.3830    25.8490     2.1810   -18.6300 
  140.3750    76.9740    11.2290    10.3960    12.9390    26.0630     2.1490   -18.7740 
  140.5000    73.8780    10.7870     9.8470    12.5340    26.0550     2.1260   -18.9090 
  140.6250    69.9200    10.7010     9.5390    12.3750    25.1910     2.1290   -19.0320 
  140.7500    68.7600    10.8460     9.4480    12.6630    24.6570     2.1400   -19.1300 
  140.8750    69.3780    11.0730     9.4860    13.1190    24.2720     2.1430   -19.2050 
  141.0000    70.3340    11.2400     9.5500    13.3420    24.0620     2.1400   -19.2710 
  141.1250    71.8330    11.2700     9.5820    13.1970    23.9740     2.1400   -19.3200 
  141.2500    73.9820    11.2080     9.5930    13.1690    23.9190     2.1400   -19.3580 
  141.3750    74.8680    11.0700     9.5890    13.3610    23.8930     2.1360   -19.3810 
  141.5000    73.5490    10.8830     9.5650    13.4410    23.8790     2.1300   -19.3950 
  141.6250    71.7610    10.7010     9.5100    13.3610    23.8740     2.1260   -19.3910 
  141.7500    70.8080    10.5700     9.4320    13.3020    23.8740     2.1240   -19.3810 
  141.8750    71.1440    10.5000     9.3410    13.2410    23.8740     2.1270   -19.3710 
  142.0000    73.1300    10.4770     9.2520    13.1580    23.8740     2.1340   -19.3300 
  142.1250    74.8620    10.4740     9.1870    13.0500    23.8620     2.1420   -19.2800 
  142.2500    75.5520    10.4560     9.1560    12.9540    23.8360     2.1500   -19.2210 
  142.3750    76.2500    10.4460     9.1610    12.9720    23.8090     2.1570   -19.1530 
  142.5000    78.1320    10.4910     9.1910    13.0720    23.7970     2.1630   -19.0630 
  142.6250    78.6740    10.5790     9.2130    13.1160    23.7950     2.1660   -18.9710 
  142.7500    75.1680    10.6200     9.1960    13.0290    23.7820     2.1680   -18.8480 
  142.8750    70.8730    10.5620     9.1280    12.9440    23.7520     2.1690   -18.7110 
  143.0000    69.9900    10.4210     9.0230    12.9020    23.7290     2.1730   -18.5650 
  143.1250    72.5260    10.2580     8.9020    12.9670    23.7190     2.1820   -18.4070 
  143.2500    74.3780    10.1180     8.7770    12.9280    23.7040     2.1950   -18.2360 
  143.3750    74.8040     9.9710     8.6440    12.8410    23.6550     2.2050   -18.0520 
  143.5000    75.3290     9.7660     8.4980    12.7130    23.5810     2.2090   -17.8350 
  143.6250    77.6880     9.4800     8.3520    12.5340    23.5250     2.2070   -17.5960 
  143.7500    81.3510     9.1910     8.2390    12.4030    23.5040     2.2070   -17.3500 
  143.8750    83.3540     8.9840     8.1810    12.3250    23.4940     2.2100   -17.0820 
  144.0000    81.9680     8.9150     8.1820    12.2330    23.4740     2.2140   -16.7870 
  144.1250    79.6520     8.9750     8.2230    12.1520    23.4460     2.2180   -16.4650 
  144.2500    80.3080     9.0440     8.2510    12.1130    23.4160     2.2190   -16.1040 
  144.3750    82.8650     9.0320     8.2080    12.1690    23.3680     2.2150   -15.7160 
  144.5000    85.2410     8.8790     8.0320    12.0020    23.3120     2.2060   -15.3120 
  144.6250    85.2230     8.5070     7.6320    11.1230    23.2880     2.1980   -14.8820 
  144.7500    83.8760     7.9470     7.0380     9.8340    23.2830     2.1970   -14.4490 
  144.8750    85.8230     7.2460     6.3240     8.5480    23.2720     2.2080   -14.0300 
  145.0000    92.7620     6.5090     5.6140     7.2230    23.2320     2.2280   -13.6840 
  145.1250    98.8710     5.9280     5.0740     6.5670    23.1460     2.2510   -13.4340 
  145.2500   100.3360     5.6510     4.7760     6.4310    23.0900     2.2770   -13.3010 
  145.3750    97.6010     5.7660     4.7680     6.8150    23.0710     2.3050   -13.2720 
  145.5000    92.9770     6.2790     5.0710     7.5310    23.0660     2.3320   -13.3810 
  145.6250    89.7320     7.1340     5.6970     8.4340    23.0640     2.3520   -13.6300 
  145.7500    90.5670     8.0310     6.4500     9.0590    23.0630     2.3700   -13.9770 
  145.8750    92.5110     8.6510     7.0890     9.2710    23.0650     2.3840   -14.4110 
  146.0000    91.0770     8.7670     7.3970     9.1510    23.0910     2.3740   -14.8910 
  146.1250    86.6580     8.4000     7.3160     9.3180    23.1820     2.3220   -15.3630 
  146.2500    83.5160     7.9690     7.1230     9.5220    23.3130     2.2530   -15.7610 
  146.3750    82.8790     7.7290     7.0030     9.6000    23.4460     2.1960   -16.0960 
  146.5000    83.5930     7.7410     7.0120     9.7490    23.6070     2.1630   -16.3150 
  146.6250    83.5540     7.8700     7.0770     9.9180    23.8590     2.1540   -16.3780 
  146.7500    83.0870     7.8810     7.0670     9.9540    24.0750     2.1560   -16.2850 
  146.8750    82.6490     7.6620     6.9260    10.0280    24.1590     2.1660   -16.0510 
  147.0000    82.4890     7.2320     6.6550     9.7840    24.1690     2.1820   -15.6760 
  147.1250    84.5650     6.6970     6.2860     9.0730    24.1690     2.2040   -15.2090 
  147.2500    87.4840     6.2060     5.9040     8.3650    24.1690     2.2300   -14.7400 
  147.3750    88.8660     5.8120     5.5690     8.2070    24.1690     2.2560   -14.2570 
  147.5000    89.8490     5.5160     5.3060     8.2530    24.1690     2.2730   -13.8100 
  147.6250    94.4730     5.3170     5.1140     7.7690    24.1670     2.2740   -13.4410 
  147.7500    99.1100     5.2120     4.9620     7.3830    24.1540     2.2690   -13.2070 
  147.8750    99.1300     5.2160     4.8450     7.2620    24.1230     2.2640   -13.0780 
  148.0000    96.0760     5.3220     4.7690     7.3520    24.1000     2.2610   -13.0550 
  148.1250    95.8150     5.4780     4.7260     7.4970    24.0930     2.2620   -13.1240 
  148.2500    99.8400     5.5780     4.6740     7.3910    24.0930     2.2700   -13.2730 
  148.3750   104.0460     5.5480     4.5740     7.3000    24.0930     2.2850   -13.5130 
  148.5000   104.4720     5.3900     4.4270     7.1860    24.0930     2.3000   -13.8320 
  148.6250   104.3040     5.2330     4.2950     6.8960    24.0930     2.3110   -14.2500 
  148.7500   106.3670     5.2630     4.2790     6.6050    24.0930     2.3160   -14.7280 
  148.8750   106.5440     5.6270     4.4850     6.6700    24.0930     2.3090   -15.2970 
  149.0000   101.5340     6.4080     4.9970     7.3030    24.0930     2.2880   -15.9040 
  149.1250    94.4280     7.6010     5.8780     8.4260    24.0930     2.2530   -16.5330 
  149.2500    89.2460     8.8640     6.9260     9.1360    24.0930     2.2190   -17.1340 
  149.3750    86.1500     9.8150     7.8640     9.4220    24.0930     2.1930   -17.6950 
  149.5000    84.7510    10.1980     8.4390     9.5360    24.0930     2.1790   -18.2070 
  149.6250    84.3340    10.1000     8.5980     9.7280    24.1000     2.1730   -18.6300 
  149.7500    83.5840    10.0020     8.6600    10.1180    24.1170     2.1740   -18.9770 
  149.8750    82.9780    10.1430     8.8260    10.9920    24.1390     2.1800   -19.2140 
  150.0000    82.0970    10.5310     9.1470    13.0660    24.1600     2.1880   -19.3870 
  150.1250    79.2200    10.9770     9.5370    15.9480    24.2280     2.1900   -19.5120 
  150.2500    78.3120    11.2460     9.8510    16.1200    24.3210     2.1820   -19.6260 
  150.3750    80.6410    11.2570    10.0230    13.8430    24.4540     2.1710   -19.7210 
  150.5000    82.1300    11.0630    10.0660    12.6740    24.6080     2.1600   -19.8160 
  150.6250    79.0840    10.8120    10.0460    12.6780    24.6700     2.1530   -19.9000 
  150.7500    75.8410    10.6470    10.0360    12.8060    24.6830     2.1470   -19.9540 
  150.8750    73.8340    10.5870    10.0350    12.9620    24.6610     2.1430   -19.9620 
  151.0000    70.4510    10.5590    10.0050    13.1950    24.6080     2.1420   -19.9400 
  151.1250    66.0560    10.4230     9.8800    13.1890    24.5460     2.1430   -19.8580 
