~V
VERS. 2.00: Ver 2.00
~W
STRT.M 55.0000:
STOP.M 251.0000:
STEP.M 0.1250:
NULL. -999.2500:
UWI. F10189:
~C
DEPT.M :
DEN.GM/CC :
SP.MV :
GR.API :
RML.OHMM :
RI. :
RXO.OHMM :
CALI.CM :
~A
# ...
  167.5000     2.3040   -17.8280    79.6990     9.6710     7.3480    15.5260    24.2190 
  167.6250     2.2920   -18.6800    77.9530    12.7600     9.2270    22.3680    24.0350 
  167.7500     2.2730   -19.6010    72.5550    17.9600    12.7460    31.4640    23.8410 
  167.8750     2.2500   -20.5920    69.4080    26.1680    18.9020    42.9180    23.7070 
  168.0000     2.2290   -21.6370    68.8380    38.4130    28.8550    56.4210    23.6830 
  168.1250     2.2190   -22.6810    66.7180    55.9450    43.9080    70.6610    23.7910 
  168.2500     2.2170   -23.7090    64.4980    76.2480    61.8210    81.3820    23.9630 
  168.3750     2.2150   -24.7050    63.8310    96.4840    80.5720    84.9280    24.1190 
  168.5000     2.2070   -25.6710    65.1460   116.5520   100.6640    90.3300    24.1600 
  168.6250     2.1930   -26.5850    66.7660   142.0010   126.7270   107.9170    24.0770 
  168.7500     2.1830   -27.4440    65.5030   177.1710   160.6790   127.4150    23.9130 
  168.8750     2.1800   -28.2440    61.3830   221.7450   200.4700   139.0950    23.7320 
  169.0000     2.1820   -28.9730    58.9000   266.3310   238.3880   133.4130    23.5840 
  169.1250     2.1830   -29.6280    59.7530   290.4430   260.7140   111.0010    23.4480 
  169.2500     2.1840   -30.2280    60.2030   292.8430   266.2360    94.6120    23.2050 
  169.3750     2.1870   -30.7770    59.1740   284.2090   261.3240    78.1470    22.7920 
  169.5000     2.1920   -31.2680    57.5580   273.4820   253.0740    61.9410    22.3080 
  169.6250     2.1960   -31.6700    55.7360   264.2460   245.2820    60.6720    22.2430 
  169.7500     2.2000   -32.0010    56.4800   257.3450   239.3650    70.6560    22.6210 
  169.8750     2.2040   -32.2590    61.6790   253.3450   236.2330    88.4760    23.2830 
  170.0000     2.2060   -32.4710    66.5220   252.2320   236.2850   110.3830    24.0660 
  170.1250     2.2080   -32.6480    64.5130   252.7900   238.9040   130.8940    24.6310 
  170.2500     2.2090   -32.7850    59.4290   252.2600   241.3710   143.6450    24.8840 
  170.3750     2.2080   -32.8770    55.6760   248.6680   241.4480   142.2540    24.9680 
  170.5000     2.2030   -32.9100    54.5540   240.8820   237.6070   133.1400    25.0340 
  170.6250     2.1990   -32.9020    54.2130   234.5060   228.2690   129.9920    25.0970 
  170.7500     2.2010   -32.8520    53.9660   216.6530   214.2360   127.3770    25.1870 
  170.8750     2.2080   -32.7740    55.3420   196.6240   196.7500   121.4940    25.3210 
  171.0000     2.2120   -32.6720    57.9440   177.7280   178.4160   118.6970    25.4750 
  171.1250     2.2120   -32.5270    59.1810   164.5070   163.6180   120.4510    25.5820 
  171.2500     2.2100   -32.3420    57.7130   158.6090   155.2970   126.0160    25.6250 
  171.3750     2.2090   -32.1300    56.3350   160.8840   155.3090   130.0860    25.6220 
  171.5000     2.2060   -31.9030    57.2050   170.9110   163.8810   134.8360    25.6090 
  171.6250     2.1950   -31.6570    58.9190   185.9460   178.8510   147.9460    25.5670 
  171.7500     2.1820   -31.4090    58.4030   197.5380   192.2160   161.8600    25.4700 
  171.8750     2.1730   -31.1740    57.2550   198.2490   196.4930   167.9160    25.3740 
  172.0000     2.1740   -30.9510    57.1950   187.1220   188.5170   164.5320    25.3060 
  172.1250     2.1850   -30.7280    58.3430   172.1430   173.0370   152.9810    25.2240 
  172.2500     2.1990   -30.5110    59.6110   162.7190   160.6390   138.7380    25.0420 
  172.3750     2.2140   -30.3450    62.4310   161.6340   156.1500   123.4810    24.8000 
  172.5000     2.2250   -30.2250    66.1470   167.9260   159.7560   113.0970    24.6350 
  172.6250     2.2330   -30.1540    65.3870   172.9330   168.4700   112.1740    24.5210 
  172.7500     2.2420   -30.1180    61.9680   180.6040   176.1930   109.5500    24.3470 
  172.8750     2.2500   -30.0990    61.1290   182.1090   178.8170   103.0780    24.1350 
  173.0000     2.2570   -30.1020    63.5450   177.0890   174.9540    91.0500    23.9490 
  173.1250     2.2610   -30.1570    66.8050   169.3360   166.8650    77.4490    23.7930 
  173.2500     2.2640   -30.2520    68.8830   163.6800   159.7020    74.4100    23.6290 
  173.3750     2.2660   -30.3370    69.9060   161.4380   155.7660    80.0970    23.4630 
  173.5000     2.2660   -30.4020    69.6270   161.5740   154.8100    89.6830    23.4050 
  173.6250     2.2590   -30.4380    69.6060   161.2240   154.4670   100.2190    23.5490 
  173.7500     2.2460   -30.4750    70.1800   157.9560   151.9620   106.0170    23.8750 
  173.8750     2.2320   -30.5250    69.9140   151.4810   146.4330   106.2150    24.3330 
  174.0000     2.2260   -30.5720    66.7310   143.5040   138.9820   105.7660    24.8740 
  174.1250     2.2310   -30.5800    61.0020   136.8730   132.2120   104.2340    25.3010 
  174.2500     2.2400   -30.5480    57.3930   132.7770   127.7260   102.4120    25.4850 
  174.3750     2.2430   -30.4890    59.1690   130.8810   125.4920   100.3900    25.5560 
  174.5000     2.2380   -30.4080    62.2240   129.8100   124.3690    97.4840    25.6020 
  174.6250     2.2310   -30.2950    60.7550   127.3180   122.3990    96.1810    25.6430 
  174.7500     2.2240   -30.1360    57.4260   122.2430   118.2870    93.9860    25.6890 
  174.8750     2.2210   -29.9180    56.3910   114.7440   111.8720    89.0090    25.7430 
  175.0000     2.2220   -29.6690    57.5330   106.0850   104.0730    78.6690    25.7630 
  175.1250     2.2250   -29.4220    58.3370    98.0060    96.4280    69.1490    25.7260 
  175.2500     2.2250   -29.2050    59.1040    91.4440    90.0000    63.4210    25.5690 
  175.3750     2.2240   -29.0210    61.4490    86.6960    85.2140    60.1380    25.3210 
  175.5000     2.2260   -28.8630    65.1360    83.7350    82.1470    58.0070    25.0860 
  175.6250     2.2320   -28.7580    66.3780    82.5950    80.9020    57.6760    25.0190 
  175.7500     2.2390   -28.7080    64.4240    82.6270    80.8970    57.2890    24.9450 
  175.8750     2.2440   -28.7030    63.1610    83.2890    81.6720    55.5160    24.7130 
  176.0000     2.2470   -28.7170    64.9730    83.8160    82.5490    52.0060    24.3580 
  176.1250     2.2490   -28.7410    67.4130    82.9370    82.3230    49.1050    24.1000 
  176.2500     2.2510   -28.7200    68.5710    80.0110    80.1590    47.8790    24.0270 
  176.3750     2.2540   -28.6620    67.5770    75.0450    75.7970    46.4070    24.0720 
  176.5000     2.2610   -28.6010    65.2470    68.8850    69.8400    43.6040    24.1950 
  176.6250     2.2710   -28.5310    63.4440    63.1420    63.7060    39.7620    24.3770 
  176.7500     2.2820   -28.4550    61.7630    59.2320    58.9400    36.4150    24.5110 
  176.8750     2.2850   -28.3780    60.7770    58.0200    56.4980    35.1850    24.5560 
  177.0000     2.2750   -28.3020    62.3450    59.8970    56.8690    37.0470    24.5590 
  177.1250     2.2570   -28.2390    67.7040    65.2850    60.5460    41.1770    24.5490 
  177.2500     2.2430   -28.2100    72.3050    73.1630    66.6480    46.7200    24.5200 
  177.3750     2.2370   -28.2000    72.2780    82.7760    74.4960    52.5220    24.4970 
  177.5000     2.2360   -28.1980    68.9940    93.2460    83.2140    59.1330    24.5420 
  177.6250     2.2380   -28.1940    64.0630   103.8550    91.9990    66.6200    24.6310 
  177.7500     2.2430   -28.1520    61.5410   114.3870   100.6250    74.8980    24.6480 
  177.8750     2.2440   -28.0610    63.5120   124.5990   108.9750    82.4230    24.5930 
  178.0000     2.2400   -27.9110    67.7120   133.3640   116.2460    88.3790    24.5520 
  178.1250     2.2360   -27.6790    68.2620   137.6360   120.1460    92.0800    24.5000 
  178.2500     2.2410   -27.3860    64.0880   136.1380   119.5570    91.6250    24.4090 
  178.3750     2.2530   -27.0520    62.2770   129.4360   114.5130    86.8900    24.3160 
  178.5000     2.2650   -26.7030    65.6250   120.3030   106.7570    75.8990    24.1970 
  178.6250     2.2650   -26.3460    68.0070   112.5720    99.3550    66.4990    24.0350 
