~V
VERS. 2.00: Ver 2.00
~W
STRT.M 47.0000:
STOP.M 242.0000:
STEP.M 0.1250:
NULL. -999.2500:
UWI. F10188:
~C
DEPT.M :
SP.MV :
DEN.GM/CC :
GR.API :
RML.OHMM :
RI. :
RXO.OHMM :
CALI.CM :
~A
# ...
   69.5000   -45.6530     2.2410    83.4140     7.7210     6.6670     9.6170    23.9670 
   69.6250   -45.9290     2.2410    78.7370     8.0960     6.9020    10.1230    24.3850 
   69.7500   -46.3110     2.2140    71.7290     8.4090     7.1390    10.3370    24.7970 
   69.8750   -46.7080     2.1760    65.6220     8.5970     7.3120    10.2430    24.9430 
   70.0000   -47.1380     2.1520    64.7820     8.6650     7.3870     9.6180    24.8010 
   70.1250   -47.5130     2.1490    66.0900     8.7050     7.4120     9.8290    24.7290 
   70.2500   -47.7830     2.1690    64.9610     8.7800     7.4290    10.2550    24.8120 
   70.3750   -47.9770     2.2160    62.2430     8.8840     7.4550    10.6420    24.9590 
   70.5000   -48.1110     2.2740    63.5500     8.9360     7.4640    10.9820    25.1340 
   70.6250   -48.1850     2.2960    68.4500     8.8780     7.4150    11.6040    25.3190 
   70.7500   -48.2440     2.2630    73.5110     8.7240     7.2990    11.9590    25.4140 
   70.8750   -48.3680     2.2140    76.0380     8.5360     7.1390    11.7950    25.4420 
   71.0000   -48.5490     2.1920    75.8780     8.3940     6.9840    11.1070    25.4020 
   71.1250   -48.7370     2.1870    75.1770     8.3160     6.8730    10.2330    25.3100 
   71.2500   -48.8150     2.1840    72.6270     8.2880     6.8150     9.3720    25.2060 
   71.3750   -48.7340     2.1790    68.4420     8.2950     6.8010     8.6170    25.1040 
   71.5000   -48.4970     2.1710    65.0800     8.3390     6.8190     8.3900    25.0800 
   71.6250   -48.1720     2.1620    63.6790     8.4020     6.8470     8.6350    25.1180 
   71.7500   -47.7600     2.1490    64.0480     8.4420     6.8690     9.2820    25.1210 
   71.8750   -47.2870     2.1380    65.0340     8.4250     6.8650    10.0950    25.0390 
   72.0000   -46.7440     2.1340    66.6900     8.3470     6.8250    11.0830    24.8740 
   72.1250   -46.1310     2.1360    66.8790     8.2570     6.7680    11.7580    24.6830 
   72.2500   -45.5540     2.1410    65.9250     8.2030     6.7180    11.8350    24.5310 
   72.3750   -45.0230     2.1490    64.8130     8.2100     6.7050    11.4840    24.4380 
   72.5000   -44.5060     2.1590    63.7050     8.2770     6.7540    11.3530    24.4400 
   72.6250   -44.0010     2.1680    63.2010     8.3540     6.8430    11.4380    24.5500 
   72.7500   -43.5230     2.1740    63.4850     8.3840     6.9300    11.2040    24.7660 
   72.8750   -43.0270     2.1770    63.1430     8.3130     6.9670    10.3770    24.9550 
   73.0000   -42.4490     2.1780    62.4140     8.0930     6.8930     9.3030    25.0420 
   73.1250   -41.8340     2.1770    63.6400     7.8030     6.7340     8.3110    25.0590 
   73.2500   -41.1730     2.1800    68.0770     7.5610     6.5510     7.8110    25.0530 
   73.3750   -40.4700     2.1870    74.1930     7.5110     6.4460     8.1170    25.0390 
   73.5000   -39.7710     2.2000    76.5910     7.8110     6.5540     9.2960    25.0550 
   73.6250   -39.0970     2.2170    75.6800     8.3950     6.8830    11.0580    25.0630 
   73.7500   -38.4910     2.2350    75.5980     9.1380     7.3840    13.1270    25.0450 
   73.8750   -38.0590     2.2540    76.9390     9.8250     7.9250    15.0560    24.9800 
   74.0000   -37.9250     2.2740    75.6010    10.1120     8.2480    16.1370    25.0030 
   74.1250   -38.0160     2.2830    70.8510     9.8980     8.2090    16.2400    25.0110 
   74.2500   -38.2450     2.2650    67.1510     9.2980     7.8380    14.5400    24.9040 
   74.3750   -38.5780     2.2220    67.4000     8.5900     7.3070    10.9570    24.7350 
   74.5000   -39.0720     2.1830    69.1760     8.0720     6.8340     8.5830    24.7250 
   74.6250   -39.6700     2.1650    69.1180     7.8260     6.5290     7.0610    24.8500 
   74.7500   -40.2960     2.1610    70.3200     7.8230     6.4110     6.3520    24.9070 
   74.8750   -40.8970     2.1630    75.3020     7.9660     6.4410     6.1780    24.7490 
   75.0000   -41.4630     2.1690    79.4060     8.1410     6.5460     6.6030    24.5110 
   75.1250   -42.0260     2.1720    77.4540     8.2710     6.6430     7.3340    24.4260 
   75.2500   -42.5660     2.1660    72.9270     8.3390     6.7010     8.1620    24.4870 
   75.3750   -43.1190     2.1530    71.1330     8.3500     6.7250     8.7660    24.5760 
   75.5000   -43.6020     2.1400    70.7760     8.3250     6.7330     9.1020    24.5450 
   75.6250   -43.9890     2.1340    70.0850     8.3000     6.7530     8.8960    24.4510 
   75.7500   -44.3100     2.1370    69.2970     8.2910     6.7860     8.5340    24.3850 
   75.8750   -44.5410     2.1450    68.4400     8.3040     6.8220     8.5300    24.4490 
   76.0000   -44.6230     2.1500    67.4070     8.3370     6.8470     8.8940    24.6080 
   76.1250   -44.5230     2.1500    68.1320     8.3730     6.8650     9.2790    24.6840 
   76.2500   -44.2890     2.1480    69.6850     8.4010     6.8900     9.2440    24.6700 
   76.3750   -43.9240     2.1490    69.1190     8.4220     6.9290     8.9290    24.6310 
   76.5000   -43.3980     2.1510    66.2220     8.4490     6.9770     8.7630    24.6440 
   76.6250   -42.7590     2.1480    64.3080     8.5100     7.0350     8.8460    24.6820 
   76.7500   -41.9270     2.1400    63.4910     8.6310     7.1120     9.1890    24.6620 
   76.8750   -40.8360     2.1330    61.5180     8.7990     7.2090     9.4080    24.4960 
   77.0000   -39.4350     2.1340    61.3050     8.8970     7.2740     9.1010    24.1930 
   77.1250   -37.8330     2.1450    66.2980     8.7810     7.2280     8.4830    24.0180 
   77.2500   -36.0570     2.1650    73.2310     8.3760     7.0130     7.8200    24.0140 
   77.3750   -34.1770     2.1950    80.3050     7.7480     6.6410     7.2020    24.0150 
   77.5000   -32.4100     2.2410    88.9700     7.1320     6.2170     6.2310    24.0060 
   77.6250   -30.8480     2.2880    97.2990     6.7590     5.8920     5.0830    24.1520 
   77.7500   -29.5000     2.3120   100.2780     6.6990     5.7460     4.5560    24.3460 
   77.8750   -28.3480     2.2980    96.9530     6.8890     5.7870     4.9190    24.5000 
   78.0000   -27.3960     2.2650    91.2420     7.1560     5.9540     5.7600    24.5890 
   78.1250   -26.6480     2.2420    86.4020     7.2680     6.0800     6.2680    24.7090 
   78.2500   -26.1250     2.2410    85.5830     7.1020     6.0420     6.0610    24.9010 
   78.3750   -25.7790     2.2610    91.4750     6.6890     5.8030     5.4340    25.0970 
   78.5000   -25.5030     2.2900    99.5760     6.1800     5.4220     5.0820    25.1660 
   78.6250   -25.2630     2.3090   103.9670     5.7320     5.0320     5.1850    25.1400 
   78.7500   -25.0970     2.3110   105.3350     5.4190     4.7010     5.3780    25.0840 
   78.8750   -25.1560     2.2990   106.0010     5.3170     4.4960     5.9480    25.0850 
   79.0000   -25.5800     2.2730   103.9340     5.6190     4.5660     7.2760    25.3980 
   79.1250   -26.3100     2.2360    98.8500     6.4120     4.9910     9.6170    25.9570 
   79.2500   -27.3640     2.1990    91.6110     7.7620     5.8530    12.4990    26.2840 
   79.3750   -28.7510     2.1840    82.1980     9.6010     7.1760    15.1660    26.0270 
   79.5000   -30.4400     2.2060    70.7570    11.5460     8.8030    17.1050    25.6270 
   79.6250   -32.2820     2.2410    62.6850    12.8380    10.1420    17.6980    25.2170 
   79.7500   -34.2560     2.2610    59.8970    12.9320    10.6420    16.2520    24.7290 
   79.8750   -36.2650     2.2560    60.0440    11.9600    10.2150    13.2220    24.2540 
   80.0000   -38.2120     2.2300    60.8230    10.6900     9.3040    10.7330    24.0450 
   80.1250   -40.0460     2.2020    61.5280     9.8080     8.5070     9.8170    24.1710 
   80.2500   -41.6550     2.1740    61.6700     9.4420     8.0250     9.6280    24.6330 
   80.3750   -42.9600     2.1450    60.8260     9.4630     7.8690     9.9050    25.2250 
   80.5000   -43.9410     2.1180    59.9080     9.6500     7.9520    10.4790    25.5340 
   80.6250   -44.6780     2.1050    60.3650     9.8100     8.1010    11.0960    25.5450 
