~V
VERS. 2.00: Ver 2.00
~W
STRT.M 49.0000:
STOP.M 290.0000:
STEP.M 0.1250:
NULL. -999.2500:
UWI. F10103:
~C
DEPT.M :
DEN.GM/CC :
SP.MV :
GR.API :
RML.OHMM :
RI. :
RXO.OHMM :
CALI.CM :
~A
# ...
  274.0000     2.4520    -6.3630    43.3080    10.0070     9.5590    12.4480    23.3610 
  274.1250     2.4460    -6.5230    45.3520     9.7860     9.3440    11.2850    23.3540 
  274.2500     2.4410    -6.7040    46.5400     9.8190     9.2350     9.4400    23.2090 
  274.3750     2.4400    -6.9030    45.9960    10.0980     9.3010     7.8570    23.0290 
  274.5000     2.4450    -7.0930    45.2710    10.6810     9.5870     7.0730    22.8730 
  274.6250     2.4550    -7.2760    45.3670    11.6840    10.1000     7.1470    22.7300 
  274.7500     2.4710    -7.4460    44.3680    12.4240    10.8190     7.7530    22.6540 
  274.8750     2.4900    -7.5810    42.4960    13.1990    11.6100     8.8470    22.6940 
  275.0000     2.5080    -7.6840    41.0600    13.8890    12.3560    10.7550    22.8140 
  275.1250     2.5240    -7.7200    40.8670    14.3890    12.9410    13.2520    22.9660 
  275.2500     2.5350    -7.7170    41.9270    14.6020    13.2550    15.3470    23.1620 
  275.3750     2.5360    -7.6950    43.3070    14.6020    13.3460    16.3510    23.3770 
  275.5000     2.5300    -7.6480    44.9730    14.4740    13.2760    16.8300    23.5550 
  275.6250     2.5190    -7.5820    46.5520    14.3200    13.1340    17.7970    23.6250 
  275.7500     2.5090    -7.5160    47.0270    14.2370    13.0140    17.8660    23.6060 
  275.8750     2.5040    -7.4830    47.2620    14.2550    12.9800    17.2780    23.5570 
  276.0000     2.5040    -7.4780    47.4520    14.3800    13.0680    16.2240    23.4700 
  276.1250     2.5050    -7.4850    47.4930    14.6060    13.2880    15.8840    23.3600 
  276.2500     2.5080    -7.5030    46.8380    14.9200    13.6480    15.8010    23.3010 
  276.3750     2.5120    -7.5110    46.7150    15.2760    14.0910    15.6820    23.2710 
  276.5000     2.5170    -7.5370    47.5500    15.6430    14.5770    15.3540    23.2780 
  276.6250     2.5230    -7.5840    47.8510    15.9980    15.0710    15.3870    23.3420 
  276.7500     2.5290    -7.6420    46.7980    16.3180    15.5360    16.3100    23.4460 
  276.8750     2.5310    -7.6880    45.9290    16.5880    15.9490    18.6550    23.5120 
  277.0000     2.5300    -7.7260    46.5970    16.7770    16.2820    22.2440    23.5580 
  277.1250     2.5270    -7.7650    48.2770    16.8470    16.5070    23.9620    23.5940 
  277.2500     2.5230    -7.7780    48.5530    16.7600    16.5800    23.3530    23.6190 
  277.3750     2.5190    -7.7980    47.4160    16.5720    16.5370    21.4510    23.6440 
  277.5000     2.5150    -7.8290    47.0160    16.3500    16.4220    19.6680    23.6790 
  277.6250     2.5130    -7.8330    49.1580    16.1610    16.2930    19.3290    23.7140 
  277.7500     2.5140    -7.8330    50.9090    16.0520    16.2000    19.5410    23.7120 
  277.8750     2.5150    -7.8390    50.3780    15.9830    16.1320    20.1920    23.7010 
  278.0000     2.5170    -7.8230    48.4650    15.8890    16.0450    20.7670    23.7050 
  278.1250     2.5170    -7.8260    47.4840    15.7060    15.8790    20.8910    23.7260 
  278.2500     2.5150    -7.8730    47.4620    15.3800    15.5690    19.5890    23.7640 
  278.3750     2.5110    -7.9410    46.5310    14.9560    15.1420    17.5580    23.8040 
  278.5000     2.5050    -8.0140    45.4090    14.4950    14.6570    15.6830    23.8290 
  278.6250     2.4990    -8.1360    45.9000    14.0720    14.1940    14.6650    23.8180 
  278.7500     2.4940    -8.2640    47.4960    13.7700    13.8590    13.8000    23.7750 
  278.8750     2.4920    -8.3950    48.0860    13.6120    13.6930    12.9090    23.7170 
  279.0000     2.4940    -8.5260    48.0860    13.6120    13.7140    11.9760    23.6570 
  279.1250     2.4990    -8.6140    48.0860    13.7660    13.9070    11.4480    23.6120 
  279.2500     2.5050    -8.6530    48.0860    14.0660    14.2470    11.7810    23.6030 
  279.3750     2.5100    -8.6490    48.0860    14.4330    14.6430    13.2060    23.6170 
  279.5000     2.5120    -8.6190    48.0860    14.7920    15.0260    15.3830    23.6530 
  279.6250     2.5120    -8.5370    48.0860    15.0670    15.3300    17.9950    23.6900 
  279.7500     2.5080    -8.4250    48.0860    15.1740    15.4800    21.2900    23.7430 
  279.8750     2.5050    -8.3050    48.0860    15.1280    15.4740    23.9170    23.8310 
  280.0000     2.5030    -8.1950    48.0860    14.9600    15.3230    22.7440    23.9150 
  280.1250     2.5050    -8.1220    48.0860    14.7260    15.0750    19.0390    23.9470 
  280.2500     2.5090    -8.0860    48.0860    14.4880    14.8000    16.1960    23.9420 
  280.3750     2.5140    -8.0720    48.0860    14.2960    14.5740    13.9320    23.9620 
  280.5000     2.5170    -8.0940    48.0860    14.1750    14.4350    13.2960    23.9840 
  280.6250     2.5170    -8.1450    48.0860    14.1380    14.3890    14.8870    23.9900 
  280.7500     2.5140    -8.2110    48.0860    14.1870    14.4240    16.4840    23.9880 
  280.8750     2.5090    -8.2900    48.0860    14.2760    14.4910    17.8500    24.0080 
  281.0000     2.5020    -8.3580    48.0860    14.3610    14.5550    18.4950    24.0400 
  281.1250     2.4950    -8.4200    48.0860    14.4040    14.5910    18.0250    24.0570 
  281.2500     2.4880    -8.4870    48.0860    14.3820    14.5780    17.4870    24.0420 
  281.3750     2.4810    -8.5290    48.0860    14.3240    14.5350    18.1450    24.0370 
  281.5000     2.4760    -8.5530    48.0860    14.2620    14.4840    18.9660    24.0280 
  281.6250     2.4750    -8.5750    48.0860    14.2150    14.4420    20.0300    24.0150 
  281.7500     2.4770    -8.6150    48.0860    14.1870    14.4200    19.5170    23.9850 
  281.8750     2.4810    -8.6310    48.0860    14.1670    14.4100    18.6630    23.9250 
  282.0000     2.4850    -8.6300    48.0860    14.1480    14.4030    17.4940    23.8730 
  282.1250     2.4850    -8.5750    48.0860    14.1320    14.3950    16.6150    23.8890 
  282.2500     2.4830    -8.4750    48.0860    14.1250    14.3850    16.5220    23.9340 
  282.3750     2.4790    -8.3760    48.0860    14.1250    14.3800    17.1960    23.9780 
  282.5000     2.4780    -8.2450    48.0860    14.1300    14.3790    17.0840    24.0280 
  282.6250     2.4800    -8.0790    48.0860    14.1380    14.3800    15.0710    24.0850 
  282.7500     2.4860    -7.8720    48.0860    14.1480    14.3830    12.6690    24.1310 
  282.8750     2.4930    -7.6810    48.0860    14.1590    14.3840    11.0180    24.1640 
  283.0000     2.4990    -7.5260    48.0860    14.1700    14.3840    10.3240    24.1970 
  283.1250     2.5020    -7.4020    48.0860    14.1800    14.3830    11.2290    24.2150 
  283.2500     2.4980    -7.2950    48.0860    14.1850    14.3800    12.8770    24.2020 
  283.3750     2.4850    -7.2250    48.0860    14.1850    14.3770    13.2880    24.1950 
  283.5000     2.4660    -7.1830    48.0860    14.1810    14.3760    12.7330    24.1990 
  283.6250     2.4440    -7.2020    48.0860    14.1750    14.3760    13.5770    24.1870 
  283.7500     2.4280    -7.2410    48.0860    14.1700    14.3780    15.6090    24.1660 
  283.8750     2.4220    -7.2480    48.0860    14.1650    14.3800    17.2240    24.1530 
  284.0000     2.4270    -7.2470    48.0860    14.1630    14.3800    16.9970    24.1540 
  284.1250     2.4410    -7.2510    48.0860    14.1620    14.3800    15.4870    24.1380 
  284.2500     2.4560    -7.2600    48.0860    14.1600    14.3780    14.2610    24.1200 
  284.3750     2.4650    -7.2500    48.0860    14.1590    14.3760    13.0490    24.1570 
  284.5000     2.4660    -7.2390    48.0860    14.1590    14.3730    12.4960    24.2180 
  284.6250     2.4630    -7.2040    48.0860    14.1590    14.3710    11.8930    24.2520 
  284.7500     2.4590    -7.1880    48.0860    14.1600    14.3690    10.9420    24.2840 
  284.8750     2.4570    -7.2150    48.0860    14.1610    14.3690    10.7330    24.3120 
  285.0000     2.4570    -7.2330    48.0860    14.1610    14.3690    10.6940    24.3270 
  285.1250     2.4590    -7.2610    48.0860    14.1610    14.3690    10.2270    24.3280 
