~V
VERS. 2.00: Ver 2.00
~W
STRT.M 50.0000:
STOP.M 200.0000:
STEP.M 0.1250:
NULL. -999.2500:
UWI. F10131:
~C
DEPT.M :
GR.API :
RML.OHMM :
RI. :
RXO.OHMM :
CALI.CM :
SP.MV :
DEN.GM/CC :
~A
# ...
  185.0000    90.4660    13.3520    11.7260    16.1000    23.6040    -3.3820     2.3820 
  185.1250    95.3380    13.8910    11.9410    14.7370    23.6240    -3.5750     2.3580 
  185.2500    93.0290    15.4900    12.8590    13.7990    23.7150    -3.7790     2.3250 
  185.3750    85.3980    18.4640    14.8790    17.5230    23.8420    -4.0020     2.2900 
  185.5000    77.5150    22.8600    18.2410    31.2100    23.9730    -4.2310     2.2690 
  185.6250    74.8900    28.2940    22.8930    46.6480    24.0460    -4.4600     2.2810 
  185.7500    79.8560    33.3380    27.6340    50.2040    24.1510    -4.6880     2.3180 
  185.8750    91.5340    36.5590    31.1140    45.6400    24.1220    -4.9130     2.3570 
  186.0000   105.0470    37.0310    32.3060    40.8290    24.0070    -5.1160     2.3760 
  186.1250   117.6760    34.6950    30.8760    38.4260    23.9560    -5.2770     2.3630 
  186.2500   124.7010    31.3640    28.2820    37.4750    23.9460    -5.4060     2.3430 
  186.3750   121.4070    28.3390    25.6460    36.8760    23.9350    -5.5250     2.3420 
  186.5000   109.0700    26.4510    23.7490    28.5770    23.9200    -5.6650     2.3730 
  186.6250    98.1940    26.2880    23.1870    20.9800    23.8100    -5.8480     2.4230 
  186.7500    97.6060    27.5150    23.8420    20.1930    23.5020    -6.0740     2.4660 
  186.8750   103.2140    29.7530    25.5420    26.3030    23.0010    -6.3320     2.4900 
  187.0000   106.9820    32.3710    27.8850    34.9610    22.5630    -6.6110     2.4970 
  187.1250   107.3960    34.3010    30.0830    36.4200    22.6130    -6.9300     2.4960 
  187.2500   109.2660    34.6560    31.2080    38.3290    23.0190    -7.2700     2.4950 
  187.3750   112.6280    32.9100    30.5660    40.9530    23.5240    -7.5830     2.4930 
  187.5000   113.3670    29.1220    27.9200    42.4610    23.8540    -7.8260     2.4900 
  187.6250   109.9790    23.9050    23.5320    39.5700    23.9180    -7.9750     2.4800 
  187.7500   104.6590    18.6090    18.6750    35.5280    23.9060    -8.0480     2.4590 
  187.8750    98.7520    14.0390    14.2110    27.0440    23.9340    -8.0260     2.4250 
  188.0000    94.3890    10.5160    10.6480    15.9880    23.9960    -7.9170     2.3810 
  188.1250    90.8600     8.1410     8.2530     9.1470    23.9710    -7.7020     2.3390 
  188.2500    83.3300     6.5970     6.6830     6.8340    23.9310    -7.4560     2.3090 
  188.3750    72.7140     5.7490     5.7280     6.3450    23.8620    -7.2380     2.2940 
  188.5000    65.5620     5.4010     5.2010     5.8510    23.7690    -7.0570     2.2870 
  188.6250    66.1810     5.3480     4.9840     5.3960    23.6540    -6.9030     2.2870 
  188.7500    68.9230     5.4270     4.9190     5.1230    23.5960    -6.7540     2.2930 
  188.8750    70.0170     5.6010     4.9480     4.7730    23.5810    -6.6570     2.3070 
  189.0000    71.4520     5.8280     5.0410     4.6810    23.6190    -6.6110     2.3230 
  189.1250    74.2250     6.0720     5.1820     4.7340    23.6610    -6.5810     2.3320 
  189.2500    74.2430     6.2940     5.3370     4.9390    23.7560    -6.4920     2.3260 
  189.3750    69.6080     6.4630     5.4740     5.2680    23.8430    -6.3210     2.3050 
  189.5000    64.5060     6.5490     5.5670     5.6130    23.8780    -6.1040     2.2730 
  189.6250    64.7750     6.5170     5.5920     6.1800    23.8880    -5.8980     2.2410 
  189.7500    67.3400     6.4070     5.5680     6.3760    23.9010    -5.6890     2.2220 
  189.8750    68.4680     6.2770     5.5170     5.7790    23.9170    -5.4580     2.2250 
  190.0000    68.4680     6.1860     5.4610     5.2040    23.9240    -5.1950     2.2530 
  190.1250    68.4680     6.1800     5.4210     5.2740    23.9100    -4.9340     2.2960 
  190.2500    68.4680     6.2380     5.3990     5.9900    23.8610    -4.6730     2.3340 
  190.3750    68.4680     6.3310     5.3950     6.6840    23.7670    -4.4530     2.3500 
  190.5000    68.4680     6.4350     5.4000     6.2610    23.6260    -4.2730     2.3400 
  190.6250    68.4680     6.5180     5.3960     5.7810    23.6640    -4.0780     2.3120 
  190.7500    68.4680     6.5530     5.3600     5.6700    23.8830    -3.8490     2.2850 
  190.8750    68.4680     6.5130     5.2780     5.7890    24.0720    -3.5840     2.2680 
  191.0000    68.4680     6.3910     5.1490     5.4460    24.1270    -3.3150     2.2630 
  191.1250    68.4680     6.2480     5.0270     5.2500    24.1180    -3.0830     2.2710 
  191.2500    68.4680     6.0170     4.8460     4.8150    24.0810    -2.9180     2.2850 
  191.3750    68.4680     6.0340     4.8490     4.9950    24.0790    -2.8640     2.3090 
  191.5000    68.4680     6.1960     4.9490     5.5260    24.1290    -2.6870     2.3430 
  191.6250    68.4680     6.4570     5.1180     6.2400    24.1740    -2.6410     2.3820 
  191.7500    68.4680     6.7260     5.3080     6.9580    24.1990    -2.6560     2.4150 
  191.8750    68.4680     6.8730     5.4510     7.0980    24.1980    -2.7580     2.4330 
  192.0000    68.4680     6.8740     5.5210     7.0420    24.2070    -2.8640     2.4320 
  192.1250    68.4680     6.7730     5.5250     6.6240    24.2350    -2.9170     2.4140 
  192.2500    68.4680     6.6580     5.4930     6.0660    24.2520    -2.9730     2.3900 
  192.3750    68.4680     6.6120     5.4600     5.9850    24.2490    -3.0250     2.3680 
  192.5000    68.4680     6.6320     5.4400     6.2930    24.2620    -3.0340     2.3520 
  192.6250    68.4680     6.6740     5.4230     6.4280    24.2730    -3.0040     2.3420 
  192.7500    68.4680     6.6890     5.3920     6.4590    24.2570    -2.9280     2.3350 
  192.8750    68.4680     6.6460     5.3300     5.8240    24.2120    -2.8150     2.3290 
  193.0000    68.4680     6.5650     5.2490     5.5160    24.1810    -2.7350     2.3240 
  193.1250    68.4680     6.4680     5.1640     5.3190    24.1820    -2.7480     2.3220 
  193.2500    68.4680     6.3730     5.0900     5.1890    24.2000    -2.7410     2.3270 
  193.3750    68.4680     6.2910     5.0360     5.1230    24.1470    -2.7400     2.3390 
  193.5000    68.4680     6.2250     4.9990     5.2870    24.0970    -2.7660     2.3550 
  193.6250    68.4680     6.1830     4.9730     5.5050    24.0610    -2.8160     2.3710 
  193.7500    68.4680     6.1760     4.9610     5.5910    24.0660    -2.8850     2.3830 
  193.8750    68.4680     6.2280     4.9820     5.6890    24.1550    -2.9440     2.3910 
  194.0000    68.4680     6.3460     5.0460     5.8360    24.2030    -2.9920     2.3940 
  194.1250    68.4680     6.5300     5.1620     6.0270    24.2060    -2.9920     2.3890 
  194.2500    68.4680     6.7670     5.3260     6.4920    24.1530    -2.9890     2.3780 
  194.3750    68.4680     7.0210     5.5190     7.0120    24.1190    -2.9630     2.3630 
  194.5000    68.4680     7.2480     5.6990     7.3770    24.1540    -2.9180     2.3540 
  194.6250    68.4680     7.4250     5.8400     7.2490    24.1640    -2.8600     2.3600 
  194.7500    68.4680     7.5500     5.9310     7.1300    24.1280    -2.8270     2.3780 
  194.8750    68.4680     7.6220     5.9710     8.4240    24.1190    -2.7930     2.3970 
  195.0000    68.4680     7.6570     5.9880    10.3060    24.1880    -2.7170     2.4090 
  195.1250    68.4680     7.6600     5.9970    10.6900    24.2360    -2.6900     2.4130 
  195.2500    68.4680     7.6390     6.0060     9.4540    24.2240    -2.6960     2.4160 
  195.3750    68.4680     7.6070     6.0150     8.1640    24.1620    -2.6700     2.4230 
  195.5000    68.4680     7.5820     6.0220     7.2890    24.0330    -2.6250     2.4270 
  195.6250    68.4680     7.5690     6.0250     6.7140    23.8520    -2.5480     2.4240 
  195.7500    68.4680     7.5650     6.0270     6.5890    23.6940    -2.4520     2.4100 
  195.8750    68.4680     7.5650     6.0270     6.8320    23.7580    -2.3550     2.3940 
  196.0000    68.4680     7.5660     6.0270     7.1080    23.8650    -2.2780     2.3830 
  196.1250    68.4680     7.5660     6.0270     7.5750    23.8180    -2.0410     2.3780 
