~V
VERS. 2.00: Ver 2.00
~W
STRT.M 59.0000:
STOP.M 202.0000:
STEP.M 0.1250:
NULL. -999.2500:
UWI. F10133:
~C
DEPT.M :
GR.API :
RML.OHMM :
RI. :
RXO.OHMM :
CALI.CM :
SP.MV :
DEN.GM/CC :
~A
# ...
  104.0000    74.3340    10.0490     8.9280    14.0100    26.2800   -16.5460     2.3080 
  104.1250    69.8420     9.2080     8.2410    11.4730    26.3840   -17.2800     2.2600 
  104.2500    68.4680     8.4730     7.5510    10.4850    26.5000   -18.0660     2.2070 
  104.3750    70.6860     7.9590     7.0050    10.2690    26.5560   -18.7750     2.1660 
  104.5000    72.3700     7.6520     6.6440    10.2130    26.4530   -19.4160     2.1410 
  104.6250    72.1420     7.4750     6.4490    10.2370    26.3070   -20.0010     2.1310 
  104.7500    71.8040     7.3270     6.3220     9.9380    26.2680   -20.4150     2.1260 
  104.8750    71.6390     7.1810     6.2210     9.5010    26.2620   -20.6870     2.1250 
  105.0000    71.2740     7.0460     6.1370     9.2700    26.0850   -20.8890     2.1290 
  105.1250    70.6560     6.9480     6.0790     9.3180    25.8880   -20.9420     2.1360 
  105.2500    69.8620     6.8940     6.0470     9.4680    25.7860   -20.9410     2.1430 
  105.3750    70.1700     6.8850     6.0390     9.4940    25.7360   -20.9680     2.1490 
  105.5000    73.2580     6.9190     6.0490     9.3980    25.6860   -20.9630     2.1510 
  105.6250    76.8710     6.9840     6.0720     9.3000    25.6050   -20.8780     2.1510 
  105.7500    78.4320     7.0510     6.0980     9.2000    25.5320   -20.8390     2.1490 
  105.8750    78.5260     7.0970     6.1230     9.0090    25.4630   -20.8040     2.1460 
  106.0000    77.0540     7.1050     6.1450     8.8460    25.3680   -20.7210     2.1410 
  106.1250    75.8210     7.0710     6.1580     8.8640    25.2950   -20.6540     2.1370 
  106.2500    75.4900     7.0250     6.1680     9.0220    25.2750   -20.5810     2.1370 
  106.3750    75.0600     6.9930     6.1800     9.2200    25.2060   -20.4530     2.1410 
  106.5000    74.5680     6.9890     6.2030     9.4460    25.0180   -20.3130     2.1510 
  106.6250    74.9380     7.0120     6.2400     9.6740    24.8150   -20.2270     2.1650 
  106.7500    75.7270     7.0410     6.2800    10.0020    24.6100   -20.0460     2.1790 
  106.8750    75.8180     7.0630     6.3070    10.2010    24.4690   -19.7500     2.1890 
  107.0000    77.2510     7.0690     6.3030    10.1110    24.3380   -19.4420     2.1920 
  107.1250    80.6170     7.0370     6.2510     9.9250    24.2970   -19.0960     2.1890 
  107.2500    82.1780     6.9490     6.1590     9.6820    24.2830   -18.6590     2.1820 
  107.3750    81.6350     6.8020     6.0340     9.3670    24.2010   -18.2260     2.1770 
  107.5000    79.8470     6.6400     5.8890     9.1910    24.0640   -17.8260     2.1740 
  107.6250    79.6210     6.5930     5.7940     9.0440    24.0650   -17.3320     2.1700 
  107.7500    82.3530     6.7770     5.8500     8.9740    24.0870   -16.8510     2.1640 
  107.8750    85.0840     7.2390     6.1390     9.0840    24.0680   -16.4470     2.1650 
  108.0000    83.2120     7.8990     6.6650     9.4620    24.0580   -15.9850     2.1910 
  108.1250    78.4560     8.4890     7.2810    10.7080    24.1260   -15.4300     2.2540 
  108.2500    77.5240     8.7080     7.6730    14.4770    24.1390   -14.8810     2.3300 
  108.3750    80.7100     8.4010     7.6070    17.1430    24.1230   -14.3000     2.3830 
  108.5000    86.7930     7.6510     7.0780    11.5310    24.1360   -13.7040     2.3870 
  108.6250    93.4920     6.8360     6.3230     6.7120    24.1690   -13.3060     2.3380 
  108.7500    96.5300     6.2880     5.6590     5.1870    24.1460   -13.0820     2.2800 
  108.8750    94.1400     6.0090     5.2000     5.4220    24.0730   -12.9220     2.2440 
  109.0000    89.2140     5.8600     4.9500     6.4520    24.0620   -12.8630     2.2420 
  109.1250    87.0790     5.7480     4.8500     6.4860    24.2030   -12.9580     2.2620 
  109.2500    85.7090     5.6600     4.7900     5.7120    24.2660   -13.1660     2.2830 
  109.3750    85.2590     5.5930     4.7460     5.1310    24.2710   -13.5390     2.2930 
  109.5000    88.9810     5.5890     4.7540     4.7130    24.3580   -14.1590     2.2940 
  109.6250    92.4180     5.7370     4.9030     4.9010    24.5340   -14.9250     2.2870 
  109.7500    89.4770     6.0400     5.2080     5.3970    24.5780   -15.7370     2.2760 
  109.8750    82.4290     6.4640     5.6420     6.6600    24.4470   -16.6730     2.2630 
  110.0000    77.2310     6.9390     6.1300     8.1850    24.2060   -17.6880     2.2490 
  110.1250    74.0400     7.3500     6.5430     8.6960    24.0780   -18.6280     2.2380 
  110.2500    71.0680     7.6020     6.7890     8.6430    24.1150   -19.4310     2.2350 
  110.3750    71.0740     7.6240     6.8150     8.5110    24.2680   -20.0280     2.2410 
  110.5000    75.2170     7.3810     6.5960     8.2530    24.4650   -20.2650     2.2540 
  110.6250    82.2730     6.8640     6.1180     7.8360    24.6640   -20.0170     2.2640 
  110.7500    91.6190     6.2120     5.4900     7.2260    24.7850   -19.4390     2.2670 
  110.8750   100.9960     5.5610     4.8170     6.1800    24.8510   -18.6050     2.2610 
  111.0000   108.1660     5.0570     4.2290     4.5930    24.9130   -17.6670     2.2490 
  111.1250   111.0570     4.8830     3.8950     3.9900    25.0640   -16.9000     2.2390 
  111.2500   107.8130     5.0750     3.8600     3.8000    25.2310   -16.3860     2.2360 
  111.3750    99.0720     5.6430     4.1600     4.1730    25.2400   -16.1420     2.2440 
  111.5000    89.3700     6.5240     4.7980     5.3570    24.9430   -16.2100     2.2610 
  111.6250    84.1410     7.5430     5.7370     7.0770    24.4360   -16.7230     2.2810 
  111.7500    81.2630     8.4120     6.7230     8.5150    24.2250   -17.5230     2.2920 
  111.8750    78.4230     8.9440     7.5030     9.3130    24.2520   -18.4870     2.2890 
  112.0000    76.4730     9.0980     7.8980     9.4580    24.3940   -19.5380     2.2740 
  112.1250    76.9940     8.9650     7.8750     9.2180    24.5670   -20.5390     2.2540 
  112.2500    79.3310     8.7830     7.6840     9.1550    24.5390   -21.3940     2.2420 
  112.3750    81.3880     8.6710     7.4850     9.3080    24.2820   -22.0560     2.2400 
  112.5000    81.2320     8.6640     7.3650     9.4460    23.9790   -22.5420     2.2510 
  112.6250    79.4510     8.7540     7.3530     9.5550    23.8520   -22.8950     2.2690 
  112.7500    78.4160     8.8930     7.4080     9.6080    23.8020   -23.1690     2.2850 
  112.8750    78.8270     9.0580     7.5060    10.2380    23.7460   -23.4010     2.2950 
  113.0000    78.7830     9.2280     7.6220    11.7300    23.7920   -23.6730     2.2950 
  113.1250    77.3550     9.3830     7.7280    13.5220    24.2560   -24.0040     2.2840 
  113.2500    75.0610     9.5100     7.8070    12.0350    24.8910   -24.3600     2.2610 
  113.3750    73.2590     9.6010     7.8540    10.9500    25.1840   -24.7710     2.2290 
  113.5000    73.2890     9.6470     7.8700    11.2770    25.2420   -25.2430     2.1930 
  113.6250    74.3010     9.6390     7.8630    12.1770    25.2560   -25.7030     2.1630 
  113.7500    74.9810     9.5920     7.8490    11.3490    25.2590   -26.1470     2.1500 
  113.8750    75.1050     9.5220     7.8350    10.4530    25.2720   -26.6140     2.1550 
  114.0000    76.1650     9.4490     7.8170    10.0740    25.2650   -27.0150     2.1730 
  114.1250    78.9640     9.3910     7.7890     9.8580    25.1900   -27.2740     2.1970 
  114.2500    80.0850     9.3650     7.7650     9.6370    25.0710   -27.5040     2.2160 
  114.3750    78.1120     9.3890     7.7710     9.4910    24.9940   -27.7330     2.2270 
  114.5000    75.7400     9.4820     7.8330     9.4030    24.9990   -27.9320     2.2290 
  114.6250    75.9880     9.6530     7.9740     9.6740    25.0640   -28.0360     2.2200 
  114.7500    74.3590     9.8440     8.1590     9.9450    25.0540   -28.0820     2.2040 
  114.8750    68.3170     9.9830     8.3360    10.8580    24.9970   -28.0780     2.1840 
  115.0000    63.3400    10.0020     8.4300    11.6350    24.9710   -28.0430     2.1690 
  115.1250    66.5480     9.8520     8.3640    11.3260    25.0310   -27.9810     2.1640 
