~V
VERS. 2.00: Ver 2.00
~W
STRT.M 60.0000:
STOP.M 245.0000:
STEP.M 0.1250:
NULL. -999.2500:
UWI. F10162:
~C
DEPT.M :
SP.MV :
DEN.GM/CC :
GR.API :
RML.OHMM :
RI. :
RXO.OHMM :
CALI.CM :
~A
# ...
  161.2500   -10.2170     2.2420    73.5330    18.3180    15.8480    17.1040    23.3570 
  161.3750   -10.7760     2.2430    73.4220    18.1890    15.7990    16.3570    23.2160 
  161.5000   -11.2990     2.2410    73.5220    18.0310    15.6880    15.5970    23.4160 
  161.6250   -11.6540     2.2340    74.5900    17.8620    15.5540    15.7850    24.1040 
  161.7500   -11.7880     2.2250    75.0320    17.6930    15.4370    15.8000    24.7720 
  161.8750   -11.8210     2.2180    73.5900    17.5310    15.3510    15.1810    25.0880 
  162.0000   -11.7510     2.2190    73.0990    17.3810    15.2950    14.9050    25.1400 
  162.1250   -11.4530     2.2320    75.9850    17.2720    15.2690    14.8430    25.0840 
  162.2500   -11.0360     2.2520    80.1350    17.2310    15.2890    15.5380    25.0030 
  162.3750   -10.5230     2.2710    81.3260    17.2880    15.3870    15.9850    24.9530 
  162.5000   -10.0010     2.2810    78.0610    17.4510    15.5920    15.6180    24.9150 
  162.6250    -9.7120     2.2790    75.2210    17.7130    15.9290    16.2720    24.8910 
  162.7500    -9.5690     2.2700    76.1460    18.0070    16.3470    16.8990    24.8740 
  162.8750    -9.3910     2.2600    79.5790    18.2860    16.7860    17.7770    24.8740 
  163.0000    -9.1300     2.2560    80.1500    18.5230    17.1870    17.8870    24.8620 
  163.1250    -8.7590     2.2600    73.7230    18.7260    17.5130    17.5570    24.8520 
  163.2500    -8.3880     2.2660    67.1320    18.9440    17.8120    17.5800    24.8490 
  163.3750    -8.0620     2.2710    65.1300    19.2030    18.1310    17.6640    24.8510 
  163.5000    -7.7390     2.2700    68.4100    19.4900    18.4840    17.5040    24.8510 
  163.6250    -7.4470     2.2670    71.5430    19.6980    18.8040    18.6290    24.8580 
  163.7500    -7.1800     2.2640    71.4880    19.6780    18.9450    19.5610    24.8690 
  163.8750    -6.9490     2.2650    70.8860    19.3140    18.7260    19.3520    24.8710 
  164.0000    -6.8410     2.2710    72.5320    18.6190    18.0540    17.8980    24.8350 
  164.1250    -6.8860     2.2800    76.9720    17.8720    17.0900    16.7240    24.7740 
  164.2500    -7.0210     2.2910    81.0130    17.6230    16.3580    16.4130    24.7330 
  164.3750    -7.3250     2.2960    82.5960    18.4620    16.3460    15.8570    24.7080 
  164.5000    -7.7660     2.2930    81.0890    20.9770    17.5640    15.0460    24.6780 
  164.6250    -8.3010     2.2800    77.1820    26.0800    21.0320    20.1260    24.6290 
  164.7500    -9.0130     2.2630    73.8400    33.5620    27.1540    42.2550    24.6270 
  164.8750    -9.8600     2.2510    72.2700    43.0180    36.1870    83.3260    24.6580 
  165.0000   -10.8000     2.2470    72.9610    54.1680    47.4430    97.2230    24.6850 
  165.1250   -11.7410     2.2530    75.2300    65.9680    58.6970    76.1650    24.5940 
  165.2500   -12.5060     2.2620    76.4900    75.9490    67.6890    61.9060    24.2670 
  165.3750   -13.1860     2.2690    74.5650    82.4990    74.0490    50.8280    23.8080 
  165.5000   -13.8200     2.2720    70.6680    85.7110    78.5810    42.2980    23.6050 
  165.6250   -14.3600     2.2700    70.1200    85.9680    81.1910    45.7410    23.8970 
  165.7500   -14.7710     2.2660    71.5540    83.2830    80.8610    55.8370    24.3460 
  165.8750   -14.9970     2.2650    72.9380    77.3670    76.6930    64.1490    24.6480 
  166.0000   -15.0840     2.2690    74.3590    69.2390    69.3890    66.1820    24.7960 
  166.1250   -15.1510     2.2780    77.1120    60.9610    61.0990    59.2780    24.8840 
  166.2500   -15.2600     2.2870    78.4350    54.3560    54.1080    48.7780    24.9400 
  166.3750   -15.4200     2.2910    77.1980    50.1550    49.3740    39.8390    24.9380 
  166.5000   -15.6160     2.2910    78.3010    48.4460    47.1070    39.5910    24.9310 
  166.6250   -15.7460     2.2890    82.0530    49.3730    47.4330    41.1540    24.7910 
  166.7500   -15.9360     2.2910    82.7190    52.3740    49.7550    41.6270    24.6180 
  166.8750   -16.1800     2.2970    79.9070    57.4890    54.0830    44.7320    24.5600 
  167.0000   -16.4280     2.3050    76.5910    65.0160    60.6110    49.3880    24.6810 
  167.1250   -16.7940     2.3090    75.2450    76.2470    70.5340    55.7470    24.7820 
  167.2500   -17.1800     2.3060    73.3120    91.7890    84.8210    68.0040    24.8460 
  167.3750   -17.5260     2.2960    70.0490   112.5940   104.8480    97.5870    24.8960 
  167.5000   -17.8850     2.2800    67.6530   138.8570   130.9210   125.4190    24.9990 
  167.6250   -18.2890     2.2640    67.7010   169.3700   161.5170   129.2090    25.0870 
  167.7500   -18.7100     2.2500    67.3090   199.5090   191.3680   137.3460    25.0470 
  167.8750   -19.2550     2.2380    64.4780   225.2730   215.9760   162.3200    24.8870 
  168.0000   -19.8670     2.2280    60.3530   244.3400   233.0730   187.9550    24.6240 
  168.1250   -20.5130     2.2180    57.9860   256.2960   243.0670   195.2600    24.4670 
  168.2500   -21.1780     2.2120    58.3090   264.6690   250.0090   192.8520    24.7100 
  168.3750   -21.6990     2.2120    59.8370   271.6960   255.8140   196.1080    25.0530 
  168.5000   -22.1490     2.2180    61.1630   279.1580   262.0610   203.6520    25.2400 
  168.6250   -22.5600     2.2270    60.9070   288.6130   271.0310   200.8180    25.2570 
  168.7500   -22.8640     2.2320    60.1970   299.3070   282.6500   197.5070    25.2860 
  168.8750   -23.1190     2.2310    58.6470   308.4370   294.2580   203.6680    25.3100 
  169.0000   -23.2740     2.2250    56.2060   311.7350   300.8220   219.8220    25.3300 
  169.1250   -23.2550     2.2200    56.5240   304.2140   295.4700   242.9740    25.3090 
  169.2500   -23.0610     2.2180    59.9110   288.5990   279.8470   255.9560    25.2590 
  169.3750   -22.6720     2.2200    63.2450   270.1860   259.3920   242.2270    25.1760 
  169.5000   -22.0960     2.2260    64.4410   255.7530   241.7900   199.0010    25.1090 
  169.6250   -21.3110     2.2330    66.6620   253.3470   236.1070   150.0030    25.1370 
  169.7500   -20.4930     2.2390    69.8960   264.9190   244.6990   137.5900    25.1370 
  169.8750   -19.7040     2.2400    70.3270   291.5050   268.4310   146.8260    25.0830 
  170.0000   -18.8490     2.2340    65.8040   331.6190   305.7860   193.0200    24.9930 
  170.1250   -17.9260     2.2200    58.8560   378.9580   350.9940   252.3700    24.9710 
  170.2500   -17.2030     2.2030    54.6040   419.5540   389.6430   299.6420    24.9980 
  170.3750   -16.6190     2.1880    54.1810   442.6680   409.3520   318.0280    25.1570 
  170.5000   -16.2150     2.1810    57.2490   445.1140   406.1230   323.5820    25.4400 
  170.6250   -16.0970     2.1840    60.4760   432.9790   386.9770   307.6020    25.6560 
  170.7500   -16.0020     2.1890    62.2140   421.9940   368.5560   273.4400    25.7180 
  170.8750   -15.8870     2.1900    64.1130   422.3520   360.6790   246.0680    25.6940 
  171.0000   -16.0090     2.1810    65.6770   440.5530   369.4270   232.5490    25.6730 
  171.1250   -16.2550     2.1640    62.9800   481.5480   401.0820   254.9340    25.7230 
  171.2500   -16.5740     2.1490    56.2040   531.9990   448.7610   309.8800    25.7710 
  171.3750   -17.0230     2.1400    50.7560   567.8530   495.8310   376.0580    25.7270 
  171.5000   -17.3460     2.1430    50.5520   561.3690   511.4140   417.4630    25.5400 
  171.6250   -17.5640     2.1570    55.0210   496.7230   463.7940   418.4120    25.3480 
  171.7500   -17.5020     2.1810    59.3820   407.7930   383.4400   393.5240    25.2540 
  171.8750   -17.2860     2.2090    61.6550   324.7600   305.4320   313.6210    25.1770 
  172.0000   -16.9670     2.2360    62.3840   262.5700   247.7870   216.3380    25.0470 
  172.1250   -16.5210     2.2550    62.7920   220.5130   211.4490   161.4590    24.9520 
  172.2500   -16.0620     2.2650    64.7980   185.7750   182.4720   150.6900    24.8750 
  172.3750   -15.6730     2.2700    68.4550   153.1470   153.3710   152.3560    24.7820 
