~V
VERS. 2.00: Ver 2.00
~W
STRT.M 53.0000:
STOP.M 246.0000:
STEP.M 0.1250:
NULL. -999.2500:
UWI. F10192:
~C
DEPT.M :
DEN.GM/CC :
GR.API :
RML.OHMM :
RI. :
RXO.OHMM :
CALI.CM :
SP.MV :
~A
# ...
   86.7500     2.1750    60.2240    10.1930     7.1540     9.6050    24.5810   -28.2070 
   86.8750     2.1780    67.5830    10.2150     7.1830     9.1870    24.6720   -27.1030 
   87.0000     2.1840    72.3590    10.1070     7.1380     8.9410    24.6900   -26.0210 
   87.1250     2.1970    71.5470     9.8320     6.9890     8.9450    24.7200   -25.0000 
   87.2500     2.2160    72.6930     9.4270     6.7400     8.8410    24.7510   -24.0830 
   87.3750     2.2320    77.1340     9.0260     6.4720     8.1950    24.6090   -23.2570 
   87.5000     2.2390    78.8280     8.7170     6.2390     7.1460    24.2180   -22.5460 
   87.6250     2.2360    76.4350     8.5350     6.0730     6.7030    23.8370   -21.9790 
   87.7500     2.2300    75.9150     8.4850     5.9910     6.9940    23.5990   -21.6080 
   87.8750     2.2270    80.3000     8.5290     5.9790     7.3020    23.4320   -21.4450 
   88.0000     2.2280    85.8620     8.6670     6.0360     7.0840    23.3820   -21.4970 
   88.1250     2.2270    86.8000     8.8970     6.1570     6.6530    23.4280   -21.7100 
   88.2500     2.2220    82.0930     9.1820     6.3160     6.6940    23.4560   -21.9970 
   88.3750     2.2170    77.5750     9.3970     6.4470     7.4380    23.4380   -22.2900 
   88.5000     2.2180    76.1500     9.3970     6.4660     8.4130    23.4580   -22.5330 
   88.6250     2.2320    78.1970     9.0920     6.3090     8.5140    23.5830   -22.7540 
   88.7500     2.2620    79.5450     8.5990     6.0100     7.6740    23.7870   -23.0030 
   88.8750     2.2980    82.0720     8.2970     5.7690     7.1650    24.0150   -23.2420 
   89.0000     2.3310    87.2620     8.4820     5.7600     6.7320    24.2160   -23.5090 
   89.1250     2.3580    91.1750     9.2820     6.0930     7.0110    24.3540   -23.8520 
   89.2500     2.3800    86.8760    10.6330     6.8270     9.6930    24.3910   -24.4030 
   89.3750     2.3830    79.6510    12.0090     7.7360    15.8420    24.3220   -25.1430 
   89.5000     2.3470    76.6200    12.8590     8.4980    20.5890    24.1480   -26.0440 
   89.6250     2.2740    75.4580    12.7890     8.7800    16.4610    23.9300   -27.0200 
   89.7500     2.2080    69.7690    11.8630     8.4550    11.7130    23.8330   -27.9800 
   89.8750     2.1720    63.5170    10.8690     7.9420    10.3150    23.8520   -28.8730 
   90.0000     2.1610    62.1880    10.3190     7.5750    10.2360    23.9530   -29.6650 
   90.1250     2.1710    65.6350    10.3870     7.5290    10.3220    24.0830   -30.3220 
   90.2500     2.2030    68.4260    10.9520     7.8280    10.5580    24.2340   -30.7460 
   90.3750     2.2300    67.7930    11.5360     8.2200    11.0100    24.4080   -30.9750 
   90.5000     2.2250    63.4380    11.7930     8.4660    11.2980    24.5900   -31.0490 
   90.6250     2.1930    59.5370    11.5580     8.4030    10.9160    24.7210   -31.0060 
   90.7500     2.1670    61.1920    10.9000     8.0120    10.2930    24.7970   -30.8550 
   90.8750     2.1550    66.3640    10.1810     7.5140     9.8130    24.8720   -30.6670 
   91.0000     2.1490    70.8610     9.6230     7.0630     9.3960    24.9340   -30.4430 
   91.1250     2.1430    71.1080     9.3100     6.7440     9.0130    24.9300   -30.2310 
   91.2500     2.1390    69.9740     9.2200     6.5840     8.7020    24.9450   -30.0780 
   91.3750     2.1390    71.4710     9.2080     6.5100     8.5960    24.9690   -29.9250 
   91.5000     2.1410    73.5610     9.2110     6.4810     8.6260    25.0400   -29.7910 
   91.6250     2.1440    75.2730     9.2220     6.4780     8.6260    25.0890   -29.7180 
   91.7500     2.1450    75.8660     9.2650     6.5060     8.6750    25.0830   -29.7420 
   91.8750     2.1480    75.4980     9.3390     6.5610     8.8090    25.0390   -29.8160 
   92.0000     2.1550    73.3000     9.4230     6.6330     9.0750    24.9870   -29.8980 
   92.1250     2.1620    70.2610     9.4870     6.7040     9.3660    25.0020   -29.9070 
   92.2500     2.1630    68.6280     9.4960     6.7480     9.4730    25.0230   -29.8060 
   92.3750     2.1570    69.2280     9.4530     6.7520     9.3600    24.9820   -29.6630 
   92.5000     2.1500    72.6270     9.3750     6.7160     9.1680    24.8910   -29.5010 
   92.6250     2.1450    77.7360     9.2880     6.6540     9.0510    24.8730   -29.2970 
   92.7500     2.1460    79.9070     9.2220     6.5840     9.1500    24.9070   -29.0100 
   92.8750     2.1490    77.0760     9.1790     6.5200     9.1980    24.9510   -28.6500 
   93.0000     2.1520    71.2440     9.1500     6.4610     9.1110    24.9660   -28.2440 
   93.1250     2.1530    66.7280     9.1170     6.4020     8.9490    24.9970   -27.8690 
   93.2500     2.1520    67.3600     9.0670     6.3340     8.6770    25.0180   -27.5800 
   93.3750     2.1500    70.6760     9.0120     6.2630     8.3550    25.0360   -27.3860 
   93.5000     2.1510    72.8980     8.9760     6.2010     8.0940    25.0260   -27.2520 
   93.6250     2.1540    72.9040     8.9800     6.1640     8.0710    24.9530   -27.1610 
   93.7500     2.1600    73.2440     9.0430     6.1670     8.3210    24.8090   -27.1530 
   93.8750     2.1620    74.1500     9.1460     6.2060     8.5740    24.6870   -27.2430 
   94.0000     2.1600    73.2890     9.2750     6.2780     8.7090    24.6060   -27.4570 
   94.1250     2.1540    69.3990     9.4230     6.3760     8.7660    24.5560   -27.7710 
   94.2500     2.1510    65.8320     9.5890     6.4950     8.8690    24.5000   -28.0990 
   94.3750     2.1520    67.6980     9.7630     6.6220     9.1660    24.4310   -28.4210 
   94.5000     2.1530    72.9210     9.9250     6.7420     9.6540    24.3440   -28.7060 
   94.6250     2.1500    75.7850    10.0480     6.8390    10.0820    24.2390   -28.9310 
   94.7500     2.1460    73.6160    10.0920     6.8880    10.3240    24.1730   -29.1000 
   94.8750     2.1460    71.6620    10.0550     6.8850    10.4160    24.1530   -29.2300 
   95.0000     2.1490    71.8460     9.9440     6.8300    10.3510    24.1120   -29.2860 
   95.1250     2.1500    72.0600     9.7780     6.7290    10.1620    23.9960   -29.2110 
   95.2500     2.1480    71.7720     9.5910     6.5980     9.9720    23.8510   -29.0150 
   95.3750     2.1440    72.8090     9.4290     6.4680     9.7140    23.7290   -28.7470 
   95.5000     2.1390    74.4360     9.3200     6.3640     9.3200    23.6430   -28.4710 
   95.6250     2.1380    74.0320     9.2690     6.3000     8.9530    23.5430   -28.2230 
   95.7500     2.1490    70.6280     9.2690     6.2830     8.8510    23.4260   -27.9460 
   95.8750     2.1650    66.8310     9.2920     6.2970     8.8750    23.3390   -27.6180 
   96.0000     2.1800    65.3710     9.3160     6.3250     8.7730    23.3000   -27.2720 
   96.1250     2.1850    67.7080     9.3320     6.3520     8.5520    23.2780   -26.9650 
   96.2500     2.1830    69.6300     9.3420     6.3710     8.5690    23.2020   -26.7520 
   96.3750     2.1810    69.3190     9.3510     6.3820     8.8040    23.0930   -26.5720 
   96.5000     2.1840    69.8660     9.3500     6.3830     9.1000    23.0180   -26.4050 
   96.6250     2.1920    71.5830     9.3180     6.3640     9.3000    22.9880   -26.2570 
   96.7500     2.2010    70.4070     9.2250     6.3110     9.3570    22.9770   -26.1570 
   96.8750     2.2040    67.9200     9.0740     6.2220     9.1310    22.9810   -26.0990 
   97.0000     2.1950    68.3800     8.8910     6.1050     8.6660    22.9660   -26.0910 
   97.1250     2.1770    71.6780     8.7220     5.9820     8.3070    22.9240   -26.1410 
   97.2500     2.1570    74.0630     8.6310     5.8880     8.2390    22.8590   -26.2600 
   97.3750     2.1430    75.0640     8.6270     5.8450     8.2850    22.8500   -26.4460 
   97.5000     2.1310    73.5000     8.6960     5.8570     8.4440    23.0190   -26.6510 
   97.6250     2.1250    69.4000     8.8000     5.9150     8.6250    23.1990   -26.8250 
   97.7500     2.1280    66.5350     8.8760     5.9920     8.7130    23.0790   -26.9560 
   97.8750     2.1400    65.6780     8.8850     6.0500     8.8950    22.7180   -27.0870 
