~V
VERS. 2.00: Ver 2.00
~W
STRT.M 50.0000:
STOP.M 294.0000:
STEP.M 0.1250:
NULL. -999.2500:
UWI. F10104:
~C
DEPT.M :
GR.API :
RML.OHMM :
RI. :
RXO.OHMM :
CALI.CM :
DEN.GM/CC :
SP.MV :
~A
# ...
   83.7500    71.9720    10.7560     8.3350     9.5540    23.3820     2.1580   -20.5790 
   83.8750    69.2900    10.1550     7.8110     9.4170    23.3970     2.1610   -20.9080 
   84.0000    68.8110    10.0710     7.5760     9.5890    23.4310     2.1590   -21.2030 
   84.1250    71.0630    10.2680     7.5820    10.0580    23.4570     2.1540   -21.4050 
   84.2500    75.1320    10.4320     7.6710    10.5350    23.4990     2.1480   -21.5610 
   84.3750    79.7760    10.4590     7.7650    10.5630    23.5970     2.1420   -21.6710 
   84.5000    82.1160    10.3850     7.8350    10.0420    23.7890     2.1370   -21.7120 
   84.6250    80.1570    10.3410     7.9020     9.7700    23.9570     2.1360   -21.6770 
   84.7500    78.6430    10.3870     7.9970    10.0780    24.0240     2.1410   -21.5940 
   84.8750    79.3740    10.4910     8.1240    10.5600    24.0360     2.1510   -21.4740 
   85.0000    79.4760    10.5670     8.2520    11.0390    24.0390     2.1600   -21.3290 
   85.1250    77.7780    10.4940     8.3180    11.1350    24.0430     2.1620   -21.1600 
   85.2500    77.2620    10.3010     8.3010    11.2750    24.0450     2.1590   -20.9490 
   85.3750    77.4910    10.0700     8.2090    11.3610    24.0450     2.1510   -20.6910 
   85.5000    76.7600     9.8910     8.0690    11.3040    24.0450     2.1420   -20.3970 
   85.6250    77.7570     9.8430     7.9140    11.0130    24.0450     2.1340   -20.0450 
   85.7500    82.4560     9.9020     7.7640    10.8500    24.0450     2.1290   -19.6660 
   85.8750    87.6020    10.0150     7.6230    10.7890    24.0520     2.1280   -19.3000 
   86.0000    89.4960    10.0950     7.4920    10.3540    24.0770     2.1280   -18.9770 
   86.1250    91.2190    10.0740     7.3740     9.5090    24.1320     2.1300   -18.7780 
   86.2500    94.9400     9.9770     7.2840     8.6520    24.1720     2.1350   -18.7190 
   86.3750    97.3780     9.8570     7.2490     8.2710    24.1870     2.1460   -18.7920 
   86.5000    95.2090     9.8150     7.3000     8.1980    24.1880     2.1570   -19.0160 
   86.6250    89.4110     9.9740     7.4690     8.4410    24.1880     2.1620   -19.4190 
   86.7500    83.7780    10.2790     7.7040     8.9280    24.1880     2.1620   -19.9050 
   86.8750    80.2320    10.5950     7.9330     9.2900    24.1900     2.1560   -20.4230 
   87.0000    79.3200    10.7850     8.0760     9.1650    24.2030     2.1460   -20.9590 
   87.1250    82.2260    10.8010     8.0770     8.7030    24.2870     2.1370   -21.4780 
   87.2500    85.7250    10.7510     7.9980     8.5480    24.5360     2.1330   -21.9300 
   87.3750    87.2300    10.7130     7.9150     8.6810    24.6260     2.1350   -22.3370 
   87.5000    85.1300    10.7170     7.8800     9.0150    25.0000     2.1410   -22.6940 
   87.6250    78.3790    10.7190     7.9010     9.2170    25.5170     2.1430   -22.9890 
   87.7500    72.8490    10.6740     7.9210     9.3500    26.0330     2.1410   -23.2510 
   87.8750    73.6780    10.5970     7.8970     9.4920    26.3000     2.1350   -23.4940 
   88.0000    78.6230    10.5300     7.8220     9.6130    26.3330     2.1250   -23.6910 
   88.1250    79.3770    10.5360     7.7430     9.5290    26.3170     2.1140   -23.8350 
   88.2500    74.7010    10.6600     7.7360     9.4350    26.2000     2.1070   -23.9330 
   88.3750    69.7600    10.9730     7.8590     9.4650    25.9830     2.1100   -23.9760 
   88.5000    67.1840    11.5530     8.1630     9.5030    25.6670     2.1250   -23.9860 
   88.6250    67.2290    12.5010     8.7280     9.8440    25.5670     2.1540   -23.9560 
   88.7500    68.9720    13.6820     9.4990    10.4960    25.4000     2.1950   -23.9410 
   88.8750    70.6290    14.7960    10.3290    11.1060    25.1830     2.2470   -23.9360 
   89.0000    71.0870    15.3060    10.9050    11.1340    25.1330     2.2970   -23.9510 
   89.1250    72.0470    14.5200    10.7220    10.6120    24.8490     2.3080   -23.9920 
   89.2500    74.0360    12.8070     9.8620     9.9670    24.1920     2.2610   -24.0650 
   89.3750    74.5580    10.8920     8.7100     9.5000    24.2160     2.1840   -24.1940 
   89.5000    73.2650     9.4640     7.6990     9.3050    24.2700     2.1260   -24.3620 
   89.6250    73.4220     8.8950     7.1370     9.0580    24.3440     2.1090   -24.5660 
   89.7500    75.6720     8.8820     6.9620     8.7900    24.2910     2.1080   -24.7600 
   89.8750    76.3320     9.1660     7.0600     8.7810    24.1980     2.1050   -24.9360 
   90.0000    75.3900     9.5390     7.2900     9.1580    24.0390     2.0980   -25.0970 
   90.1250    74.6960     9.8780     7.5220     9.5310    23.8890     2.0890   -25.2180 
   90.2500    74.4090    10.1310     7.6920     9.6360    23.8290     2.0820   -25.3050 
   90.3750    74.2060    10.2750     7.7910     9.6820    23.8210     2.0770   -25.3330 
   90.5000    74.3470    10.3030     7.8330     9.8390    23.8220     2.0760   -25.2940 
   90.6250    74.9540    10.2170     7.8320     9.8740    23.8030     2.0850   -25.1940 
   90.7500    73.3300    10.1270     7.8070     9.7220    23.7630     2.1010   -25.0720 
   90.8750    69.2610    10.1130     7.7650     9.6410    23.7240     2.1160   -24.9460 
   91.0000    65.6410    10.1840     7.7180     9.6440    23.7250     2.1210   -24.8080 
   91.1250    66.5660    10.3110     7.6890     9.5310    23.7350     2.1170   -24.6600 
   91.2500    71.8110    10.4520     7.6890     9.5000    23.7400     2.1100   -24.5070 
   91.3750    77.1120    10.5560     7.7090     9.6770    23.7400     2.1030   -24.3530 
   91.5000    76.9970    10.5640     7.7210     9.8830    23.7400     2.0960   -24.2180 
   91.6250    73.8540    10.4300     7.6920     9.7580    23.7400     2.0890   -24.1100 
   91.7500    75.1410    10.2060     7.6260     9.4610    23.7400     2.0830   -24.0020 
   91.8750    79.9270     9.9370     7.5460     9.3270    23.7400     2.0800   -23.9130 
   92.0000    82.7470     9.6830     7.4790     9.2790    23.7400     2.0820   -23.8840 
   92.1250    80.7060     9.5480     7.4530     9.1670    23.7400     2.0920   -23.9670 
   92.2500    77.8640     9.5850     7.4760     9.0120    23.7410     2.1060   -24.1440 
   92.3750    76.5570     9.8150     7.5440     9.3300    23.7430     2.1160   -24.3810 
   92.5000    76.0600    10.1870     7.6350     9.8030    23.7470     2.1160   -24.6430 
   92.6250    75.7080    10.5520     7.7080     9.8330    23.7490     2.1100   -24.9230 
   92.7500    73.7800    10.7630     7.7330     9.5270    23.7500     2.1040   -25.2050 
   92.8750    71.4790    10.8040     7.7070     9.2130    23.7500     2.0990   -25.4610 
   93.0000    70.5570    10.7710     7.6500     8.9840    23.7500     2.0920   -25.6460 
   93.1250    71.3960    10.7570     7.5940     8.8980    23.7480     2.0840   -25.7180 
   93.2500    72.8000    10.7430     7.5530     8.8690    23.7360     2.0780   -25.7020 
   93.3750    75.3900    10.6650     7.5240     8.8990    23.7080     2.0760   -25.6400 
   93.5000    77.5980    10.4960     7.5000     8.7880    23.6960     2.0790   -25.5750 
   93.6250    76.8200    10.2850     7.4760     8.6900    23.7560     2.0830   -25.5050 
   93.7500    73.6700    10.1130     7.4490     8.6420    23.9110     2.0880   -25.4410 
   93.8750    69.9710     9.9810     7.4250     8.6790    24.1030     2.0960   -25.3960 
   94.0000    67.5880     9.8420     7.4080     8.8330    24.1880     2.1060   -25.3810 
   94.1250    67.3160     9.6750     7.4070     9.0230    24.2030     2.1090   -25.3860 
   94.2500    70.0830     9.5460     7.4320     8.9280    24.1970     2.1030   -25.3790 
   94.3750    74.3520     9.5240     7.5090     8.8430    24.1980     2.0960   -25.3360 
   94.5000    78.1940     9.6770     7.6750     8.9300    24.1980     2.0980   -25.2430 
   94.6250    80.6390    10.1190     7.9980     9.5280    24.1980     2.1150   -25.1110 
   94.7500    80.1440    10.7630     8.4480    11.1170    24.1980     2.1480   -24.9330 
   94.8750    77.9450    11.3440     8.9060    13.8970    24.2050     2.1920   -24.6860 
