~V
VERS. 2.00: Ver 2.00
~W
STRT.M 58.0000:
STOP.M 228.0000:
STEP.M 0.1250:
NULL. -999.2500:
UWI. F10151:
~C
DEPT.M :
SP.MV :
GR.API :
RML.OHMM :
RI. :
RXO.OHMM :
CALI.CM :
DEN.GM/CC :
~A
# ...
  181.7500    -5.6350    85.7220     7.5310     5.8890     7.2340    24.5750     2.3760 
  181.8750    -6.0540    89.7990     7.9820     6.2630     7.6970    24.5710     2.3730 
  182.0000    -6.4780    92.5420     8.5040     6.6960     8.2330    24.5670     2.3720 
  182.1250    -6.7490    90.8240     9.0360     7.1520     8.5060    24.5150     2.3810 
  182.2500    -6.8660    89.7870     9.5020     7.5780     8.8450    24.4530     2.4020 
  182.3750    -6.8240    90.4560     9.8400     7.9330     9.3360    24.4070     2.4250 
  182.5000    -6.6580    90.0530    10.0100     8.1830     9.4540    24.3120     2.4390 
  182.6250    -6.3880    87.9710     9.9690     8.2730     9.3150    24.2860     2.4290 
  182.7500    -6.0140    86.4310     9.7680     8.2150     8.9010    24.2780     2.4030 
  182.8750    -5.6000    85.8020     9.4480     8.0300     9.2500    24.2630     2.3730 
  183.0000    -5.1770    85.7510     9.0660     7.7650     9.2990    24.3090     2.3490 
  183.1250    -4.8310    88.0710     8.7010     7.4940     8.9420    24.4410     2.3390 
  183.2500    -4.6070    90.7160     8.4210     7.2870     8.0430    24.5510     2.3390 
  183.3750    -4.4790    91.4800     8.2540     7.1690     7.6110    24.6130     2.3450 
  183.5000    -4.4530    90.8800     8.1800     7.1320     7.6300    24.6130     2.3540 
  183.6250    -4.4510    93.5030     8.1310     7.1380     7.5860    24.5790     2.3620 
  183.7500    -4.4850    97.1330     8.0310     7.1250     7.5060    24.5590     2.3670 
  183.8750    -4.5140    98.7910     7.8590     7.0670     7.3350    24.5560     2.3710 
  184.0000    -4.5430    98.8110     7.6550     6.9810     7.1460    24.5600     2.3750 
  184.1250    -4.5540    99.4660     7.5150     6.9400     6.8490    24.5520     2.3790 
  184.2500    -4.5010   101.0840     7.4890     6.9970     6.8340    24.5150     2.3830 
  184.3750    -4.3910   101.1100     7.5710     7.1600     7.0520    24.4720     2.3880 
  184.5000    -4.1770    97.6580     7.6970     7.3790     7.6530    24.5010     2.3960 
  184.6250    -3.9520    93.2220     7.7730     7.5510     8.4240    24.5360     2.4060 
  184.7500    -3.7100    90.8630     7.7580     7.6080     8.5120    24.5050     2.4160 
  184.8750    -3.4440    91.6730     7.6650     7.5440     7.8840    24.4210     2.4240 
  185.0000    -3.1710    92.7290     7.5370     7.3950     7.2230    24.2690     2.4270 
  185.1250    -2.9930    92.1300     7.4150     7.1990     7.1600    24.0900     2.4230 
  185.2500    -2.8350    92.0190     7.3110     6.9930     7.2380    24.0750     2.4170 
  185.3750    -2.7000    93.1440     7.2240     6.8030     7.1830    24.0940     2.4130 
  185.5000    -2.6140    93.4220     7.1460     6.6470     7.1670    24.0410     2.4130 
  185.6250    -2.5100    92.8320     7.1000     6.5380     7.1390    24.0300     2.4190 
  185.7500    -2.4700    93.5880     7.1610     6.5140     7.7820    24.0550     2.4280 
  185.8750    -2.5300    94.7330     7.4810     6.6850     8.5590    24.0400     2.4390 
  186.0000    -2.7230    92.1340     8.3360     7.2250     9.0140    24.0330     2.4470 
  186.1250    -3.0560    84.3190    10.5030     8.6070     9.4170    24.1760     2.4380 
  186.2500    -3.5780    76.1350    14.5110    11.3580    12.6770    24.3560     2.4010 
  186.3750    -4.2690    69.7730    21.0280    16.3600    25.9910    24.5250     2.3330 
  186.5000    -5.0870    66.9870    30.5320    24.5800    48.9730    24.7400     2.2500 
  186.6250    -6.0230    67.2300    42.9880    36.8580    70.4710    24.8720     2.1810 
  186.7500    -6.9010    66.3780    56.0440    50.7800    74.9840    24.8400     2.1480 
  186.8750    -7.7210    64.4180    67.2870    63.2840    68.3200    24.6100     2.1490 
  187.0000    -8.4010    64.3250    74.6160    72.0160    62.4930    24.2300     2.1690 
  187.1250    -8.9050    68.1340    75.5470    74.7780    66.4780    23.8800     2.1910 
  187.2500    -9.2370    70.8990    70.5700    71.3980    78.1560    23.7220     2.2080 
  187.3750    -9.3720    70.3920    60.9970    62.3260    88.9060    23.7350     2.2270 
  187.5000    -9.4070    70.1260    49.6390    50.5100    83.1290    23.8320     2.2520 
  187.6250    -9.4020    73.8320    40.2970    40.4120    47.5510    23.8890     2.2790 
  187.7500    -9.4930    80.0740    34.7930    34.1360    27.3450    23.9190     2.2980 
  187.8750    -9.7340    84.0220    33.5480    32.0950    25.1790    23.9910     2.3020 
  188.0000   -10.0990    80.8250    36.3680    34.1180    32.6250    24.1630     2.2890 
  188.1250   -10.5670    73.5780    43.3150    40.6390    44.0500    24.3220     2.2680 
  188.2500   -11.1530    67.9730    52.7170    50.5110    52.1340    24.4620     2.2480 
  188.3750   -11.8210    65.6790    62.9370    62.1750    59.0300    24.5740     2.2310 
  188.5000   -12.4830    65.1560    72.2070    73.2040    65.1560    24.6620     2.2180 
  188.6250   -13.0980    64.8780    79.1220    81.4900    74.5760    24.7410     2.2080 
  188.7500   -13.5850    65.1030    83.8360    87.6440    77.7300    24.9420     2.1990 
  188.8750   -13.9280    65.6330    85.8890    91.5190    77.1050    25.1020     2.1940 
  189.0000   -14.1560    67.3100    84.2480    91.4220    81.2540    25.6490     2.1980 
  189.1250   -14.2570    69.9530    77.8890    85.1500    94.1650    26.3420     2.2110 
  189.2500   -14.2940    71.4850    69.2470    75.3590    96.8900    26.4880     2.2270 
  189.3750   -14.3400    72.9350    61.0830    65.4820    69.6270    25.5230     2.2340 
  189.5000   -14.4630    74.1480    55.8550    58.5190    44.1460    24.8490     2.2270 
  189.6250   -14.6590    73.0150    55.8240    57.2260    40.0840    24.8120     2.2080 
  189.7500   -14.9890    70.7650    60.4240    61.4080    65.9410    24.7540     2.1900 
  189.8750   -15.3570    69.5400    70.4160    70.6710    88.2100    24.6300     2.1850 
  190.0000   -15.8220    68.5760    85.9830    83.7290    85.3270    24.4540     2.1940 
  190.1250   -16.4480    65.6260   103.6150    97.7850    84.2740    24.1930     2.2060 
  190.2500   -17.0880    62.7660   117.1170   109.0880    88.7470    23.9470     2.2090 
  190.3750   -17.7460    63.0600   124.4800   116.0270    95.0960    23.9340     2.1980 
  190.5000   -18.4050    65.0300   127.6240   119.3990   111.0400    24.2630     2.1810 
  190.6250   -19.0100    66.0640   128.9480   120.8730   113.2000    24.6290     2.1670 
  190.7500   -19.5870    66.9230   129.6790   121.6190   112.2460    24.8430     2.1640 
  190.8750   -20.1930    67.0550   130.2100   121.8850   101.6680    25.1460     2.1720 
  191.0000   -20.7250    64.9450   130.6450   121.9370    94.7610    25.6200     2.1870 
  191.1250   -21.1800    62.6840   130.9680   121.9220   101.5880    25.9830     2.2060 
  191.2500   -21.6640    64.8940   131.0640   121.7900   107.0550    25.6800     2.2200 
  191.3750   -22.1330    69.4730   130.8020   121.4550   105.7780    25.7050     2.2260 
  191.5000   -22.5960    71.0970   130.2110   120.9500    96.8070    25.5330     2.2230 
  191.6250   -23.0590    69.4270   129.7650   120.6030   101.0360    25.1620     2.2160 
  191.7500   -23.4770    68.3500   130.3690   121.1370   102.6490    24.9970     2.2140 
  191.8750   -23.8950    68.4930   133.1000   123.5510   100.2860    24.9460     2.2170 
  192.0000   -24.3390    68.6130   139.0030   128.8530    98.5850    25.0570     2.2210 
  192.1250   -24.7890    67.5340   149.5370   138.5370   101.6240    25.2810     2.2200 
  192.2500   -25.1720    65.8560   163.9820   152.2660   110.2980    25.4140     2.2130 
  192.3750   -25.5360    64.2760   180.9410   169.1670   138.2590    25.2180     2.2040 
  192.5000   -25.8070    63.2070   197.4000   186.6600   169.8720    25.0540     2.1980 
  192.6250   -26.0420    61.3740   207.7020   199.1950   168.2340    25.2110     2.1990 
  192.7500   -26.2870    58.9090   208.9370   202.9350   177.9590    26.1710     2.2030 
  192.8750   -26.4410    58.1500   200.7990   196.7640   173.1580    27.9250     2.2060 
