~V
VERS. 2.00: Ver 2.00
~W
STRT.M 52.0000:
STOP.M 322.0000:
STEP.M 0.1250:
NULL. -999.2500:
UWI. F10105:
~C
DEPT.M :
GR.API :
RML.OHMM :
RI. :
RXO.OHMM :
CALI.CM :
DEN.GM/CC :
SP.MV :
~A
# ...
  153.2500    92.8770     6.4010     5.8720     6.0250    25.5880     2.3340    -1.8860 
  153.3750    95.1240     5.9410     5.4390     5.6050    25.6950     2.3000    -2.0310 
  153.5000    97.9050     5.6650     5.1340     5.4490    25.7880     2.2630    -2.2620 
  153.6250    98.0030     5.6280     5.0410     5.4270    25.8220     2.2340    -2.4910 
  153.7500    97.6660     5.7270     5.0850     5.6830    25.7580     2.2140    -2.6260 
  153.8750    98.1180     5.8790     5.1990     5.9170    25.6580     2.2020    -2.7230 
  154.0000    97.8870     6.0210     5.3290     6.0120    25.6170     2.1960    -2.8040 
  154.1250    97.1530     6.1100     5.4380     5.7820    25.7580     2.1920    -2.7070 
  154.2500    96.7580     6.1450     5.5110     5.5390    25.9300     2.1900    -2.5610 
  154.3750    96.3010     6.1360     5.5420     5.6480    26.0260     2.1970    -2.4980 
  154.5000    96.7660     6.0940     5.5330     5.8460    25.9230     2.2180    -2.4100 
  154.6250   100.0860     6.0410     5.4920     5.7770    25.8590     2.2490    -2.2710 
  154.7500   101.7980     6.0070     5.4480     5.5460    25.8420     2.2720    -2.1230 
  154.8750    98.6400     6.0160     5.4340     5.6500    25.8040     2.2770    -1.9610 
  155.0000    93.8250     6.0760     5.4680     5.8440    25.7300     2.2660    -1.8360 
  155.1250    93.2180     6.1710     5.5530     5.9270    25.7180     2.2530    -1.8490 
  155.2500    95.2660     6.2420     5.6410     6.0360    25.7620     2.2480    -1.8980 
  155.3750    96.4290     6.2430     5.6780     6.3360    25.7790     2.2480    -1.9570 
  155.5000    95.9270     6.1590     5.6170     6.2490    25.7230     2.2460    -2.1510 
  155.6250    96.1130     6.0290     5.4720     5.9910    25.6290     2.2390    -2.4480 
  155.7500    97.5080     5.9440     5.3370     5.7310    25.6010     2.2340    -2.7300 
  155.8750    98.7420     5.9710     5.2830     5.4380    25.6590     2.2350    -3.0120 
  156.0000    98.4820     6.1280     5.3470     5.2530    25.7630     2.2420    -3.3590 
  156.1250    96.1670     6.3690     5.5260     5.9320    25.7410     2.2500    -3.8570 
  156.2500    91.9130     6.5680     5.7200     7.0280    25.6110     2.2520    -4.4780 
  156.3750    86.7620     6.6420     5.8230     7.5190    25.5060     2.2460    -5.1870 
  156.5000    83.8650     6.6040     5.7870     7.1750    25.4630     2.2290    -5.8500 
  156.6250    84.8540     6.6380     5.7240     6.8130    25.4640     2.2010    -6.3840 
  156.7500    86.4750     6.9880     5.8690     6.6360    25.4350     2.1750    -6.9130 
  156.8750    88.7350     7.8220     6.4180     6.6350    25.3780     2.1670    -7.4420 
  157.0000    91.2900     9.1450     7.4950     7.8950    25.3520     2.1920    -7.8470 
  157.1250    91.6520    10.6830     9.1110    13.3310    25.5490     2.2580    -8.1000 
  157.2500    87.0970    11.8230    10.7250    21.6510    25.8200     2.3340    -8.3990 
  157.3750    79.5970    12.1810    11.6190    20.2080    26.0120     2.3880    -8.7300 
  157.5000    74.5250    11.7370    11.3490    13.1420    26.1160     2.3920    -9.1290 
  157.6250    73.5580    10.7400    10.1580    10.7190    26.0920     2.3400    -9.6850 
  157.7500    75.8270     9.6940     8.9000     9.7460    26.0750     2.2640   -10.2110 
  157.8750    81.2160     8.9180     7.9610     9.2310    26.1170     2.1960   -10.6760 
  158.0000    86.8160     8.5800     7.4460     8.9560    26.1810     2.1560   -11.1940 
  158.1250    88.0430     8.6190     7.3130     9.0180    26.2050     2.1560   -11.6740 
  158.2500    84.9140     8.7110     7.3120     9.1810    26.1870     2.1820   -11.9860 
  158.3750    81.6080     8.7160     7.2830     9.0610    26.1280     2.2170   -12.1790 
  158.5000    80.0070     8.6330     7.1670     8.9260    26.0660     2.2410   -12.2240 
  158.6250    78.0540     8.6940     7.0790     9.1820    26.0380     2.2340   -12.0670 
  158.7500    75.3140     9.2590     7.2660     9.2760    26.0360     2.2030   -11.9250 
  158.8750    73.0690    10.7620     8.0490     9.2500    26.0200     2.1690   -11.7970 
  159.0000    73.7000    13.7150     9.9280    10.6820    26.0210     2.1610   -11.5020 
  159.1250    77.2200    19.0840    14.1720    18.6650    26.0990     2.2020   -10.9710 
  159.2500    79.2930    26.5850    21.4380    36.2280    26.1860     2.2820   -10.2540 
  159.3750    79.3910    34.5420    31.3920    56.4040    26.1850     2.3800    -9.3850 
  159.5000    80.7740    39.4900    40.3830    65.0610    26.1360     2.4760    -8.4260 
  159.6250    82.6420    37.3660    40.4380    75.6230    26.1000     2.5470    -7.4350 
  159.7500    81.3520    30.3010    32.9490    66.6760    26.1150     2.5870    -6.4690 
  159.8750    78.7750    22.0120    23.7710    38.9670    26.1070     2.5860    -5.5440 
  160.0000    79.4050    15.4400    16.6100    17.5910    26.0030     2.5460    -4.7580 
  160.1250    81.8260    11.6350    12.3560    10.5280    25.8830     2.4750    -4.3130 
  160.2500    80.2060     9.4980     9.8030     9.8740    25.8340     2.4000    -4.0430 
  160.3750    76.2880     8.4570     8.3550    10.3430    25.8480     2.3390    -3.8150 
  160.5000    75.0380     8.2100     7.7130     9.2530    25.9070     2.2990    -3.6800 
  160.6250    77.6590     8.7360     7.8830     7.5490    25.9810     2.2820    -3.6380 
  160.7500    80.6150     9.8450     8.7260     7.5190    26.0130     2.2830    -3.5900 
  160.8750    82.4240    11.3570    10.1920    10.2630    26.0180     2.3040    -3.6120 
  161.0000    83.3870    12.8810    12.0390    17.6460    26.0160     2.3460    -3.6980 
  161.1250    82.1510    13.6860    13.4790    20.1070    26.0210     2.3990    -3.7780 
  161.2500    78.7620    13.4460    13.6850    17.8470    26.0310     2.4400    -3.9390 
  161.3750    75.8890    12.2890    12.5770    14.1290    26.0380     2.4540    -4.1640 
  161.5000    76.3180    10.7630    10.8510    10.5580    26.0110     2.4350    -4.3950 
  161.6250    78.9860     9.6300     9.4060     7.9480    25.9870     2.3960    -4.7050 
  161.7500    79.6950     9.2530     8.6170     7.5200    26.0330     2.3610    -5.0730 
  161.8750    78.4460     9.7100     8.5700     8.5510    26.1520     2.3430    -5.3580 
  162.0000    76.9030    10.9390     9.2660    10.5840    26.2760     2.3440    -5.5720 
  162.1250    74.7520    12.8500    10.7700    11.5460    26.3540     2.3630    -5.8050 
  162.2500    72.8670    15.0270    12.7890    12.6620    26.3810     2.3880    -5.9820 
  162.3750    73.4620    17.0810    14.9700    16.3570    26.3490     2.4160    -6.1040 
  162.5000    76.4950    18.6150    16.8280    20.3790    26.3350     2.4420    -6.2630 
  162.6250    77.2020    19.2260    17.8010    20.5900    26.3830     2.4560    -6.4740 
  162.7500    75.1140    19.0790    17.9300    19.9490    26.4200     2.4550    -6.7190 
  162.8750    73.9110    18.4330    17.4300    19.3200    26.4030     2.4420    -7.0520 
  163.0000    76.0930    17.6180    16.6340    17.8840    26.3200     2.4270    -7.4590 
  163.1250    78.9050    16.9560    15.8860    16.2750    26.3130     2.4220    -7.7780 
  163.2500    79.8980    16.5790    15.3660    15.5820    26.3490     2.4240    -8.0260 
  163.3750    78.4020    16.5130    15.1220    16.1060    26.4050     2.4300    -8.3150 
  163.5000    75.8440    16.7200    15.1620    16.8770    26.4610     2.4340    -8.5620 
  163.6250    76.6740    17.1320    15.4810    17.0560    26.5040     2.4310    -8.6420 
  163.7500    79.4810    17.5630    15.9270    16.6270    26.5520     2.4180    -8.6670 
  163.8750    80.7110    17.8410    16.3290    16.8730    26.6280     2.3940    -8.6310 
  164.0000    79.0140    17.8120    16.4910    17.3110    26.5920     2.3610    -8.4570 
  164.1250    76.4880    17.3500    16.2040    17.5250    26.3890     2.3340    -8.2880 
  164.2500    74.1960    16.6120    15.5660    17.2660    26.2300     2.3260    -8.2320 
  164.3750    71.2150    15.7900    14.7530    16.1540    26.1980     2.3420    -8.2320 
