~V
VERS. 2.00: Ver 2.00
~W
STRT.M 50.0000:
STOP.M 205.0000:
STEP.M 0.1250:
NULL. -999.2500:
UWI. F10148:
~C
DEPT.M :
GR.API :
RML.OHMM :
RI. :
RXO.OHMM :
CALI.CM :
SP.MV :
DEN.GM/CC :
~A
# ...
   72.5000    71.2430     8.1410     6.2720     8.6420    22.9890   -25.4790     2.1220 
   72.6250    69.5550     7.9980     6.1970     8.9340    22.9810   -24.9330     2.1380 
   72.7500    73.4490     7.8340     6.0930     8.9950    22.9110   -24.3320     2.1520 
   72.8750    80.7990     7.6250     5.9530     8.7410    22.7720   -23.6710     2.1630 
   73.0000    85.2600     7.3640     5.7740     8.5540    23.0580   -22.9890     2.1680 
   73.1250    84.8490     7.0580     5.5580     7.8500    24.2760   -22.3330     2.1670 
   73.2500    82.8390     6.7600     5.3360     7.1500    25.5080   -21.7110     2.1670 
   73.3750    82.2920     6.5150     5.1350     6.6320    25.7980   -21.1750     2.1690 
   73.5000    83.4480     6.3530     4.9740     6.3720    25.8140   -20.7620     2.1730 
   73.6250    85.8660     6.2980     4.8750     6.0810    25.8130   -20.5130     2.1770 
   73.7500    87.1760     6.3190     4.8270     6.1110    25.8360   -20.4050     2.1750 
   73.8750    84.6830     6.3970     4.8220     6.3180    25.8820   -20.4430     2.1680 
   74.0000    80.4870     6.5170     4.8400     6.4540    25.9260   -20.6090     2.1600 
   74.1250    79.9090     6.6480     4.8670     6.3840    25.8680   -20.8880     2.1580 
   74.2500    80.9960     6.7460     4.8950     6.3570    25.8020   -21.2560     2.1640 
   74.3750    80.0760     6.7830     4.9240     6.4120    25.7330   -21.6790     2.1770 
   74.5000    77.7560     6.7710     4.9570     6.4530    25.6520   -22.1410     2.1870 
   74.6250    76.6080     6.7740     5.0070     6.3850    25.5090   -22.6740     2.1870 
   74.7500    78.1730     6.8680     5.0880     6.1930    24.8200   -23.2740     2.1730 
   74.8750    82.8110     7.0910     5.2220     6.1440    22.7220   -23.9370     2.1520 
   75.0000    86.4440     7.4250     5.4180     6.3170    20.6260   -24.6560     2.1290 
   75.1250    83.5620     7.8010     5.6730     6.5840    20.4360   -25.3840     2.1120 
   75.2500    78.1540     8.1260     5.9400     6.8010    21.4450   -26.0690     2.1010 
   75.3750    74.8900     8.3510     6.1710     6.9580    22.1580   -26.6950     2.0940 
   75.5000    74.1510     8.4660     6.3270     6.9920    22.1670   -27.2560     2.0890 
   75.6250    72.2280     8.5070     6.3850     6.8300    21.8890   -27.6800     2.0840 
   75.7500    70.1760     8.5590     6.3980     6.8070    21.8970   -27.9770     2.0790 
   75.8750    68.6160     8.6740     6.4230     6.8370    22.0350   -28.1260     2.0740 
   76.0000    66.5170     8.8830     6.5140     6.7560    22.1280   -28.1410     2.0670 
   76.1250    64.2340     9.2190     6.7170     6.5210    21.8650   -28.0730     2.0580 
   76.2500    64.1440     9.6340     7.0010     6.3350    21.3850   -27.9340     2.0480 
   76.3750    67.4440    10.0200     7.2990     6.3300    21.0410   -27.7170     2.0390 
   76.5000    72.3460    10.2040     7.5030     6.6000    21.0070   -27.4460     2.0340 
   76.6250    73.8020     9.9930     7.4670     7.0710    21.5450   -27.1380     2.0380 
   76.7500    73.3800     9.5000     7.2130     7.4050    22.3400   -26.7960     2.0510 
   76.8750    74.1120     8.9240     6.8430     7.2620    23.0180   -26.4630     2.0740 
   77.0000    75.3420     8.4780     6.5080     6.6070    23.5760   -26.1580     2.1030 
   77.1250    74.4820     8.3330     6.3630     5.9550    23.7550   -25.8600     2.1330 
   77.2500    71.4280     8.4240     6.4170     6.1570    23.0460   -25.5930     2.1560 
   77.3750    67.5370     8.6450     6.6210     6.6320    21.8900   -25.3680     2.1640 
   77.5000    64.6860     8.8690     6.8760     6.6960    20.9200   -25.1510     2.1570 
   77.6250    63.1180     8.9670     7.0610     6.4260    20.4930   -24.9410     2.1380 
   77.7500    62.8580     8.9540     7.1450     6.2370    20.2360   -24.7150     2.1130 
   77.8750    62.3510     8.9480     7.1990     6.1770    20.0170   -24.4290     2.0890 
   78.0000    61.2170     9.0970     7.3340     6.2740    19.9380   -24.0530     2.0730 
   78.1250    61.2400     9.4540     7.6280     6.5810    20.2490   -23.5720     2.0810 
   78.2500    63.7070     9.7940     7.9640     7.2330    20.9240   -23.0270     2.1180 
   78.3750    68.1810     9.8160     8.1260     8.2970    21.7980   -22.4370     2.1820 
   78.5000    73.7490     9.3190     7.9080     9.1640    22.8240   -21.8190     2.2560 
   78.6250    82.9970     8.3820     7.2590     7.3230    23.5090   -21.2280     2.3030 
   78.7500    92.5160     7.4880     6.5110     5.7120    24.0200   -20.7110     2.3080 
   78.8750    97.1470     6.9210     5.9070     4.9010    24.3860   -20.3080     2.2810 
   79.0000    97.6830     6.7350     5.5510     4.7370    24.3020   -20.0120     2.2440 
   79.1250    96.6340     6.7940     5.4320     5.3390    23.0040   -19.8030     2.2190 
   79.2500    95.1630     6.7660     5.3620     6.2950    21.6150   -19.6580     2.2080 
   79.3750    93.2660     6.4350     5.1920     6.4780    21.4790   -19.5960     2.2060 
   79.5000    94.8210     5.8260     4.8650     5.4460    22.4930   -19.6280     2.2070 
   79.6250    99.7540     5.3280     4.5120     4.7430    23.6410   -19.7440     2.2090 
   79.7500   103.0060     5.3920     4.3960     4.7140    24.1330   -19.9270     2.2160 
   79.8750   101.3000     6.3230     4.7540     5.0460    23.7710   -20.1600     2.2370 
   80.0000    93.9650     8.3190     5.8010     6.3690    23.4470   -20.4700     2.2780 
   80.1250    82.9690    11.5590     7.8480    10.4930    23.1260   -20.9020     2.3290 
   80.2500    73.3960    15.2670    10.5790    18.4170    22.7040   -21.4130     2.3650 
   80.3750    66.7800    18.0800    13.1550    22.4800    21.8760   -21.9660     2.3630 
   80.5000    62.8890    18.4680    14.2650    14.5790    20.3710   -22.5390     2.3180 
   80.6250    62.8870    16.0830    13.1430     9.1280    19.5180   -23.1040     2.2470 
   80.7500    64.9860    13.1340    11.1950     7.3010    19.6730   -23.6110     2.1820 
   80.8750    66.2600    10.8620     9.4080     6.8170    19.8820   -24.0620     2.1380 
   81.0000    64.7590     9.5620     8.1660     6.5580    19.8510   -24.4440     2.1150 
   81.1250    61.7610     9.0890     7.5310     6.3910    19.4340   -24.7200     2.1070 
   81.2500    61.3940     8.9930     7.2460     6.2770    19.1500   -24.9050     2.1030 
   81.3750    64.3930     9.0780     7.1630     6.2520    19.0320   -25.0070     2.0970 
   81.5000    68.5040     9.2280     7.1650     6.3090    19.1030   -25.0480     2.0890 
   81.6250    69.7960     9.3730     7.1690     6.3830    19.2820   -25.0590     2.0820 
   81.7500    68.5280     9.4840     7.1550     6.4240    19.4820   -25.0700     2.0800 
   81.8750    65.2190     9.5400     7.1390     6.5340    19.4810   -25.0710     2.0850 
   82.0000    61.6310     9.5140     7.1340     6.7100    19.3070   -25.0610     2.0940 
   82.1250    59.8220     9.3950     7.1270     6.9000    19.1920   -25.0760     2.1060 
   82.2500    59.1420     9.2390     7.0970     7.2030    19.2100   -25.1160     2.1150 
   82.3750    59.1880     9.0920     7.0420     7.4880    19.2840   -25.1830     2.1210 
   82.5000    60.5960     8.9950     6.9720     7.7170    19.3190   -25.2680     2.1220 
   82.6250    63.1820     8.9700     6.9070     7.8520    19.3310   -25.3400     2.1190 
   82.7500    64.6320     8.9930     6.8590     7.9090    19.3860   -25.4120     2.1140 
   82.8750    63.8280     9.0490     6.8330     8.0720    19.5450   -25.4830     2.1120 
   83.0000    61.3180     9.1400     6.8350     8.7670    19.8900   -25.5550     2.1180 
   83.1250    60.9240     9.2630     6.8760    10.0680    20.0150   -25.5800     2.1350 
   83.2500    64.3220     9.3840     6.9390    10.8880    19.7930   -25.5580     2.1570 
   83.3750    67.5420     9.4700     6.9940    10.2390    19.6780   -25.5050     2.1760 
   83.5000    66.1880     9.5040     7.0160     9.4720    19.7280   -25.4520     2.1880 
   83.6250    62.1080     9.4730     6.9830     8.9930    19.8270   -25.4060     2.1870 
