~V
VERS. 2.00: Ver 2.00
~W
STRT.M 52.0000:
STOP.M 326.0000:
STEP.M 0.1250:
NULL. -999.2500:
UWI. F10108:
~C
DEPT.M :
DEN.GM/CC :
SP.MV :
GR.API :
RML.OHMM :
RI. :
RXO.OHMM :
CALI.CM :
~A
# ...
  119.5000     2.1630   -12.1020    68.7410     7.6200     6.3300     7.4880    24.8750 
  119.6250     2.1660   -12.2580    69.9330     7.5810     6.2990     7.5730    24.9120 
  119.7500     2.1670   -12.3680    70.0320     7.5450     6.3000     7.7320    24.9070 
  119.8750     2.1620   -12.4620    68.6790     7.5120     6.3200     7.7050    24.8830 
  120.0000     2.1520   -12.5590    67.3990     7.4850     6.3490     7.6380    24.8630 
  120.1250     2.1410   -12.6530    67.5700     7.4740     6.3730     7.6430    24.8480 
  120.2500     2.1360   -12.7370    68.4330     7.4770     6.3860     7.6060    24.8070 
  120.3750     2.1350   -12.8210    68.6480     7.4800     6.3870     7.6230    24.7190 
  120.5000     2.1380   -12.8960    67.9690     7.4680     6.3760     7.5680    24.5920 
  120.6250     2.1420   -12.9610    66.6050     7.4220     6.3570     7.5380    24.4650 
  120.7500     2.1470   -13.0200    64.4480     7.3620     6.3360     7.5830    24.3510 
  120.8750     2.1520   -13.0810    61.6030     7.3190     6.3230     7.5930    24.2450 
  121.0000     2.1570   -13.1600    58.2840     7.3240     6.3250     7.5140    24.1530 
  121.1250     2.1620   -13.2750    55.4950     7.4020     6.3560     7.5620    24.0900 
  121.2500     2.1670   -13.4180    55.0120     7.5320     6.4190     7.7590    24.0700 
  121.3750     2.1730   -13.5500    57.8830     7.6910     6.5130     7.9620    24.0900 
  121.5000     2.1780   -13.6730    63.5660     7.8470     6.6270     8.0680    24.1310 
  121.6250     2.1790   -13.8010    69.4910     7.9580     6.7350     8.1320    24.1570 
  121.7500     2.1760   -13.9320    73.1800     7.9990     6.8080     8.2320    24.1730 
  121.8750     2.1690   -14.0410    72.9510     7.9600     6.8280     8.2820    24.1980 
  122.0000     2.1610   -14.1040    68.9620     7.8490     6.7930     8.2610    24.2470 
  122.1250     2.1560   -14.1030    64.7630     7.7030     6.7150     8.2360    24.2990 
  122.2500     2.1550   -14.0290    63.9750     7.5730     6.6300     8.2090    24.3210 
  122.3750     2.1600   -13.9150    66.1250     7.4920     6.5590     8.1470    24.3180 
  122.5000     2.1690   -13.7880    66.5610     7.4720     6.5140     8.0660    24.3190 
  122.6250     2.1810   -13.6560    64.2420     7.5010     6.4950     8.0160    24.3530 
  122.7500     2.1920   -13.5280    63.1700     7.5350     6.4840     8.0190    24.4070 
  122.8750     2.2010   -13.3920    64.4250     7.5510     6.4730     8.0490    24.4470 
  123.0000     2.2070   -13.2390    65.3970     7.5500     6.4640     8.0920    24.4620 
  123.1250     2.2040   -13.0790    64.4880     7.5540     6.4720     8.1350    24.4720 
  123.2500     2.1930   -12.9550    62.8480     7.5830     6.5050     8.1530    24.4970 
  123.3750     2.1790   -12.8680    61.2230     7.6330     6.5550     8.2140    24.5170 
  123.5000     2.1670   -12.7920    60.2760     7.6760     6.6010     8.3590    24.4950 
  123.6250     2.1640   -12.6910    60.1170     7.6650     6.6050     8.4320    24.4130 
  123.7500     2.1710   -12.5810    60.9990     7.5960     6.5580     8.4030    24.3090 
  123.8750     2.1840   -12.4870    64.4760     7.5050     6.4760     8.2490    24.2200 
  124.0000     2.1970   -12.4430    69.9730     7.4490     6.3920     7.8860    24.1560 
  124.1250     2.2020   -12.4730    70.4460     7.4990     6.3590     7.4060    24.0890 
  124.2500     2.2000   -12.5460    64.7040     7.6430     6.3940     7.1470    24.0030 
  124.3750     2.1930   -12.6700    58.4550     7.8360     6.4890     7.1670    23.9190 
  124.5000     2.1830   -12.8500    56.1920     8.0150     6.6140     7.2380    23.8600 
  124.6250     2.1770   -13.1070    58.0400     8.1120     6.7260     7.2070    23.8290 
  124.7500     2.1750   -13.3960    59.9340     8.1300     6.7970     7.2140    23.7930 
  124.8750     2.1780   -13.7000    60.6870     8.0880     6.8230     7.3240    23.7370 
  125.0000     2.1810   -13.9780    59.7850     8.0220     6.8160     7.4330    23.6760 
  125.1250     2.1830   -14.1960    58.4030     7.9690     6.7910     7.5460    23.6420 
  125.2500     2.1810   -14.3630    58.1690     7.9450     6.7640     7.6470    23.6250 
  125.3750     2.1760   -14.4610    60.1400     7.9440     6.7440     7.7170    23.5860 
  125.5000     2.1700   -14.4880    63.4450     7.9440     6.7330     7.6510    23.5110 
  125.6250     2.1590   -14.4590    65.1100     7.9240     6.7340     7.5730    23.4150 
  125.7500     2.1450   -14.4080    64.2730     7.8880     6.7430     7.4180    23.3370 
  125.8750     2.1300   -14.3360    63.4570     7.8520     6.7560     7.2480    23.2740 
  126.0000     2.1160   -14.2590    63.5830     7.8340     6.7660     7.0960    23.2050 
  126.1250     2.1110   -14.1700    63.3590     7.8360     6.7650     6.9670    23.1040 
  126.2500     2.1150   -14.0650    62.6110     7.8330     6.7500     6.9230    22.9890 
  126.3750     2.1250   -13.9580    62.5090     7.8060     6.7180     7.0310    22.8900 
  126.5000     2.1350   -13.8720    63.6100     7.7520     6.6720     7.2070    22.8300 
  126.6250     2.1400   -13.8080    64.5410     7.6750     6.6160     7.2880    22.7980 
  126.7500     2.1400   -13.7500    63.2520     7.5910     6.5620     7.2310    22.7590 
  126.8750     2.1370   -13.6960    62.4250     7.5110     6.5210     7.2850    22.7120 
  127.0000     2.1350   -13.6520    65.6810     7.4450     6.4970     7.3590    22.6840 
  127.1250     2.1340   -13.6330    69.9440     7.4050     6.4970     7.4330    22.7000 
  127.2500     2.1350   -13.6550    68.8430     7.3990     6.5130     7.4880    22.7360 
  127.3750     2.1360   -13.7110    64.7110     7.4350     6.5400     7.6880    22.7860 
  127.5000     2.1400   -13.7580    64.0880     7.5060     6.5740     8.1220    22.8570 
  127.6250     2.1480   -13.7800    65.7010     7.5810     6.6120     8.6080    22.9930 
  127.7500     2.1620   -13.7900    62.8160     7.6210     6.6460     8.7340    23.1980 
  127.8750     2.1810   -13.7970    57.7830     7.6040     6.6670     8.4710    23.4530 
  128.0000     2.2020   -13.8130    56.7880     7.5350     6.6700     8.0220    23.7220 
  128.1250     2.2210   -13.8220    61.1230     7.4430     6.6520     7.7270    23.9970 
  128.2500     2.2310   -13.8000    64.4190     7.3720     6.6280     7.7220    24.2780 
  128.3750     2.2300   -13.7490    64.2140     7.3420     6.6140     7.9260    24.5380 
  128.5000     2.2170   -13.6780    63.0460     7.3530     6.6220     8.1370    24.7140 
  128.6250     2.2000   -13.5820    63.0090     7.3850     6.6480     8.2090    24.7710 
  128.7500     2.1850   -13.4540    63.4680     7.3940     6.6630     8.3080    24.7750 
  128.8750     2.1780   -13.2500    63.9850     7.3380     6.6330     8.4660    24.7850 
  129.0000     2.1830   -12.9240    63.9810     7.1810     6.5280     8.4910    24.8410 
  129.1250     2.2050   -12.4690    64.3750     6.8960     6.3220     8.1970    24.9230 
  129.2500     2.2350   -11.9640    67.4370     6.5290     6.0500     7.7910    24.9810 
  129.3750     2.2620   -11.4490    73.8540     6.1420     5.7550     7.2620    25.0030 
  129.5000     2.2740   -10.9820    80.5450     5.8150     5.4930     6.5940    25.0110 
  129.6250     2.2630   -10.6350    81.9610     5.6620     5.3500     6.1280    25.0130 
  129.7500     2.2400   -10.4300    80.9610     5.7130     5.3560     5.7340    24.9910 
  129.8750     2.2190   -10.4070    82.1370     5.9580     5.5190     5.5910    24.9130 
  130.0000     2.2080   -10.5610    84.1170     6.3390     5.8100     5.9540    24.7700 
  130.1250     2.2040   -10.8910    80.9070     6.7460     6.1620     6.6020    24.5930 
  130.2500     2.2010   -11.2950    73.1000     7.0560     6.4730     7.4550    24.4300 
  130.3750     2.1940   -11.7130    66.2770     7.2050     6.6740     7.9340    24.2830 
  130.5000     2.1860   -12.1040    62.4310     7.1910     6.7400     8.0660    24.1380 
  130.6250     2.1820   -12.4160    61.4530     7.0760     6.6920     7.9650    24.0100 
