~V
VERS. 2.00: Ver 2.00
~W
STRT.M 52.0000:
STOP.M 216.0000:
STEP.M 0.1250:
NULL. -999.2500:
UWI. F10126:
~C
DEPT.M :
DEN.GM/CC :
GR.API :
RML.OHMM :
RI. :
RXO.OHMM :
CALI.CM :
SP.MV :
~A
# ...
  187.0000     2.4040    76.1810     8.4380     7.0670     7.0330    24.4470    -0.8610 
  187.1250     2.3860    79.7640     9.0190     7.4270     6.9050    24.3910    -0.5610 
  187.2500     2.3720    84.3940     9.8800     8.0910     7.3580    24.5130    -0.2980 
  187.3750     2.3700    91.3090    10.7980     8.9370     8.1180    24.7060    -0.0390 
  187.5000     2.3780    98.7290    11.4580     9.6830     9.6160    24.7810     0.2260 
  187.6250     2.3930   102.3030    11.4640     9.8220    11.8230    24.6150     0.5030 
  187.7500     2.4050   102.6990    10.8560     9.2750    12.7670    24.5650     0.7890 
  187.8750     2.4130   100.1320     9.8470     8.2900    10.5300    24.4440     1.0660 
  188.0000     2.4190    95.8020     8.7880     7.2660     7.8070    24.3550     1.2940 
  188.1250     2.4250    92.5210     8.0910     6.5670     6.2670    24.3310     1.4410 
  188.2500     2.4260    92.7470     7.8810     6.2710     5.7120    24.3380     1.4980 
  188.3750     2.4180    95.7350     8.1340     6.3710     5.9710    24.3230     1.4430 
  188.5000     2.4010    97.7360     8.7030     6.7920     6.9770    24.2580     1.2810 
  188.6250     2.3810    96.5970     9.3730     7.3920     7.7260    24.2080     1.0560 
  188.7500     2.3650    93.7940     9.9230     7.9340     8.1300    24.1650     0.8020 
  188.8750     2.3600    92.6860    10.2570     8.2810     8.4590    24.1250     0.5480 
  189.0000     2.3630    93.2820    10.3750     8.4040     8.3970    24.1820     0.3170 
  189.1250     2.3730    90.8380    10.3490     8.3670     8.3900    24.3140     0.1420 
  189.2500     2.3850    84.6460    10.3150     8.3100     7.8240    24.3830     0.0480 
  189.3750     2.3980    79.9700    10.3450     8.3050     7.0010    24.3500     0.0760 
  189.5000     2.4150    81.6670    10.4620     8.3790     6.9880    24.2180     0.2000 
  189.6250     2.4350    87.4800    10.6510     8.5190     8.0550    24.2280     0.3690 
  189.7500     2.4510    89.0970    10.8490     8.6640     8.7530    24.0800     0.5170 
  189.8750     2.4570    85.9690    11.0150     8.7780     8.9260    23.9370     0.6560 
  190.0000     2.4490    82.7370    11.1250     8.8430     9.6370    24.0600     0.8410 
  190.1250     2.4330    81.8930    11.1710     8.8570     9.9620    24.2170     1.1270 
  190.2500     2.4220    81.7370    11.1850     8.8480     9.7400    24.2610     1.4490 
  190.3750     2.4230    81.1940    11.1850     8.8320    10.5150    24.3190     1.7270 
  190.5000     2.4340    79.8410    11.1850     8.8150    11.3240    24.3950     1.9540 
  190.6250     2.4480    78.0380    11.1930     8.8040    10.5940    24.3960     2.1120 
  190.7500     2.4580    76.9850    11.2020     8.7990     9.7010    24.3630     2.2740 
  190.8750     2.4590    77.7580    11.2010     8.7950     9.2000    24.3620     2.4840 
  191.0000     2.4510    77.9480    11.1780     8.7810     9.0380    24.3460     2.6780 
  191.1250     2.4380    76.4980    11.1240     8.7520     8.4510    24.3330     2.7140 
  191.2500     2.4260    76.7490    11.0600     8.7190     8.3030    24.3110     2.6560 
  191.3750     2.4200    79.7180    11.0210     8.7040     8.2990    24.2680     2.5970 
  191.5000     2.4240    81.7840    11.0380     8.7330     8.5610    24.2490     2.6140 
  191.6250     2.4350    79.7990    11.1300     8.8290     8.6090    24.2690     2.7200 
  191.7500     2.4420    78.6500    11.2470     8.9520     8.6860    24.2840     2.8270 
  191.8750     2.4400    81.2240    11.3280     9.0480     8.5970    24.2300     2.8950 
  192.0000     2.4270    84.4590    11.3190     9.0650     9.0540    24.1550     2.9110 
  192.1250     2.4090    83.9820    11.1900     8.9590     9.7870    24.1440     2.9220 
  192.2500     2.3950    81.7450    10.9980     8.7750     8.4700    24.1320     2.9470 
  192.3750     2.3920    79.9960    10.8060     8.5780     7.1150    24.0320     2.9560 
  192.5000     2.4030    78.8760    10.6680     8.4320     6.5180    23.8950     2.8850 
  192.6250     2.4300    78.8800    10.6210     8.3820     6.3740    23.7510     2.7450 
  192.7500     2.4610    79.6290    10.6320     8.4030     6.1880    23.7040     2.6300 
  192.8750     2.4880    79.4240    10.6700     8.4620     6.9080    23.9280     2.5440 
  193.0000     2.4990    77.0220    10.7150     8.5300     7.6530    24.2210     2.5160 
  193.1250     2.4930    72.9510    10.7790     8.6060     7.5250    24.3730     2.5840 
  193.2500     2.4800    73.2140    10.8970     8.7200     7.1930    24.4040     2.7040 
  193.3750     2.4670    79.1040    11.1070     8.9040     8.2820    24.3570     2.8290 
  193.5000     2.4590    84.4020    11.4290     9.1740     9.0980    24.3110     2.9760 
  193.6250     2.4530    82.9300    11.8680     9.5390     9.6700    24.3170     3.1780 
  193.7500     2.4480    78.7040    12.3620     9.9610    11.4520    24.3040     3.3610 
  193.8750     2.4410    76.9890    12.8500    10.4010    13.6330    24.3800     3.4660 
  194.0000     2.4380    78.2350    13.2680    10.8010    13.0720    24.5030     3.4800 
  194.1250     2.4420    79.2480    13.5410    11.0840    12.4420    24.5280     3.3950 
  194.2500     2.4520    79.2110    13.6680    11.2330    12.6150    24.4790     3.2510 
  194.3750     2.4660    78.6320    13.6650    11.2550    12.9910    24.3970     3.1210 
  194.5000     2.4770    79.3080    13.5700    11.1860    12.7830    24.3550     3.0530 
  194.6250     2.4810    81.1030    13.4250    11.0730    12.4820    24.3150     3.0210 
  194.7500     2.4770    83.1450    13.2770    10.9600    11.9580    24.2730     2.9950 
  194.8750     2.4680    85.5590    13.1490    10.8620    11.8720    24.2520     2.9980 
  195.0000     2.4600    87.5330    13.0530    10.7880    11.7670    24.2040     3.0340 
  195.1250     2.4530    87.7600    13.0100    10.7560    10.6860    24.1280     3.0620 
  195.2500     2.4460    87.9370    13.0260    10.7760     9.4680    24.1180     3.0530 
  195.3750     2.4380    89.1700    13.1050    10.8590     8.3920    24.1370     2.9870 
  195.5000     2.4290    89.4000    13.2340    11.0070     8.6270    24.0220     2.8530 
  195.6250     2.4250    87.3080    13.3710    11.1920    10.1220    23.9310     2.6490 
  195.7500     2.4270    85.8020    13.4560    11.3370    11.5540    24.0070     2.4520 
  195.8750     2.4340    86.3540    13.4540    11.3860    12.6080    24.2500     2.3030 
  196.0000     2.4420    87.3470    13.3630    11.3290    13.8320    24.4490     2.2510 
  196.1250     2.4440    87.0960    13.2220    11.2040    13.4820    24.5290     2.3970 
  196.2500     2.4390    87.0530    13.1110    11.1000    11.1030    24.5340     2.6620 
  196.3750     2.4320    87.5620    13.0880    11.0870     9.8090    24.5100     2.9710 
  196.5000     2.4330    88.8040    13.1900    11.2030    10.3210    24.4470     3.2800 
  196.6250     2.4530    91.6100    13.4410    11.4680    11.4740    24.4420     3.5920 
  196.7500     2.4850    92.9880    13.7880    11.8270    11.9220    24.5170     3.8820 
  196.8750     2.5160    91.8860    14.1820    12.2330    12.7150    24.5150     4.1370 
  197.0000     2.5360    88.5490    14.5680    12.6310    15.0920    24.4010     4.3150 
  197.1250     2.5420    85.7560    14.8610    12.9500    14.8050    24.2710     4.3570 
  197.2500     2.5450    85.0570    15.0130    13.1470    14.4010    24.2400     4.3380 
  197.3750     2.5480    86.2360    14.9900    13.1800    13.9530    24.2320     4.3230 
  197.5000     2.5490    87.4900    14.7900    13.0340    14.1850    24.2780     4.3220 
  197.6250     2.5370    86.6900    14.4380    12.7230    14.1460    24.3300     4.3220 
  197.7500     2.5110    85.3990    14.0430    12.3580    13.6870    24.1480     4.3150 
  197.8750     2.4790    84.9030    13.6880    12.0220    11.1610    23.8870     4.2940 
  198.0000     2.4530    83.8640    13.4290    11.7730     8.7730    23.7680     4.2630 
  198.1250     2.4440    81.6550    13.3020    11.6530     8.1600    23.7500     4.2310 
