~V
VERS. 2.00: Ver 2.00
~W
STRT.M 53.0000:
STOP.M 219.0000:
STEP.M 0.1250:
NULL. -999.2500:
UWI. F10171:
~C
DEPT.M :
SP.MV :
DEN.GM/CC :
GR.API :
RML.OHMM :
RI. :
RXO.OHMM :
CALI.CM :
~A
# ...
   98.0000   -28.1650     2.2160    75.4100     8.7380     6.6140     8.5940    24.1340 
   98.1250   -28.1170     2.2230    76.8710     8.5580     6.5140     8.0170    23.9080 
   98.2500   -28.2100     2.2180    74.5930     8.4760     6.4620     8.1610    23.7090 
   98.3750   -28.4270     2.1990    73.1550     8.6190     6.5470     8.6850    23.7770 
   98.5000   -28.6220     2.1750    71.7470     8.9910     6.7980     9.1710    24.0020 
   98.6250   -28.8680     2.1470    67.5950     9.5730     7.2230     9.9560    24.2330 
   98.7500   -29.1930     2.1160    63.1780    10.2860     7.7910    10.6210    24.3450 
   98.8750   -29.4370     2.0880    62.7080    10.9370     8.3900    11.7170    24.3280 
   99.0000   -29.6080     2.0730    63.2340    11.2700     8.8130    15.2230    24.3130 
   99.1250   -29.7150     2.0750    62.1290    11.0850     8.8740    22.4030    24.3310 
   99.2500   -29.6630     2.0930    61.2100    10.3770     8.5120    24.8830    24.3580 
   99.3750   -29.4400     2.1240    64.0360     9.4100     7.8590    14.4500    24.3930 
   99.5000   -29.2330     2.1570    68.7510     8.6370     7.2500     8.5410    24.4450 
   99.6250   -29.0620     2.1800    72.4800     8.3020     6.8840     6.5530    24.4740 
   99.7500   -28.8880     2.1870    74.0890     8.4580     6.8380     6.6810    24.4190 
   99.8750   -28.7470     2.1800    71.9300     8.9710     7.0750     8.1570    24.2340 
  100.0000   -28.6160     2.1730    69.1860     9.4200     7.3390     9.4000    24.1160 
  100.1250   -28.4580     2.1770    69.5390     9.4570     7.3840     9.6120    24.1040 
  100.2500   -28.2840     2.1920    73.8300     8.9190     7.0580     8.4480    24.1840 
  100.3750   -28.1020     2.2130    77.9440     7.9750     6.4150     6.5690    24.3040 
  100.5000   -27.9360     2.2250    78.6730     7.1420     5.7840     5.3420    24.3710 
  100.6250   -27.7920     2.2230    78.4960     6.7380     5.3940     5.1440    24.3440 
  100.7500   -27.6850     2.2130    78.8570     6.9020     5.3740     5.6180    24.2660 
  100.8750   -27.7560     2.1910    76.3350     7.7110     5.8410     6.2940    24.2300 
  101.0000   -28.0520     2.1580    70.4830     8.9220     6.6820     7.5860    24.1810 
  101.1250   -28.5030     2.1340    65.1160    10.2580     7.7480     9.5980    24.0940 
  101.2500   -29.0950     2.1370    65.0620    11.3510     8.7730    10.9310    23.9960 
  101.3750   -29.8980     2.1640    67.4260    11.8050     9.4000    11.0230    23.9400 
  101.5000   -30.7040     2.1860    67.0720    11.7120     9.5730    10.9610    23.9180 
  101.6250   -31.4360     2.1980    65.0790    11.2960     9.3970    10.8450    23.8900 
  101.7500   -32.1590     2.2100    64.5300    10.8080     9.0490    10.4590    23.8360 
  101.8750   -32.8150     2.2280    64.8540    10.4240     8.6900    10.2680    23.8300 
  102.0000   -33.3370     2.2420    64.9550    10.1610     8.3970    10.0840    23.9220 
  102.1250   -33.7910     2.2430    65.5120    10.0070     8.1880     9.7400    24.1060 
  102.2500   -34.2530     2.2200    66.0190     9.9630     8.0730     9.4800    24.3370 
  102.3750   -34.6600     2.1750    65.9300    10.0510     8.0780     9.7310    24.5460 
  102.5000   -35.0010     2.1280    64.9000    10.2270     8.1730    10.3920    24.7340 
  102.6250   -35.2810     2.0830    62.5940    10.4590     8.3450    10.6980    24.8810 
  102.7500   -35.5040     2.0400    59.4930    10.7460     8.5910    10.3900    24.9130 
  102.8750   -35.6510     2.0190    57.6280    11.1340     8.9350     9.9890    24.7980 
  103.0000   -35.7240     2.0330    59.0750    11.6140     9.3600    10.4450    24.7010 
  103.1250   -35.7420     2.0760    62.5630    12.1160     9.8120    10.8860    24.7420 
  103.2500   -35.6870     2.1190    65.0500    12.4820    10.1720    11.0700    24.8860 
  103.3750   -35.5680     2.1290    61.5240    12.4270    10.2230    11.2200    25.0200 
  103.5000   -35.4220     2.1210    56.9380    11.9120     9.9170    11.1480    25.0640 
  103.6250   -35.2610     2.1140    59.0470    11.0690     9.3280    10.6660    25.0430 
  103.7500   -35.1130     2.1190    67.6240    10.1780     8.6500     9.6400    24.9410 
  103.8750   -34.9730     2.1390    73.5940     9.6430     8.1670     8.7980    24.7690 
  104.0000   -34.8750     2.1670    73.2180     9.6650     8.0540     8.8080    24.5800 
  104.1250   -34.8560     2.1960    69.7660    10.3170     8.4010     9.8340    24.5050 
  104.2500   -34.8940     2.2180    67.0670    11.5110     9.1970    11.3810    24.5570 
  104.3750   -34.9150     2.2370    66.4820    12.9750    10.3140    15.5800    24.6450 
  104.5000   -35.0160     2.2600    67.3130    14.1570    11.3490    22.1990    24.6860 
  104.6250   -35.2260     2.2750    67.4050    14.6030    11.9200    22.0660    24.6110 
  104.7500   -35.4250     2.2620    65.7150    14.1390    11.8070    14.7980    24.4740 
  104.8750   -35.6890     2.2220    63.0230    12.9850    11.0620    11.5910    24.3380 
  105.0000   -36.0410     2.1900    60.7580    11.7600    10.1360    10.8890    24.2900 
  105.1250   -36.3840     2.1780    60.6100    10.7740     9.2920    10.9100    24.2800 
  105.2500   -36.7250     2.1790    62.2520    10.1470     8.6720    10.9210    24.2800 
  105.3750   -37.1700     2.1800    62.8520     9.9330     8.3640    10.9660    24.2800 
  105.5000   -37.5910     2.1780    60.9050    10.0430     8.3300    10.9650    24.2910 
  105.6250   -37.9490     2.1770    58.4810    10.4540     8.5610    11.0340    24.3510 
  105.7500   -38.3180     2.1740    56.8880    11.1020     9.0240    11.2600    24.5190 
  105.8750   -38.5680     2.1700    55.3040    11.8140     9.6160    12.2140    24.7530 
  106.0000   -38.6530     2.1810    55.0350    12.2860    10.1000    15.3350    24.8790 
  106.1250   -38.6700     2.2180    56.3370    12.2830    10.2630    20.6740    24.8130 
  106.2500   -38.6410     2.2560    57.9340    11.7660    10.0160    18.8630    24.6250 
  106.3750   -38.4980     2.2510    57.7460    10.9720     9.4690    13.3770    24.4640 
  106.5000   -38.2840     2.2180    57.2800    10.3020     8.9240    11.0600    24.4110 
  106.6250   -38.0250     2.1920    58.4100     9.9290     8.5390    10.6780    24.4670 
  106.7500   -37.7380     2.1830    58.8290     9.8610     8.3650    10.8280    24.5700 
  106.8750   -37.4660     2.1810    57.0760     9.9830     8.3710    11.2340    24.6250 
  107.0000   -37.2100     2.1800    56.0040    10.0650     8.3920    11.6790    24.5830 
  107.1250   -36.9670     2.1760    57.2210     9.9830     8.3180    11.2190    24.5240 
  107.2500   -36.7190     2.1670    59.9290     9.7250     8.1070    10.3290    24.4920 
  107.3750   -36.4360     2.1610    63.8100     9.3490     7.7820     9.3850    24.4710 
  107.5000   -36.2330     2.1650    68.5860     8.9800     7.4370     8.4470    24.4360 
  107.6250   -36.1500     2.1740    71.3150     8.7100     7.1540     7.6880    24.4050 
  107.7500   -36.0960     2.1790    70.4400     8.6050     6.9930     7.7770    24.3730 
  107.8750   -36.1270     2.1760    68.3880     8.6940     6.9930     8.0250    24.3690 
  108.0000   -36.3280     2.1700    66.3650     8.8870     7.0930     8.4420    24.3910 
  108.1250   -36.6070     2.1670    64.2470     9.0930     7.2310     8.9430    24.4170 
  108.2500   -36.9140     2.1640    63.9590     9.2180     7.3390     9.2020    24.4290 
  108.3750   -37.4040     2.1610    65.5740     9.1860     7.3530     8.7960    24.4300 
  108.5000   -37.9940     2.1600    66.2310     9.0700     7.3040     8.5800    24.4290 
  108.6250   -38.5850     2.1620    64.1890     8.9680     7.2480     8.8330    24.4280 
  108.7500   -39.2090     2.1680    61.1030     8.9690     7.2470     9.3070    24.4260 
  108.8750   -39.9030     2.1730    59.4860     9.1320     7.3540     9.7870    24.4390 
  109.0000   -40.5760     2.1740    60.4220     9.3990     7.5440    10.0900    24.4900 
  109.1250   -41.2030     2.1730    62.7690     9.6990     7.7740    10.4180    24.6010 
