~V
VERS. 2.00: Ver 2.00
~W
STRT.M 53.0000:
STOP.M 242.0000:
STEP.M 0.1250:
NULL. -999.2500:
UWI. F10177:
~C
DEPT.M :
SP.MV :
GR.API :
RML.OHMM :
RI. :
RXO.OHMM :
CALI.CM :
DEN.GM/CC :
~A
# ...
  120.5000   -11.9120    78.4610     6.1070     5.1580     6.6550    25.7770     2.1240 
  120.6250   -11.9530    75.0070     6.1480     5.1780     6.1450    25.8110     2.1020 
  120.7500   -12.0490    70.7230     6.2450     5.2510     5.8650    25.6700     2.1040 
  120.8750   -12.1380    71.0090     6.3620     5.3590     6.4230    25.1470     2.1270 
  121.0000   -12.1670    74.0290     6.4560     5.4610     7.2780    24.6330     2.1600 
  121.1250   -12.1230    75.9730     6.5090     5.5290     7.8490    24.3760     2.1950 
  121.2500   -12.0040    75.2400     6.5370     5.5580     7.9700    24.2880     2.2250 
  121.3750   -11.8220    72.2360     6.5850     5.5720     7.8450    24.3140     2.2420 
  121.5000   -11.5790    69.1370     6.6850     5.6140     7.7120    24.6330     2.2400 
  121.6250   -11.2770    68.0820     6.8370     5.6960     7.5120    25.4330     2.2180 
  121.7500   -10.9260    70.3330     6.9990     5.8060     7.2810    26.5550     2.1860 
  121.8750   -10.5550    74.3050     7.0990     5.8940     7.1770    26.3240     2.1680 
  122.0000   -10.2180    78.2880     7.1020     5.9240     7.1940    24.9940     2.1760 
  122.1250    -9.9240    81.1490     7.0220     5.8960     7.3060    24.2260     2.2040 
  122.2500    -9.6720    82.0160     6.9140     5.8460     7.5470    24.1080     2.2380 
  122.3750    -9.5380    79.3170     6.8680     5.8430     7.9580    24.1200     2.2590 
  122.5000    -9.5810    76.1210     6.9390     5.9330     8.5230    24.1220     2.2660 
  122.6250    -9.7750    74.1720     7.1420     6.1410     9.3820    24.1610     2.2640 
  122.7500   -10.0440    73.0200     7.4530     6.4620     9.7420    24.4930     2.2580 
  122.8750   -10.2700    71.6340     7.8010     6.8500     9.3350    25.0220     2.2450 
  123.0000   -10.3710    70.1600     8.0730     7.2000     9.1780    25.4130     2.2230 
  123.1250   -10.3550    70.3590     8.1620     7.4070    10.5540    25.2910     2.1940 
  123.2500   -10.2400    72.1450     7.9820     7.3720    12.7200    25.2140     2.1680 
  123.3750    -9.9150    72.9530     7.4550     6.9880    12.3330    25.0520     2.1630 
  123.5000    -9.2970    74.2120     6.7010     6.3500     9.1040    24.7230     2.1820 
  123.6250    -8.3840    79.3080     5.8420     5.5720     7.0090    24.1880     2.2220 
  123.7500    -7.2750    89.3700     5.0090     4.7870     5.9510    23.7820     2.2720 
  123.8750    -6.1570    98.9310     4.3370     4.1240     4.9260    23.8370     2.3160 
  124.0000    -5.1430   102.0290     3.8590     3.6240     4.2410    24.0400     2.3450 
  124.1250    -4.2420   101.8060     3.5910     3.3000     3.9250    24.1400     2.3540 
  124.2500    -3.4680   103.3840     3.5270     3.1490     3.7810    24.1440     2.3470 
  124.3750    -2.9460   106.8890     3.6750     3.1780     3.7730    24.1120     2.3270 
  124.5000    -2.7170   108.0490     3.9550     3.3300     3.9230    24.0010     2.3090 
  124.6250    -2.7580   105.7350     4.2930     3.5550     4.4680    23.8510     2.2970 
  124.7500    -2.9650   102.7990     4.5900     3.7840     5.3510    23.7720     2.2960 
  124.8750    -3.1690    99.5290     4.7280     3.9190     5.5590    23.7920     2.3010 
  125.0000    -3.3440    97.2150     4.7120     3.9340     5.3040    23.8250     2.3070 
  125.1250    -3.5580    97.1600     4.6100     3.8690     5.0410    23.8630     2.3110 
  125.2500    -3.8530    96.5750     4.5400     3.8090     4.8660    23.8870     2.3110 
  125.3750    -4.2190    93.4600     4.6410     3.8650     5.0200    23.9040     2.3080 
  125.5000    -4.6270    92.3750     4.9250     4.0690     5.5470    23.9520     2.2980 
  125.6250    -5.1040    95.7560     5.3540     4.4080     6.4860    24.0400     2.2830 
  125.7500    -5.7150    98.0230     5.8520     4.8350     8.1280    24.0520     2.2630 
  125.8750    -6.5260    93.7720     6.3290     5.2780     8.4660    24.1420     2.2420 
  126.0000    -7.4190    89.1630     6.7300     5.6760     8.0040    24.5350     2.2170 
  126.1250    -8.2630    87.2070     7.0090     5.9910     7.5040    25.1300     2.1810 
  126.2500    -8.9470    85.6710     7.1130     6.1730     7.6400    25.7020     2.1330 
  126.3750    -9.3900    81.1690     6.9430     6.1210     8.0190    25.8050     2.0870 
  126.5000    -9.5840    77.5590     6.5250     5.8410     7.9350    25.6440     2.0680 
  126.6250    -9.4990    78.7290     5.9220     5.3790     7.2570    25.3580     2.0910 
  126.7500    -9.1560    85.6090     5.2570     4.8330     5.9750    25.1660     2.1470 
  126.8750    -8.5980    94.4770     4.6960     4.3430     4.9530    25.0650     2.2120 
  127.0000    -7.9420    99.1110     4.3160     3.9830     4.7580    25.0060     2.2610 
  127.1250    -7.2560    98.7030     4.1250     3.7720     4.9250    24.9550     2.2860 
  127.2500    -6.6160    96.6540     4.0760     3.6870     4.8530    24.8760     2.2960 
  127.3750    -6.0660    98.0890     4.1040     3.6950     4.6930    24.7020     2.3030 
  127.5000    -5.6070   103.1080     4.1290     3.7240     4.5250    24.5110     2.3120 
  127.6250    -5.2660   106.6230     4.1220     3.7380     4.3730    24.5510     2.3220 
  127.7500    -5.0030   107.6750     4.0820     3.7230     4.3950    24.7310     2.3300 
  127.8750    -4.7890   108.0180     4.0240     3.6870     4.6400    24.8280     2.3300 
  128.0000    -4.6140   107.8430     3.9680     3.6440     4.6480    24.8490     2.3200 
  128.1250    -4.4690   106.6560     3.9170     3.5970     4.3770    24.8440     2.3040 
  128.2500    -4.3040   103.9540     3.8670     3.5480     4.2000    24.8380     2.2900 
  128.3750    -4.1080   100.7460     3.8060     3.4870     4.3100    24.8410     2.2900 
  128.5000    -3.9220    99.8100     3.7290     3.4130     4.2370    24.8590     2.3020 
  128.6250    -3.8040   102.2100     3.6420     3.3300     4.0790    24.8930     2.3180 
  128.7500    -3.8140   106.8890     3.5590     3.2480     3.9670    24.9510     2.3320 
  128.8750    -3.9190   107.2950     3.5080     3.1910     3.8990    24.9670     2.3390 
  129.0000    -4.0490   104.0110     3.5000     3.1700     3.9500    24.9860     2.3430 
  129.1250    -4.1700   102.6400     3.5360     3.1910     4.0830    24.9940     2.3460 
  129.2500    -4.2970   106.0760     3.6020     3.2480     4.2020    24.9960     2.3490 
  129.3750    -4.4100   111.2980     3.6740     3.3260     4.3110    24.9960     2.3520 
  129.5000    -4.4700   112.1770     3.7390     3.4070     4.4710    24.9950     2.3510 
  129.6250    -4.4620   109.1910     3.8020     3.4880     4.7270    24.9930     2.3450 
  129.7500    -4.3430   108.2710     3.8820     3.5780     4.7990    24.9880     2.3320 
  129.8750    -4.1800   110.9520     3.9940     3.6930     4.8390    24.9730     2.3130 
  130.0000    -4.0260   110.1350     4.1240     3.8240     4.9710    24.9540     2.2940 
  130.1250    -3.9270   103.0690     4.2470     3.9470     5.1960    24.9310     2.2810 
  130.2500    -3.9060    95.7430     4.3310     4.0320     5.4060    24.8670     2.2780 
  130.3750    -3.9690    96.4440     4.3510     4.0460     5.4490    24.8070     2.2850 
  130.5000    -4.1010   100.7180     4.3120     4.0000     4.9290    24.7430     2.2950 
  130.6250    -4.2390   104.5070     4.2160     3.9080     4.3910    24.6690     2.3040 
  130.7500    -4.3560   106.9430     4.0600     3.7720     4.2720    24.6280     2.3110 
  130.8750    -4.4440   106.8930     3.8580     3.5970     4.7030    24.6390     2.3140 
  131.0000    -4.5230   105.2800     3.6820     3.4320     5.0110    24.6480     2.3200 
  131.1250    -4.5770   104.1070     3.6250     3.3460     4.6540    24.5840     2.3360 
  131.2500    -4.5850   105.0560     3.7770     3.4060     4.1780    24.4300     2.3660 
  131.3750    -4.6030   105.2430     4.2200     3.6840     4.6350    24.2350     2.4080 
  131.5000    -4.6790   102.5370     4.8290     4.1200     6.5210    24.0180     2.4400 
  131.6250    -4.8000    99.6830     5.4220     4.6040     8.8170    23.8720     2.4460 
