~V
VERS. 2.00: Ver 2.00
~W
STRT.M 52.0000:
STOP.M 322.0000:
STEP.M 0.1250:
NULL. -999.2500:
UWI. F10105:
~C
DEPT.M :
GR.API :
RML.OHMM :
RI. :
RXO.OHMM :
CALI.CM :
DEN.GM/CC :
SP.MV :
~A
# ...
  175.7500    91.5300    21.3090    20.7990    31.7880    26.4810     2.4740    -8.1830 
  175.8750    90.4260    21.5920    21.4520    30.8850    26.5940     2.5050    -7.9760 
  176.0000    87.8850    21.2040    21.3570    25.8520    26.6530     2.5320    -7.6560 
  176.1250    84.5930    20.2540    20.5350    22.4050    26.6720     2.5470    -7.3890 
  176.2500    80.9500    19.1570    19.4580    20.4860    26.6820     2.5500    -7.1780 
  176.3750    80.4960    18.1500    18.4110    19.9460    26.6810     2.5410    -6.9020 
  176.5000    83.8000    17.3190    17.5190    20.0510    26.6950     2.5220    -6.6630 
  176.6250    84.9020    16.6480    16.7660    17.9300    26.7350     2.4940    -6.6320 
  176.7500    81.8230    16.0600    16.0720    17.7960    26.7160     2.4680    -6.6420 
  176.8750    79.8300    15.5690    15.4520    17.4830    26.5680     2.4510    -6.6600 
  177.0000    80.2040    15.2500    14.9840    15.6160    26.2900     2.4440    -6.8420 
  177.1250    80.8320    15.2400    14.8210    15.0090    25.9410     2.4490    -7.1090 
  177.2500    81.0490    15.5270    14.9800    15.0050    25.7250     2.4580    -7.4060 
  177.3750    79.5360    16.0460    15.4310    15.1160    25.7930     2.4680    -7.8330 
  177.5000    75.9280    16.6460    16.0580    16.2430    25.9760     2.4760    -8.2780 
  177.6250    76.2990    17.0860    16.6210    17.5110    26.1130     2.4800    -8.6370 
  177.7500    82.1080    17.2290    16.8840    17.6590    26.1540     2.4820    -8.9840 
  177.8750    87.4310    17.0690    16.7700    16.8150    26.0770     2.4810    -9.2760 
  178.0000    87.1440    16.7360    16.3800    16.6990    25.9490     2.4770    -9.4250 
  178.1250    83.2850    16.4720    15.9680    18.2900    26.0250     2.4710    -9.4790 
  178.2500    81.4220    16.4500    15.7740    19.4690    26.1220     2.4660    -9.5050 
  178.3750    80.9900    16.7040    15.8830    19.7230    26.1690     2.4620    -9.4250 
  178.5000    80.6620    17.1460    16.2510    21.6350    26.1800     2.4620    -9.2710 
  178.6250    79.9210    17.5770    16.7160    23.7310    26.1650     2.4650    -9.0740 
  178.7500    79.5280    17.8030    17.0470    23.8950    26.1470     2.4710    -8.8610 
  178.8750    79.9870    17.7410    17.1010    20.7820    26.1380     2.4800    -8.6440 
  179.0000    80.4890    17.4300    16.8560    17.9450    26.1950     2.4900    -8.3830 
  179.1250    78.5700    17.0150    16.4380    17.2460    26.3210     2.5040    -8.0780 
  179.2500    74.2100    16.6740    16.0630    17.3610    26.4510     2.5150    -7.6900 
  179.3750    70.3900    16.4740    15.8230    16.8750    26.5200     2.5200    -7.2410 
  179.5000    70.3620    16.3870    15.7230    15.9560    26.5640     2.5150    -6.7930 
  179.6250    75.1750    16.2950    15.6770    17.1340    26.6570     2.5040    -6.3740 
  179.7500    80.5330    16.0770    15.5340    18.9800    26.7820     2.4990    -5.9020 
  179.8750    82.3350    15.6820    15.2110    18.3220    26.8390     2.5060    -5.3660 
  180.0000    79.7710    15.1310    14.7090    15.4000    26.8270     2.5250    -4.9130 
  180.1250    76.2340    14.5040    14.0940    14.4410    26.7850     2.5460    -4.4760 
  180.2500    74.8600    13.9200    13.4850    14.0810    26.7710     2.5600    -4.0680 
  180.3750    74.2350    13.4560    12.9680    13.6600    26.7730     2.5640    -3.7710 
  180.5000    72.5800    13.1610    12.6040    13.7630    26.7110     2.5610    -3.4820 
  180.6250    70.7030    13.0790    12.4550    13.1860    26.6210     2.5510    -3.2470 
  180.7500    70.1460    13.1590    12.4860    13.1770    26.5670     2.5350    -3.1740 
  180.8750    72.0160    13.3520    12.6640    13.3320    26.5360     2.5120    -3.2130 
  181.0000    75.1880    13.5810    12.9180    13.6020    26.4990     2.4870    -3.2600 
  181.1250    76.6470    13.7400    13.1260    14.3690    26.4270     2.4700    -3.4420 
  181.2500    75.6190    13.7720    13.1980    14.7280    26.3710     2.4640    -3.7010 
  181.3750    74.0810    13.6730    13.1110    13.6900    26.3630     2.4690    -3.9830 
  181.5000    74.1290    13.4840    12.9070    12.5290    26.3780     2.4800    -4.3820 
  181.6250    76.0650    13.2640    12.6570    12.0350    26.3590     2.4890    -4.8630 
  181.7500    77.8840    13.0620    12.4300    12.2790    26.3030     2.4940    -5.3320 
  181.8750    78.3200    12.9050    12.2440    12.4550    26.2340     2.4920    -5.8420 
  182.0000    76.5670    12.7810    12.0930    12.2680    26.1630     2.4860    -6.3920 
  182.1250    74.6190    12.5490    11.9740    11.9710    26.1790     2.4770    -6.9240 
  182.2500    76.1180    12.1950    11.8880    12.0760    26.2450     2.4680    -7.4060 
  182.3750    80.4360    11.8700    11.8370    12.2790    26.3010     2.4620    -7.8470 
  182.5000    83.3650    11.7110    11.8050    12.8320    26.3250     2.4570    -8.2720 
  182.6250    81.8900    11.6770    11.7540    13.9440    26.3410     2.4560    -8.5990 
  182.7500    78.2990    11.6180    11.6670    14.4590    26.3630     2.4580    -8.7590 
  182.8750    74.7000    11.5510    11.5620    13.9180    26.3770     2.4630    -8.8130 
  183.0000    73.1000    11.5340    11.4830    12.4760    26.3640     2.4690    -8.8460 
  183.1250    75.1060    11.6150    11.4980    12.2790    26.2950     2.4680    -8.7500 
  183.2500    78.3540    11.7640    11.6030    12.4630    26.2120     2.4540    -8.6480 
  183.3750    80.3240    11.9150    11.7520    13.0160    26.1180     2.4300    -8.6300 
  183.5000    81.2810    11.9870    11.8560    13.6160    26.0580     2.4050    -8.5680 
  183.6250    79.9510    11.9040    11.8020    14.0400    25.9530     2.3950    -8.4140 
  183.7500    77.2830    11.7100    11.6000    14.1510    25.8620     2.4050    -8.3250 
  183.8750    75.8200    11.4850    11.3170    13.0470    25.7570     2.4290    -8.2630 
  184.0000    75.6010    11.3230    11.0560    12.0020    25.6070     2.4540    -8.1370 
  184.1250    74.7950    11.3140    10.9250    12.1940    25.4020     2.4690    -8.0870 
  184.2500    74.2450    11.4300    10.9320    12.6870    25.3240     2.4770    -8.0600 
  184.3750    76.7470    11.6110    11.0360    12.2900    25.4330     2.4820    -7.9490 
  184.5000    80.7090    11.7710    11.1630    11.9540    25.6070     2.4870    -7.8470 
  184.6250    82.4240    11.8190    11.2150    11.6710    25.7400     2.4900    -7.8550 
  184.7500    81.9150    11.7590    11.1660    11.4340    25.8290     2.4880    -7.8380 
  184.8750    79.0850    11.6420    11.0470    11.1600    25.8710     2.4820    -7.7840 
  185.0000    75.7350    11.5450    10.9290    10.8610    25.8820     2.4740    -7.7360 
  185.1250    75.0330    11.5670    10.9060    10.6590    25.8830     2.4690    -7.6510 
  185.2500    76.8410    11.7240    11.0140    10.9130    25.9000     2.4670    -7.5170 
  185.3750    78.4330    11.9900    11.2590    11.4490    25.9490     2.4620    -7.3460 
  185.5000    77.5880    12.2690    11.5930    12.0180    26.0050     2.4520    -7.1690 
  185.6250    77.0740    12.3590    11.8520    12.5720    26.0350     2.4370    -7.0100 
  185.7500    78.8750    12.1080    11.8250    13.6840    26.0410     2.4240    -6.8730 
  185.8750    81.0860    11.4480    11.3660    14.9080    26.0640     2.4150    -6.8000 
  186.0000    82.1640    10.4420    10.4810    12.9770    26.0730     2.4100    -6.8300 
  186.1250    80.9450     9.2780     9.3360    10.1230    25.9920     2.3990    -6.9100 
  186.2500    79.1600     8.2110     8.2240     7.9390    25.8920     2.3800    -7.0330 
  186.3750    77.3100     7.3730     7.3000     6.7520    25.8480     2.3540    -7.2580 
  186.5000    76.1460     6.7980     6.6230     6.1530    25.8490     2.3290    -7.5200 
  186.6250    75.4230     6.4730     6.2070     5.8770    25.8320     2.3100    -7.7040 
  186.7500    75.2730     6.2790     5.9440     5.8010    25.8000     2.2960    -7.8960 
  186.8750    75.7830     6.1520     5.7740     5.8610    25.8060     2.2860    -8.0660 
