~V
VERS. 2.00: Ver 2.00
~W
STRT.M 49.0000:
STOP.M 243.0000:
STEP.M 0.1250:
NULL. -999.2500:
UWI. F10196:
~C
DEPT.M :
SP.MV :
DEN.GM/CC :
GR.API :
RML.OHMM :
RI. :
RXO.OHMM :
CALI.CM :
~A
# ...
  172.7500   -36.9460     2.1680    56.2580   226.3830   194.3790    93.0470    23.6180 
  172.8750   -36.8020     2.1650    57.8150   240.3840   206.8370   106.3650    23.4760 
  173.0000   -36.6580     2.1640    56.3460   253.3980   218.8100   117.3070    23.3310 
  173.1250   -36.5730     2.1650    54.9440   263.6100   228.5820   116.1300    23.1900 
  173.2500   -36.4960     2.1670    55.8840   269.0020   234.0770   107.3630    23.0660 
  173.3750   -36.4190     2.1730    54.8680   270.3590   235.5000   109.2890    23.0060 
  173.5000   -36.3330     2.1800    51.4030   269.6090   234.1630   123.0720    23.0090 
  173.6250   -36.1860     2.1860    49.6680   269.8690   232.7730   131.3520    23.0550 
  173.7500   -36.0010     2.1850    53.0040   274.9520   235.0480   128.1630    23.1370 
  173.8750   -35.8530     2.1800    56.0800   285.3330   242.0790   126.3150    23.2810 
  174.0000   -35.7550     2.1730    55.8580   300.0150   253.4360   131.9030    23.4510 
  174.1250   -35.6780     2.1680    54.9070   316.5290   267.3360   146.7900    23.6250 
  174.2500   -35.5560     2.1640    56.7920   330.6770   280.6890   174.1330    23.7700 
  174.3750   -35.3420     2.1610    58.9030   339.2670   290.6160   186.5170    24.0120 
  174.5000   -35.1090     2.1590    58.1600   340.6990   295.4870   185.0380    24.3740 
  174.6250   -34.9380     2.1590    56.4390   334.6910   294.7100   201.3880    24.7050 
  174.7500   -34.8110     2.1580    56.5440   319.6880   286.9900   234.0420    24.8280 
  174.8750   -34.6200     2.1570    57.5420   295.1460   271.9250   261.9210    24.8770 
  175.0000   -34.3190     2.1590    57.5670   258.7330   246.9100   257.1180    24.8650 
  175.1250   -33.9910     2.1670    57.1090   211.3410   210.5190   230.2790    24.7900 
  175.2500   -33.7520     2.1780    58.6640   161.1300   166.5080   196.9590    24.7020 
  175.3750   -33.5630     2.1880    64.0380   118.9370   125.6300   160.3250    24.6440 
  175.5000   -33.3460     2.2000    70.0140    88.9880    94.1730   120.4080    24.6020 
  175.6250   -33.0670     2.2150    73.5010    70.9440    73.8080    78.4970    24.5520 
  175.7500   -32.7920     2.2320    72.8320    63.6580    64.4540    54.4220    24.5170 
  175.8750   -32.6120     2.2430    70.2460    62.5830    61.8810    48.6990    24.5340 
  176.0000   -32.5370     2.2410    68.1370    64.9900    63.5780    58.6120    24.5890 
  176.1250   -32.4680     2.2300    67.8480    67.8310    66.6320    75.4520    24.6850 
  176.2500   -32.3060     2.2200    68.5510    67.3880    67.1550    83.7270    24.7460 
  176.3750   -32.1460     2.2180    69.2600    63.1040    63.7520    80.8550    24.7610 
  176.5000   -32.0330     2.2250    69.2360    56.9140    57.7970    69.7350    24.7360 
  176.6250   -31.9900     2.2370    67.6830    51.7620    52.0540    51.1440    24.7110 
  176.7500   -32.0680     2.2500    65.5630    50.4300    49.3790    42.1680    24.7060 
  176.8750   -32.1660     2.2530    65.3110    53.0710    50.3300    46.6500    24.7040 
  177.0000   -32.2380     2.2380    67.4580    59.5540    55.0280    59.7800    24.6270 
  177.1250   -32.3240     2.2110    70.1960    69.3760    63.2250    74.2830    24.3720 
  177.2500   -32.5150     2.1910    70.8030    76.9430    74.2750    83.7420    23.9420 
  177.3750   -32.7750     2.1870    68.8660    88.1140    85.5870    92.6140    23.6010 
  177.5000   -33.0490     2.1950    64.8280    96.4840    94.5830   102.9910    23.4460 
  177.6250   -33.2630     2.2050    63.3250   100.2060    99.2010   109.0620    23.4570 
  177.7500   -33.3610     2.2100    65.7280    98.4030    98.1930   110.2030    23.7140 
  177.8750   -33.4300     2.2100    67.3910    93.5530    93.7080   107.5830    24.1420 
  178.0000   -33.5250     2.2060    66.4120    87.6690    87.6420   103.1300    24.5350 
  178.1250   -33.6580     2.1990    65.4220    82.3410    81.6710    92.6620    24.7020 
  178.2500   -33.7430     2.1800    66.4660    78.6160    77.0490    83.5990    24.6790 
  178.3750   -33.7550     2.1470    68.5660    76.2720    73.7760    88.0480    24.4410 
  178.5000   -33.7760     2.1200    70.7050    75.1320    71.7140    88.0480    23.8660 
  178.6250   -33.8700     2.1220    73.3220    75.2010    70.8700    79.3970    23.1550 
  178.7500   -34.0270     2.1600    74.2760    76.8900    71.6120    73.1750    22.9190 
  178.8750   -34.1830     2.2000    71.9920    80.1790    73.8440    73.7040    22.9200 
  179.0000   -34.2850     2.2210    70.2910    85.1680    77.6350    76.2410    22.9640 
  179.1250   -34.3140     2.2280    71.9890    91.6970    82.9040    80.6970    22.9760 
  179.2500   -34.3490     2.2280    73.9200    99.2070    89.2660    92.5140    22.9820 
  179.3750   -34.4230     2.2300    71.5120   106.5110    95.6220   101.6060    22.9940 
  179.5000   -34.4650     2.2330    67.2830   112.8830   101.2290   110.3920    22.9980 
  179.6250   -34.4710     2.2340    65.8110   118.0190   105.6960   116.0780    23.0130 
  179.7500   -34.4610     2.2280    65.6630   121.8340   108.8320   114.1960    23.0620 
  179.8750   -34.4310     2.2150    64.0800   124.8290   111.1200   108.9060    23.2810 
  180.0000   -34.3810     2.1930    63.2210   127.2160   112.8440   105.4040    23.7160 
  180.1250   -34.3530     2.1640    64.1360   129.0360   114.1540   102.8460    24.2180 
  180.2500   -34.3700     2.1420    65.1560   130.0600   114.9780   102.3270    24.4630 
  180.3750   -34.3830     2.1350    64.5260   130.2780   115.2870   106.5570    24.5690 
  180.5000   -34.3780     2.1450    63.7690   129.6540   114.9890   112.2290    24.6900 
  180.6250   -34.3210     2.1640    64.0640   128.2240   114.0440   115.6870    24.8160 
  180.7500   -34.2140     2.1820    66.3040   125.9670   112.3760   116.2920    24.9010 
  180.8750   -34.1710     2.1950    69.6920   123.0830   110.1240   114.8620    24.9540 
  181.0000   -34.2240     2.2050    70.4500   119.6460   107.3220   109.5360    24.9850 
  181.1250   -34.2770     2.2120    67.9520   115.8600   104.1060   100.7890    24.9960 
  181.2500   -34.2580     2.2150    66.5600   112.2480   100.8420    91.4430    24.9920 
  181.3750   -34.2270     2.2150    68.0210   109.4450    98.0960    86.3730    24.9930 
  181.5000   -34.2420     2.2140    68.3080   107.9210    96.3350    85.6650    25.0180 
  181.6250   -34.3550     2.2110    65.1060   107.8820    95.8240    85.5180    25.0730 
  181.7500   -34.5120     2.2030    64.2080   109.4190    96.7410    86.0250    25.0680 
  181.8750   -34.5830     2.1970    66.9590   111.9580    98.6130    89.1920    24.9530 
  182.0000   -34.5810     2.1960    69.2870   115.2410   101.1840    94.4660    24.7350 
  182.1250   -34.6040     2.1980    67.5630   119.2250   104.3440    96.1370    24.4790 
  182.2500   -34.7020     2.2000    64.6320   124.2790   108.3110    91.9670    24.2450 
  182.3750   -34.8220     2.2030    63.0660   130.4890   113.1470    90.0490    24.0620 
  182.5000   -34.8920     2.2040    61.4670   137.7600   118.8460    95.3280    23.9680 
  182.6250   -34.8400     2.2030    60.1660   145.4450   125.0240   111.1250    24.0380 
  182.7500   -34.7250     2.2000    60.7670   151.7760   130.4740   134.2710    24.2830 
  182.8750   -34.6470     2.1970    61.3250   155.0020   133.8110   151.0020    24.5320 
  183.0000   -34.5920     2.1980    61.5030   154.0980   134.1070   154.9960    24.6720 
  183.1250   -34.5330     2.2030    63.2730   149.4800   131.4200   150.2180    24.7070 
  183.2500   -34.4580     2.2080    65.1870   142.9640   126.8290   140.6670    24.7060 
  183.3750   -34.3370     2.2100    63.6910   137.3010   122.5020   129.2600    24.7120 
  183.5000   -34.2030     2.2100    60.3160   134.0490   119.8420   119.7370    24.7220 
  183.6250   -34.1230     2.2090    58.9460   133.9590   119.6970   117.8980    24.7370 
  183.7500   -34.1160     2.2050    58.8490   137.3580   122.7370   121.5950    24.7560 
  183.8750   -34.1530     2.2020    58.9690   142.2640   127.7010   128.1460    24.7720 
