~V
VERS. 2.00: Ver 2.00
~W
STRT.M 56.0000:
STOP.M 214.0000:
STEP.M 0.1250:
NULL. -999.2500:
UWI. F10128:
~C
DEPT.M :
SP.MV :
GR.API :
RML.OHMM :
RI. :
RXO.OHMM :
CALI.CM :
DEN.GM/CC :
~A
# ...
  123.5000    -8.9890    78.2930    18.8890    15.7390    16.1730    25.9300     2.2150 
  123.6250    -9.1190    74.6090    19.7670    16.4730    18.3190    26.1490     2.1500 
  123.7500    -9.2080    71.0110    20.7990    17.5030    20.2910    26.2140     2.1160 
  123.8750    -9.2320    68.4650    21.4400    18.3960    20.8510    26.1570     2.1060 
  124.0000    -9.2120    68.2120    21.4320    18.7750    20.6180    26.0710     2.1030 
  124.1250    -9.1620    71.4260    20.8360    18.5720    20.2610    25.9920     2.1020 
  124.2500    -9.0550    75.7520    20.0260    18.0590    19.5470    25.9130     2.0980 
  124.3750    -8.9460    77.8910    19.7100    17.8050    18.3330    25.7870     2.0920 
  124.5000    -8.8360    76.9040    20.3640    18.2540    16.9210    25.6320     2.0950 
  124.6250    -8.7410    73.7020    22.1200    19.6290    16.7140    25.4400     2.1200 
  124.7500    -8.5830    70.3290    24.5380    21.8260    19.4160    25.2400     2.1820 
  124.8750    -8.3970    68.8530    26.1720    23.8260    27.7890    25.0430     2.2850 
  125.0000    -8.2500    69.0080    25.6410    23.8110    37.5840    24.8990     2.4010 
  125.1250    -8.0640    70.1190    22.5800    20.9500    34.4550    24.7990     2.4980 
  125.2500    -7.8710    74.7820    17.9140    16.4430    22.0170    24.6730     2.5480 
  125.3750    -7.6600    84.5820    13.4910    12.4550    12.0690    24.5670     2.5350 
  125.5000    -7.4820    94.6600    10.5670     9.8490     7.8190    24.5240     2.4930 
  125.6250    -7.3540    98.2920     9.4450     8.6450     6.1980    24.5250     2.4540 
  125.7500    -7.2990    92.2710     9.9910     8.7080     7.7910    24.5360     2.4430 
  125.8750    -7.3040    82.7220    12.0500    10.1190    13.9380    24.5270     2.4700 
  126.0000    -7.2960    77.2250    14.8310    12.5100    18.7300    24.4940     2.5120 
  126.1250    -7.2920    74.4240    17.6330    15.3960    20.2270    24.4380     2.5490 
  126.2500    -7.2390    70.8940    19.7720    17.9320    19.4270    24.3680     2.5690 
  126.3750    -7.0990    66.8510    20.7590    19.2150    17.8680    24.3020     2.5690 
  126.5000    -6.8530    64.4830    21.0320    19.5980    17.5930    24.2430     2.5620 
  126.6250    -6.5020    63.8840    21.0740    19.6570    18.6090    24.2200     2.5550 
  126.7500    -6.1410    65.9660    21.2090    19.7610    19.9360    24.2260     2.5520 
  126.8750    -5.8090    69.2650    21.4630    19.9380    19.9610    24.2530     2.5550 
  127.0000    -5.5630    70.0400    21.5950    19.9760    19.5820    24.2510     2.5610 
  127.1250    -5.3510    66.8020    21.4050    19.6840    17.8040    24.1470     2.5680 
  127.2500    -5.2100    62.7670    20.8130    18.9990    15.6760    23.9850     2.5720 
  127.3750    -5.1580    62.9000    19.8800    18.0250    14.8340    23.9180     2.5680 
  127.5000    -5.1970    63.8900    18.8930    17.0590    13.4760    23.9040     2.5600 
  127.6250    -5.2900    62.3720    18.0710    16.2980    12.2030    23.8640     2.5540 
  127.7500    -5.4230    59.7890    17.5660    15.8680    11.2350    23.7430     2.5530 
  127.8750    -5.5580    60.2260    17.5060    15.8700    11.5400    23.5530     2.5580 
  128.0000    -5.6320    62.7590    17.7990    16.2100    11.8570    23.4050     2.5640 
  128.1250    -5.7220    64.2040    18.3690    16.8230    12.0280    23.4880     2.5650 
  128.2500    -5.7750    64.6680    19.0900    17.6190    13.5320    23.8340     2.5540 
  128.3750    -5.8040    65.8040    19.7240    18.4160    15.7910    24.4310     2.5290 
  128.5000    -5.7890    67.9280    19.9730    18.9170    17.1550    24.7410     2.4950 
  128.6250    -5.7440    70.5960    19.6760    18.8160    17.4540    24.8430     2.4630 
  128.7500    -5.6890    71.7150    18.8130    17.9320    18.0600    24.8600     2.4430 
  128.8750    -5.6160    72.3550    17.3680    16.3150    16.8520    24.8350     2.4420 
  129.0000    -5.5630    74.9380    15.6250    14.5040    13.9120    24.8090     2.4560 
  129.1250    -5.5290    77.8290    13.9520    12.8960    10.7970    24.7660     2.4770 
  129.2500    -5.5230    78.5380    12.7540    11.7560     9.4300    24.7150     2.4960 
  129.3750    -5.5890    74.5230    12.3540    11.3070     9.8790    24.7420     2.5080 
  129.5000    -5.6690    68.2350    12.5920    11.4530    10.1360    24.7930     2.5140 
  129.6250    -5.7840    61.9360    13.3410    12.1220    10.2330    24.8100     2.5130 
  129.7500    -5.8750    58.4510    14.4170    13.1860    11.0210    24.7900     2.5080 
  129.8750    -5.9720    58.1540    15.6040    14.4540    12.3130    24.7340     2.4980 
  130.0000    -6.0880    57.3580    16.6930    15.6710    13.9270    24.6690     2.4870 
  130.1250    -6.2300    57.4150    17.5880    16.7080    14.9270    24.6760     2.4770 
  130.2500    -6.4070    59.9220    18.2410    17.5140    15.7840    24.7480     2.4700 
  130.3750    -6.6120    63.6980    18.5580    18.0090    15.9200    24.8350     2.4660 
  130.5000    -6.8400    66.6980    18.5320    18.1770    16.0030    24.8500     2.4620 
  130.6250    -7.0980    68.7540    18.1420    17.9670    16.8440    24.8130     2.4550 
  130.7500    -7.4390    68.9820    17.4550    17.4010    18.0030    24.7510     2.4470 
  130.8750    -7.8350    64.5590    16.6650    16.6280    16.7450    24.7500     2.4420 
  131.0000    -8.3000    59.4420    16.0800    15.9720    14.0940    24.7810     2.4470 
  131.1250    -8.7810    57.2700    15.9340    15.6810    12.6130    24.8160     2.4620 
  131.2500    -9.3080    57.2660    16.3430    15.9100    13.1660    24.8220     2.4840 
  131.3750    -9.8750    55.5510    17.2690    16.7230    15.9450    24.8330     2.5110 
  131.5000   -10.4760    50.9740    18.2690    17.7500    17.7910    24.8290     2.5360 
  131.6250   -11.1410    47.7970    18.9140    18.5270    18.7220    24.8110     2.5540 
  131.7500   -11.8100    50.1190    18.9100    18.6160    19.2930    24.7980     2.5610 
  131.8750   -12.5100    57.8680    18.2840    17.9200    17.7150    24.7920     2.5530 
  132.0000   -13.2630    66.7780    17.7290    17.1420    14.6660    24.7620     2.5330 
  132.1250   -14.0820    75.2300    18.0580    16.9790    12.0410    24.6690     2.5050 
  132.2500   -15.0030    81.2850    20.1260    18.1270    11.7830    24.4100     2.4660 
  132.3750   -16.0080    80.4840    25.7140    22.0490    15.4280    23.9950     2.4150 
  132.5000   -17.0990    75.6680    36.0000    29.8420    27.2720    23.7690     2.3560 
  132.6250   -18.2200    71.9600    51.6640    42.7480    49.9180    24.1490     2.2980 
  132.7500   -19.3610    70.9760    71.4530    60.7880    90.8180    24.6660     2.2520 
  132.8750   -20.4930    68.6520    91.5190    80.8400   121.2410    24.9040     2.2270 
  133.0000   -21.5560    66.1300   107.6050    96.9300   130.8860    24.9990     2.2150 
  133.1250   -22.5540    65.5160   118.1710   106.6160   128.1620    25.0330     2.2120 
  133.2500   -23.4390    64.9420   124.3220   111.7530   113.8950    24.9920     2.2120 
  133.3750   -24.2970    62.2360   128.5910   115.7910   112.2510    24.8860     2.2100 
  133.5000   -25.0990    60.8080   132.7700   120.2140   132.8970    24.8840     2.2030 
  133.6250   -25.8600    62.0690   136.5660   124.3900   139.9290    25.0540     2.1890 
  133.7500   -26.6120    63.3910   139.2470   127.5630   132.4370    25.2410     2.1710 
  133.8750   -27.3140    64.2180   140.1620   129.1680   153.4350    25.0600     2.1580 
  134.0000   -28.0320    66.8160   139.7300   129.5220   142.4730    24.5550     2.1570 
  134.1250   -28.7610    69.1890   138.3980   129.0480   120.7680    24.0340     2.1650 
  134.2500   -29.4590    68.7570   136.7050   128.2950   132.2230    23.7980     2.1780 
  134.3750   -30.1150    67.3010   135.3610   127.8320   153.5200    23.9180     2.1900 
  134.5000   -30.7430    66.3740   135.0610   128.2130   147.1330    24.2820     2.1990 
  134.6250   -31.3320    65.0850   136.5090   130.1600   121.0450    24.7580     2.2040 
