~V
VERS. 2.00: Ver 2.00
~W
STRT.M 53.0000:
STOP.M 242.0000:
STEP.M 0.1250:
NULL. -999.2500:
UWI. F10177:
~C
DEPT.M :
SP.MV :
GR.API :
RML.OHMM :
RI. :
RXO.OHMM :
CALI.CM :
DEN.GM/CC :
~A
   53.0000   142.7490  -999.2500  -999.2500  -999.2500  -999.2500  -999.2500     0.0000 
   53.1250   142.6840  -999.2500  -999.2500  -999.2500  -999.2500  -999.2500     0.0000 
   53.2500   142.4680  -999.2500  -999.2500  -999.2500  -999.2500  -999.2500     0.0000 
   53.3750   142.0790  -999.2500  -999.2500  -999.2500  -999.2500  -999.2500     0.0000 
   53.5000   141.6290  -999.2500  -999.2500  -999.2500  -999.2500  -999.2500     0.0000 
   53.6250   141.1490  -999.2500  -999.2500  -999.2500  -999.2500  -999.2500     1.4790 
   53.7500   140.6330  -999.2500  -999.2500  -999.2500  -999.2500  -999.2500     1.9650 
   53.8750   140.0210    49.3290    11.3610     0.9880     1.5340    25.4460     1.9590 
   54.0000   139.2450    49.3290    11.3610     0.9880     1.5340    25.4460     1.9590 
   54.1250   138.2930    47.8740    10.5960     0.9960     1.5620    25.4760     1.9700 
   54.2500   137.2890    46.5160     9.4850     0.9990     1.5700    25.5080     1.9940 
   54.3750   136.3680    47.1330     8.7070     0.9820     1.5630    25.5000     2.0320 
   54.5000   135.5000    48.1630     8.1670     0.9580     1.4620    25.4700     2.0750 
   54.6250   134.6700    48.0460     7.7840     0.9390     1.2220    25.4220     2.1150 
   54.7500   133.8870    46.7240     7.4910     0.9280     0.9640    25.3330     2.1430 
   54.8750   133.2680    46.6880     7.2370     0.9250     0.9300    25.5570     2.1520 
   55.0000   132.9170    48.6610     6.9680     0.9260     0.9550    25.8200     2.1450 
   55.1250   132.8200    51.6760     6.6620     0.9260     1.0260    25.4060     2.1290 
   55.2500   132.7440    55.2830     6.3260     0.9210     1.1270    24.8850     2.1050 
   55.3750   132.2160    58.7310     5.9940     0.9110     1.2550    24.7870     2.0780 
   55.5000   131.1080    60.9730     5.7020     0.9010     1.3620    24.9880     2.0550 
   55.6250   129.4110    60.6500     5.4700     0.8950     1.4770    24.9070     2.0390 
   55.7500   127.1670    59.0540     5.3000     0.8950     1.6230    24.6710     2.0320 
   55.8750   124.2030    58.0710     5.1850     0.9010     1.8050    24.4880     2.0330 
   56.0000   120.5610    56.2490     5.0980     0.9120     1.9170    24.4080     2.0350 
   56.1250   116.2470    54.1650     5.0270     0.9240     1.9770    24.3620     2.0350 
   56.2500   111.2770    53.2390     4.9600     0.9380     1.9140    24.3620     2.0330 
   56.3750   105.7340    53.7900     4.8870     0.9520     1.7190    24.7470     2.0340 
   56.5000    99.9630    52.8050     4.8040     0.9640     1.6350    25.4080     2.0390 
   56.6250    94.0930    50.1350     4.7100     0.9730     1.9260    25.6990     2.0480 
   56.7500    88.1060    48.1800     4.6150     0.9780     1.9840    25.7580     2.0610 
   56.8750    82.1450    48.5470     4.5380     0.9800     2.6990    25.8050     2.0750 
   57.0000    76.3250    50.4460     4.5000     0.9840     3.8390    25.9230     2.0850 
   57.1250    70.7440    52.3360     4.5180     0.9910     5.0300    25.9600     2.0870 
   57.2500    65.6990    51.7180     4.6100     1.0020     5.4710    25.9670     2.0800 
   57.3750    61.6270    48.1030     4.7760     1.0090     5.7890    25.9750     2.0650 
   57.5000    58.3910    45.2380     4.9080     0.9960     5.9670    25.9950     2.0490 
   57.6250    55.8210    45.9670     4.8110     0.9320     5.9960    26.0180     2.0350 
   57.7500    53.8000    49.0870     4.2850     0.7880     5.9800    26.0320     2.0250 
   57.8750    52.1530    50.6830     3.2600     0.5680     6.1830    26.0350     2.0310 
   58.0000    50.5480    49.8700     2.0960     0.3540     6.2970    26.0360     2.0720 
   58.1250    48.6830    48.7990     1.1060     0.1980     5.9450    26.0370     2.1650 
   58.2500    46.0870    50.4250     0.4680     0.1100     4.2200    26.0210     2.3020 
   58.3750    41.9860    54.2900     0.2560     0.0840     2.1420    25.9580     2.4260 
   58.5000    36.2940    56.2920     0.3770     0.1080     1.4480    25.9960     2.4700 
   58.6250    29.1630    56.1980     0.8680     0.2040     1.9650    26.5320     2.4030 
   58.7500    21.1010    57.2230     1.8520     0.4290     4.7250    27.5700     2.2470 
   58.8750    12.7320    62.1350     3.5350     0.9280     6.1750    27.7380     2.0810 
   59.0000     4.5780    69.7380     5.5500     1.7490     7.2640    26.4760     1.9800 
   59.1250    -3.1100    77.5520     7.2730     2.8210     8.2510    24.9810     1.9610 
   59.2500   -10.0900    81.9150     8.1600     3.8990     9.3240    24.1140     2.0040 
   59.3750   -15.7960    78.8040     8.1320     4.7160    10.0790    24.1040     2.0690 
   59.5000   -20.0920    71.8650     7.8710     5.3010    10.4760    24.9900     2.1200 
   59.6250   -22.9920    66.3350     7.7400     5.7230    10.9900    25.4030     2.1490 
   59.7500   -24.8630    64.8600     7.7830     6.0090    11.4020    25.4030     2.1570 
   59.8750   -26.1260    67.0880     7.8700     6.1380    11.5740    25.4030     2.1480 
   60.0000   -27.1550    70.7950     7.8890     6.1590    11.5700    25.4030     2.1340 
   60.1250   -27.9930    74.0990     7.8330     6.1280    11.5030    25.4030     2.1230 
   60.2500   -28.6110    74.6920     7.7500     6.1080    11.4220    25.4030     2.1200 
   60.3750   -28.9150    72.1580     7.7070     6.1430    11.3680    25.0060     2.1290 
   60.5000   -29.0030    68.4350     7.7260     6.2200    11.5220    23.8020     2.1470 
   60.6250   -28.9200    65.8550     7.7850     6.3120    11.7520    23.8170     2.1730 
   60.7500   -28.6900    65.9250     7.8430     6.3850    11.6140    23.8800     2.2040 
   60.8750   -28.3860    71.0740     7.8530     6.4020    11.1550    23.9200     2.2350 
   61.0000   -28.0730    78.2430     7.8220     6.3590    10.3310    23.9650     2.2560 
   61.1250   -27.7100    82.6290     7.7770     6.2640     9.8620    24.0790     2.2630 
   61.2500   -27.2530    80.9390     7.7520     6.1400     9.6450    24.2360     2.2550 
   61.3750   -26.8590    75.2610     7.7870     6.0340     9.5370    24.3080     2.2410 
   61.5000   -26.7600    72.5040     7.8850     5.9810     9.4030    24.3330     2.2300 
   61.6250   -27.1400    73.9080     8.0420     5.9970     9.3690    24.2410     2.2260 
   61.7500   -28.0890    75.7870     8.2370     6.0770     9.6940    24.1080     2.2270 
   61.8750   -29.5450    75.1670     8.4220     6.2070    10.7230    24.2350     2.2290 
   62.0000   -31.2330    73.3320     8.5360     6.3320    12.1710    24.4010     2.2250 
   62.1250   -33.0690    72.6980     8.5420     6.4030    12.8580    24.5310     2.2080 
   62.2500   -35.0250    71.7260     8.4450     6.4000    12.2570    24.6910     2.1760 
   62.3750   -36.9460    68.2350     8.2940     6.3400    11.2430    24.9160     2.1370 
   62.5000   -38.5940    64.3070     8.1630     6.2820    10.5360    25.0120     2.1110 
   62.6250   -39.7850    62.3470     8.0750     6.2600    10.4620    25.0400     2.1090 
   62.7500   -40.3730    62.8590     8.0100     6.2760    10.7600    25.0390     2.1230 
   62.8750   -40.2440    63.2180     7.9060     6.3020    11.3010    25.2020     2.1220 
   63.0000   -39.5470    63.5580     7.7170     6.2920    11.6320    25.6800     2.0890 
   63.1250   -38.3260    66.3940     7.4310     6.2160    10.8920    26.3680     2.0310 
   63.2500   -36.6250    71.7730     7.0620     6.0690     9.3920    26.7620     1.9780 
   63.3750   -34.3880    77.2880     6.6410     5.8560     8.7950    26.4100     1.9690 
   63.5000   -31.7400    81.7170     6.2230     5.6150     8.6970    25.7750     2.0060 
   63.6250   -28.8420    87.1520     5.8520     5.3770     8.0200    25.2250     2.0710 
   63.7500   -25.9600    94.8050     5.5730     5.1750     6.7420    24.6490     2.1380 
   63.8750   -23.4230   101.0960     5.4500     5.0560     6.0570    24.2590     2.1840 
   64.0000   -21.3520   102.8400     5.4730     5.0310     5.9580    24.0160     2.2070 
   64.1250   -19.7620   101.6840     5.6160     5.0990     5.9950    23.8810     2.2140 
