~V
VERS. 2.00: Ver 2.00
~W
STRT.M 49.0000:
STOP.M 290.0000:
STEP.M 0.1250:
NULL. -999.2500:
UWI. F10103:
~C
DEPT.M :
DEN.GM/CC :
SP.MV :
GR.API :
RML.OHMM :
RI. :
RXO.OHMM :
CALI.CM :
~A
# ...
  150.2500     2.4080    -3.4940    52.2080    12.7490    12.3510    13.0920    24.7200 
  150.3750     2.4140    -3.6450    49.6810    12.6250    12.1990    12.9670    24.4940 
  150.5000     2.4320    -3.7900    48.3180    12.5560    12.0690    12.4990    24.1620 
  150.6250     2.4550    -3.9360    49.7930    12.5420    11.9700    12.5080    23.8660 
  150.7500     2.4700    -4.0930    51.9530    12.5790    11.9080    12.8140    23.8490 
  150.8750     2.4700    -4.2610    52.1950    12.6270    11.8620    13.2550    23.9770 
  151.0000     2.4570    -4.4330    50.8550    12.6610    11.8150    13.0700    24.1040 
  151.1250     2.4380    -4.6110    50.0030    12.6850    11.7740    12.7420    24.1050 
  151.2500     2.4230    -4.7780    50.7530    12.7750    11.7970    12.5350    23.9870 
  151.3750     2.4170    -4.9150    50.7510    13.0450    11.9660    12.5780    23.8470 
  151.5000     2.4220    -4.9980    50.0720    13.6110    12.3750    13.1750    23.7570 
  151.6250     2.4360    -5.0140    49.6400    14.5410    13.0940    14.6850    23.6890 
  151.7500     2.4540    -4.9480    47.7650    15.8210    14.1540    16.9580    23.6390 
  151.8750     2.4720    -4.7910    46.1280    17.1590    15.3400    19.7030    23.7180 
  152.0000     2.4900    -4.5670    47.0770    18.2290    16.3860    23.0080    23.9130 
  152.1250     2.5080    -4.3100    50.0060    18.7110    16.9950    25.8560    24.1820 
  152.2500     2.5230    -4.0290    50.7370    18.3000    16.8330    23.9430    24.4630 
  152.3750     2.5330    -3.7500    50.8010    17.2530    16.0550    19.1620    24.6760 
  152.5000     2.5330    -3.5190    52.5360    15.9070    14.9250    15.4850    24.8560 
  152.6250     2.5220    -3.3400    52.9310    14.6400    13.7720    13.9940    24.9890 
  152.7500     2.5040    -3.2170    50.3030    13.7850    12.9030    14.0800    25.0300 
  152.8750     2.4900    -3.1690    47.8260    13.3410    12.3710    14.1150    25.0210 
  153.0000     2.4840    -3.1700    46.0000    13.2320    12.1470    13.7260    24.9880 
  153.1250     2.4870    -3.1870    44.6990    13.3370    12.1540    13.2490    24.9350 
  153.2500     2.4950    -3.2290    45.4690    13.5480    12.3170    13.4060    24.8940 
  153.3750     2.5000    -3.2870    47.4500    13.7620    12.5290    13.8320    24.8660 
  153.5000     2.5020    -3.3340    47.1100    13.9290    12.7340    13.8350    24.8730 
  153.6250     2.4980    -3.3600    44.2990    14.0160    12.8870    14.3010    24.9020 
  153.7500     2.4910    -3.3650    42.2120    13.9860    12.9360    14.6100    24.9280 
  153.8750     2.4820    -3.3420    41.6740    13.8510    12.8730    14.8340    24.9280 
  154.0000     2.4710    -3.3200    41.9190    13.6200    12.6970    14.8320    24.9240 
  154.1250     2.4590    -3.3130    42.5410    13.3050    12.4200    14.2730    24.9050 
  154.2500     2.4500    -3.3160    43.4920    12.9130    12.0510    13.1710    24.8810 
  154.3750     2.4460    -3.3500    44.6810    12.4850    11.6390    12.1050    24.8480 
  154.5000     2.4470    -3.4150    45.6050    12.0620    11.2200    11.4910    24.8080 
  154.6250     2.4500    -3.5080    45.5170    11.6880    10.8330    11.2290    24.7770 
  154.7500     2.4530    -3.6080    44.6430    11.4200    10.5270    11.2500    24.7420 
  154.8750     2.4520    -3.7170    44.2000    11.2640    10.3150    11.3810    24.7280 
  155.0000     2.4470    -3.8270    45.7790    11.2140    10.2020    11.5010    24.7280 
  155.1250     2.4400    -3.9440    49.4920    11.2480    10.1750    11.8610    24.7650 
  155.2500     2.4300    -4.0730    50.3210    11.3470    10.2220    12.3470    24.7830 
  155.3750     2.4210    -4.1870    46.6510    11.4800    10.3090    12.2870    24.7800 
  155.5000     2.4110    -4.2970    41.8370    11.6300    10.4160    11.7890    24.7600 
  155.6250     2.4040    -4.4300    40.4420    11.7810    10.5210    11.6330    24.7350 
  155.7500     2.4000    -4.5940    43.3470    11.7800    10.5860    11.9010    24.6920 
  155.8750     2.4010    -4.7730    46.0660    11.6750    10.5880    12.1650    24.6460 
  156.0000     2.4060    -4.9660    46.2020    11.4220    10.5140    11.9430    24.5910 
  156.1250     2.4150    -5.2000    44.3400    10.8980    10.3690    11.3660    24.5440 
  156.2500     2.4250    -5.4960    43.1360    10.7550    10.1750    10.8740    24.5040 
  156.3750     2.4340    -5.8560    43.5630    10.6290     9.9920    10.5650    24.4650 
  156.5000     2.4390    -6.2520    44.5980    10.5870     9.8760    10.4570    24.3960 
  156.6250     2.4360    -6.6570    45.8460    10.6850     9.8700    10.7770    24.2500 
  156.7500     2.4250    -7.0600    46.6220    10.9720    10.0260    11.3330    23.9700 
  156.8750     2.4100    -7.4420    48.1780    11.3960    10.3120    12.3010    23.6350 
  157.0000     2.3950    -7.7960    51.5460    11.8940    10.6930    13.3770    23.4350 
  157.1250     2.3830    -8.0890    55.2920    12.3790    11.1080    14.0090    23.4120 
  157.2500     2.3730    -8.2810    56.2150    12.7290    11.4650    14.0970    23.4550 
  157.3750     2.3620    -8.3780    54.5140    12.8800    11.6870    14.2180    23.5190 
  157.5000     2.3470    -8.3880    52.6240    12.8080    11.7270    14.6630    23.6200 
  157.6250     2.3280    -8.3260    52.7360    12.5460    11.5850    14.6040    23.7500 
  157.7500     2.3120    -8.1740    53.3530    12.1570    11.2860    13.7590    23.7880 
  157.8750     2.3040    -7.9810    52.3840    11.7420    10.9250    12.4720    23.7460 
  158.0000     2.3110    -7.7440    51.3620    11.3450    10.5550    11.4620    23.6740 
  158.1250     2.3310    -7.4670    52.3210    10.9730    10.1990    11.0210    23.6290 
  158.2500     2.3610    -7.1620    52.2640    10.5810     9.8360    10.4980    23.6120 
  158.3750     2.3910    -6.8440    49.2550    10.1030     9.4060     9.7370    23.5620 
  158.5000     2.4120    -6.5170    47.8270     9.4850     8.8590     8.8310    23.4040 
  158.6250     2.4150    -6.1860    51.0830     8.7150     8.1730     8.0220    23.1540 
  158.7500     2.3920    -5.8910    54.5880     7.8340     7.3720     7.0500    23.0380 
  158.8750     2.3480    -5.6060    55.3900     6.9740     6.5710     5.9800    23.0730 
  159.0000     2.2960    -5.3360    56.3510     6.2360     5.8590     5.0120    23.2290 
  159.1250     2.2490    -5.0900    59.4180     5.6850     5.3000     4.6660    23.4560 
  159.2500     2.2190    -4.8870    64.9360     5.3670     4.9470     4.5870    23.7210 
  159.3750     2.2020    -4.7130    69.8770     5.2170     4.7580     4.5850    23.9920 
  159.5000     2.1930    -4.5680    72.1010     5.1880     4.7020     4.5810    24.3600 
  159.6250     2.1870    -4.4530    71.9950     5.2390     4.7420     4.6070    24.7830 
  159.7500     2.1870    -4.3660    70.8930     5.3440     4.8500     4.6610    25.0130 
  159.8750     2.1960    -4.3190    69.0750     5.4700     4.9850     4.7060    25.1010 
  160.0000     2.2150    -4.2930    65.9910     5.5970     5.1220     4.7460    25.0620 
  160.1250     2.2410    -4.2770    63.6880     5.6900     5.2300     4.7710    24.9430 
  160.2500     2.2670    -4.2590    64.6540     5.7000     5.2620     4.7680    24.8010 
  160.3750     2.2890    -4.2430    68.2050     5.6130     5.2010     4.7030    24.7100 
  160.5000     2.3050    -4.2350    72.3750     5.4360     5.0500     4.5590    24.6330 
  160.6250     2.3110    -4.2190    73.4430     5.2050     4.8340     4.4360    24.6390 
  160.7500     2.3040    -4.1960    70.8160     4.9820     4.6050     4.4000    24.6970 
  160.8750     2.2840    -4.1690    70.6380     4.8160     4.4150     4.4330    24.7570 
  161.0000     2.2560    -4.1550    74.3310     4.7250     4.2890     4.4370    24.8600 
  161.1250     2.2250    -4.1590    76.2210     4.7020     4.2300     4.4800    25.1650 
  161.2500     2.2020    -4.1970    72.8220     4.7260     4.2280     4.5230    25.6280 
  161.3750     2.1950    -4.2570    70.7940     4.7660     4.2520     4.5720    26.0680 
