~V
VERS. 2.00: Ver 2.00
~W
STRT.M 50.0000:
STOP.M 200.0000:
STEP.M 0.1250:
NULL. -999.2500:
UWI. F10131:
~C
DEPT.M :
GR.API :
RML.OHMM :
RI. :
RXO.OHMM :
CALI.CM :
SP.MV :
DEN.GM/CC :
~A
# ...
  162.5000    83.4300    68.8520    59.6010    35.7810    23.2230   -13.6610     2.2740 
  162.6250    79.1660    80.6510    71.0180    35.9000    23.1710   -13.8560     2.2640 
  162.7500    73.3260    91.8220    82.4130    37.3030    23.0630   -14.0360     2.2550 
  162.8750    71.5440   100.6730    92.0650    41.6780    22.9800   -14.1930     2.2460 
  163.0000    74.6990   106.1690    98.8520    52.0810    22.9840   -14.3320     2.2360 
  163.1250    78.1110   107.4610   101.8620    72.0560    23.1910   -14.4100     2.2260 
  163.2500    79.7020   104.9450   101.3800    88.0270    23.4280   -14.4080     2.2190 
  163.3750    79.9560    97.9250    96.6300    94.2590    23.5420   -14.3340     2.2160 
  163.5000    80.6530    86.0050    86.8830    87.5640    23.5120   -14.1980     2.2200 
  163.6250    81.8710    70.3070    72.4700    70.6580    23.2950   -14.0240     2.2350 
  163.7500    82.0590    55.0540    57.3000    36.0140    23.0590   -13.8350     2.2590 
  163.8750    81.2270    43.3970    44.6420    13.4200    22.8430   -13.6730     2.2850 
  164.0000    81.3940    37.0410    36.6010    13.1210    22.6350   -13.5140     2.3050 
  164.1250    84.2890    37.3400    34.9620    14.7310    22.6270   -13.3340     2.3050 
  164.2500    85.4280    43.4620    39.3710    19.8520    22.7340   -13.1660     2.2860 
  164.3750    80.9160    55.9450    50.6830    31.9160    22.8700   -13.0210     2.2550 
  164.5000    73.3090    75.4020    69.4470    46.5750    23.0610   -12.8850     2.2220 
  164.6250    67.7850   101.5510    94.6650    67.4860    23.4290   -12.7270     2.2070 
  164.7500    65.7690   128.5700   120.0460   106.5810    23.9300   -12.5650     2.2160 
  164.8750    65.7460   150.8310   140.2810   125.6030    24.1500   -12.3710     2.2510 
  165.0000    67.8860   165.6880   153.2340   111.7740    23.9100   -12.1960     2.3030 
  165.1250    70.8840   175.7330   161.3700   115.5020    23.5870   -12.0660     2.3610 
  165.2500    71.0330   188.2210   171.3350   141.6730    23.5760   -11.8880     2.4140 
  165.3750    67.6410   208.1640   187.8080   188.8460    23.8330   -11.6400     2.4590 
  165.5000    63.0530   239.2400   214.1130   244.9240    24.2170   -11.3720     2.4980 
  165.6250    61.1950   285.8140   253.7320   310.4190    24.3920   -11.1120     2.5350 
  165.7500    61.6990   335.5220   298.9260   355.8680    24.4170   -10.8530     2.5780 
  165.8750    64.3790   358.4700   330.3120   627.1320    24.3220   -10.5800     2.6270 
  166.0000    68.6100   323.5800   320.8990   704.7160    24.1310   -10.2490     2.6770 
  166.1250    70.0850   229.3620   253.0910   660.7790    23.9810    -9.8600     2.7070 
  166.2500    67.3030   131.7600   163.3470   454.1260    23.9050    -9.4890     2.7010 
  166.3750    63.6100    64.3730    86.7740   214.3650    23.8370    -9.1780     2.6540 
  166.5000    62.1850    29.9100    39.7550    68.9730    23.6620    -8.9120     2.5780 
  166.6250    61.6860    16.2580    19.7280    25.6270    23.3940    -8.7120     2.4970 
  166.7500    59.7710     9.8120    10.9040     8.9490    23.1440    -8.5760     2.4340 
  166.8750    58.6240     6.7740     7.1500     5.0100    22.9950    -8.4860     2.3950 
  167.0000    60.4940     5.4780     5.6020     4.7640    23.0360    -8.4670     2.3780 
  167.1250    63.6550     5.2360     5.1390     5.1600    23.2960    -8.5260     2.3750 
  167.2500    62.6910     5.3720     5.1150     5.5520    23.5700    -8.6590     2.3780 
  167.3750    58.2600     5.5830     5.3070     5.6150    23.6780    -8.8140     2.3850 
  167.5000    57.1560     5.7470     5.5540     5.4960    23.5880    -8.9610     2.3930 
  167.6250    62.9470     5.8090     5.7360     5.7190    23.3790    -9.0880     2.3970 
  167.7500    67.4780     5.7930     5.8270     5.8630    23.0870    -9.1990     2.3980 
  167.8750    64.8140     5.7270     5.8340     6.0150    22.7640    -9.2870     2.3980 
  168.0000    58.9740     5.6440     5.7800     6.0980    22.3840    -9.3450     2.3990 
  168.1250    56.9580     5.5880     5.6840     5.9150    22.0930    -9.3770     2.4000 
  168.2500    57.4210     5.5940     5.5760     5.7070    22.0150    -9.3790     2.3980 
  168.3750    57.9930     5.6700     5.4710     5.5810    22.2970    -9.3940     2.3920 
  168.5000    59.2280     5.7930     5.3790     5.5070    22.8400    -9.4310     2.3810 
  168.6250    60.5940     5.9010     5.3080     5.7050    23.2790    -9.4490     2.3670 
  168.7500    60.1800     5.9430     5.2450     5.8490    23.5100    -9.4220     2.3540 
  168.8750    58.0420     5.9070     5.1820     5.8590    23.6680    -9.4130     2.3470 
  169.0000    57.0580     5.8170     5.1110     5.8520    23.8850    -9.4190     2.3480 
  169.1250    57.1230     5.7190     5.0390     5.8440    24.0450    -9.4000     2.3570 
  169.2500    55.0410     5.6540     4.9820     5.7620    24.0390    -9.3640     2.3690 
  169.3750    50.7520     5.6370     4.9570     5.6930    23.9400    -9.3000     2.3800 
  169.5000    47.6920     5.6750     4.9730     5.7420    23.8410    -9.2170     2.3880 
  169.6250    49.2400     5.7690     5.0340     5.8200    23.8380    -9.1760     2.3950 
  169.7500    52.7290     5.8960     5.1210     5.9070    23.9160    -9.1840     2.4020 
  169.8750    54.5380     6.0430     5.2180     5.9310    24.0360    -9.1870     2.4070 
  170.0000    56.4010     6.1950     5.3070     5.9510    24.1290    -9.1870     2.4080 
  170.1250    59.3740     6.3290     5.3660     6.1470    24.1240    -9.2460     2.4020 
  170.2500    60.7870     6.4290     5.3890     6.5190    24.0320    -9.3820     2.3940 
  170.3750    60.2950     6.4810     5.3700     6.8930    23.9800    -9.5680     2.3850 
  170.5000    58.6550     6.4670     5.3070     7.0990    24.0170    -9.7910     2.3800 
  170.6250    58.2330     6.3600     5.2040     6.7030    24.0350    -9.9920     2.3770 
  170.7500    58.9330     6.1770     5.0880     6.3470    23.8680   -10.1760     2.3740 
  170.8750    60.3700     5.9560     4.9930     6.1600    23.6900   -10.3770     2.3690 
  171.0000    61.5470     5.7640     4.9530     5.9000    23.6090   -10.6270     2.3620 
  171.1250    59.4920     5.7120     5.0060     5.6690    23.6400   -10.8940     2.3580 
  171.2500    56.0750     5.8330     5.1360     5.6480    23.7340   -11.1580     2.3570 
  171.3750    53.1620     6.1110     5.3170     5.8800    23.8110   -11.4080     2.3610 
  171.5000    52.4280     6.4640     5.5100     6.1220    23.7980   -11.6160     2.3690 
  171.6250    55.5980     6.7630     5.6670     6.0140    23.6330   -11.8400     2.3780 
  171.7500    61.3620     6.9280     5.7650     5.8260    23.4050   -12.1290     2.3860 
  171.8750    69.2890     6.9480     5.8010     5.6520    23.1700   -12.4810     2.3930 
  172.0000    78.1770     6.8760     5.7860     5.5910    23.0600   -12.8920     2.3950 
  172.1250    86.6340     6.7920     5.7440     5.6190    22.9750   -13.4120     2.3900 
  172.2500    94.3430     6.7560     5.7050     5.4640    22.8630   -13.9900     2.3780 
  172.3750    99.7250     6.7850     5.6840     5.3540    22.9270   -14.6510     2.3610 
  172.5000   100.2380     6.8720     5.6870     5.4360    23.4070   -15.4310     2.3420 
  172.6250    98.6570     7.0150     5.7120     5.7980    24.1980   -16.3100     2.3260 
  172.7500   101.3010     7.1970     5.7520     6.2550    24.6210   -17.2370     2.3160 
  172.8750   107.2620     7.4150     5.8180     6.4590    24.6220   -18.1830     2.3120 
  173.0000   110.5640     7.6760     5.9390     6.4510    24.5850   -19.0990     2.3180 
  173.1250   108.6680     8.0070     6.1720     6.6440    24.5640   -19.9200     2.3410 
  173.2500   105.7470     8.4060     6.5110     7.1900    24.4250   -20.6890     2.3750 
  173.3750   103.7840     8.8470     6.9240     8.4710    24.1680   -21.4400     2.4070 
  173.5000   102.9870     9.2650     7.3400    11.2150    23.8730   -22.1750     2.4200 
  173.6250   103.3150     9.5660     7.6680    15.1340    23.7000   -22.8980     2.3990 
