~V
VERS. 2.00: Ver 2.00
~W
STRT.M 55.0000:
STOP.M 215.0000:
STEP.M 0.1250:
NULL. -999.2500:
UWI. F10125:
~C
DEPT.M :
GR.API :
RML.OHMM :
RI. :
RXO.OHMM :
CALI.CM :
DEN.GM/CC :
SP.MV :
~A
# ...
  201.2500    83.1430    15.0950    11.7950     8.9090    24.7760     2.4970   -14.0640 
  201.3750    80.5130    15.0580    11.8800    10.0090    24.9460     2.4910   -14.0610 
  201.5000    77.1750    14.8920    11.8470    11.4090    25.1490     2.4870   -14.1000 
  201.6250    72.4120    14.7690    11.7890    12.7580    25.3090     2.4880   -14.1460 
  201.7500    69.2260    14.7240    11.7610    13.3430    25.3350     2.4920   -14.1580 
  201.8750    70.5810    14.6820    11.7370    13.5350    25.3200     2.4930   -14.1420 
  202.0000    75.6900    14.5420    11.6630    14.5800    25.3530     2.4910   -14.1480 
  202.1250    79.6610    14.2380    11.4840    16.3400    25.3900     2.4870   -14.1900 
  202.2500    79.3140    13.8680    11.2440    16.0090    25.4680     2.4850   -14.2360 
  202.3750    76.6750    13.5580    11.0180    14.2290    25.5070     2.4830   -14.2810 
  202.5000    76.7710    13.4090    10.8810    12.3130    25.4650     2.4780   -14.2930 
  202.6250    80.1640    13.4740    10.8910    10.2210    25.4340     2.4700   -14.3110 
  202.7500    80.5670    13.6410    10.9950     9.1050    25.3900     2.4620   -14.3570 
  202.8750    76.9080    13.7810    11.1210     9.6830    25.3270     2.4580   -14.3980 
  203.0000    75.0830    13.7840    11.1840    10.6370    25.2220     2.4600   -14.4450 
  203.1250    77.9660    13.5780    11.1040    11.0270    25.2210     2.4720   -14.4810 
  203.2500    80.6990    13.2420    10.9050    11.2410    25.2390     2.4870   -14.4810 
  203.3750    80.6820    12.8700    10.6440    10.7680    25.2200     2.4980   -14.4570 
  203.5000    77.6670    12.5680    10.4010     9.8530    25.2130     2.5040   -14.4370 
  203.6250    73.9470    12.4690    10.2790    10.1620    25.2990     2.5090   -14.4380 
  203.7500    70.7230    12.5990    10.3130    11.7070    25.4120     2.5120   -14.4640 
  203.8750    69.9810    12.9650    10.5140    14.2350    25.4800     2.5080   -14.4940 
  204.0000    71.2950    13.5240    10.8670    15.3860    25.4710     2.4970   -14.5090 
  204.1250    72.1000    14.1680    11.3330    14.9520    25.5140     2.4890   -14.5060 
  204.2500    71.0070    14.7370    11.8000    13.8470    25.5330     2.4870   -14.5210 
  204.3750    69.0710    15.1320    12.1820    13.4490    25.3900     2.4880   -14.5720 
  204.5000    67.7320    15.3320    12.1840    13.8370    25.1630     2.4910   -14.6120 
  204.6250    66.1320    15.3980    12.3510    14.3020    25.0410     2.4960   -14.6310 
  204.7500    64.7430    15.5090    12.5320    14.0660    25.0440     2.5050   -14.6420 
  204.8750    66.4010    15.7970    12.8230    14.6350    25.0270     2.5210   -14.6250 
  205.0000    72.4140    16.3110    13.1320    17.1290    24.9810     2.5420   -14.5980 
  205.1250    77.2800    16.9910    13.3730    20.1480    24.9470     2.5590   -14.5770 
  205.2500    77.2800    17.6320    13.5650    21.5130    24.9300     2.5640   -14.5820 
  205.3750    77.2800    18.0770    13.8020    20.4370    24.9310     2.5570   -14.6020 
  205.5000    77.2800    18.2610    14.5010    18.7280    24.9490     2.5390   -14.6400 
  205.6250    77.2800    18.2160    14.6330    16.3980    25.0030     2.5150   -14.7010 
  205.7500    77.2800    18.1080    14.6010    13.8540    25.0600     2.4940   -14.7430 
  205.8750    77.2800    18.0130    14.5480    10.9420    25.1160     2.4810   -14.7900 
  206.0000    77.2800    17.9230    14.4860     9.0970    25.1510     2.4800   -14.8220 
  206.1250    77.2800    17.7500    14.3620     8.3230    25.1300     2.4850   -14.8560 
  206.2500    77.2800    17.4270    14.1330     8.2520    25.0590     2.4880   -14.8790 
  206.3750    77.2800    16.9370    13.7890     8.4600    24.9890     2.4890   -14.8830 
  206.5000    77.2800    16.3260    13.3600     8.6960    24.9600     2.4920   -14.8690 
  206.6250    77.2800    15.6900    12.9130     9.3420    24.9420     2.5010   -14.8230 
  206.7500    77.2800    15.1400    12.5150     9.9970    24.9210     2.5080   -14.7950 
  206.8750    77.2800    14.7400    12.2090    10.4110    24.8830     2.5070   -14.8000 
  207.0000    77.2800    14.5220    12.0170    10.5650    24.8540     2.5020   -14.8380 
  207.1250    77.2800    14.5030    11.9620    11.0420    24.8500     2.5080   -14.8710 
  207.2500    77.2800    14.5930    11.9930    11.3440    24.8660     2.5250   -14.9010 
  207.3750    77.2800    14.6900    12.0470    11.1960    24.8990     2.5440   -14.9540 
  207.5000    77.2800    14.6870    12.0460    10.7870    24.9430     2.5530   -15.0380 
  207.6250    77.2800    14.5010    11.9150    10.8560    25.0070     2.5490   -15.1050 
  207.7500    77.2800    14.2120    11.6950    11.3660    25.0650     2.5370   -15.1500 
  207.8750    77.2800    13.9440    11.4660    11.7370    25.0800     2.5180   -15.1910 
  208.0000    77.2800    13.8440    11.3350    11.9050    25.0380     2.4980   -15.2070 
  208.1250    77.2800    14.0800    11.4340    12.3930    24.9300     2.4890   -15.2740 
  208.2500    77.2800    14.6200    11.7680    14.0010    24.8580     2.4880   -15.3620 
  208.3750    77.2800    15.3860    12.2990    14.9750    24.8240     2.4850   -15.3960 
  208.5000    77.2800    16.2380    12.9360    14.4500    24.8000     2.4730   -15.4260 
  208.6250    77.2800    16.9690    13.5250    13.8030    24.7750     2.4570   -15.5100 
  208.7500    77.2800    17.4440    13.9300    13.3030    24.7600     2.4550   -15.6050 
  208.8750    77.2800    17.6050    14.0840    12.3810    24.7500     2.4720   -15.7100 
  209.0000    77.2800    17.4800    14.0010    11.2140    24.7680     2.5030   -15.8400 
  209.1250    77.2800    17.1470    13.7400    11.2030    24.7880     2.5330   -15.9370 
  209.2500    77.2800    16.7810    13.4420    11.8590    24.7960     2.5510   -16.0190 
  209.3750    77.2800    16.4840    13.1850    12.9360    24.7970     2.5610   -16.1150 
  209.5000    77.2800    16.3040    13.0040    14.8760    24.7740     2.5670   -16.1930 
  209.6250    77.2800    16.2430    12.9050    17.5980    24.7410     2.5660   -16.2640 
  209.7500    77.2800    16.2350    12.8500    18.6860    24.6890     2.5530   -16.3510 
  209.8750    77.2800    16.2440    12.8240    17.9570    24.6130     2.5270   -16.3960 
  210.0000    77.2800    16.2510    12.8210    16.5890    24.5590     2.4930   -16.4350 
  210.1250    77.2800    16.2600    12.8380    15.6120    24.5330     2.4620   -16.5190 
  210.2500    77.2800    16.2710    12.8600    15.0450    24.5240     2.4410   -16.6180 
  210.3750    77.2800    16.2800    12.8760    13.4600    24.5150     2.4320   -16.7310 
  210.5000    77.2800    16.2850    12.8820    10.8270    24.5050     2.4310   -16.8370 
  210.6250    77.2800    16.2850    12.8800     9.6930    24.5060     2.4370   -16.9310 
  210.7500    77.2800    16.2820    12.8740    10.3680    24.5050     2.4480   -17.0290 
  210.8750    77.2800    16.2780    12.8650    11.8700    24.5280     2.4650   -17.1400 
  211.0000    77.2800    16.2860    12.8630    13.4580    24.5930     2.4800   -17.2200 
  211.1250    77.2800    16.2860    12.8630    16.0210    24.7120     2.4880   -17.2770 
  211.2500    77.2800    16.2860    12.8630    18.2430    24.8610     2.4910   -17.3110 
  211.3750    77.2800    16.2860    12.8630    19.6650    24.9900     2.4920   -17.3280 
  211.5000    77.2800    16.2860    12.8630    19.2600    25.0160     2.4880   -17.3600 
  211.6250    77.2800    16.2860    12.8630    15.7330    24.9110     2.4760   -17.3300 
  211.7500    77.2800    16.2860    12.8630    12.5110    24.7690     2.4570   -17.0840 
  211.8750    77.2800    16.2860    12.8630    10.4390    24.5820     2.4340   -16.7100 
  212.0000    77.2800    16.2860    12.8630     9.0170    24.3890     2.4110   -16.3510 
  212.1250    77.2800    16.2860    12.8630     8.5120    24.2800     2.3980   -15.9390 
  212.2500    77.2800    16.2860    12.8630     8.8520    24.2080     2.3930   -15.5140 
  212.3750    77.2800    16.2860    12.8630     9.8630    24.1450     2.3960   -15.0810 
