~V
VERS. 2.00: Ver 2.00
~W
STRT.M 50.0000:
STOP.M 211.0000:
STEP.M 0.1250:
NULL. -999.2500:
UWI. F10140:
~C
DEPT.M :
DEN.GM/CC :
GR.API :
RML.OHMM :
RI. :
RXO.OHMM :
CALI.CM :
SP.MV :
~A
# ...
  196.2500     2.4070    88.8450    10.9810    10.1020    15.0060    24.5390    -2.6050 
  196.3750     2.4240    87.9680    10.9090    10.3240    15.3710    24.5090    -2.5490 
  196.5000     2.4380    88.5770    10.3920    10.0480    14.4420    24.4770    -2.4410 
  196.6250     2.4460    91.1540     9.4880     9.2280    10.0990    24.4440    -2.3130 
  196.7500     2.4480    95.4950     8.5090     8.1970     8.2970    24.4230    -2.2470 
  196.8750     2.4460   100.0200     7.7010     7.2200     7.3640    24.4120    -2.2160 
  197.0000     2.4440   103.7000     7.2650     6.5010     7.0960    24.4130    -2.1610 
  197.1250     2.4490   106.5630     7.4430     6.2680     6.8090    24.4070    -2.1130 
  197.2500     2.4580   106.8520     8.2450     6.5640     6.7720    24.3950    -2.0820 
  197.3750     2.4610   103.2660     9.7240     7.4780     8.2930    24.3950    -2.0880 
  197.5000     2.4450    97.4410    11.8830     9.1070    14.1250    24.4090    -2.2230 
  197.6250     2.4050    93.1240    14.6770    11.6500    32.7120    24.4000    -2.4480 
  197.7500     2.3620    88.8620    17.7100    14.8490    44.0890    24.3330    -2.6910 
  197.8750     2.3330    83.9850    20.6570    18.3330    35.0060    24.2080    -2.9230 
  198.0000     2.3290    81.8980    23.2810    21.6710    26.5090    24.0810    -3.1450 
  198.1250     2.3420    84.7540    25.3370    24.5450    35.0360    23.9910    -3.3560 
  198.2500     2.3520    87.5590    26.6080    26.8070    52.3610    23.9220    -3.5320 
  198.3750     2.3490    87.1870    26.5810    27.8500    54.4270    23.9020    -3.6510 
  198.5000     2.3330    84.9350    24.7800    26.7800    40.0050    23.9920    -3.6990 
  198.6250     2.3110    81.6900    21.0740    22.9840    36.6800    24.2400    -3.6410 
  198.7500     2.2930    78.9470    16.7160    18.1180    28.1970    24.4760    -3.5010 
  198.8750     2.2870    78.6130    12.7800    13.6700    17.8240    24.5760    -3.3300 
  199.0000     2.2960    81.3790     9.9380    10.4270    10.6520    24.5730    -3.1520 
  199.1250     2.3200    83.9460     8.4760     8.6140     8.0720    24.5780    -3.0340 
  199.2500     2.3450    85.2590     7.9260     7.7390     7.4890    24.6040    -2.9750 
  199.3750     2.3590    85.8760     8.0250     7.5740     8.6480    24.5990    -2.9710 
  199.5000     2.3590    85.5990     8.5670     7.9560    11.6290    24.5170    -3.0020 
  199.6250     2.3560    84.4800     9.4220     8.7710    15.7270    24.3410    -3.1200 
  199.7500     2.3650    82.3630    10.4290     9.7810    15.7760    24.1350    -3.3680 
  199.8750     2.3840    81.3620    11.5570    10.8970    13.6850    23.9800    -3.6820 
  200.0000     2.4010    81.3620    12.8250    12.1250    15.3550    23.9480    -4.0270 
  200.1250     2.3990    81.3620    13.9660    13.2370    20.6560    24.0360    -4.3490 
  200.2500     2.3810    81.3620    15.1910    14.4730    23.0740    24.1730    -5.0250 
  200.3750     2.3620    81.3620    16.7170    16.1260    24.5410    24.3140    -5.4370 
  200.5000     2.3540    81.3620    18.0340    17.6790    25.5480    24.3750    -5.8460 
  200.6250     2.3590    81.3620    18.9240    18.8270    26.4910    24.3760    -6.1930 
  200.7500     2.3720    81.3620    19.2280    19.3140    24.5540    24.3360    -6.4540 
  200.8750     2.3900    81.3620    18.8020    18.9510    21.1540    24.2520    -6.6980 
  201.0000     2.4080    81.3620    17.8690    17.9900    19.2600    24.1180    -6.8950 
  201.1250     2.4210    81.3620    16.6580    16.6730    18.4520    23.9460    -7.0040 
  201.2500     2.4290    81.3620    15.4590    15.3190    18.6290    23.7870    -7.0620 
  201.3750     2.4340    81.3620    14.6190    14.2990    16.2660    23.6580    -7.0680 
  201.5000     2.4400    81.3620    14.2320    13.7330    14.9780    23.6530    -7.0620 
  201.6250     2.4460    81.3620    14.2410    13.6000    15.9120    23.8240    -7.0470 
  201.7500     2.4490    81.3620    14.4410    13.7400    17.9770    24.0770    -7.0010 
  201.8750     2.4420    81.3620    14.4880    13.8450    18.8530    24.2870    -6.9330 
  202.0000     2.4220    81.3620    14.1430    13.6310    18.6920    24.4060    -6.8880 
  202.1250     2.3890    81.3620    13.3450    12.9860    17.5750    24.4800    -6.9000 
  202.2500     2.3500    81.3620    12.1960    11.9750    15.8900    24.5510    -6.9330 
  202.3750     2.3190    81.3620    10.9190    10.7930    13.6850    24.6440    -6.8730 
  202.5000     2.3050    81.3620     9.7720     9.6920    12.3790    24.7250    -6.6450 
  202.6250     2.3100    81.3620     8.8860     8.8000    10.6470    24.7540    -6.3870 
  202.7500     2.3300    81.3620     8.3190     8.1820     8.9310    24.7090    -6.1810 
  202.8750     2.3560    81.3620     8.1160     7.8950     8.2610    24.6020    -6.0150 
  203.0000     2.3800    81.3620     8.1660     7.8390     8.6960    24.5170    -5.8220 
  203.1250     2.3970    81.3620     8.3800     7.9360     9.5550    24.4640    -5.6180 
  203.2500     2.4040    81.3620     8.6500     8.1030    10.3330    24.4370    -5.4150 
  203.3750     2.4010    81.3620     8.8400     8.2460    10.2440    24.4280    -5.2590 
  203.5000     2.3930    81.3620     8.8880     8.2960     9.7510    24.4270    -5.2200 
  203.6250     2.3880    81.3620     8.7910     8.2350     9.2010    24.4270    -5.2370 
  203.7500     2.3900    81.3620     8.5910     8.0830     9.0360    24.4400    -5.2990 
  203.8750     2.3980    81.3620     8.3510     7.8670     8.9040    24.4710    -5.3600 
  204.0000     2.4040    81.3620     8.1530     7.6330     8.9300    24.4980    -5.4120 
  204.1250     2.4020    81.3620     8.0640     7.4000     8.7890    24.4930    -5.3760 
  204.2500     2.3900    81.3620     8.1410     7.1770     8.3700    24.4590    -5.3120 
  204.3750     2.3750    81.3620     8.4020     6.9860     7.7470    24.4040    -5.3000 
  204.5000     2.3670    81.3620     8.6740     6.8480     7.2870    24.3330    -5.2650 
  204.6250     2.3700    81.3620     8.7670     6.7800     7.3110    24.2710    -5.1670 
  204.7500     2.3790    81.3620     8.5950     6.7820     7.5760    24.2350    -4.9840 
  204.8750     2.3850    81.3620     8.2620     6.8350     8.0400    24.2150    -4.7760 
  205.0000     2.3830    81.3620     7.9810     6.8920     8.3800    24.1860    -4.5670 
  205.1250     2.3760    81.3620     7.8140     6.9260     8.5840    24.1660    -4.4250 
  205.2500     2.3700    81.3620     7.7360     6.9360     8.7740    24.1550    -4.3280 
  205.3750     2.3690    81.3620     7.7130     6.9360     8.9440    24.1520    -4.2000 
  205.5000     2.3730    81.3620     7.7150     6.9340     9.0140    24.1460    -4.0790 
  205.6250     2.3770    81.3620     7.7300     6.9350     8.5940    24.1460    -3.9780 
  205.7500     2.3780    81.3620     7.7440     6.9350     8.0590    24.1450    -3.8910 
  205.8750     2.3740    81.3620     7.7470     6.9350     7.9560    24.1270    -3.7710 
  206.0000     2.3650    81.3620     7.7460     6.9350     8.1310    24.1360    -3.6480 
  206.1250     2.3530    81.3620     7.7460     6.9350     8.2420    24.1760    -3.5090 
  206.2500     2.3390    81.3620     7.7460     6.9350     7.9720    24.2160    -3.3850 
  206.3750     2.3280    81.3620     7.7460     6.9350     8.1390    24.2220    -3.3350 
  206.5000     2.3220    81.3620     7.7460     6.9350     8.4050    24.2110    -3.3440 
  206.6250     2.3210    81.3620     7.7460     6.9350     8.8020    24.1730    -3.3780 
  206.7500     2.3230    81.3620     7.7460     6.9350     9.1080    24.1270    -3.3980 
  206.8750     2.3270    81.3620     7.7460     6.9350     9.9780    24.1170    -3.4410 
  207.0000     2.3340    81.3620     7.7460     6.9350    10.1990    24.1300    -3.4870 
  207.1250     2.3460    81.3620     7.7460     6.9350     9.8540    24.1430    -3.5490 
  207.2500     2.3610    81.3620     7.7460     6.9350     9.2600    24.1340    -3.5620 
  207.3750     2.3760    81.3620     7.7460     6.9350     9.1080    24.1110    -3.5620 
