~V
VERS. 2.00: Ver 2.00
~W
STRT.M 47.0000:
STOP.M 242.0000:
STEP.M 0.1250:
NULL. -999.2500:
UWI. F10188:
~C
DEPT.M :
SP.MV :
DEN.GM/CC :
GR.API :
RML.OHMM :
RI. :
RXO.OHMM :
CALI.CM :
~A
# ...
  215.7500   -31.9860     2.2300    61.3060    38.8830    37.1120    61.9070    26.2670 
  215.8750   -32.0650     2.2280    60.8520    39.4180    37.7800    67.7660    26.2960 
  216.0000   -32.1290     2.2320    60.8490    38.3160    36.9030    75.9640    26.2990 
  216.1250   -32.1780     2.2390    63.5430    36.2210    34.8530    82.8210    26.2850 
  216.2500   -32.2180     2.2500    68.3350    34.2370    32.5390    84.8230    26.2850 
  216.3750   -32.2420     2.2640    70.8820    33.4960    31.0430    80.6260    26.2920 
  216.5000   -32.2800     2.2710    68.7670    35.2390    31.6610    74.9060    26.3050 
  216.6250   -32.3190     2.2660    65.7210    39.5900    34.7270    75.6110    26.3380 
  216.7500   -32.3570     2.2580    62.7010    46.6570    40.4160    84.3860    26.3330 
  216.8750   -32.4070     2.2590    59.6420    56.1050    48.4160    96.3040    26.2530 
  217.0000   -32.4320     2.2670    58.0240    66.8770    57.8120   102.0500    26.1720 
  217.1250   -32.4500     2.2720    57.3310    77.2040    67.0750   103.0620    26.1350 
  217.2500   -32.4320     2.2740    56.8600    86.6120    75.8570   105.6100    26.1240 
  217.3750   -32.3890     2.2850    56.2520    95.4080    84.6080   109.0940    26.0620 
  217.5000   -32.2870     2.3250    55.0830   100.9200    92.0230   111.6890    25.9490 
  217.6250   -32.1600     2.3940    54.9460    96.0830    92.6130   108.6250    25.7900 
  217.7500   -32.0010     2.4760    58.0550    77.0940    80.5990   100.2740    25.5480 
  217.8750   -31.8400     2.5420    62.2840    51.8680    58.3540    85.1700    25.2460 
  218.0000   -31.6610     2.5590    62.2350    32.4770    36.9970    56.3140    24.8450 
  218.1250   -31.4700     2.5330    60.0800    20.4130    22.5420    27.8940    24.3590 
  218.2500   -31.2800     2.4840    58.1530    12.7740    14.2760    11.3090    24.0670 
  218.3750   -31.0400     2.4340    55.4890     9.1590     9.9850     5.8450    24.0990 
  218.5000   -30.6740     2.4010    50.4350     7.7360     8.0410     5.0650    24.2870 
  218.6250   -30.1460     2.3800    46.5120     7.0560     7.0510     5.0510    24.2970 
  218.7500   -29.4940     2.3620    45.7230     6.7090     6.5630     5.1700    24.0890 
  218.8750   -28.6960     2.3440    45.6030     6.4500     6.2950     5.1400    23.8080 
  219.0000   -27.7700     2.3300    44.4450     6.1990     6.0900     4.8420    23.6560 
  219.1250   -26.7460     2.3260    43.8110     6.0190     5.9220     4.4630    23.6230 
  219.2500   -25.6580     2.3300    44.5560     5.9920     5.8450     4.4390    23.7390 
  219.3750   -24.5580     2.3380    48.8800     6.1530     5.9010     4.8040    24.1000 
  219.5000   -23.5220     2.3460    58.2280     6.5000     6.1150     5.4620    24.6750 
  219.6250   -22.5740     2.3510    63.9820     6.9170     6.4120     6.2210    25.2230 
  219.7500   -21.6860     2.3510    60.9280     7.2910     6.7050     6.8430    25.5280 
  219.8750   -20.8350     2.3450    53.5970     7.5030     6.8880     7.1190    25.6360 
  220.0000   -20.0140     2.3360    51.8430     7.4350     6.8440     6.7200    25.6140 
  220.1250   -19.2050     2.3330    52.6700     7.1620     6.6110     6.2200    25.5530 
  220.2500   -18.3920     2.3400    50.4400     6.7980     6.2720     5.8680    25.4920 
  220.3750   -17.6250     2.3520    46.1310     6.4670     5.9240     5.9460    25.4510 
  220.5000   -16.9360     2.3600    45.6920     6.2900     5.6700     6.3450    25.4790 
  220.6250   -16.3400     2.3640    49.7480     6.2760     5.5410     6.6370    25.5720 
  220.7500   -15.8480     2.3620    53.7260     6.3960     5.5360     6.6540    25.7040 
  220.8750   -15.4760     2.3590    53.4170     6.5980     5.6260     6.2460    25.7950 
  221.0000   -15.2530     2.3510    49.8630     6.7990     5.7580     5.8040    25.8290 
  221.1250   -15.1650     2.3390    47.1000     6.9210     5.8630     5.4550    25.8320 
  221.2500   -15.2180     2.3270    45.6640     6.9300     5.8990     5.4520    25.7630 
  221.3750   -15.3360     2.3230    45.4390     6.8280     5.8490     5.8220    25.5720 
  221.5000   -15.5310     2.3250    46.0720     6.6410     5.7020     6.2300    25.4060 
  221.6250   -15.8090     2.3240    48.8590     6.4390     5.5050     6.3450    25.3130 
  221.7500   -16.1960     2.3220    53.9060     6.2640     5.2950     6.0140    25.2350 
  221.8750   -16.6910     2.3240    58.7790     6.1400     5.1090     5.6890    25.1480 
  222.0000   -17.2980     2.3320    60.8280     6.0750     4.9740     5.6260    25.0860 
  222.1250   -18.0000     2.3400    60.9840     6.0580     4.8920     5.7930    25.0850 
  222.2500   -18.7570     2.3470    60.7950     6.1100     4.8790     6.2720    25.1440 
  222.3750   -19.5960     2.3520    60.8540     6.2680     4.9550     7.0970    25.2280 
  222.5000   -20.5160     2.3650    63.1070     6.6080     5.1740     7.8970    25.3110 
  222.6250   -21.5090     2.3890    68.4830     7.1270     5.5340     8.4290    25.3970 
  222.7500   -22.4660     2.4140    72.2190     7.7750     6.0120     8.9040    25.4980 
  222.8750   -23.3980     2.4230    71.0130     8.4370     6.5400     9.4290    25.6190 
  223.0000   -24.2150     2.4120    69.4710     8.9370     7.0020     9.8220    25.7060 
  223.1250   -24.9240     2.4000    71.3930     9.2140     7.3240    10.1340    25.7110 
  223.2500   -25.5600     2.3940    74.3940     9.2940     7.4950    10.4070    25.6740 
  223.3750   -26.0840     2.3920    75.8380     9.2680     7.5530    10.6800    25.6560 
  223.5000   -26.5250     2.3910    79.0630     9.2480     7.5580    10.4140    25.6730 
  223.6250   -26.8320     2.3910    83.8140     9.2910     7.5720     9.6010    25.6940 
  223.7500   -27.0740     2.3930    87.1690     9.3980     7.6160     8.7100    25.7290 
  223.8750   -27.2920     2.3990    90.1820     9.5460     7.6940     8.3850    25.7600 
  224.0000   -27.5370     2.4070    93.7840     9.7100     7.7980     8.9660    25.7630 
  224.1250   -27.8290     2.4190    93.8550     9.8690     7.9020    10.0000    25.7140 
  224.2500   -28.1770     2.4310    90.6720    10.0220     7.9960    11.1170    25.6260 
  224.3750   -28.5980     2.4320    88.5240    10.1900     8.0900    11.9970    25.5730 
  224.5000   -29.0760     2.4110    89.1890    10.4320     8.2280    12.3460    25.5740 
  224.6250   -29.5480     2.3840    89.0830    10.7840     8.4470    12.7470    25.5870 
  224.7500   -30.0470     2.3660    87.5910    11.2690     8.7780    13.1630    25.5840 
  224.8750   -30.5330     2.3550    84.5260    11.8910     9.2360    13.5110    25.6020 
  225.0000   -30.9640     2.3470    80.3940    12.6490     9.8400    14.2170    25.6700 
  225.1250   -31.3390     2.3430    79.2960    13.4780    10.5350    15.0290    25.7210 
  225.2500   -31.6140     2.3440    81.4800    14.3270    11.2680    15.7860    25.6630 
  225.3750   -31.7850     2.3500    81.8670    15.1630    11.9890    16.0260    25.5710 
  225.5000   -31.8060     2.3560    77.8390    15.9580    12.6650    15.8660    25.5250 
  225.6250   -31.7630     2.3610    74.4820    16.6920    13.2930    15.7570    25.5160 
  225.7500   -31.5790     2.3650    74.5490    17.3180    13.8580    15.7850    25.5020 
  225.8750   -31.2350     2.3690    75.8620    17.7480    14.3050    15.9540    25.4900 
  226.0000   -30.8200     2.3690    76.4390    17.7600    14.4750    16.5380    25.4870 
  226.1250   -30.3110     2.3670    78.8480    17.2720    14.2780    17.0520    25.4880 
  226.2500   -29.7370     2.3630    83.2480    16.3160    13.7070    16.7690    25.4940 
  226.3750   -29.0870     2.3530    87.2070    15.1300    12.9000    15.0430    25.5130 
  226.5000   -28.4050     2.3430    85.6890    14.1210    12.1260    13.0820    25.5450 
  226.6250   -27.7110     2.3410    82.3970    13.5560    11.6100    12.0650    25.5620 
  226.7500   -27.0480     2.3460    83.9760    13.5090    11.4520    12.3880    25.5700 
  226.8750   -26.4750     2.3570    91.3100    13.8880    11.6500    13.5440    25.5820 
