~V
VERS. 2.00: Ver 2.00
~W
STRT.M 55.0000:
STOP.M 248.0000:
STEP.M 0.1250:
NULL. -999.2500:
UWI. F10184:
~C
DEPT.M :
SP.MV :
GR.API :
RML.OHMM :
RI. :
RXO.OHMM :
CALI.CM :
DEN.GM/CC :
~A
# ...
  122.5000    -6.7460    62.2720     8.3250     6.8300     7.6040    22.7080     2.1830 
  122.6250    -6.6640    60.6320     8.3780     6.9650     7.9250    22.7520     2.1740 
  122.7500    -6.6520    58.8750     8.4380     7.1020     8.0570    22.7570     2.1670 
  122.8750    -6.6170    57.4490     8.5180     7.2380     8.1010    22.7680     2.1660 
  123.0000    -6.4960    57.8190     8.6160     7.3620     8.1440    22.7400     2.1730 
  123.1250    -6.3860    61.0990     8.7100     7.4510     8.2590    22.7630     2.1890 
  123.2500    -6.2490    65.7200     8.7820     7.4990     8.3700    22.8530     2.2050 
  123.3750    -5.9970    69.5970     8.8230     7.5130     8.4220    22.9880     2.2130 
  123.5000    -5.6780    70.8670     8.8370     7.5110     8.2680    23.0750     2.2110 
  123.6250    -5.4390    70.6700     8.8400     7.5120     8.0750    23.1250     2.2050 
  123.7500    -5.1540    69.5180     8.8490     7.5220     7.9680    23.1570     2.2040 
  123.8750    -4.7770    66.2630     8.8620     7.5330     7.9140    23.1710     2.2080 
  124.0000    -4.4700    61.5480     8.8640     7.5310     7.9280    23.1210     2.2120 
  124.1250    -4.1740    60.4230     8.8330     7.5020     8.0140    22.8810     2.2130 
  124.2500    -3.7410    62.1100     8.8090     7.4760     8.0270    22.5050     2.2170 
  124.3750    -3.2570    62.5570     8.8950     7.5210     7.8950    22.1620     2.2260 
  124.5000    -2.8160    61.3390     9.2300     7.7370     7.8960    21.9910     2.2460 
  124.6250    -2.2750    59.1840    10.1670     8.3070     8.6670    22.0530     2.2800 
  124.7500    -1.6440    55.9960    11.8890     9.2960    11.3930    22.3500     2.3250 
  124.8750    -1.0600    52.8830    13.7130    10.7460    16.7160    22.9140     2.3810 
  125.0000    -0.4180    51.2440    15.8280    12.5980    19.7020    23.6320     2.4460 
  125.1250     0.3100    52.0180    17.8870    14.6520    20.8710    24.2490     2.5050 
  125.2500     0.9490    53.5940    19.5770    16.5430    22.3060    24.4920     2.5460 
  125.3750     1.4510    53.9880    20.8150    18.0620    23.7790    24.4500     2.5640 
  125.5000     1.9010    52.4950    21.7660    19.2170    23.5660    24.2830     2.5720 
  125.6250     2.3290    51.3230    22.6990    20.1680    22.6510    24.1350     2.5770 
  125.7500     2.6310    52.3960    23.5880    20.9910    21.6740    24.1000     2.5780 
  125.8750     2.8500    53.6380    23.9420    21.3580    22.3530    24.0450     2.5730 
  126.0000     3.0430    54.3340    23.0270    20.6640    24.1860    23.9310     2.5600 
  126.1250     3.0840    56.3710    20.1580    18.2650    22.8110    23.9630     2.5340 
  126.2500     3.0880    61.3570    16.2540    14.9190    18.2980    24.1440     2.4920 
  126.3750     3.1660    68.2280    12.4470    11.5860    13.0240    24.3520     2.4360 
  126.5000     3.2130    76.0230     9.6060     8.9880     9.0500    24.4650     2.3830 
  126.6250     3.2030    81.5640     8.2860     7.5760     7.1560    24.4870     2.3520 
  126.7500     3.1920    82.9310     8.2420     7.1850     6.7000    24.4220     2.3460 
  126.8750     3.1860    78.4470     9.3850     7.7840     7.6220    24.2410     2.3660 
  127.0000     3.1640    70.1730    11.6130     9.3730    10.7840    24.0170     2.4090 
  127.1250     3.1260    63.1480    14.7380    12.0050    17.5240    24.0110     2.4680 
  127.2500     3.0940    59.6650    17.9400    15.0880    23.5840    24.1550     2.5240 
  127.3750     3.0480    58.2340    20.4450    17.8990    24.1700    24.2520     2.5590 
  127.5000     2.9990    56.6980    21.8640    19.8530    21.4640    24.2580     2.5650 
  127.6250     2.9060    55.0040    22.4370    20.8660    20.7760    24.2470     2.5590 
  127.7500     2.8310    52.4510    22.9280    21.5710    21.7610    24.2670     2.5620 
  127.8750     2.7290    48.9960    23.6020    22.2660    23.3190    24.3210     2.5740 
  128.0000     2.5780    47.5090    24.2780    22.8800    25.5590    24.3950     2.5820 
  128.1250     2.5000    49.0190    24.1690    22.7810    27.5450    24.4100     2.5790 
  128.2500     2.3520    51.7440    22.7270    21.4750    26.0360    24.4030     2.5710 
  128.3750     2.1440    54.9340    19.9500    18.9450    21.4820    24.4190     2.5510 
  128.5000     1.9920    59.8820    16.4490    15.7430    17.3750    24.4400     2.5150 
  128.6250     1.7950    67.2570    13.1460    12.6800    13.3660    24.4270     2.4600 
  128.7500     1.5710    74.4600    10.5840    10.2230     9.2880    24.3770     2.3920 
  128.8750     1.3920    78.0950     8.8840     8.4810     7.2930    24.3180     2.3170 
  129.0000     1.2350    77.3320     7.9370     7.3960     6.8070    24.2710     2.2530 
  129.1250     1.0390    74.4270     7.6410     6.9240     6.7910    24.2030     2.2250 
  129.2500     0.9140    72.4880     7.7410     6.8600     6.7880    24.0920     2.2220 
  129.3750     0.8300    72.5860     8.1370     7.1240     7.1240    23.9560     2.2270 
  129.5000     0.7040    75.3010     8.7720     7.6540     7.9760    23.9430     2.2300 
  129.6250     0.7020    77.7180     9.6610     8.4430     9.4030    24.2130     2.2260 
  129.7500     0.6970    76.2710    10.7800     9.4420    10.7460    24.5540     2.2180 
  129.8750     0.7340    71.4530    12.1250    10.6490    12.1850    24.6860     2.2070 
  130.0000     0.7640    68.3180    13.6600    12.0460    14.0780    24.5950     2.1970 
  130.1250     0.7950    68.9590    15.2790    13.5630    15.7950    24.4050     2.1920 
  130.2500     0.8740    71.4010    16.7770    15.0060    17.2760    24.3320     2.1950 
  130.3750     0.9030    73.6410    17.9610    16.1820    18.8960    24.4300     2.2050 
  130.5000     0.9840    74.3580    18.7070    16.9500    20.4890    24.5840     2.2230 
  130.6250     1.0570    71.5560    18.9830    17.2450    20.8350    24.6450     2.2550 
  130.7500     1.1120    66.3400    19.0290    17.2730    19.5400    24.5810     2.2960 
  130.8750     1.1850    61.9150    19.0100    17.1860    17.3680    24.4780     2.3360 
  131.0000     1.2460    59.4000    18.9550    17.0570    16.0860    24.2720     2.3610 
  131.1250     1.2770    59.9110    18.5940    16.7350    15.2420    23.8390     2.3670 
  131.2500     1.3100    63.2110    17.6090    15.9670    13.9650    23.3550     2.3640 
  131.3750     1.3760    67.6000    15.8410    14.5810    12.7080    23.0960     2.3520 
  131.5000     1.3740    69.9660    13.4920    12.6850    11.0280    23.0210     2.3380 
  131.6250     1.3730    71.3900    11.1090    10.6800     8.8380    22.9990     2.3360 
  131.7500     1.3830    76.3100     9.1920     8.9850     6.6930    22.9430     2.3350 
  131.8750     1.3440    82.4290     7.9000     7.7610     6.1240    22.8510     2.3190 
  132.0000     1.3370    83.2670     7.1680     7.0050     6.7800    22.7690     2.2890 
  132.1250     1.3300    79.8820     6.8590     6.6580     7.5740    22.8690     2.2650 
  132.2500     1.3070    78.1040     6.7290     6.5180     7.3500    23.2520     2.2560 
  132.3750     1.3020    79.5950     6.6930     6.4930     6.6110    23.8500     2.2550 
  132.5000     1.3190    82.5210     6.7400     6.5400     6.3940    24.4640     2.2570 
  132.6250     1.3260    85.0450     6.9020     6.6510     6.6190    24.7680     2.2600 
  132.7500     1.3310    84.4460     7.1260     6.7910     7.2160    24.8410     2.2680 
  132.8750     1.3630    81.9010     7.2980     6.8960     7.9650    24.7860     2.2840 
  133.0000     1.3490    81.1130     7.2650     6.8560     8.6580    24.6990     2.3080 
  133.1250     1.3600    82.7500     6.8890     6.5500     7.6630    24.7070     2.3290 
  133.2500     1.3770    85.4640     6.3480     6.0860     6.7790    24.7720     2.3300 
  133.3750     1.3380    88.0370     5.9240     5.6710     6.3580    24.8170     2.3110 
  133.5000     1.2760    89.7550     5.9390     5.5550     6.3310    24.8270     2.2950 
  133.6250     1.2120    89.9720     6.8580     6.0950     6.8160    24.8170     2.3090 
