~V
VERS. 2.00: Ver 2.00
~W
STRT.M 49.0000:
STOP.M 245.0000:
STEP.M 0.1250:
NULL. -999.2500:
UWI. F10179:
~C
DEPT.M :
DEN.GM/CC :
GR.API :
RML.OHMM :
RI. :
RXO.OHMM :
CALI.CM :
SP.MV :
~A
# ...
   82.7500     2.1970    73.9200     8.6660     6.4080     7.9090    23.9160   -29.8520 
   82.8750     2.2150    73.4620     8.5370     6.4110     7.9910    23.9430   -29.3640 
   83.0000     2.2250    70.0460     8.4080     6.3870     8.0480    24.0240   -28.8180 
   83.1250     2.2260    67.7210     8.3300     6.3730     8.0220    24.0770   -28.2630 
   83.2500     2.2260    68.9460     8.3430     6.4010     7.8740    24.0480   -27.7000 
   83.3750     2.2260    71.0180     8.4470     6.4830     7.6900    23.8880   -27.1290 
   83.5000     2.2270    71.4700     8.5560     6.5660     7.9150    23.6460   -26.5900 
   83.6250     2.2220    72.3280     8.5740     6.5810     9.1220    23.4280   -26.0870 
   83.7500     2.2140    76.2870     8.4200     6.4590    10.9030    23.4490   -25.6330 
   83.8750     2.2140    80.2070     8.0350     6.1580    10.1530    23.7470   -25.2570 
   84.0000     2.2290    83.0330     7.5080     5.7520     7.1690    23.8990   -24.9780 
   84.1250     2.2540    86.7080     6.9330     5.3170     5.4570    23.8350   -24.8180 
   84.2500     2.2760    92.1710     6.4120     4.9250     4.9810    23.6960   -24.8240 
   84.3750     2.2890    96.5710     6.1020     4.6720     4.9880    23.6430   -25.0530 
   84.5000     2.3050    96.7340     6.1160     4.6130     5.0090    23.5520   -25.4870 
   84.6250     2.3330    91.9150     6.6200     4.8270     5.0860    23.4410   -26.1360 
   84.7500     2.3740    81.8340     7.7900     5.4170     5.4350    23.3870   -26.9870 
   84.8750     2.4210    71.6040     9.8270     6.5710     6.7560    23.4170   -28.0490 
   85.0000     2.4660    67.5440    12.3730     8.2000     9.1580    23.5000   -29.3100 
   85.1250     2.4940    66.9520    14.8320    10.0440    11.8070    23.5770   -30.7090 
   85.2500     2.4920    64.3590    16.3590    11.5410    14.3350    23.6240   -32.1710 
   85.3750     2.4530    58.8990    16.0450    11.8610    16.1620    23.5620   -33.6470 
   85.5000     2.3840    55.9010    14.4740    11.1610    15.7710    23.4330   -35.0320 
   85.6250     2.2990    56.9470    12.5470     9.9970    12.9280    23.3860   -36.2150 
   85.7500     2.2240    59.9700    11.0090     8.9080    11.2650    23.4390   -37.1420 
   85.8750     2.1840    61.4190    10.2130     8.1950    11.0860    23.5520   -37.7530 
   86.0000     2.1680    60.7980     9.8630     7.7670    10.9440    23.6530   -38.0620 
   86.1250     2.1660    60.6760     9.6630     7.4770    10.6970    23.6950   -38.0910 
   86.2500     2.1720    63.8850     9.3750     7.1800    10.1820    23.7460   -37.8710 
   86.3750     2.1880    70.2110     8.9270     6.8130     8.9320    23.7480   -37.3800 
   86.5000     2.2140    76.7460     8.5100     6.4720     7.4990    23.5910   -36.7430 
   86.6250     2.2440    80.2850     8.3150     6.2710     6.9520    23.3400   -36.0830 
   86.7500     2.2650    78.0200     8.4650     6.2920     7.3470    23.1710   -35.5110 
   86.8750     2.2610    72.8170     9.0050     6.5910     8.1410    23.1230   -35.1200 
   87.0000     2.2450    68.5680     9.7010     7.0490     9.1080    23.1110   -34.8590 
   87.1250     2.2300    66.4670    10.2800     7.5060    10.1760    23.0990   -34.7000 
   87.2500     2.2260    66.1750    10.4820     7.7630    11.0220    23.0740   -34.6040 
   87.3750     2.2330    66.6530    10.1550     7.6500    10.9240    23.0550   -34.5670 
   87.5000     2.2410    67.4200     9.5640     7.2970    10.2570    23.0530   -34.5750 
   87.6250     2.2430    68.1350     8.9810     6.8760     9.3140    23.0670   -34.5740 
   87.7500     2.2420    70.0650     8.6260     6.5490     8.4960    23.0980   -34.5580 
   87.8750     2.2400    70.6590     8.6520     6.4490     8.6170    23.1460   -34.5040 
   88.0000     2.2370    67.8600     8.9560     6.5490     9.8100    23.1920   -34.4100 
   88.1250     2.2330    64.5940     9.4040     6.7940    10.6320    23.2630   -34.2750 
   88.2500     2.2300    62.6020     9.8370     7.0880    10.8300    23.3200   -34.1210 
   88.3750     2.2280    60.7750    10.0910     7.3110    10.9180    23.3480   -33.9860 
   88.5000     2.2250    60.6530    10.1400     7.4100    10.8990    23.3980   -33.8840 
   88.6250     2.2190    64.6840    10.0350     7.3920    10.6980    23.5040   -33.8240 
   88.7500     2.2120    68.9550     9.8600     7.2980    10.3640    23.6230   -33.7700 
   88.8750     2.2050    68.7300     9.6990     7.1770    10.2790    23.6930   -33.7150 
   89.0000     2.2000    66.3870     9.6050     7.0760    10.5400    23.7130   -33.6880 
   89.1250     2.1990    65.1590     9.6120     7.0270    10.7390    23.7160   -33.7350 
   89.2500     2.1990    64.3780     9.7150     7.0440    10.5210    23.7150   -33.8210 
   89.3750     2.1960    64.0900     9.8800     7.1240    10.1870    23.6740   -33.8840 
   89.5000     2.1890    63.8200    10.0370     7.2240    10.0160    23.5840   -33.8830 
   89.6250     2.1760    61.9220    10.1340     7.3100    10.0320    23.5020   -33.8270 
   89.7500     2.1610    61.1280    10.1210     7.3490    10.0760    23.4610   -33.7200 
   89.8750     2.1500    63.6320     9.9430     7.3060     9.5870    23.4300   -33.5300 
   90.0000     2.1450    63.2660     9.6490     7.2030     9.3660    23.3910   -33.2540 
   90.1250     2.1450    58.9410     9.3270     7.0800     9.6130    23.3660   -32.8500 
   90.2500     2.1490    55.5700     9.0960     6.9940     9.7990    23.3620   -32.3370 
   90.3750     2.1550    56.4120     9.1070     7.0350     9.5910    23.4140   -31.7560 
   90.5000     2.1600    58.0320     9.3490     7.2150     9.3630    23.5300   -31.1390 
   90.6250     2.1650    58.7630     9.7710     7.5170     9.4380    23.6080   -30.4660 
   90.7500     2.1750    59.2120    10.2710     7.8840    10.0870    23.5190   -29.6900 
   90.8750     2.1920    57.9710    10.6520     8.2030    11.2940    23.2170   -28.7800 
   91.0000     2.2050    57.3930    10.7220     8.3340    11.8800    23.0290   -27.7960 
   91.1250     2.1980    60.1210    10.3630     8.1720    11.0940    23.1690   -26.7950 
   91.2500     2.1690    64.2650     9.5820     7.7000     9.9950    23.6210   -25.7680 
   91.3750     2.1410    68.0650     8.5040     6.9680     8.8120    24.1750   -24.6490 
   91.5000     2.1440    72.0250     7.4240     6.1710     7.1850    24.4330   -23.4380 
   91.6250     2.1840    77.1630     6.5470     5.4560     5.7130    24.4640   -22.2270 
   91.7500     2.2440    81.2960     6.0000     4.9360     4.8640    24.4240   -21.1440 
   91.8750     2.2880    80.7680     5.8580     4.7060     4.4870    24.4100   -20.3180 
   92.0000     2.3030    77.9550     5.9890     4.7060     4.6000    24.3800   -19.6990 
   92.1250     2.3070    76.2240     6.2870     4.8760     5.4970    24.2640   -19.2360 
   92.2500     2.3110    75.9100     6.6320     5.1330     7.1310    24.0240   -18.9430 
   92.3750     2.3090    76.5840     6.9480     5.3950     6.7030    23.8370   -18.9180 
   92.5000     2.2990    78.3680     7.2490     5.6310     6.0050    23.6630   -19.1550 
   92.6250     2.2900    80.2740     7.5750     5.8620     5.8320    23.3940   -19.5940 
   92.7500     2.2900    78.8540     7.9460     6.1180     6.3850    23.1880   -20.1360 
   92.8750     2.2920    73.0860     8.3540     6.4260     7.5040    23.1140   -20.6860 
   93.0000     2.2820    68.2630     8.7750     6.7730     8.2660    23.0870   -21.2180 
   93.1250     2.2590    67.9310     9.1920     7.1350     8.4290    23.1540   -21.7860 
   93.2500     2.2350    70.6120     9.5760     7.4750     8.5550    23.3480   -22.4340 
   93.3750     2.2210    73.0850     9.8870     7.7440     9.1310    23.5070   -23.1120 
   93.5000     2.2170    73.2660    10.1070     7.9260    10.0730    23.5770   -23.7350 
   93.6250     2.2180    70.6960    10.2120     8.0030    10.8370    23.6140   -24.2570 
   93.7500     2.2140    67.1150    10.1980     7.9680    10.8110    23.7030   -24.6940 
   93.8750     2.2040    66.8740    10.0940     7.8410     9.8640    23.8330   -25.0610 
