~V
VERS. 2.00: Ver 2.00
~W
STRT.M 52.0000:
STOP.M 224.0000:
STEP.M 0.1250:
NULL. -999.2500:
UWI. F10155:
~C
DEPT.M :
SP.MV :
GR.API :
RML.OHMM :
RI. :
RXO.OHMM :
CALI.CM :
DEN.GM/CC :
~A
# ...
  209.5000    -0.8110    84.2760    10.3730     8.7660     8.0960    24.7800     2.4630 
  209.6250    -0.6000    84.1970    10.5360     8.9030     7.9310    24.8070     2.4540 
  209.7500    -0.3940    84.7400    10.5830     8.9530     8.0110    24.9110     2.4390 
  209.8750    -0.1750    83.8370    10.4880     8.8820     8.7900    24.9520     2.4260 
  210.0000     0.0410    82.9860    10.2550     8.6790     9.2460    24.8460     2.4180 
  210.1250     0.3030    85.0140     9.9700     8.4150     9.2350    24.8040     2.4160 
  210.2500     0.5060    87.4340     9.7060     8.1540     9.3180    24.8570     2.4180 
  210.3750     0.6300    84.9700     9.5250     7.9540    10.1070    24.9310     2.4270 
  210.5000     0.6990    79.4600     9.4870     7.8710     9.5160    24.8510     2.4450 
  210.6250     0.7190    78.4870     9.5710     7.9030     9.7440    24.8010     2.4610 
  210.7500     0.7330    82.2060     9.7400     8.0320    10.2350    24.8840     2.4670 
  210.8750     0.7150    87.3730     9.9300     8.2140     9.7680    24.9910     2.4550 
  211.0000     0.6820    90.6550    10.0610     8.3770     8.9120    25.0030     2.4210 
  211.1250     0.5930    89.5240    10.1080     8.4780     8.7770    24.9890     2.3810 
  211.2500     0.4650    83.8700    10.0900     8.5190     9.2650    24.9830     2.3470 
  211.3750     0.3130    78.3310    10.0470     8.5300     9.2090    25.1270     2.3350 
  211.5000     0.1530    79.7000    10.0240     8.5420     9.3810    25.1930     2.3520 
  211.6250     0.0230    84.4630    10.0160     8.5610     8.6870    25.1090     2.3830 
  211.7500    -0.0820    88.1560     9.9930     8.5670     8.3700    25.0220     2.4080 
  211.8750    -0.1680    88.9180     9.9130     8.5230     8.4800    25.0010     2.4100 
  212.0000    -0.2260    88.9930     9.7350     8.3880     8.9880    25.1170     2.3810 
  212.1250    -0.2210    90.5260     9.4820     8.1730     8.8740    25.1630     2.3390 
  212.2500    -0.1270    90.5970     9.1900     7.9060     7.6500    25.1510     2.3020 
  212.3750     0.0430    86.4580     8.9050     7.6350     6.2120    25.0970     2.2840 
  212.5000     0.2920    80.3240     8.6830     7.4150     5.5350    25.0640     2.2890 
  212.6250     0.5840    77.5080     8.5420     7.2690     5.7230    24.9720     2.3070 
  212.7500     0.8800    77.9690     8.4910     7.2060     5.9020    24.9050     2.3340 
  212.8750     1.1700    78.1080     8.5210     7.2230     6.2900    24.9520     2.3600 
  213.0000     1.4650    78.0460     8.6100     7.3070     7.5640    24.9070     2.3780 
  213.1250     1.7370    79.2040     8.6990     7.4080     8.4980    24.7780     2.3830 
  213.2500     1.9690    80.7950     8.7540     7.4890     8.9550    24.7600     2.3780 
  213.3750     2.1980    81.0890     8.7730     7.5370     9.0440    24.7790     2.3700 
  213.5000     2.3910    81.0890     8.8050     7.5810     7.7640    24.8030     2.3680 
  213.6250     2.5210    81.0890     8.9190     7.6840     7.4020    24.7710     2.3710 
  213.7500     2.6420    81.0890     9.1480     7.8840     8.0300    24.7550     2.3800 
  213.8750     2.7720    81.0890     9.4660     8.1740     8.5990    24.8320     2.3970 
  214.0000     2.8790    81.0890     9.7750     8.4810     9.4940    24.8330     2.4290 
  214.1250     2.9900    81.0890     9.9640     8.6960     9.2890    24.6940     2.4670 
  214.2500     3.0950    81.0890     9.9840     8.7540     9.1260    24.5730     2.4970 
  214.3750     3.1540    81.0890     9.8640     8.6640     8.3790    24.7110     2.5090 
  214.5000     3.1490    81.0890     9.7050     8.5130     8.3060    24.9600     2.5000 
  214.6250     3.1580    81.0890     9.6290     8.4210     7.6500    25.0130     2.4880 
  214.7500     3.1110    81.0890     9.6940     8.4480     6.7750    24.9500     2.4810 
  214.8750     2.9830    81.0890     9.8940     8.6040     6.4780    24.9260     2.4800 
  215.0000     2.8180    81.0890    10.1750     8.8610     6.8340    25.0030     2.4800 
  215.1250     2.8350    81.0890    10.4360     9.1230     7.2710    25.0270     2.4820 
  215.2500     3.0440    81.0890    10.6190     9.3220     7.7320    24.9940     2.4890 
  215.3750     3.2070    81.0890    10.7050     9.4260     8.7110    24.9620     2.4990 
  215.5000     3.4000    81.0890    10.6950     9.4260    11.5480    24.9260     2.5060 
  215.6250     3.5960    81.0890    10.6330     9.3650    15.0030    24.8630     2.5050 
  215.7500     3.7820    81.0890    10.5430     9.2670    15.6120    24.8730     2.4980 
  215.8750     4.0310    81.0890    10.4380     9.1470    12.4810    24.9210     2.4930 
  216.0000     4.3190    81.0890    10.3270     9.0130    12.5480    24.9280     2.4970 
  216.1250     4.3380    81.0890    10.2320     8.8880    15.7080    24.9230     2.5060 
  216.2500     4.1230    81.0890    10.1890     8.8060    17.6100    24.9960     2.5120 
  216.3750     3.9390    81.0890    10.2380     8.8090    17.3900    25.1170     2.5120 
  216.5000     3.7740    81.0890    10.4270     8.9440    15.8530    25.2220     2.5040 
  216.6250     3.6550    81.0890    10.7310     9.1970    16.3590    25.2560     2.4960 
  216.7500     3.5610    81.0890    11.1090     9.5420    16.4480    25.2580     2.4900 
  216.8750     3.4380    81.0890    11.4990     9.9210    15.5210    25.2190     2.4870 
  217.0000     3.3060    81.0890    11.8390    10.2660    16.1430    25.1850     2.4900 
  217.1250     3.2040    81.0890    12.1180    10.5590    21.4270    25.0800     2.5040 
  217.2500     3.0820    81.0890    12.3420    10.8010    26.2930    24.9010     2.5300 
  217.3750     2.9760    81.0890    12.5180    10.9850    24.8820    24.8250     2.5640 
  217.5000     2.8510    81.0890    12.6200    11.0810    25.7930    24.7580     2.5920 
  217.6250     2.7390    81.0890    12.6170    11.0670    28.5060    24.6820     2.6000 
  217.7500     2.7060    81.0890    12.4720    10.9030    23.5380    24.6470     2.5830 
  217.8750     2.7590    81.0890    12.1750    10.5870    20.5810    24.6800     2.5510 
  218.0000     2.8300    81.0890    11.7570    10.1670    18.1300    24.7190     2.5280 
  218.1250     2.9300    81.0890    11.3130     9.7430    18.0730    24.7410     2.5260 
  218.2500     3.1590    81.0890    10.9150     9.3800    18.8440    24.7910     2.5400 
  218.3750     3.4050    81.0890    10.6080     9.1190    23.4650    24.8420     2.5550 
  218.5000     3.6700    81.0890    10.4250     8.9790    25.5360    24.8430     2.5530 
  218.6250     3.8660    81.0890    10.3340     8.9080    23.9750    24.7650     2.5360 
  218.7500     3.9680    81.0890    10.3060     8.8770    22.5710    24.7060     2.5180 
  218.8750     4.0380    81.0890    10.3130     8.8700    24.2000    24.6330     2.5160 
  219.0000     4.1040    81.0890    10.3280     8.8720    23.7270    24.4780     2.5330 
  219.1250     4.1500    81.0890    10.3370     8.8750    22.8520    24.3710     2.5530 
  219.2500     4.1510    81.0890    10.3390     8.8760    19.2620    24.4420     2.5550 
  219.3750     4.1560    81.0890    10.3390     8.8760    15.5340    24.5880     2.5280 
  219.5000     4.1070    81.0890    10.3390     8.8760    15.4690    24.7190     2.4740 
  219.6250     4.0770    81.0890    10.3390     8.8760    16.0180    24.7960     2.4200 
  219.7500     4.0570    81.0890    10.3390     8.8760    14.5730    24.8180     2.3850 
  219.8750     4.0310    81.0890    10.3390     8.8760    12.0390    24.7920     2.3820 
  220.0000     4.0080    81.0890    10.3390     8.8760    11.2390    24.7530     2.4120 
  220.1250     3.9980    81.0890    10.3390     8.8760    13.1850    24.6790     2.4530 
  220.2500     3.9830    81.0890    10.3390     8.8760    16.0370    24.6960     2.4920 
  220.3750     3.9390    81.0890    10.3390     8.8760    13.2880    24.7430     2.5180 
  220.5000     3.9160    81.0890    10.3390     8.8760     9.4920    24.8330     2.5240 
  220.6250     3.9420    81.0890    10.3390     8.8760     8.0200    24.9190     2.5140 
