~V
VERS. 2.00: Ver 2.00
~W
STRT.M 40.0000:
STOP.M 206.0000:
STEP.M 0.1250:
NULL. -999.2500:
UWI. F10149:
~C
DEPT.M :
SP.MV :
DEN.GM/CC :
GR.API :
RML.OHMM :
RI. :
RXO.OHMM :
CALI.CM :
~A
# ...
   62.5000    56.1520     2.0930    40.4970     0.0630     0.1440    -0.6120    25.3390 
   62.6250    48.8860     2.2340    40.6640     0.0620     0.1120    -0.2520    25.3290 
   62.7500    40.4200     2.3780    40.0320     0.0840     0.1000     0.4460    25.3050 
   62.8750    30.8290     2.4560    40.5510     0.1480     0.1220     1.3460    25.2900 
   63.0000    20.4160     2.4220    43.4740     0.2840     0.2040     2.4000    25.4530 
   63.1250     9.8460     2.2870    47.5940     0.5860     0.4160     3.7740    25.9740 
   63.2500    -0.2560     2.1320    49.8550     1.1620     0.8350     4.7520    26.4660 
   63.3750    -9.5310     2.0040    50.4460     2.1260     1.5610     5.1230    26.2810 
   63.5000   -17.6760     1.9310    51.9410     3.3660     2.6190     5.7770    25.6730 
   63.6250   -24.1240     1.9330    58.1170     4.3550     3.8210     7.2700    25.0660 
   63.7500   -29.0100     1.9840    67.1230     4.8820     4.8490     9.0000    24.5880 
   63.8750   -32.3120     2.0500    72.6440     5.1490     5.6030    10.0410    24.2750 
   64.0000   -34.2590     2.1020    71.2460     5.3800     6.1210    10.2360    24.0980 
   64.1250   -35.3640     2.1250    67.5620     5.6900     6.4220     9.8690    24.0150 
   64.2500   -36.2550     2.1350    66.5050     6.0820     6.5710     9.3260    23.9710 
   64.3750   -37.1230     2.1410    67.8340     6.4700     6.6140     8.7980    23.9340 
   64.5000   -38.0680     2.1440    69.6760     6.6860     6.6120     8.7500    23.9060 
   64.6250   -39.1280     2.1400    70.1560     6.5570     6.6200     9.2400    23.8910 
   64.7500   -40.2190     2.1290    69.7020     6.2200     6.6570    10.0730    23.9060 
   64.8750   -41.3010     2.1150    68.3860     5.9080     6.7090    10.8780    23.9550 
   65.0000   -42.3460     2.1030    65.8050     5.8380     6.7560    11.5040    24.0500 
   65.1250   -43.2970     2.1030    62.0430     6.0850     6.7850    11.8400    24.1400 
   65.2500   -44.1560     2.1140    61.7420     6.4340     6.8090    12.0580    24.2010 
   65.3750   -44.9780     2.1340    65.0960     6.7460     6.8480    12.1240    24.2780 
   65.5000   -45.7270     2.1560    66.5500     6.9950     6.9180    12.2990    24.3830 
   65.6250   -46.3290     2.1690    65.5310     7.2210     7.0150    12.5190    24.5130 
   65.7500   -46.7830     2.1690    67.2770     7.3920     7.1150    12.5540    24.6530 
   65.8750   -47.1100     2.1570    70.8150     7.4360     7.1940    12.3170    24.7500 
   66.0000   -47.3080     2.1400    71.7230     7.3530     7.2410    12.0820    24.7850 
   66.1250   -47.3280     2.1250    69.1940     7.2460     7.2530    12.1770    24.7570 
   66.2500   -47.1890     2.1170    66.3220     7.2230     7.2460    12.3580    24.6780 
   66.3750   -46.8860     2.1140    64.0910     7.2730     7.2170    12.4770    24.5780 
   66.5000   -46.4350     2.1160    62.8300     7.2980     7.1520    12.5990    24.4910 
   66.6250   -45.8620     2.1200    62.0150     7.1490     7.0370    12.8210    24.4260 
   66.7500   -45.2540     2.1260    61.5090     6.8540     6.8890    12.0570    24.3220 
   66.8750   -44.6610     2.1350    63.7420     6.5360     6.7270    10.3840    24.1820 
   67.0000   -44.1220     2.1430    69.7950     6.3210     6.5740     9.3330    24.0500 
   67.1250   -43.7220     2.1440    75.0860     6.2800     6.4520     9.8830    23.9790 
   67.2500   -43.4360     2.1400    74.4120     6.3770     6.3690    10.9800    23.9470 
   67.3750   -43.2630     2.1340    69.1330     6.5890     6.3380    11.3000    23.9220 
   67.5000   -43.2430     2.1330    64.6140     6.8870     6.3760    10.7380    23.9090 
   67.6250   -43.3820     2.1380    64.9020     7.2150     6.5020    10.1970    23.9690 
   67.7500   -43.6060     2.1430    67.4520     7.4950     6.6930    10.4420    24.1220 
   67.8750   -43.8580     2.1430    68.9050     7.6660     6.9200    11.1850    24.2980 
   68.0000   -44.0920     2.1360    68.4450     7.7030     7.1350    12.0670    24.3610 
   68.1250   -44.2960     2.1290    66.7200     7.6110     7.2560    12.5640    24.2090 
   68.2500   -44.4850     2.1290    65.9320     7.4730     7.2610    12.7990    24.0060 
   68.3750   -44.6200     2.1380    66.2140     7.3480     7.1710    12.9190    23.8580 
   68.5000   -44.6720     2.1500    66.2120     7.2620     7.0390    12.8540    23.7950 
   68.6250   -44.6750     2.1560    65.8040     7.2350     6.9390    12.5690    23.8160 
   68.7500   -44.6530     2.1560    67.1530     7.2740     6.9080    12.4410    23.9130 
   68.8750   -44.5950     2.1520    70.0230     7.3980     6.9480    12.7090    24.0660 
   69.0000   -44.4460     2.1500    70.6310     7.6240     7.0350    13.3690    24.2520 
   69.1250   -44.1980     2.1570    68.4980     7.9280     7.1280    13.5930    24.4120 
   69.2500   -43.8840     2.1690    68.6040     8.2150     7.1810    12.8670    24.5330 
   69.3750   -43.4870     2.1790    72.1730     8.3910     7.1590    11.9860    24.6140 
   69.5000   -42.9630     2.1800    73.6050     8.3760     7.0410    11.6950    24.6940 
   69.6250   -42.2380     2.1700    70.8170     8.1120     6.8110    11.5240    24.7330 
   69.7500   -41.3910     2.1610    71.2210     7.7090     6.5190    10.8460    24.7160 
   69.8750   -40.5070     2.1620    76.4700     7.3090     6.2200     9.1990    24.6140 
   70.0000   -39.7580     2.1770    82.2180     7.0550     5.9810     7.4210    24.4260 
   70.1250   -39.2610     2.2010    84.4660     7.0590     5.8810     6.6760    24.1840 
   70.2500   -39.0010     2.2210    85.3810     7.2410     5.9210     6.9660    23.9580 
   70.3750   -39.0070     2.2270    84.6310     7.4840     6.0760     7.9900    23.8290 
   70.5000   -39.2330     2.2180    81.2280     7.6760     6.2830     9.2700    23.8030 
   70.6250   -39.6730     2.1900    76.8160     7.7740     6.4550     9.8170    23.8620 
   70.7500   -40.2650     2.1510    74.8180     7.8470     6.5480     9.5580    23.9690 
   70.8750   -40.9480     2.1100    75.1120     7.9340     6.5650     9.2060    24.0740 
   71.0000   -41.6080     2.0780    74.4430     8.0240     6.5390     9.1960    24.0760 
   71.1250   -42.1510     2.0680    69.9280     8.0800     6.5170     9.7090    23.9650 
   71.2500   -42.5930     2.0760    64.8380     8.1030     6.5180    10.5600    23.9360 
   71.3750   -42.8800     2.0950    63.7640     8.1100     6.5350    11.3230    23.9840 
   71.5000   -43.0540     2.1160    66.1450     8.1140     6.5510    11.8160    23.9910 
   71.6250   -43.1690     2.1330    66.7330     8.1130     6.5600    12.0200    23.9470 
   71.7500   -43.1980     2.1470    64.4510     8.1850     6.6000    12.3900    23.9560 
   71.8750   -43.1530     2.1580    63.1040     8.4570     6.7330    13.2180    24.0360 
   72.0000   -42.9990     2.1660    64.5630     8.9940     7.0060    14.0690    24.1590 
   72.1250   -42.7210     2.1740    66.5100     9.7200     7.4170    13.8810    24.2910 
   72.2500   -42.3580     2.1970    67.9210    10.3380     7.8240    13.3470    24.3650 
   72.3750   -42.0320     2.2410    68.2590    10.5810     8.0760    12.6550    24.3480 
   72.5000   -41.8390     2.3010    67.5820    10.3150     8.0450    11.4560    24.1680 
   72.6250   -41.8140     2.3480    69.1740     9.6220     7.6870    10.0540    23.9370 
   72.7500   -41.9520     2.3550    71.4820     8.8950     7.2060     9.5690    23.7910 
   72.8750   -42.2470     2.3150    69.6520     8.3630     6.7660    10.0580    23.7390 
   73.0000   -42.7180     2.2460    61.9630     8.1210     6.4770    10.8460    23.7360 
   73.1250   -43.3700     2.1790    56.2200     8.2050     6.4100    11.4330    23.7710 
   73.2500   -44.1040     2.1330    55.6200     8.4540     6.4970    11.9260    23.8130 
   73.3750   -44.8010     2.1120    56.6770     8.7260     6.6600    12.6270    23.8570 
   73.5000   -45.3860     2.1130    57.6890     8.9170     6.8250    13.2940    23.9550 
   73.6250   -45.9000     2.1280    59.1900     8.9910     6.9430    13.4650    24.1120 
