~V
VERS. 2.00: Ver 2.00
~W
STRT.M 53.0000:
STOP.M 219.0000:
STEP.M 0.1250:
NULL. -999.2500:
UWI. F10171:
~C
DEPT.M :
SP.MV :
DEN.GM/CC :
GR.API :
RML.OHMM :
RI. :
RXO.OHMM :
CALI.CM :
~A
# ...
  109.2500   -41.8210     2.1710    62.8340     9.9530     7.9830    10.7340    24.7760 
  109.3750   -42.3670     2.1660    59.1320    10.0880     8.1060    10.8660    24.9300 
  109.5000   -42.8040     2.1510    55.4390    10.1060     8.1330    10.7560    24.9280 
  109.6250   -43.1440     2.1270    55.0780    10.0250     8.0690    10.5490    24.7100 
  109.7500   -43.4200     2.1050    57.2850     9.8880     7.9450    10.3700    24.4550 
  109.8750   -43.6230     2.0980    58.6250     9.7560     7.8030    10.3860    24.3940 
  110.0000   -43.7740     2.1060    57.9720     9.6780     7.6870    10.5720    24.3950 
  110.1250   -43.8930     2.1160    55.5220     9.6630     7.6120    10.7960    24.4050 
  110.2500   -43.9390     2.1190    52.7330     9.6970     7.5760    10.8830    24.5300 
  110.3750   -43.9100     2.1060    52.3920     9.7460     7.5620    10.7690    24.7160 
  110.5000   -43.8320     2.0890    54.7100     9.7690     7.5450    10.6440    24.8050 
  110.6250   -43.6720     2.0770    56.7590     9.7460     7.5100    10.5930    24.7680 
  110.7500   -43.4390     2.0800    57.0890     9.6700     7.4530    10.6150    24.6510 
  110.8750   -43.0740     2.0890    56.6110     9.5530     7.3840    10.7680    24.5320 
  111.0000   -42.5570     2.0890    56.6240     9.4740     7.3480    10.9590    24.4510 
  111.1250   -41.9800     2.0790    56.7650     9.5470     7.4190    11.0320    24.4260 
  111.2500   -41.3940     2.0690    56.0880     9.8700     7.6700    11.0940    24.4360 
  111.3750   -40.6720     2.0710    54.7380    10.4950     8.1570    11.7870    24.4580 
  111.5000   -39.8800     2.0890    54.3690    11.2440     8.7720    14.2830    24.4420 
  111.6250   -39.1020     2.1300    55.0560    11.8850     9.3600    19.4780    24.3290 
  111.7500   -38.2570     2.1860    55.6100    12.1630     9.7230    21.5350    24.1390 
  111.8750   -37.3640     2.2240    55.7010    11.8700     9.6450    15.2470    24.0080 
  112.0000   -36.4960     2.2230    57.0930    11.2160     9.2190    11.5490    24.0060 
  112.1250   -35.5500     2.2010    59.5620    10.4190     8.5840    10.1680    24.0700 
  112.2500   -34.4730     2.1850    61.5800     9.6460     7.8810     9.6960    24.1810 
  112.3750   -33.3890     2.1820    65.3930     8.9690     7.2170     8.5560    24.3330 
  112.5000   -32.3270     2.1880    72.4420     8.3600     6.6270     7.0450    24.4130 
  112.6250   -31.2700     2.2020    80.5240     7.8270     6.1300     6.0560    24.3390 
  112.7500   -30.3100     2.2180    87.2910     7.4280     5.7580     5.7000    24.1840 
  112.8750   -29.4860     2.2310    90.6490     7.2620     5.5720     5.4620    24.1060 
  113.0000   -28.7540     2.2380    89.9040     7.2920     5.5520     5.3740    24.1290 
  113.1250   -28.1260     2.2390    84.2020     7.4610     5.6740     5.5290    24.2100 
  113.2500   -27.6240     2.2370    79.0440     7.6850     5.8870     5.9080    24.2760 
  113.3750   -27.2460     2.2400    82.0290     7.8720     6.1230     5.9500    24.3390 
  113.5000   -26.9190     2.2530    87.6480     7.9790     6.3110     5.9140    24.4270 
  113.6250   -26.6160     2.2700    90.2740     7.9910     6.4150     5.9980    24.5450 
  113.7500   -26.3300     2.2770    90.6750     7.9080     6.4170     6.1360    24.6640 
  113.8750   -26.0530     2.2650    94.9650     7.7360     6.3160     5.9520    24.7870 
  114.0000   -25.7570     2.2480    99.9170     7.5320     6.1660     5.8500    24.8740 
  114.1250   -25.4840     2.2430    99.8370     7.3320     6.0060     5.7740    24.9200 
  114.2500   -25.3230     2.2550    96.1160     7.1630     5.8660     5.7670    24.9320 
  114.3750   -25.2580     2.2750    95.3200     7.0570     5.7740     5.7100    24.9210 
  114.5000   -25.2410     2.2910    98.2920     7.0130     5.7330     5.6140    24.8900 
  114.6250   -25.3660     2.2990    98.6280     7.0260     5.7380     5.5240    24.8690 
  114.7500   -25.6100     2.3050    95.1630     7.0850     5.7760     5.5520    24.8620 
  114.8750   -25.8790     2.3100    94.5540     7.1900     5.8380     5.8620    24.8540 
  115.0000   -26.2450     2.3110    98.0780     7.3210     5.9140     6.0660    24.8480 
  115.1250   -26.7810     2.3030   101.9600     7.4580     5.9930     6.0070    24.8700 
  115.2500   -27.3800     2.2840   101.7040     7.5830     6.0650     6.0150    24.8990 
  115.3750   -28.0110     2.2550    95.5010     7.6670     6.1120     6.2380    24.8900 
  115.5000   -28.7480     2.2300    87.7310     7.6860     6.1210     6.5740    24.8440 
  115.6250   -29.5070     2.2150    81.9930     7.6200     6.0830     6.7580    24.7950 
  115.7500   -30.2310     2.2090    81.7360     7.4900     6.0120     6.9270    24.7440 
  115.8750   -30.9660     2.2070    85.2880     7.4570     6.0040     6.8750    24.6710 
  116.0000   -31.7050     2.2090    87.8110     7.7770     6.2170     7.1990    24.5720 
  116.1250   -32.4020     2.2140    87.2970     8.7090     6.8320     7.5720    24.5620 
  116.2500   -33.0570     2.2220    82.9770    10.4170     8.0100     8.7520    24.6670 
  116.3750   -33.6670     2.2410    76.5890    12.8830     9.8950    13.5470    24.7980 
  116.5000   -34.2440     2.2760    70.8980    15.3330    12.0340    23.7800    24.8620 
  116.6250   -34.8480     2.3140    66.4930    16.7210    13.6290    31.1380    24.8390 
  116.7500   -35.5220     2.3300    63.5990    16.2530    13.8550    27.9650    24.7350 
  116.8750   -36.2180     2.3010    64.9250    14.1180    12.5610    18.0590    24.5600 
  117.0000   -36.8770     2.2440    68.6130    11.8320    10.8730    11.9640    24.3960 
  117.1250   -37.5000     2.1810    69.6830    10.1710     9.4560     9.8450    24.3310 
  117.2500   -38.0430     2.1310    66.4360     9.3250     8.5600    10.2110    24.3090 
  117.3750   -38.4870     2.1050    62.7970     9.1860     8.2220    10.9950    24.2670 
  117.5000   -38.8210     2.0960    62.8230     9.3290     8.1890    10.9610    24.2370 
  117.6250   -38.9590     2.0930    66.1100     9.5100     8.2880    10.4680    24.2310 
  117.7500   -38.8850     2.0910    71.2630     9.5950     8.3910     9.7180    24.2210 
  117.8750   -38.7050     2.0900    74.4600     9.5710     8.4440     9.3800    24.2420 
  118.0000   -38.4580     2.0890    73.7060     9.5390     8.4880     9.3810    24.3290 
  118.1250   -38.0640     2.0930    70.6670     9.5600     8.5630     9.7270    24.3960 
  118.2500   -37.6400     2.1020    68.0100     9.6570     8.6920    10.0820    24.4180 
  118.3750   -37.1930     2.1180    67.9380     9.8510     8.8920    10.2570    24.4180 
  118.5000   -36.6330     2.1400    69.6370    10.1280     9.1480    10.4430    24.4180 
  118.6250   -36.0140     2.1710    72.5330    10.4790     9.4490    10.7100    24.4190 
  118.7500   -35.4000     2.2080    74.8080    10.8840     9.7830    11.4060    24.4280 
  118.8750   -34.6750     2.2380    71.0500    11.2580    10.1040    12.5930    24.4590 
  119.0000   -33.8130     2.2510    64.2930    11.4690    10.3200    13.3230    24.5270 
  119.1250   -32.9330     2.2550    61.7910    11.4520    10.3700    12.9280    24.6360 
  119.2500   -31.9880     2.2610    64.9000    11.3190    10.3100    12.8450    24.7600 
  119.3750   -30.9750     2.2660    66.7240    11.4840    10.4120    12.0790    24.8420 
  119.5000   -30.0440     2.2610    65.9430    12.3660    10.9910    11.8780    24.8850 
  119.6250   -29.2370     2.2600    64.1360    14.2410    12.3210    12.4340    24.8970 
  119.7500   -28.4850     2.2850    60.4540    17.0710    14.5220    17.2430    24.8840 
  119.8750   -27.7850     2.3500    54.9750    20.1460    17.2950    29.4830    24.8860 
  120.0000   -27.1880     2.4230    51.0730    21.9630    19.4030    36.1160    24.8920 
  120.1250   -26.6880     2.4790    50.7260    21.4800    19.7300    30.4940    24.8820 
  120.2500   -26.2760     2.5000    53.4690    19.0970    18.2690    20.1930    24.8750 
  120.3750   -25.9410     2.4860    57.4710    16.6480    16.3100    13.7250    24.8800 
