~V
VERS. 2.00: Ver 2.00
~W
STRT.M 53.0000:
STOP.M 242.0000:
STEP.M 0.1250:
NULL. -999.2500:
UWI. F10177:
~C
DEPT.M :
SP.MV :
GR.API :
RML.OHMM :
RI. :
RXO.OHMM :
CALI.CM :
DEN.GM/CC :
~A
# ...
  176.7500    -3.6700    55.8700     6.0970     5.7840     5.9050    24.3430     2.3790 
  176.8750    -3.9460    54.9420     6.2570     5.8210     6.0640    24.5090     2.3980 
  177.0000    -4.1900    55.1090     6.4520     5.8950     6.3160    24.6890     2.4210 
  177.1250    -4.3990    54.9680     6.6360     5.9730     6.4950    24.7670     2.4380 
  177.2500    -4.6440    54.3840     6.7530     6.0100     6.5320    24.7780     2.4400 
  177.3750    -4.8590    54.0760     6.7530     5.9540     6.4090    24.7700     2.4220 
  177.5000    -5.0130    54.1240     6.6680     5.8240     6.1900    24.7840     2.3960 
  177.6250    -5.1760    53.7670     6.5470     5.6580     5.9530    24.7990     2.3740 
  177.7500    -5.3360    52.5000     6.4500     5.5080     5.7600    24.8120     2.3660 
  177.8750    -5.3670    50.6290     6.4360     5.4250     5.6780    24.8200     2.3730 
  178.0000    -5.3490    50.1720     6.5030     5.4140     5.7220    24.8120     2.3850 
  178.1250    -5.2720    52.5740     6.6280     5.4610     5.8930    24.8150     2.3960 
  178.2500    -5.1590    56.4060     6.7690     5.5340     6.1130    24.8040     2.4040 
  178.3750    -5.1320    56.0270     6.8820     5.5980     6.2650    24.7860     2.4130 
  178.5000    -5.1590    53.8580     6.9670     5.6490     6.3470    24.7660     2.4280 
  178.6250    -5.1870    55.1240     7.0530     5.7050     6.3760    24.7700     2.4460 
  178.7500    -5.2840    60.9430     7.1800     5.7950     6.3890    24.8180     2.4660 
  178.8750    -5.5730    67.7350     7.3880     5.9470     6.3950    24.8610     2.4830 
  179.0000    -6.0510    75.2080     7.6670     6.1500     6.4320    24.9030     2.4910 
  179.1250    -6.7690    84.5870     7.9930     6.3870     6.5470    24.9370     2.4890 
  179.2500    -7.6540    94.1770     8.3410     6.6360     6.7230    24.9130     2.4770 
  179.3750    -8.6910   101.2160     8.6770     6.8700     6.8890    24.7760     2.4580 
  179.5000    -9.9110   106.6720     8.9690     7.0670     7.0130    24.6650     2.4420 
  179.6250   -11.2530   109.3010     9.1830     7.2010     7.2550    24.7040     2.4320 
  179.7500   -12.6630   107.5010     9.2880     7.2490     7.6530    24.7910     2.4270 
  179.8750   -14.0660   103.3930     9.2570     7.1850     7.8930    24.8330     2.4220 
  180.0000   -15.3600   102.3130     9.1520     7.0560     7.8180    24.9130     2.4140 
  180.1250   -16.5920   103.9260     9.0450     6.9180     7.5690    25.0690     2.4050 
  180.2500   -17.8030   102.8440     9.0180     6.8380     7.3620    25.2200     2.3970 
  180.3750   -18.9410    96.9760     9.1580     6.8910     7.3400    25.2690     2.3920 
  180.5000   -20.0100    93.2000     9.4550     7.0740     7.5840    25.2980     2.3870 
  180.6250   -21.0110    92.5730     9.8820     7.3760     8.1070    25.3290     2.3820 
  180.7500   -21.9110    92.5580    10.3940     7.7640     8.6830    25.3180     2.3770 
  180.8750   -22.7340    92.7390    10.9370     8.2000     9.0740    25.2930     2.3760 
  181.0000   -23.4720    94.3120    11.4380     8.6270     9.3760    25.2430     2.3740 
  181.1250   -24.0530    94.4890    11.8290     8.9900     9.5930    25.1250     2.3680 
  181.2500   -24.5100    90.4960    12.0530     9.2420     9.8060    25.0470     2.3590 
  181.3750   -24.8120    85.0780    12.0550     9.3310     9.9500    25.0710     2.3500 
  181.5000   -24.8790    83.6890    11.9180     9.3080    10.0630    25.0230     2.3420 
  181.6250   -24.7940    87.2710    11.7410     9.2350    10.1350    24.9540     2.3350 
  181.7500   -24.6010    92.2370    11.6310     9.1840    10.2510    24.8930     2.3250 
  181.8750   -24.1900    96.0380    11.7010     9.2290    10.4140    24.8940     2.3110 
  182.0000   -23.5990   101.7780    11.9220     9.3790    10.4970    24.8950     2.2950 
  182.1250   -22.7780   108.7230    12.1920     9.5980    10.5660    24.7570     2.2730 
  182.2500   -21.7280   109.4570    12.3320     9.7710    10.5830    24.2530     2.2430 
  182.3750   -20.4350   100.3720    12.0780     9.6750    10.5960    23.2600     2.2050 
  182.5000   -19.0140    91.0070    11.4090     9.2380    10.5630    22.0240     2.1730 
  182.6250   -17.5890    84.1340    10.4350     8.5180    10.4040    21.2790     2.1610 
  182.7500   -16.2230    76.9070     9.3830     7.6950    10.2600    21.8650     2.1780 
  182.8750   -15.0160    66.9260     8.5450     7.0040     9.5140    23.4720     2.2250 
  183.0000   -14.0970    60.3050     8.0220     6.5480     8.5820    24.5850     2.2820 
  183.1250   -13.4960    60.0680     7.7920     6.3300     7.4440    24.9580     2.3350 
  183.2500   -13.1330    63.5220     7.7450     6.2940     6.2230    25.0250     2.3700 
  183.3750   -13.0890    67.0210     7.7430     6.3530     6.5710    25.0200     2.3820 
  183.5000   -13.2800    67.5840     7.6920     6.3990     6.6940    24.9530     2.3800 
  183.6250   -13.5990    64.4670     7.5980     6.4110     6.4820    24.8620     2.3690 
  183.7500   -14.0020    59.1170     7.5220     6.4200     6.1680    24.7630     2.3520 
  183.8750   -14.3920    57.4440     7.5400     6.4880     6.0910    24.5360     2.3290 
  184.0000   -14.6750    60.5250     7.6410     6.6210     6.1450    24.3190     2.3050 
  184.1250   -14.8590    64.9860     7.7710     6.7870     6.3370    24.2910     2.2860 
  184.2500   -14.9030    69.3720     7.8570     6.9200     6.6500    24.5490     2.2770 
  184.3750   -14.7370    75.4990     7.8230     6.9440     6.9330    24.8570     2.2790 
  184.5000   -14.4630    81.7280     7.6870     6.8610     7.1120    25.0930     2.2880 
  184.6250   -14.0660    86.3340     7.4970     6.7050     7.0460    25.1200     2.3030 
  184.7500   -13.4860    91.7190     7.3240     6.5360     6.7560    25.0590     2.3250 
  184.8750   -12.7450    97.8540     7.2480     6.4270     6.5900    25.0390     2.3530 
  185.0000   -11.9290   101.9030     7.2800     6.4040     6.6860    25.0000     2.3800 
  185.1250   -11.0730   103.6410     7.3930     6.4540     6.9010    24.9580     2.3990 
  185.2500   -10.2470   104.0010     7.5320     6.5360     7.1420    24.8960     2.4080 
  185.3750    -9.5600   102.1140     7.6200     6.5840     7.3100    24.8690     2.4060 
  185.5000    -8.9470    99.0210     7.6150     6.5590     7.3860    24.8590     2.4000 
  185.6250    -8.4180    97.9830     7.5110     6.4550     7.2840    24.8420     2.3950 
  185.7500    -8.0330   100.1290     7.3380     6.2970     6.9870    24.8270     2.3940 
  185.8750    -7.8390   102.7470     7.1710     6.1450     6.7030    24.8560     2.4000 
  186.0000    -7.7820   103.4790     7.1110     6.0760     6.5830    24.8690     2.4070 
  186.1250    -7.8370   102.2400     7.2410     6.1630     6.6460    24.8620     2.4120 
  186.2500    -8.0070   100.2760     7.6110     6.4560     6.9230    24.8540     2.4120 
  186.3750    -8.1880    98.4850     8.2310     6.9840     7.5270    24.8730     2.4050 
  186.5000    -8.3860    97.3610     8.9710     7.6460     8.4850    24.9180     2.3920 
  186.6250    -8.5930    94.8780     9.7140     8.3430     9.6420    24.9630     2.3780 
  186.7500    -8.7910    91.3760    10.3550     8.9660    10.6170    24.9850     2.3660 
  186.8750    -8.9520    89.4600    10.7990     9.4050    11.0890    24.9860     2.3610 
  187.0000    -9.0550    91.2050    11.0490     9.6630    10.8990    24.9760     2.3640 
  187.1250    -9.1190    94.9710    11.1020     9.7380    10.7900    24.9420     2.3730 
  187.2500    -9.1500    98.3740    10.9580     9.6280    11.0290    24.8860     2.3870 
  187.3750    -9.2090   100.3760    10.6470     9.3560    11.0100    24.8620     2.3990 
  187.5000    -9.2740   100.8060    10.3360     9.0690    10.3160    24.8670     2.4020 
  187.6250    -9.3490    99.7020    10.2290     8.9220     9.4220    24.9010     2.3950 
  187.7500    -9.4240    97.7550    10.5470     9.0880     9.0530    24.9270     2.3830 
  187.8750    -9.5350    94.0850    11.5570     9.8200     9.7590    24.8850     2.3800 
