~V
VERS. 2.00: Ver 2.00
~W
STRT.M 55.0000:
STOP.M 247.0000:
STEP.M 0.1250:
NULL. -999.2500:
UWI. F10183:
~C
DEPT.M :
SP.MV :
GR.API :
RML.OHMM :
RI. :
RXO.OHMM :
CALI.CM :
DEN.GM/CC :
~A
# ...
  201.2500   -16.6930    57.3420   130.2800   117.7210    84.5540    24.1200     2.3120 
  201.3750   -16.8200    54.4110   127.3230   115.6910    82.1190    24.1210     2.3190 
  201.5000   -16.9310    51.0920   124.2280   113.2610    75.8780    24.1090     2.3060 
  201.6250   -16.9510    52.3170   122.1040   111.4420    69.2190    24.1270     2.2830 
  201.7500   -16.9920    56.1420   121.2070   110.6580    65.7190    24.1500     2.2620 
  201.8750   -17.0290    58.2840   121.4130   110.9300    64.4790    24.1490     2.2500 
  202.0000   -17.0960    57.3590   122.3740   112.0200    64.2800    24.1580     2.2440 
  202.1250   -17.1340    55.5610   123.6890   113.5950    65.0250    24.1720     2.2450 
  202.2500   -17.1290    53.9530   124.9260   115.1970    66.6550    24.1530     2.2500 
  202.3750   -17.1110    51.3190   125.8120   116.5480    69.2500    24.1320     2.2600 
  202.5000   -17.0780    49.1120   126.0700   117.3830    72.5640    24.1200     2.2720 
  202.6250   -17.0590    48.8070   125.2220   117.2700    75.4770    24.0740     2.2810 
  202.7500   -17.0470    49.8070   123.2740   116.1690    76.2480    24.0300     2.2820 
  202.8750   -17.0440    52.3370   120.4140   114.2020    73.7510    24.0210     2.2740 
  203.0000   -17.0590    54.5770   117.1270   111.7640    68.4030    24.0070     2.2590 
  203.1250   -17.0840    54.1700   114.1240   109.4900    61.2170    23.9920     2.2410 
  203.2500   -17.1050    52.0720   111.8490   107.8480    58.0970    24.0120     2.2240 
  203.3750   -17.0850    51.2120   110.3470   106.9900    57.5390    24.0270     2.2080 
  203.5000   -17.0530    52.3030   109.4770   106.7740    57.8850    24.0130     2.1940 
  203.6250   -17.0620    53.9060   108.8410   106.8000    58.3530    24.0220     2.1870 
  203.7500   -17.0530    52.9250   108.0200   106.5080    59.1670    24.0340     2.1840 
  203.8750   -17.0300    48.8650   106.9410   105.5090    59.8610    24.0120     2.1870 
  204.0000   -16.9980    45.9330   105.3850   103.5590    59.8820    23.9940     2.1940 
  204.1250   -17.0210    48.0260   102.3170   100.4400    59.1940    24.0040     2.2020 
  204.2500   -17.0650    50.3520    98.4780    96.4920    59.1200    23.9990     2.2090 
  204.3750   -17.1550    49.4830    93.1870    92.0370    60.6380    24.0020     2.2140 
  204.5000   -17.2480    48.2020    88.0670    87.5030    62.2050    24.0370     2.2170 
  204.6250   -17.3310    50.7120    83.7970    83.5170    62.8750    24.0440     2.2190 
  204.7500   -17.4470    53.8090    80.7400    80.5120    62.2420    24.0190     2.2190 
  204.8750   -17.5810    55.2150    79.1830    78.8200    60.4970    24.0000     2.2210 
  205.0000   -17.7430    57.3150    79.2400    78.6090    58.5680    23.9710     2.2260 
  205.1250   -17.9030    60.7650    81.0630    80.0740    56.2140    23.9020     2.2330 
  205.2500   -18.0850    61.5910    84.1020    82.7230    54.0980    23.8400     2.2410 
  205.3750   -18.2430    59.3940    87.9950    86.2170    52.1790    23.7790     2.2450 
  205.5000   -18.4260    57.5410    92.3850    90.1990    49.7410    23.6810     2.2450 
  205.6250   -18.6220    56.7940    97.0100    94.3850    46.1640    23.5790     2.2410 
  205.7500   -18.7960    55.2390   101.7010    98.5890    42.6510    23.5040     2.2350 
  205.8750   -18.9700    53.5610   106.4320   102.7750    40.8040    23.4340     2.2300 
  206.0000   -19.1040    52.9840   111.1870   106.9320    41.4420    23.3980     2.2270 
  206.1250   -19.2080    55.3560   115.8700   110.9830    43.4240    23.4290     2.2260 
  206.2500   -19.2530    59.0120   120.3450   114.8240    45.1090    23.4590     2.2260 
  206.3750   -19.2990    59.1290   124.4570   118.3260    46.5220    23.4800     2.2240 
  206.5000   -19.3240    53.5710   128.0410   121.3480    48.4150    23.5490     2.2190 
  206.6250   -19.3270    47.9180   130.6920   123.5540    50.0220    23.6540     2.2090 
  206.7500   -19.3330    47.0270   132.0950   124.7050    52.7960    23.7380     2.1990 
  206.8750   -19.2840    49.3460   131.7540   124.3910    57.4020    23.8160     2.1920 
  207.0000   -19.2140    53.2170   129.3270   122.2950    61.9670    23.8750     2.1930 
  207.1250   -19.1450    55.0880   124.7300   118.2650    63.8890    23.8770     2.2030 
  207.2500   -19.0980    52.4640   119.2700   113.3610    62.8100    23.8890     2.2130 
  207.3750   -19.0730    48.5800   114.2080   108.6540    59.2390    23.9280     2.2190 
  207.5000   -19.0370    49.1890   110.6530   105.1600    55.9230    23.9480     2.2160 
  207.6250   -18.9960    53.6760   109.5140   103.7940    54.8410    23.9430     2.2080 
  207.7500   -18.9210    56.6050   110.1820   104.1220    54.5850    23.9470     2.1990 
  207.8750   -18.8780    57.6370   111.9170   105.5250    54.7670    23.9400     2.1920 
  208.0000   -18.8050    58.1360   113.8600   107.2200    54.6080    23.9230     2.1890 
  208.1250   -18.6950    58.8940   115.2030   108.4170    53.7380    23.9360     2.1910 
  208.2500   -18.5880    58.4420   115.8090   108.8940    52.7520    23.9640     2.1960 
  208.3750   -18.4260    56.5280   115.8840   108.7700    52.5210    24.0030     2.2010 
  208.5000   -18.2620    55.1740   115.7440   108.2920    53.7140    24.0830     2.2040 
  208.6250   -18.0740    55.1540   115.5480   107.5790    56.8020    24.1650     2.2060 
  208.7500   -17.9380    54.7590   115.1850   106.5970    60.6810    24.2260     2.2080 
  208.8750   -17.8070    52.3430   114.4100   105.1770    63.4830    24.3000     2.2120 
  209.0000   -17.7430    50.0630   112.9920   103.1870    63.5320    24.3700     2.2180 
  209.1250   -17.7060    50.4140   110.6910   100.5120    63.2240    24.4030     2.2230 
  209.2500   -17.6510    51.2140   107.7110    97.3690    63.2540    24.4490     2.2260 
  209.3750   -17.6240    51.8890   104.2170    93.9090    63.7150    24.5080     2.2250 
  209.5000   -17.5660    53.2840   100.3600    90.2500    63.9200    24.5240     2.2200 
  209.6250   -17.4770    54.5830    96.1780    86.4170    63.8290    24.5100     2.2130 
  209.7500   -17.3370    53.7560    91.7350    82.4230    64.1790    24.5040     2.2080 
  209.8750   -17.1510    51.4350    87.0940    78.2950    64.2840    24.4730     2.2080 
  210.0000   -16.9250    51.2830    82.4360    74.1620    63.8210    24.4250     2.2130 
  210.1250   -16.6530    54.3660    78.0810    70.2880    62.3630    24.4100     2.2250 
  210.2500   -16.4180    55.9290    74.1270    66.7720    60.5420    24.3890     2.2410 
  210.3750   -16.1510    55.7770    70.4710    63.5450    58.7360    24.3490     2.2590 
  210.5000   -15.8810    55.8900    66.8560    60.3930    57.6220    24.3360     2.2740 
  210.6250   -15.6250    55.4710    62.9480    57.0190    57.2700    24.3410     2.2800 
  210.7500   -15.3010    53.9410    58.7050    53.3490    55.4470    24.3270     2.2770 
  210.8750   -14.9600    53.3370    54.3280    49.5300    51.9940    24.3330     2.2690 
  211.0000   -14.6420    55.1980    50.2030    45.8810    48.9370    24.3660     2.2620 
  211.1250   -14.3310    57.8230    46.9040    42.8900    46.9320    24.3710     2.2630 
  211.2500   -13.9860    60.0690    44.5810    40.7090    45.5870    24.3660     2.2690 
  211.3750   -13.6410    61.8190    43.2290    39.3530    44.4150    24.3700     2.2770 
  211.5000   -13.3730    60.9350    42.6350    38.6700    43.6910    24.3300     2.2860 
  211.6250   -13.2140    57.9090    42.4520    38.3900    43.8940    24.2400     2.2910 
  211.7500   -13.2020    56.9980    42.1920    38.0830    44.1730    24.1550     2.2930 
  211.8750   -13.2450    59.3070    41.6230    37.5140    43.5600    24.0540     2.2910 
  212.0000   -13.2750    62.4480    40.7420    36.6390    41.8550    23.9220     2.2850 
  212.1250   -13.3010    64.4680    39.8380    35.6600    38.7580    23.8200     2.2760 
  212.2500   -13.3150    63.6530    39.3480    34.9600    35.5570    23.7430     2.2690 
  212.3750   -13.3240    61.9090    39.5800    34.8360    35.4790    23.6780     2.2700 
