~V
VERS. 2.00: Ver 2.00
~W
STRT.M 49.0000:
STOP.M 251.0000:
STEP.M 0.1250:
NULL. -999.2500:
UWI. F10165:
~C
DEPT.M :
GR.API :
RML.OHMM :
RI. :
RXO.OHMM :
CALI.CM :
SP.MV :
DEN.GM/CC :
~A
# ...
  172.7500    55.6750   354.2360   301.6840   359.7370    29.1230   -34.8010     2.0960 
  172.8750    54.0150   357.1960   304.1950   354.6660    29.1660   -34.7350     2.0910 
  173.0000    55.8210   355.5260   303.5720   343.7400    29.1840   -34.6170     2.0850 
  173.1250    58.8590   348.5770   298.5850   334.9630    29.1750   -34.4880     2.0780 
  173.2500    58.9170   340.2240   291.8690   309.8810    29.1370   -34.3580     2.0700 
  173.3750    57.0250   333.8680   286.4810   277.3610    29.0600   -34.1870     2.0680 
  173.5000    56.5690   331.5830   284.8350   268.3440    28.9760   -34.0150     2.0750 
  173.6250    56.7360   334.1970   288.3130   287.6480    28.9190   -33.8850     2.0900 
  173.7500    55.9910   339.1630   294.8300   326.0320    28.8830   -33.7540     2.1040 
  173.8750    54.2980   343.2540   301.7440   364.6990    28.8500   -33.5980     2.1130 
  174.0000    53.2190   341.7160   305.0700   367.0050    28.8350   -33.4630     2.1140 
  174.1250    53.1650   326.5760   297.8260   337.2360    28.8230   -33.3480     2.1100 
  174.2500    52.8190   297.2850   278.0330   316.2560    28.7680   -33.2100     2.1070 
  174.3750    52.8050   257.4510   247.0270   303.1440    28.6420   -33.1000     2.1070 
  174.5000    53.2710   214.0680   209.8530   268.7960    28.5010   -33.0220     2.1120 
  174.6250    54.9530   174.9160   173.5390   206.7460    28.3650   -32.8870     2.1140 
  174.7500    56.0320   143.1210   142.9080   147.7320    28.2340   -32.7230     2.1080 
  174.8750    56.0290   119.4400   119.3500   117.4070    28.0970   -32.5990     2.0980 
  175.0000    57.6690   102.9810   102.4620   108.3530    27.9440   -32.4810     2.0870 
  175.1250    59.9570    93.0090    91.6350    98.7950    27.7610   -32.3300     2.0660 
  175.2500    60.8630    87.3100    84.6720    89.4970    27.5820   -32.2110     2.0280 
  175.3750    61.6990    85.3200    81.0060    89.0140    27.3320   -32.0890     1.9730 
  175.5000    65.1080    86.7260    80.1710    83.1380    26.8640   -31.9400     1.9260 
  175.6250    67.6700    90.4020    80.7450    53.4110    26.0810   -31.8460     1.9360 
  175.7500    66.4480    92.3690    79.3390    29.3100    25.4190   -31.7860     2.0030 
  175.8750    64.6680    88.4390    73.1120    20.1610    25.0330   -31.6930     2.1000 
  176.0000    66.8810    76.7740    61.5980    20.0660    24.7940   -31.5880     2.1800 
  176.1250    71.8570    60.0880    47.5980    21.6090    24.7170   -31.5270     2.2170 
  176.2500    76.1680    44.5390    35.1650    19.7150    24.7480   -31.4590     2.2260 
  176.3750    79.1970    32.6500    25.7270    16.0210    24.8250   -31.3890     2.2250 
  176.5000    81.4080    24.5170    19.2070    14.3020    24.8790   -31.3740     2.2300 
  176.6250    85.4020    19.5250    15.2070    12.5360    24.8540   -31.3680     2.2590 
  176.7500    90.0290    16.3040    12.7020    10.5500    24.7630   -31.3340     2.2960 
  176.8750    93.8100    14.4080    11.3390     9.2290    24.6590   -31.3190     2.3170 
  177.0000    95.0560    13.6510    11.0030     8.8500    24.5760   -31.3560     2.3160 
  177.1250    92.8270    14.3360    12.1440     9.1860    24.5300   -31.4010     2.2960 
  177.2500    88.8810    16.7550    15.2260    10.2900    24.4880   -31.4470     2.2620 
  177.3750    83.2520    21.8860    21.1980    13.1580    24.4520   -31.5270     2.2180 
  177.5000    77.2240    31.2370    31.1380    20.4540    24.4160   -31.6030     2.1780 
  177.6250    71.9280    47.3840    46.5330    27.3160    24.3570   -31.6640     2.1560 
  177.7500    68.8290    68.4530    65.3050    30.2150    24.2660   -31.7670     2.1520 
  177.8750    69.7400    89.0500    83.0980    30.9080    24.1640   -31.8960     2.1580 
  178.0000    72.3250   101.7480    94.0710    33.2410    24.0900   -31.9900     2.1700 
  178.1250    74.4470   102.5920    95.0520    37.9920    24.1180   -32.0760     2.1780 
  178.2500    74.7900    98.4620    92.1870    40.6030    24.2480   -32.1860     2.1780 
  178.3750    73.3940    94.2450    89.8690    37.8570    24.3880   -32.2730     2.1660 
  178.5000    70.7320    91.9670    89.6770    34.6160    24.4030   -32.3550     2.1410 
  178.6250    66.2990    91.5400    91.1270    34.8010    24.3500   -32.4510     2.1080 
  178.7500    62.1990    91.3750    92.3980    36.6230    24.3950   -32.5110     2.0730 
  178.8750    60.7220    90.4200    92.2750    37.7000    24.4900   -32.5670     2.0440 
  179.0000    62.8130    88.1940    90.2660    36.2270    24.5520   -32.6660     2.0350 
  179.1250    67.5620    84.8340    86.6720    32.5910    24.5680   -32.7630     2.0590 
  179.2500    71.4990    81.2860    82.7850    29.0200    24.5410   -32.8330     2.0950 
  179.3750    73.7570    78.2030    79.3840    26.3150    24.4560   -32.9240     2.1180 
  179.5000    73.7300    75.9090    76.8170    25.3890    24.3740   -33.0180     2.1180 
  179.6250    70.4510    74.5630    75.2180    24.3450    24.3520   -33.0940     2.1110 
  179.7500    67.2620    73.9250    74.3310    22.9040    24.3540   -33.2000     2.1170 
  179.8750    66.4450    73.9080    74.0990    22.5600    24.3300   -33.3230     2.1340 
  180.0000    67.1240    74.4940    74.5630    22.4260    24.2630   -33.4160     2.1490 
  180.1250    67.5420    75.9230    76.0170    22.3440    24.1840   -33.4980     2.1570 
  180.2500    67.9660    78.2020    78.3950    23.0170    24.1250   -33.6150     2.1650 
  180.3750    70.1450    81.2340    81.5310    24.3010    24.1030   -33.7330     2.1680 
  180.5000    73.1060    84.6780    85.0420    25.4420    24.1740   -33.8300     2.1550 
  180.6250    73.7750    87.9420    88.3220    27.9170    24.4190   -33.9510     2.1000 
  180.7500    72.0280    90.4600    90.8770    31.9470    24.7780   -34.0640     2.0220 
  180.8750    69.7020    91.9790    92.5600    35.0070    25.2270   -34.1370     1.9690 
  181.0000    68.4130    92.7760    93.7550    33.2880    25.5220   -34.2230     1.9780 
  181.1250    67.5120    93.8690    95.6120    31.5490    25.3180   -34.3520     2.0600 
  181.2500    65.9330    96.5390    99.3740    31.5260    24.8790   -34.4580     2.1510 
  181.3750    64.0030   102.0790   106.2790    34.5770    24.5720   -34.5360     2.1940 
  181.5000    62.6000   111.7150   117.4440    40.0430    24.4740   -34.6340     2.1750 
  181.6250    63.2570   128.5300   134.5150    46.8300    24.5370   -34.7160     2.1200 
  181.7500    65.4790   153.5580   156.8140    56.6690    24.6620   -34.7850     2.0700 
  181.8750    67.2080   179.4340   183.7430    71.9060    24.8100   -34.8820     2.0390 
  182.0000    66.5260   208.0770   213.6470    98.7550    24.9300   -34.9700     2.0290 
  182.1250    62.3690   235.9630   242.9590   155.9280    24.9350   -34.9980     2.0230 
  182.2500    56.7500   259.4540   267.6420   181.4360    24.7920   -35.0220     2.0110 
  182.3750    52.8780   276.4810   285.2870   129.5910    24.4790   -35.0800     2.0040 
  182.5000    53.4430   286.8200   295.5660    70.4990    24.1180   -35.1260     2.0200 
  182.6250    57.5910   291.6830   299.8650    50.9160    23.9360   -35.1640     2.0600 
  182.7500    61.2610   294.9550   302.4900    45.4130    23.9110   -35.2360     2.1010 
  182.8750    63.0810   298.6810   305.3950    45.1430    23.9420   -35.2910     2.1180 
  183.0000    64.0060   303.3610   308.6000    47.6530    23.9660   -35.3030     2.1020 
  183.1250    62.8490   307.4900   309.7310    51.4210    24.0090   -35.3100     2.0520 
  183.2500    60.9710   307.8760   305.5400    52.2800    24.1060   -35.3280     1.9920 
  183.3750    60.3600   300.7580   292.7520    48.5680    24.2250   -35.3220     1.9550 
  183.5000    60.6880   283.5630   270.0470    44.2810    24.2460   -35.2750     1.9630 
  183.6250    59.8120   256.2180   239.4370    39.7240    24.1490   -35.2150     2.0160 
  183.7500    58.6600   225.6830   208.2070    36.4410    24.0950   -35.1230     2.0760 
  183.8750    59.0280   191.8590   180.9750    34.3640    24.1470   -35.0010     2.1190 
