~V
VERS. 2.00: Ver 2.00
~W
STRT.M 62.0000:
STOP.M 275.0000:
STEP.M 0.1250:
NULL. -999.2500:
UWI. F10141:
~C
DEPT.M :
GR.API :
RML.OHMM :
RI. :
RXO.OHMM :
CALI.CM :
DEN.GM/CC :
SP.MV :
~A
# ...
  197.0000    65.3770    26.0100    26.5640    34.8810    25.1180     2.3750   -19.4650 
  197.1250    69.2760    24.0150    25.2000    25.5310    24.8580     2.3710   -19.5350 
  197.2500    73.0800    21.6590    23.2880    15.9600    24.4750     2.3620   -19.6470 
  197.3750    75.8740    19.6230    21.4500    12.0010    24.2520     2.3530   -19.7590 
  197.5000    78.1580    18.3080    20.1080    12.9210    24.3620     2.3470   -19.8510 
  197.6250    80.0390    17.7980    19.4340    16.1830    24.6490     2.3460   -19.8680 
  197.7500    81.7320    17.6770    19.1350    15.9040    24.7680     2.3520   -19.8470 
  197.8750    82.6790    17.6400    18.9440    15.4020    24.8210     2.3640   -19.8210 
  198.0000    81.0230    17.4390    18.6040    15.4770    24.9580     2.3850   -19.8020 
  198.1250    76.9390    16.8940    17.9000    15.4300    25.0690     2.4130   -19.7790 
  198.2500    73.5950    16.0860    16.9130    14.0710    25.1030     2.4370   -19.7240 
  198.3750    72.7860    15.1760    15.8230    13.0480    25.1110     2.4450   -19.6380 
  198.5000    73.3970    14.4690    14.9140    12.8800    25.0930     2.4280   -19.5420 
  198.6250    76.3980    14.6530    14.7050    12.9330    24.9980     2.3850   -19.5170 
  198.7500    80.8540    16.3970    15.6130    13.1140    24.8540     2.3330   -19.6190 
  198.8750    82.5440    20.6480    18.3340    14.7320    24.7290     2.2870   -19.8680 
  199.0000    78.7640    28.5200    23.9440    23.5750    24.7050     2.2560   -20.2510 
  199.1250    71.4640    41.9260    34.6610    52.4420    24.7710     2.2430   -20.7030 
  199.2500    63.7890    60.1960    50.4340    90.3610    24.8060     2.2410   -21.1980 
  199.3750    58.9610    81.1790    69.4170   109.5140    24.8130     2.2460   -21.7410 
  199.5000    59.3020   100.0500    86.9160   110.4830    24.8140     2.2540   -22.2650 
  199.6250    63.0720   110.4570    96.8460   108.4200    24.8150     2.2620   -22.7460 
  199.7500    64.2640   114.0750   100.3710   104.7940    24.8160     2.2660   -23.2160 
  199.8750    62.8690   115.0750   100.9120   105.7800    24.8200     2.2660   -23.6500 
  200.0000    61.6460   116.7850   101.4590   111.6750    24.8340     2.2630   -23.9990 
  200.1250    61.0580   120.7560   103.7040   115.1250    24.8610     2.2580   -24.2390 
  200.2500    59.2270   126.5960   107.7010   115.7240    24.8730     2.2520   -24.3950 
  200.3750    57.1000   133.8380   113.2760   117.3160    24.8760     2.2470   -24.4940 
  200.5000    56.8530   141.6680   119.9210   125.0630    24.8700     2.2420   -24.6030 
  200.6250    57.7120   148.3140   126.4220   146.1210    24.8520     2.2390   -24.7550 
  200.7500    57.2860   151.7570   130.9990   156.5720    24.8280     2.2370   -24.8450 
  200.8750    55.7280   150.3330   132.0550   152.6430    24.8170     2.2360   -24.8240 
  201.0000    54.8980   143.6780   128.8020   139.4710    24.8220     2.2380   -24.7500 
  201.1250    56.5270   132.8980   121.4310   120.1430    24.8510     2.2430   -24.6920 
  201.2500    59.3620   121.3180   112.5370    96.1630    24.9140     2.2490   -24.6520 
  201.3750    61.7900   110.9200   103.9480    80.4230    25.0030     2.2560   -24.6110 
  201.5000    62.8680   102.7690    96.8910    77.3020    25.1200     2.2610   -24.5530 
  201.6250    63.3430    97.6920    92.3540    79.3250    25.2100     2.2600   -24.4740 
  201.7500    63.2960    95.3710    90.2660    83.5240    25.2600     2.2550   -24.4020 
  201.8750    62.9570    95.9460    90.8390    88.7590    25.2790     2.2460   -24.3620 
  202.0000    63.6310    99.6210    94.3000    91.6460    25.2910     2.2380   -24.3430 
  202.1250    64.8610   107.2210   101.4370    94.2950    25.2770     2.2350   -24.3310 
  202.2500    64.1750   118.2660   111.8200   104.0230    25.2640     2.2360   -24.3500 
  202.3750    62.0260   132.3160   125.0620   125.8500    25.2520     2.2390   -24.3640 
  202.5000    60.2390   148.1130   140.0290   156.1380    25.2570     2.2390   -24.3290 
  202.6250    58.2850   162.9950   154.3870   175.4900    25.2610     2.2370   -24.2500 
  202.7500    56.7840   174.2520   165.7420   184.6970    25.2490     2.2340   -24.1880 
  202.8750    56.9660   180.4440   172.7670   189.4330    25.2100     2.2310   -24.1530 
  203.0000    58.1490   181.8570   175.5700   187.7620    25.1570     2.2300   -24.1250 
  203.1250    58.5120   179.8650   175.2480   180.7690    25.1100     2.2280   -24.1110 
  203.2500    57.6740   176.9100   174.0360   175.9100    25.0910     2.2260   -24.0590 
  203.3750    56.2790   174.1340   173.0460   175.7320    25.1510     2.2230   -24.0010 
  203.5000    56.1550   172.2010   172.9450   178.1210    25.2400     2.2200   -23.9920 
  203.6250    59.2640   170.9410   173.7070   179.4740    25.2990     2.2190   -24.0390 
  203.7500    62.6040   167.5110   172.7980   176.5000    25.2930     2.2240   -24.0830 
  203.8750    62.9950   157.1570   165.7200   171.5190    25.2480     2.2380   -24.0740 
  204.0000    61.4280   136.6080   148.5730   168.8190    25.1930     2.2590   -23.9990 
  204.1250    61.4910   108.4330   121.7300   157.4030    25.1500     2.2800   -23.8340 
  204.2500    62.7180    81.9260    94.1020   118.8550    25.1350     2.2890   -23.6970 
  204.3750    65.2530    61.7820    71.6380    71.1230    25.1320     2.2820   -23.6080 
  204.5000    68.9730    48.9280    56.5990    43.2670    25.1320     2.2580   -23.5500 
  204.6250    70.3440    43.2050    49.4310    36.6630    25.1370     2.2270   -23.4870 
  204.7500    67.5790    42.1840    47.4770    39.3430    25.1450     2.2000   -23.4200 
  204.8750    63.6140    44.9630    49.7320    47.7670    25.1430     2.1850   -23.3580 
  205.0000    61.8650    50.7530    55.4120    57.4230    25.1360     2.1820   -23.3110 
  205.1250    59.9010    58.6630    63.6530    63.5500    25.1350     2.1890   -23.2670 
  205.2500    56.6280    66.9030    72.3990    81.7170    25.1480     2.1960   -23.1810 
  205.3750    56.0630    74.4130    80.3530    95.2280    25.1700     2.1950   -23.0850 
  205.5000    60.1530    80.9060    87.0390    90.5010    25.1740     2.1830   -22.9600 
  205.6250    62.5610    86.9660    92.8690    88.3790    25.1530     2.1660   -22.6830 
  205.7500    58.9230    93.4100    98.7540   104.7500    25.1360     2.1640   -22.3000 
  205.8750    54.8340    99.8830   104.4620   143.3050    25.1230     2.1920   -21.9230 
  206.0000    55.1560   104.4530   108.2820   155.8280    25.1020     2.2480   -21.6480 
  206.1250    57.7650   102.9940   106.4980   132.4520    25.0800     2.3090   -21.4510 
  206.2500    58.3690    95.1410    98.6590   115.5850    25.0700     2.3470   -21.2090 
  206.3750    57.4360    83.5790    86.9260    99.6600    25.0550     2.3490   -20.8820 
  206.5000    57.3020    72.5940    75.2340    74.9180    25.0230     2.3220   -20.5100 
  206.6250    58.6320    66.2420    67.7680    58.1190    25.0350     2.2870   -20.2120 
  206.7500    60.2650    65.0360    65.4030    52.8200    25.1090     2.2620   -19.9880 
  206.8750    60.0230    68.9080    68.1490    61.1290    25.1860     2.2480   -19.7260 
  207.0000    57.4530    77.2440    75.3560    87.8280    25.2330     2.2420   -19.3170 
  207.1250    55.7170    88.3560    85.3040   113.0700    25.2050     2.2400   -18.8140 
  207.2500    56.7790    97.6010    93.6690   134.8910    25.1270     2.2450   -18.3380 
  207.3750    58.9560   100.7490    96.7720   136.8830    25.0480     2.2660   -17.8630 
  207.5000    58.8770    96.5730    93.3930   117.7960    25.0110     2.3070   -17.3730 
  207.6250    55.7570    87.9930    85.5750    94.1110    25.0330     2.3700   -16.8870 
  207.7500    55.3390    80.1090    77.8450    73.5730    25.0790     2.4380   -16.3200 
  207.8750    58.9030    74.8410    72.2180    68.2630    25.0470     2.5010   -15.6850 
  208.0000    61.5180    72.3120    69.0430    75.0440    24.8620     2.5510   -15.0150 
  208.1250    60.1680    71.5690    67.5600    89.8810    24.7490     2.5900   -14.2640 
