~V
VERS. 2.00: Ver 2.00
~W
STRT.M 50.0000:
STOP.M 211.0000:
STEP.M 0.1250:
NULL. -999.2500:
UWI. F10140:
~C
DEPT.M :
DEN.GM/CC :
GR.API :
RML.OHMM :
RI. :
RXO.OHMM :
CALI.CM :
SP.MV :
~A
# ...
  117.5000     2.2910    88.5330     9.5790     7.1650     7.8290    26.8090   -10.0220 
  117.6250     2.3560    83.4660    11.1180     8.6610     9.8630    26.9170    -9.3030 
  117.7500     2.4460    78.9310    12.1870    10.0700    13.0100    26.9380    -8.6720 
  117.8750     2.5340    76.3550    12.3270    10.7610    15.3390    26.9230    -8.1030 
  118.0000     2.5910    74.1090    11.4020    10.2990    15.6860    26.9020    -7.5680 
  118.1250     2.5880    74.6190     9.7060     8.8330    13.0120    26.8780    -7.0730 
  118.2500     2.5400    78.6920     8.0480     7.2630     8.4330    26.8680    -6.6450 
  118.3750     2.4680    84.5700     6.9340     6.0730     5.8590    26.8720    -6.3310 
  118.5000     2.3980    91.0370     6.6250     5.4680     5.0430    26.8740    -6.1120 
  118.6250     2.3590    94.8060     7.3870     5.6360     5.4920    26.8790    -5.9360 
  118.7500     2.3610    92.6030     9.1390     6.5660     6.7440    26.8930    -5.7770 
  118.8750     2.4070    84.9540    11.8670     8.3940     9.6850    26.9220    -5.6290 
  119.0000     2.4880    74.9660    15.3160    11.1980    15.9500    26.9650    -5.4970 
  119.1250     2.5790    67.1030    18.7020    14.7720    21.8500    27.0210    -5.3810 
  119.2500     2.6540    62.0940    20.9490    17.9780    24.2800    27.0720    -5.2820 
  119.3750     2.6960    59.9090    21.3360    19.5410    23.8410    27.1190    -5.1830 
  119.5000     2.7050    59.7960    19.8270    18.8100    21.0820    27.1640    -5.0940 
  119.6250     2.6870    58.3670    17.0980    16.3230    17.0700    27.2050    -5.0390 
  119.7500     2.6530    59.7900    14.4830    13.7140    15.2480    27.2390    -5.0190 
  119.8750     2.6120    65.2480    12.7210    11.7400    14.3750    27.2660    -5.0290 
  120.0000     2.5710    71.4200    12.1630    10.6900    11.6360    27.2940    -5.0530 
  120.1250     2.5480    72.9410    13.0730    10.8270     9.8560    27.3250    -5.1110 
  120.2500     2.5490    71.5430    15.0610    12.0000    13.7460    27.3610    -5.2070 
  120.3750     2.5740    69.7990    17.7450    14.1130    21.0470    27.3830    -5.3380 
  120.5000     2.6110    66.6160    20.5380    16.8340    25.7700    27.3920    -5.5180 
  120.6250     2.6380    62.1960    22.6300    19.3650    21.6010    27.3930    -5.7290 
  120.7500     2.6470    57.5980    23.7600    20.9790    19.8650    27.4000    -5.9280 
  120.8750     2.6370    54.3440    24.1050    21.6080    20.7830    27.4080    -6.1160 
  121.0000     2.6160    54.1760    24.1340    21.7190    22.0410    27.4080    -6.3040 
  121.1250     2.5960    57.6880    24.3600    21.8870    21.3040    27.4040    -6.4640 
  121.2500     2.5830    61.8430    24.9340    22.3360    20.4410    27.3990    -6.5670 
  121.3750     2.5820    62.1790    25.7780    23.0380    21.3200    27.3950    -6.6390 
  121.5000     2.5920    60.0740    26.7220    23.8780    22.7720    27.3850    -6.7000 
  121.6250     2.6080    60.4870    27.5360    24.6720    24.3400    27.3670    -6.7410 
  121.7500     2.6220    61.9900    28.0730    25.2580    24.2810    27.3530    -6.7750 
  121.8750     2.6320    62.0100    28.2670    25.5490    24.3230    27.3460    -6.7990 
  122.0000     2.6380    60.7400    28.1440    25.5550    24.2010    27.3420    -6.7960 
  122.1250     2.6400    60.5220    27.8020    25.3600    25.8560    27.3370    -6.7770 
  122.2500     2.6390    60.7560    27.4330    25.1270    29.0830    27.3380    -6.7450 
  122.3750     2.6320    60.4860    27.1550    24.9370    36.1490    27.3590    -6.6760 
  122.5000     2.6170    60.5200    27.0590    24.8460    29.8270    27.4000    -6.5500 
  122.6250     2.5940    60.7310    27.2420    24.9410    26.8670    27.4500    -6.4080 
  122.7500     2.5720    61.3910    27.6640    25.2510    24.5960    27.5070    -6.2800 
  122.8750     2.5560    62.6420    28.2580    25.7700    24.3610    27.5790    -6.1570 
  123.0000     2.5530    63.1770    28.8330    26.4200    24.3650    27.6620    -6.0510 
  123.1250     2.5650    60.8170    29.2570    27.0120    24.3320    27.7210    -5.9940 
  123.2500     2.5810    57.3590    29.7020    27.3390    26.8560    27.7700    -5.9990 
  123.3750     2.5910    56.5500    30.0690    27.2630    29.5420    27.8050    -6.0560 
  123.5000     2.5890    60.4940    29.9730    26.7670    27.5790    27.8290    -6.1810 
  123.6250     2.5740    65.2840    29.1720    25.9610    25.1350    27.8380    -6.3620 
  123.7500     2.5590    66.5120    28.2070    25.1320    23.7660    27.8400    -6.5360 
  123.8750     2.5480    64.5620    27.4830    24.4530    23.7380    27.8300    -6.6750 
  124.0000     2.5440    61.6350    27.0250    24.0060    23.0770    27.8090    -6.7890 
  124.1250     2.5410    59.7000    26.7700    23.7920    22.7870    27.7820    -6.8560 
  124.2500     2.5350    59.1400    26.5790    23.6810    22.3550    27.7730    -6.8710 
  124.3750     2.5270    59.3750    26.3890    23.5970    22.9880    27.8080    -6.8450 
  124.5000     2.5180    58.1190    26.1840    23.5030    23.0460    27.8760    -6.7550 
  124.6250     2.5120    55.4780    25.9980    23.3950    22.6730    27.9480    -6.5810 
  124.7500     2.5050    55.4870    25.8830    23.3050    23.0060    28.0180    -6.3580 
  124.8750     2.4980    60.2020    25.8800    23.2820    23.2830    28.0760    -6.1460 
  125.0000     2.4900    66.7520    26.0030    23.3670    23.1720    28.1220    -5.9410 
  125.1250     2.4880    67.8970    26.2270    23.5890    22.5920    28.1520    -5.7450 
  125.2500     2.4980    63.2330    26.4520    23.8700    23.6540    28.1810    -5.6030 
  125.3750     2.5210    59.1130    26.5900    24.1150    25.6460    28.2130    -5.5230 
  125.5000     2.5540    60.3630    26.5820    24.2380    27.6840    28.2440    -5.5180 
  125.6250     2.5830    65.4970    26.3930    24.1540    26.7020    28.2870    -5.6230 
  125.7500     2.5970    67.7240    26.1160    23.9120    24.7390    28.3430    -5.8390 
  125.8750     2.5940    65.4780    25.8610    23.6100    23.1270    28.4310    -6.1110 
  126.0000     2.5770    61.3370    25.7500    23.3980    22.9550    28.5630    -6.4130 
  126.1250     2.5560    60.1290    25.9120    23.4540    24.8750    28.6840    -6.7450 
  126.2500     2.5450    62.1290    26.3110    23.7720    24.9490    28.7920    -7.0520 
  126.3750     2.5480    63.9320    26.8690    24.2950    25.1980    28.8760    -7.3030 
  126.5000     2.5650    63.8420    27.4670    24.9130    26.4150    28.9370    -7.5000 
  126.6250     2.5910    64.6600    27.9660    25.4710    27.9950    29.0250    -7.6440 
  126.7500     2.6140    66.1490    28.3210    25.8890    27.4960    29.1620    -7.7220 
  126.8750     2.6290    65.2760    28.5480    26.1810    26.3780    29.3540    -7.7550 
  127.0000     2.6300    62.6720    28.6810    26.3910    26.3380    29.5930    -7.7800 
  127.1250     2.6200    61.9740    28.7150    26.5170    25.3650    29.8930    -7.8180 
  127.2500     2.6050    62.3730    28.6240    26.5250    26.0480    30.2290    -7.8830 
  127.3750     2.5920    60.9470    28.3720    26.3560    28.3090    30.6150    -7.9890 
  127.5000     2.5780    57.4780    27.9760    25.9920    29.3980    31.0470    -8.1290 
  127.6250     2.5540    54.7400    27.5490    25.5280    26.7970    31.4460    -8.2720 
  127.7500     2.5180    54.7050    27.2550    25.1650    22.2370    31.6820    -8.4190 
  127.8750     2.4760    56.9360    27.1770    25.0210    20.6340    31.6780    -8.5770 
  128.0000     2.4410    58.5150    27.3100    25.1130    21.9040    31.5000    -8.7240 
  128.1250     2.4370    56.9670    27.5680    25.3800    25.3580    31.3270    -8.8740 
  128.2500     2.4600    56.4180    27.8120    25.6710    26.9030    31.2530    -8.9970 
  128.3750     2.4970    58.2890    27.9790    25.8860    26.2800    31.2730    -9.0740 
  128.5000     2.5310    60.8010    28.0680    25.9980    24.9140    31.3370    -9.0790 
  128.6250     2.5460    60.5930    28.1090    26.0440    24.8260    31.3750    -9.0240 
