~V
VERS. 2.00: Ver 2.00
~W
STRT.M 44.0000:
STOP.M 255.0000:
STEP.M 0.1250:
NULL. -999.2500:
UWI. F10191:
~C
DEPT.M :
DEN.GM/CC :
SP.MV :
GR.API :
RML.OHMM :
RI. :
RXO.OHMM :
CALI.CM :
~A
# ...
  134.0000     2.4140   -22.8820    50.7690    22.5180    22.2680    21.5040    25.1530 
  134.1250     2.3560   -22.9840    49.2070    22.2840    22.0410    20.8090    25.6420 
  134.2500     2.3140   -23.0900    50.4600    22.0430    21.7850    19.8560    25.9110 
  134.3750     2.3280   -23.2730    54.5350    21.8700    21.5810    18.4460    25.7140 
  134.5000     2.4010   -23.4680    57.9630    21.7960    21.4680    18.1870    25.1840 
  134.6250     2.4860   -23.6010    57.2460    21.7960    21.4300    18.5560    24.8110 
  134.7500     2.5170   -23.7940    53.4380    21.7730    21.3820    19.0300    24.7560 
  134.8750     2.4880   -23.9650    49.8570    21.6410    21.2470    19.5620    24.8160 
  135.0000     2.4420   -24.0600    48.5730    21.3440    20.9720    19.7570    24.8440 
  135.1250     2.4090   -24.1840    47.6940    20.8700    20.5290    18.8790    24.8100 
  135.2500     2.3820   -24.2800    45.6440    20.3320    20.0090    17.8860    24.7370 
  135.3750     2.3570   -24.2800    44.4020    19.8270    19.4940    17.3250    24.6540 
  135.5000     2.3410   -24.2610    45.0650    19.4360    19.0540    16.5240    24.5840 
  135.6250     2.3430   -24.2230    45.2530    19.2450    18.7730    15.5870    24.5950 
  135.7500     2.3510   -24.1150    42.9620    19.2280    18.6470    15.5930    24.7210 
  135.8750     2.3580   -23.9970    40.2180    19.3190    18.6380    15.7150    24.8690 
  136.0000     2.3760   -23.8590    40.8090    19.4190    18.6680    15.2820    24.8630 
  136.1250     2.4270   -23.6680    45.8450    19.3910    18.6130    15.1820    24.6330 
  136.2500     2.4960   -23.4890    50.8010    19.1750    18.3950    15.0440    24.3690 
  136.3750     2.5500   -23.3110    53.8300    18.7760    17.9990    14.4440    24.2400 
  136.5000     2.5690   -23.0960    55.1120    18.2740    17.4800    13.9400    24.2250 
  136.6250     2.5700   -22.9400    56.0850    17.8060    16.9530    13.5970    24.2540 
  136.7500     2.5690   -22.7870    56.7800    17.4760    16.5250    13.1640    24.2540 
  136.8750     2.5520   -22.6390    56.1800    17.3460    16.2620    12.9150    24.2200 
  137.0000     2.5100   -22.5770    53.8360    17.4400    16.1970    12.7770    24.1610 
  137.1250     2.4600   -22.5480    50.5180    17.7450    16.3440    12.4300    24.0540 
  137.2500     2.4300   -22.5010    48.8320    18.1360    16.6070    11.7950    23.9490 
  137.3750     2.4230   -22.5310    49.1600    18.5080    16.8990    11.3470    23.8750 
  137.5000     2.4310   -22.6620    49.9450    18.7510    17.1160    11.5290    23.8460 
  137.6250     2.4430   -22.7860    49.4330    18.6960    17.0870    12.1640    23.8420 
  137.7500     2.4500   -22.9830    47.2500    18.3190    16.7630    12.3370    23.8420 
  137.8750     2.4460   -23.2210    44.5950    17.6670    16.1700    12.1310    23.8420 
  138.0000     2.4280   -23.4190    42.9690    16.8830    15.4330    11.6950    23.8340 
  138.1250     2.4080   -23.6540    43.3140    16.2090    14.7640    10.7900    23.8010 
  138.2500     2.4070   -23.9010    43.7780    15.8280    14.3300    10.0010    23.7350 
  138.3750     2.4330   -24.1030    44.7510    15.7980    14.1930     9.6730    23.6500 
  138.5000     2.4770   -24.2680    46.8180    16.0310    14.2980     9.8550    23.5340 
  138.6250     2.5190   -24.3900    49.0970    16.3000    14.4820    10.8380    23.4900 
  138.7500     2.5390   -24.4690    49.6210    16.3590    14.5250    12.3400    23.6260 
  138.8750     2.5360   -24.5120    49.9860    16.1100    14.3170    13.2620    23.9830 
  139.0000     2.5180   -24.5180    52.9550    15.6030    13.8600    12.6540    24.4530 
  139.1250     2.4990   -24.4830    57.3030    14.9850    13.2500    12.0520    24.8200 
  139.2500     2.4890   -24.4230    60.0010    14.4100    12.6380    12.1910    25.0040 
  139.3750     2.4910   -24.3360    60.9460    13.9150    12.0930    12.3200    25.0960 
  139.5000     2.4990   -24.2190    61.6940    13.4970    11.6420    11.8530    25.1370 
  139.6250     2.4980   -24.0770    63.2750    13.1870    11.3190    10.8790    25.1490 
  139.7500     2.4860   -23.8710    64.2240    13.0110    11.1270    10.7250    25.1480 
  139.8750     2.4670   -23.6740    63.9240    13.0050    11.0820    11.6570    25.1480 
  140.0000     2.4510   -23.4920    61.5610    13.1820    11.1960    12.7620    25.1460 
  140.1250     2.4460   -23.2530    57.4300    13.5470    11.4840    13.0560    25.1480 
  140.2500     2.4470   -23.0650    53.0290    13.9900    11.8630    13.0220    25.1480 
  140.3750     2.4520   -22.9460    50.9590    14.3660    12.2170    13.2510    25.1450 
  140.5000     2.4520   -22.8210    52.4400    14.4760    12.3740    13.3390    25.1320 
  140.6250     2.4410   -22.7680    55.5270    14.0290    12.0720    13.5930    25.1040 
  140.7500     2.4140   -22.8150    58.2920    13.0440    11.2990    13.5070    25.0710 
  140.8750     2.3720   -22.8530    61.4970    11.6720    10.1660    12.0460    25.0250 
  141.0000     2.3240   -22.9000    65.8840    10.1910     8.8900     9.0310    24.9700 
  141.1250     2.2770   -23.0150    69.1800     8.9160     7.7220     6.6540    24.9890 
  141.2500     2.2400   -23.1020    70.0050     7.9580     6.7800     5.8340    25.0880 
  141.3750     2.2240   -23.1200    72.2470     7.3120     6.0880     5.4100    25.2280 
  141.5000     2.2380   -23.1510    76.8410     6.9160     5.6220     4.8780    25.2980 
  141.6250     2.2680   -23.1640    80.9460     6.7100     5.3590     4.4600    25.3210 
  141.7500     2.2850   -23.1110    81.1380     6.6050     5.2210     4.3670    25.3670 
  141.8750     2.2840   -23.0850    79.4470     6.5790     5.1770     4.3910    25.4400 
  142.0000     2.2830   -23.0530    80.3020     6.6200     5.2030     4.2710    25.4650 
  142.1250     2.2990   -22.9450    85.5640     6.7120     5.2760     4.2720    25.4310 
  142.2500     2.3180   -22.8390    92.5540     6.8090     5.3550     4.4110    25.4150 
  142.3750     2.3260   -22.7290    96.1300     6.8820     5.4140     4.5730    25.4080 
  142.5000     2.3270   -22.5770    93.5440     6.9190     5.4430     4.6700    25.3670 
  142.6250     2.3350   -22.4060    89.4350     6.9270     5.4440     4.7310    25.3020 
  142.7500     2.3480   -22.2140    89.9930     6.9360     5.4360     4.8040    25.2540 
  142.8750     2.3590   -22.0080    94.4190     6.9630     5.4280     4.8960    25.2210 
  143.0000     2.3630   -21.8200    96.0830     7.0080     5.4250     4.9990    25.1940 
  143.1250     2.3650   -21.6370    92.8160     7.0530     5.4230     5.0680    25.1500 
  143.2500     2.3670   -21.4290    90.2980     7.0740     5.4140     5.1100    25.1120 
  143.3750     2.3640   -21.2950    90.7200     7.0590     5.3910     5.1200    25.0880 
  143.5000     2.3580   -21.2220    92.1990     7.0130     5.3510     5.1560    25.0800 
  143.6250     2.3470   -21.1560    93.6050     6.9550     5.2970     5.2020    25.0790 
  143.7500     2.3330   -21.1880    97.5720     6.9020     5.2380     5.1520    25.0760 
  143.8750     2.3230   -21.2430   104.0520     6.8620     5.1810     5.0410    25.0680 
  144.0000     2.3220   -21.3070   108.6710     6.8350     5.1300     5.0060    25.0510 
  144.1250     2.3290   -21.4980   105.8140     6.8180     5.0850     4.9800    25.0210 
  144.2500     2.3320   -21.7860   100.5730     6.8010     5.0430     4.8900    25.0080 
  144.3750     2.3280   -22.0700    98.4570     6.7810     5.0030     4.7810    25.0050 
  144.5000     2.3200   -22.4000    96.3370     6.7660     4.9670     4.7390    25.0050 
  144.6250     2.3170   -22.7830    89.4470     6.7680     4.9410     4.7830    25.0050 
  144.7500     2.3210   -23.1480    85.1300     6.7940     4.9270     4.8960    25.0000 
  144.8750     2.3310   -23.5580    87.5990     6.8370     4.9260     5.0020    24.9840 
  145.0000     2.3410   -23.9870    91.7260     6.8840     4.9340     5.0130    24.9430 
  145.1250     2.3520   -24.3290    91.7480     6.9250     4.9520     4.9560    24.8800 
