~V
VERS. 2.00: Ver 2.00
~W
STRT.M 64.0000:
STOP.M 235.0000:
STEP.M 0.1250:
NULL. -999.2500:
UWI. F10178:
~C
DEPT.M :
GR.API :
RML.OHMM :
RI. :
RXO.OHMM :
CALI.CM :
DEN.GM/CC :
SP.MV :
~A
# ...
  221.5000    82.5290    19.6060    18.1450    17.3130    24.0140     2.5330   -11.3680 
  221.6250    83.7740    19.6250    18.2970    17.0720    24.1620     2.5220   -11.4230 
  221.7500    85.0580    19.3960    18.1870    16.1400    24.3170     2.5130   -11.4930 
  221.8750    86.5770    18.9660    17.8520    16.0000    24.3830     2.5090   -11.5450 
  222.0000    86.6620    18.4000    17.3550    16.7830    24.3370     2.5050   -11.6250 
  222.1250    82.9770    17.7730    16.7730    17.0410    24.1970     2.5000   -11.6600 
  222.2500    79.6230    17.1660    16.1960    16.5870    24.1540     2.4970   -11.6860 
  222.3750    78.8280    16.6300    15.6800    17.6310    24.2730     2.4980   -11.6920 
  222.5000    78.8280    16.1980    15.2610    19.4040    24.3680     2.5050   -11.6630 
  222.6250    78.8280    15.9270    14.9910    18.9440    24.3470     2.5140   -11.6090 
  222.7500    78.8280    15.8200    14.8720    18.5280    24.2680     2.5200   -11.4810 
  222.8750    78.8280    15.8960    14.9200    17.7820    24.2050     2.5200   -11.3520 
  223.0000    78.8280    16.1530    15.1420    16.1280    24.1390     2.5170   -11.2600 
  223.1250    78.8280    16.5670    15.5380    15.9390    24.1120     2.5140   -11.1700 
  223.2500    78.8280    17.0160    16.0050    16.6820    24.1280     2.5130   -11.1120 
  223.3750    78.8280    17.3760    16.4230    17.4950    24.1540     2.5140   -11.0690 
  223.5000    78.8280    17.5390    16.6680    16.9060    24.1270     2.5140   -11.0540 
  223.6250    78.8280    17.4100    16.6200    15.9920    24.0380     2.5130   -11.0980 
  223.7500    78.8280    17.0680    16.3440    15.9920    23.9050     2.5120   -11.1670 
  223.8750    78.8280    16.6040    15.9240    17.4340    23.8130     2.5100   -11.2600 
  224.0000    78.8280    16.1240    15.4670    16.4010    23.8190     2.5070   -11.3040 
  224.1250    78.8280    15.7420    15.0900    15.9930    23.9630     2.5020   -11.3350 
  224.2500    78.8280    15.4970    14.8480    16.4030    24.0640     2.4950   -11.3460 
  224.3750    78.8280    15.3840    14.7470    16.4710    24.0890     2.4920   -11.3620 
  224.5000    78.8280    15.3530    14.7500    15.9750    24.0620     2.4980   -11.3940 
  224.6250    78.8280    15.3150    14.7800    18.4990    24.1130     2.5120   -11.4040 
  224.7500    78.8280    15.2010    14.7520    19.5550    24.2270     2.5230   -11.4840 
  224.8750    78.8280    14.9960    14.6410    16.6460    24.2760     2.5220   -11.6500 
  225.0000    78.8280    14.7300    14.4720    12.8300    24.1480     2.5080   -11.9450 
  225.1250    78.8280    14.4610    14.2950    11.7010    23.9390     2.4920   -12.2800 
  225.2500    78.8280    14.2200    14.1370    12.1980    23.7760     2.4830   -12.4070 
  225.3750    78.8280    14.0000    13.9780    12.8490    23.6990     2.4860   -12.3650 
  225.5000    78.8280    13.7690    13.7800    13.5990    23.6990     2.4980   -12.2400 
  225.6250    78.8280    13.4840    13.5050    13.9180    23.7660     2.5120   -12.0830 
  225.7500    78.8280    13.1200    13.1490    12.9070    23.7070     2.5250   -11.8240 
  225.8750    78.8280    12.6490    12.6850    11.9440    23.4980     2.5320   -11.4250 
  226.0000    78.8280    12.0500    12.0850    11.6170    23.3890     2.5300   -10.9130 
  226.1250    78.8280    11.3260    11.3450     9.8860    23.5170     2.5130   -10.3830 
  226.2500    78.8280    10.5790    10.5760     8.3130    23.6670     2.4890   -10.0800 
  226.3750    78.8280     9.9240     9.9010     7.1140    23.8190     2.4660    -9.9940 
  226.5000    78.8280     9.4850     9.4330     6.8650    23.9670     2.4520    -9.9590 
  226.6250    78.8280     9.4170     9.3150     7.5840    23.9760     2.4510    -9.9300 
  226.7500    78.8280     9.6970     9.5340     9.2070    23.9330     2.4550    -9.9460 
  226.8750    78.8280    10.2720    10.0610    10.4880    23.8570     2.4600   -10.0190 
  227.0000    78.8280    11.0280    10.8110    11.5350    23.7700     2.4630   -10.0680 
  227.1250    78.8280    11.7920    11.6150    12.1800    23.7520     2.4670   -10.1010 
  227.2500    78.8280    12.4130    12.2720    12.4040    23.7930     2.4710   -10.0870 
  227.3750    78.8280    12.8260    12.6860    11.2290    23.8210     2.4740   -10.0440 
  227.5000    78.8280    13.0410    12.8690     9.3950    23.8330     2.4730   -10.0290 
  227.6250    78.8280    13.0990    12.8830     9.5490    23.8500     2.4720   -10.1160 
  227.7500    78.8280    13.0920    12.8410     9.6560    23.8460     2.4740   -10.2120 
  227.8750    78.8280    13.0660    12.7910     9.6400    23.8420     2.4800   -10.2740 
  228.0000    78.8280    13.0450    12.7600     9.9020    23.9020     2.4870   -10.3240 
  228.1250    78.8280    13.0370    12.7490    10.4090    24.0290     2.4900   -10.3580 
  228.2500    78.8280    13.0350    12.7470    11.1350    24.0950     2.4920   -10.4460 
  228.3750    78.8280    13.0360    12.7470    13.5360    24.1210     2.4940   -10.5670 
  228.5000    78.8280    13.0360    12.7470    17.5070    24.1140     2.4990   -10.6830 
  228.6250    78.8280    13.0360    12.7470    21.4260    24.0660     2.5000   -10.7230 
  228.7500    78.8280    13.0360    12.7470    21.8010    23.9990     2.4930   -10.8010 
  228.8750    78.8280    13.0360    12.7470    22.1090    23.8360     2.4730   -10.8750 
  229.0000    78.8280    13.0360    12.7470    25.7340    23.6020     2.4460   -10.9460 
  229.1250    78.8280    13.0360    12.7470    30.0260    23.4180     2.4250   -11.0000 
  229.2500    78.8280    13.0360    12.7470    27.2710    23.4920     2.4200   -11.0220 
  229.3750    78.8280    13.0360    12.7470    21.6650    23.8120     2.4330   -11.1220 
  229.5000    78.8280    13.0360    12.7470    18.4400    24.0760     2.4600   -11.3430 
  229.6250    78.8280    13.0360    12.7470    17.1470    24.2110     2.4870   -11.5430 
  229.7500    78.8280    13.0360    12.7470    16.7260    24.2890     2.5050   -11.6120 
  229.8750    78.8280    13.0360    12.7470    17.0640    24.3330     2.5100   -11.5850 
  230.0000    78.8280    13.0360    12.7470    17.4270    24.3390     2.5060   -11.4450 
  230.1250    78.8280    13.0360    12.7470    16.9730    24.3180     2.4970   -11.3460 
  230.2500    78.8280    13.0360    12.7470    15.3330    24.2850     2.4910   -11.4610 
  230.3750    78.8280    13.0360    12.7470    13.6260    24.2550     2.4890   -11.5340 
  230.5000    78.8280    13.0360    12.7470    12.8420    24.2310     2.4910   -11.4580 
  230.6250    78.8280    13.0360    12.7470    12.7300    24.1980     2.4950   -11.4070 
  230.7500    78.8280    13.0360    12.7470    12.2720    24.1760     2.4960   -11.4420 
  230.8750    78.8280    13.0360    12.7470    11.1800    24.1560     2.4920   -11.5830 
  231.0000    78.8280    13.0360    12.7470    10.6950    24.0590     2.4790   -11.8490 
  231.1250    78.8280    13.0360    12.7470    10.8680    24.0280     2.4560   -12.0930 
  231.2500    78.8280    13.0360    12.7470    12.0160    24.0720     2.4320   -12.0930 
  231.3750    78.8280    13.0360    12.7470    11.3920    24.0680     2.4170   -12.0930 
  231.5000    78.8280    13.0360    12.7470    10.2760    23.9260     2.4180  -999.2500 
  231.6250    78.8280    13.0360    12.7470     9.8060    23.7770     2.4200  -999.2500 
  231.7500    78.8280    13.0360    12.7470     9.5080    23.7000     2.3960  -999.2500 
  231.8750    78.8280    13.0360    12.7470     9.1470    23.6790     2.3240  -999.2500 
  232.0000    78.8280    13.0360    12.7470     8.7690    23.6470     2.2070  -999.2500 
  232.1250    78.8280    13.0360    12.7470     8.6800    23.4030     2.0760  -999.2500 
  232.2500    78.8280    13.0360    12.7470     8.8330    22.8110     1.9770  -999.2500 
  232.3750    78.8280    13.0360    12.7470     8.7780    21.8300     1.9270  -999.2500 
  232.5000    78.8280    13.0360    12.7470     7.4060    20.3330     1.9180  -999.2500 
  232.6250    78.8280    13.0360    12.7470     6.5350    19.4950     1.9270  -999.2500 
