~V
VERS. 2.00: Ver 2.00
~W
STRT.M 43.0000:
STOP.M 249.0000:
STEP.M 0.1250:
NULL. -999.2500:
UWI. F10197:
~C
DEPT.M :
GR.API :
RML.OHMM :
RI. :
RXO.OHMM :
CALI.CM :
SP.MV :
DEN.GM/CC :
~A
# ...
  178.0000    62.2350   152.1920   140.4480    76.9050    22.6340   -23.1080     2.1470 
  178.1250    58.6160   138.8770   130.8320    75.9980    22.6140   -22.9740     2.1600 
  178.2500    57.9520   121.3550   116.4690    74.0470    22.6220   -22.8180     2.1770 
  178.3750    60.6350    99.4530   100.4890    70.8760    22.6310   -22.6580     2.1940 
  178.5000    63.0750    84.6140    86.5480    61.6160    22.6350   -22.5280     2.2060 
  178.6250    64.9780    77.6310    78.1050    49.9110    22.6210   -22.4610     2.2120 
  178.7500    66.7490    75.9440    74.9510    44.1210    22.5780   -22.4400     2.2150 
  178.8750    67.8850    78.5050    76.3050    48.9920    22.5100   -22.4360     2.2190 
  179.0000    67.7980    83.8110    80.7940    58.1370    22.4740   -22.4120     2.2260 
  179.1250    65.2270    89.9860    86.6880    63.1670    22.5540   -22.3590     2.2330 
  179.2500    62.4040    95.1270    91.9190    63.2330    22.6800   -22.3110     2.2350 
  179.3750    60.9030    98.6390    95.6160    60.1570    22.7000   -22.2870     2.2330 
  179.5000    60.7070   101.1490    98.0770    56.1680    22.5480   -22.2660     2.2280 
  179.6250    61.0810   104.2930   100.6390    55.9690    22.3840   -22.2010     2.2240 
  179.7500    61.8830   109.2770   104.5670    56.8340    22.4120   -22.1310     2.2220 
  179.8750    64.7070   116.6300   110.4780    57.6440    22.5020   -22.0700     2.2230 
  180.0000    69.8040   126.1920   118.3480    57.7710    22.5280   -21.9910     2.2220 
  180.1250    75.2000   136.6370   127.0390    56.3330    22.4370   -21.9040     2.2180 
  180.2500    75.9920   145.0810   133.9670    52.7610    22.2800   -21.8380     2.2140 
  180.3750    71.5050   148.9470   136.8750    49.4700    22.1270   -21.7680     2.2100 
  180.5000    68.0890   147.1850   134.8310    47.7700    22.0580   -21.6670     2.2040 
  180.6250    67.4640   141.0360   128.8450    47.4230    22.2670   -21.5680     2.2000 
  180.7500    66.4380   134.8330   122.7820    44.6470    22.6510   -21.4600     2.1980 
  180.8750    65.2480   131.5530   119.5040    42.1060    22.9780   -21.3330     2.1990 
  181.0000    65.1830   133.0090   120.9240    46.1980    23.2280   -21.2280     2.2000 
  181.1250    62.6460   140.6820   128.7680    62.2080    23.5730   -21.1700     2.2020 
  181.2500    56.7070   152.9340   141.6000    92.5560    23.9400   -21.1360     2.2050 
  181.3750    53.1670   167.6720   157.5120   125.2110    24.1970   -21.1350     2.2050 
  181.5000    55.6440   181.2650   173.1280   141.3420    24.3050   -21.1550     2.2000 
  181.6250    60.5260   186.6620   182.1770   139.9760    24.3050   -21.1880     2.1950 
  181.7500    62.1090   179.1070   179.8500   126.7170    24.2750   -21.2400     2.1950 
  181.8750    60.6740   157.0260   163.1180   111.6220    24.1680   -21.3010     2.1990 
  182.0000    58.5530   125.0770   133.9460    96.8740    23.9290   -21.3620     2.2050 
  182.1250    57.4670    92.9180   100.4220    86.4560    23.6590   -21.4200     2.2150 
  182.2500    59.2890    67.4550    72.1880    71.1920    23.4440   -21.4570     2.2300 
  182.3750    63.6550    50.1760    52.5960    46.6730    23.2480   -21.4840     2.2520 
  182.5000    68.1190    40.2910    41.1780    27.8440    23.0630   -21.5330     2.2790 
  182.6250    69.5640    37.4320    36.8530    22.3990    22.8870   -21.6160     2.3010 
  182.7500    68.4250    39.9330    37.3560    23.2120    22.6330   -21.7320     2.3050 
  182.8750    65.1320    47.9340    42.9720    31.9540    22.3320   -21.8700     2.2900 
  183.0000    61.7280    61.9330    54.8230    54.2610    22.0040   -22.0090     2.2640 
  183.1250    61.5730    83.1740    74.8910    85.5070    21.3460   -22.1310     2.2310 
  183.2500    65.3100   108.6630    99.7860    98.7690    20.2240   -22.2530     2.1920 
  183.3750    71.6430   133.1940   123.7060   101.3310    18.9890   -22.3660     2.1540 
  183.5000    76.5270   150.2850   140.2590   105.0830    18.1870   -22.4550     2.1350 
  183.6250    76.4120   156.1410   145.9250   108.5350    18.0220   -22.5100     2.1480 
  183.7500    74.4820   156.2540   145.6220   107.7260    18.2450   -22.5280     2.1790 
  183.8750    72.2610   154.1900   142.6410   101.0990    18.8500   -22.5190     2.2070 
  184.0000    68.8810   151.3020   138.4950    99.0920    19.9080   -22.5100     2.2130 
  184.1250    66.9260   148.1560   133.8640   101.9820    21.2880   -22.5010     2.1950 
  184.2500    68.8400   145.9060   129.9450   100.2170    22.1100   -22.4850     2.1730 
  184.3750    71.3700   145.7220   127.9790    94.3770    22.7560   -22.4520     2.1600 
  184.5000    70.5690   147.9710   128.6210    95.9260    23.3590   -22.3940     2.1600 
  184.6250    68.2730   150.8190   130.8170   105.2120    23.7570   -22.3490     2.1700 
  184.7500    66.2720   150.0370   130.9970   123.3910    24.0460   -22.3170     2.1800 
  184.8750    64.2960   142.5250   126.1870   156.3820    24.2820   -22.3040     2.1900 
  185.0000    63.0830   128.5890   115.6650   175.9640    24.4380   -22.3200     2.1970 
  185.1250    63.4560   112.3760   101.7640   137.5550    24.4910   -22.4060     2.1990 
  185.2500    63.8300    99.1010    89.2320    95.8330    24.4800   -22.5340     2.2040 
  185.3750    64.0950    90.9950    80.6580    82.5400    24.4420   -22.6810     2.2160 
  185.5000    64.8120    88.4080    76.8350    89.2890    24.4160   -22.8330     2.2300 
  185.6250    64.7400    91.2650    77.9040    91.9970    24.4310   -22.9610     2.2350 
  185.7500    63.8310    97.4140    82.0480    89.8120    24.4030   -23.0830     2.2330 
  185.8750    63.5000   105.3050    87.9790    99.0780    24.3710   -23.2010     2.2300 
  186.0000    64.3590   113.2420    94.2090   123.9360    24.3550   -23.3030     2.2270 
  186.1250    63.8160   119.6080    99.2590   137.6870    24.3570   -23.3830     2.2240 
  186.2500    61.5140   124.1540   102.8320   132.8770    24.3610   -23.4400     2.2230 
  186.3750    60.2490   126.7470   104.8920   127.9310    24.3500   -23.5030     2.2260 
  186.5000    61.0500   126.9280   105.2210   129.5140    24.3140   -23.5720     2.2300 
  186.6250    62.0620   123.2870   102.8860   131.2380    24.2220   -23.6370     2.2350 
  186.7500    61.9990   115.7560    97.7380   125.9990    24.0850   -23.6820     2.2400 
  186.8750    62.4520   104.7430    89.8300   113.1370    23.9520   -23.7080     2.2460 
  187.0000    63.5690    91.8290    80.0780    97.4040    23.9220   -23.7060     2.2490 
  187.1250    63.6590    79.5150    70.2970    79.0120    23.9550   -23.6460     2.2510 
  187.2500    62.9500    69.3860    62.0210    61.7380    23.9690   -23.5560     2.2540 
  187.3750    63.4730    61.6900    55.6580    51.8700    23.9650   -23.4620     2.2600 
  187.5000    64.6750    55.7400    50.7540    50.8670    23.9960   -23.3890     2.2680 
  187.6250    64.8010    50.3500    46.2830    53.2140    24.1540   -23.3020     2.2780 
  187.7500    64.6180    44.4870    41.2610    55.1460    24.3470   -23.1960     2.2840 
  187.8750    67.3810    38.0730    35.5700    46.8960    24.4930   -23.0730     2.2780 
  188.0000    72.2310    31.6890    29.7480    29.3910    24.5280   -22.9490     2.2550 
  188.1250    74.6920    26.3390    24.7340    18.0070    24.5350   -22.8470     2.2090 
  188.2500    74.5190    22.3420    20.8700    13.4060    24.5540   -22.7690     2.1430 
  188.3750    73.6850    19.6880    18.1740    13.0340    24.5330   -22.7100     2.0760 
  188.5000    73.7780    18.1770    16.5040    14.5260    24.2460   -22.6620     2.0360 
  188.6250    75.5870    17.7060    15.8030    14.8280    23.4580   -22.6490     2.0420 
  188.7500    79.9860    17.9490    15.7720    14.1250    22.5270   -22.6960     2.0750 
  188.8750    84.3410    18.8760    16.3400    13.5840    21.9390   -22.8070     2.1110 
  189.0000    83.8480    20.6190    17.5490    15.0110    21.7770   -22.9610     2.1350 
  189.1250    78.7200    23.7360    19.7950    18.6150    22.1710   -23.1480     2.1390 
