~V
VERS. 2.00: Ver 2.00
~W
STRT.M 50.0000:
STOP.M 205.0000:
STEP.M 0.1250:
NULL. -999.2500:
UWI. F10148:
~C
DEPT.M :
GR.API :
RML.OHMM :
RI. :
RXO.OHMM :
CALI.CM :
SP.MV :
DEN.GM/CC :
~A
# ...
  128.7500    44.9520    24.9760    24.9050    24.9300    24.2920   -11.4640     2.4580 
  128.8750    47.9520    23.7740    23.9180    23.2840    24.7180   -11.4640     2.4500 
  129.0000    46.7740    22.7950    22.9460    21.8020    24.8280   -11.4730     2.4290 
  129.1250    44.5460    22.0730    22.0760    22.2100    25.0800   -11.4410     2.3880 
  129.2500    43.9160    21.4000    21.2180    22.8250    25.6880   -11.4180     2.3310 
  129.3750    44.2840    20.6170    20.2940    22.3650    26.1450   -11.3950     2.2710 
  129.5000    46.6070    19.6350    19.2740    20.9810    26.1250   -11.3760     2.2220 
  129.6250    51.4160    18.4180    18.1580    17.9520    25.4550   -11.3600     2.2070 
  129.7500    55.4120    17.0820    17.0040    14.0710    24.2190   -11.3360     2.2260 
  129.8750    58.3890    15.7470    15.8750    12.2760    23.2740   -11.3250     2.2710 
  130.0000    61.2000    14.5530    14.8450    11.8980    23.0900   -11.3150     2.3270 
  130.1250    61.7010    13.6980    14.0400    11.4420    23.1810   -11.3310     2.3730 
  130.2500    59.2950    13.2370    13.5120    10.9160    23.0230   -11.3420     2.4030 
  130.3750    56.2240    13.2010    13.2990    10.6980    22.7090   -11.3570     2.4230 
  130.5000    54.8370    13.5580    13.3930    10.6650    22.4290   -11.3940     2.4380 
  130.6250    55.2310    14.2250    13.7660    11.4270    22.2760   -11.4220     2.4490 
  130.7500    54.3760    14.9490    14.2560    13.0470    22.1970   -11.4460     2.4560 
  130.8750    53.3270    15.5380    14.7330    13.8900    22.1160   -11.4520     2.4550 
  131.0000    55.9400    15.8700    15.0790    14.1140    22.0480   -11.4800     2.4510 
  131.1250    62.2850    15.8820    15.1870    14.6790    22.0650   -11.5060     2.4460 
  131.2500    66.5060    15.6880    15.0910    15.4450    22.1360   -11.5380     2.4450 
  131.3750    64.9560    15.3650    14.8280    15.7880    22.1680   -11.5790     2.4510 
  131.5000    62.0640    14.9720    14.4420    15.5230    22.1810   -11.6020     2.4610 
  131.6250    63.9450    14.5660    13.9820    14.6790    22.1830   -11.6400     2.4690 
  131.7500    68.3710    14.2270    13.5450    13.7020    22.1900   -11.6720     2.4740 
  131.8750    72.8350    14.0520    13.2200    13.3270    22.2300   -11.7130     2.4730 
  132.0000    76.2050    14.1380    13.0910    13.1940    22.3360   -11.7420     2.4690 
  132.1250    78.8640    14.5950    13.2660    12.9560    22.4000   -11.7820     2.4600 
  132.2500    80.0330    15.3260    13.7080    13.9030    22.4140   -11.8130     2.4450 
  132.3750    79.8290    16.2030    14.3530    14.8270    22.4310   -11.8570     2.4250 
  132.5000    80.1390    17.0410    15.0610    15.4290    22.4360   -11.9260     2.4020 
  132.6250    82.5230    17.6110    15.6040    17.2110    22.4520   -12.0110     2.3830 
  132.7500    84.6530    17.9180    15.8880    18.1890    22.5580   -12.1150     2.3730 
  132.8750    83.5810    18.0900    15.9540    17.7810    22.5710   -12.2000     2.3710 
  133.0000    79.2240    18.2830    15.9280    16.2610    22.5660   -12.2740     2.3740 
  133.1250    77.6620    18.5850    15.9600    15.2410    22.5530   -12.3470     2.3770 
  133.2500    81.0370    18.9200    16.0920    15.8640    22.5520   -12.4350     2.3800 
  133.3750    83.3440    19.1590    16.2560    18.2320    22.3280   -12.5060     2.3830 
  133.5000    81.9420    19.1770    16.3210    20.2500    22.0930   -12.5480     2.3820 
  133.6250    78.8130    18.9140    16.1480    19.3650    22.3370   -12.5850     2.3740 
  133.7500    76.3550    18.5700    15.8220    17.3710    22.8580   -12.6090     2.3610 
  133.8750    75.0040    18.3980    15.5260    15.9270    23.3050   -12.6570     2.3480 
  134.0000    74.7570    18.6600    15.4910    15.3140    23.4750   -12.7010     2.3420 
  134.1250    74.1990    19.6320    15.9830    15.5560    23.3450   -12.7320     2.3470 
  134.2500    72.2250    21.1550    16.9580    16.5460    22.8710   -12.7650     2.3630 
  134.3750    72.9650    22.9220    18.2700    19.2280    22.7600   -12.7900     2.3840 
  134.5000    78.0260    24.4550    19.6300    23.9750    22.7290   -12.7990     2.4040 
  134.6250    81.2210    25.1300    20.5570    26.6640    22.7920   -12.7880     2.4170 
  134.7500    80.1440    24.9660    20.8690    24.4990    23.3340   -12.7840     2.4210 
  134.8750    77.8190    24.3510    20.7130    23.2750    24.4460   -12.7750     2.4210 
  135.0000    77.0280    23.8750    20.4700    23.8640    25.7030   -12.7560     2.4200 
  135.1250    78.3620    24.0840    20.5860    25.1240    26.0490   -12.7200     2.4250 
  135.2500    80.0550    24.7950    21.1030    26.8230    26.0800   -12.6560     2.4320 
  135.3750    80.9760    25.4000    21.6880    29.4230    25.8650   -12.5920     2.4380 
  135.5000    80.2260    24.9800    21.6410    32.7930    25.5400   -12.5430     2.4360 
  135.6250    77.4670    22.4840    19.9670    31.4470    25.8730   -12.4940     2.4220 
  135.7500    76.0900    18.4930    16.9350    27.6080    26.3660   -12.4120     2.3960 
  135.8750    77.0130    14.0850    13.3550    21.8860    26.6410   -12.3110     2.3610 
  136.0000    79.3710    10.3180    10.0980    14.3330    26.5280   -12.2190     2.3220 
  136.1250    81.6640     7.8790     7.7730     8.6190    25.9810   -12.1490     2.2870 
  136.2500    82.5370     6.4830     6.2630     6.3050    25.7520   -12.1220     2.2600 
  136.3750    82.8880     5.8680     5.4140     5.4130    25.4860   -12.1310     2.2430 
  136.5000    83.2970     5.7930     5.0610     5.1890    25.1280   -12.1890     2.2350 
  136.6250    83.1860     6.0730     5.0850     5.3510    24.9650   -12.2680     2.2370 
  136.7500    80.9290     6.4360     5.2710     5.7270    24.7560   -12.3970     2.2440 
  136.8750    77.5500     6.7140     5.4890     6.2380    24.6310   -12.5570     2.2540 
  137.0000    77.0260     6.8020     5.6280     6.5960    24.6020   -12.7260     2.2610 
  137.1250    80.0350     6.6810     5.6200     6.2300    24.6270   -12.8770     2.2590 
  137.2500    80.8470     6.4900     5.5220     5.8300    24.6710   -12.9730     2.2460 
  137.3750    79.6950     6.3340     5.4040     5.5400    24.6630   -13.0330     2.2270 
  137.5000    80.6090     6.2780     5.3200     5.4590    24.5880   -13.0250     2.2080 
  137.6250    82.2890     6.3390     5.2920     5.6090    24.1260   -12.9840     2.1980 
  137.7500    79.7700     6.4390     5.2950     5.9070    23.6450   -12.8940     2.1980 
  137.8750    74.7660     6.5240     5.3070     6.0660    23.2420   -12.7630     2.2070 
  138.0000    73.3470     6.5820     5.3210     6.1980    22.7730   -12.6170     2.2170 
  138.1250    78.0730     6.6410     5.3530     5.9500    22.2820   -12.4950     2.2230 
  138.2500    82.3950     6.7340     5.4180     5.7060    22.3130   -12.3910     2.2240 
  138.3750    82.3120     6.8540     5.5140     5.6830    22.4260   -12.2960     2.2240 
  138.5000    78.1900     6.9470     5.6030     6.0590    22.3390   -12.2380     2.2280 
  138.6250    73.6180     6.9070     5.6000     6.2760    22.1460   -12.2030     2.2380 
  138.7500    71.6490     6.7300     5.4790     6.0280    22.0620   -12.2140     2.2500 
  138.8750    73.7080     6.4870     5.2790     5.4130    22.0240   -12.2520     2.2590 
  139.0000    77.9250     6.3020     5.1000     4.8320    22.0000   -12.3300     2.2600 
  139.1250    81.6850     6.3570     5.0900     4.7090    21.9560   -12.4030     2.2530 
  139.2500    86.6800     6.6860     5.2840     5.0150    21.9700   -12.4800     2.2400 
  139.3750    91.3030     7.2330     5.6440     5.8140    22.0530   -12.5470     2.2260 
  139.5000    90.6380     7.8310     6.0510     6.8220    22.3090   -12.6050     2.2130 
  139.6250    81.1560     8.1940     6.3000     7.2390    22.4750   -12.6730     2.2050 
  139.7500    73.8070     8.1920     6.2890     7.1050    22.6610   -12.7270     2.2030 
  139.8750    73.8510     7.8640     6.0440     6.5850    22.7640   -12.7760     2.2060 
