~V
VERS. 2.00: Ver 2.00
~W
STRT.M 50.0000:
STOP.M 294.0000:
STEP.M 0.1250:
NULL. -999.2500:
UWI. F10104:
~C
DEPT.M :
GR.API :
RML.OHMM :
RI. :
RXO.OHMM :
CALI.CM :
DEN.GM/CC :
SP.MV :
~A
# ...
  241.2500    90.7900    15.7530    14.8630    21.1710    23.3330     2.5290    -7.3350 
  241.3750    96.8200    13.3120    12.6060    17.4270    23.2790     2.5010    -7.3310 
  241.5000   101.4350    11.0900    10.5250    12.8170    23.2520     2.4660    -7.3580 
  241.6250   101.1290     9.6060     9.0140    10.9290    23.2670     2.4440    -7.4040 
  241.7500    97.6680     9.0200     8.2070    10.1250    23.3160     2.4410    -7.4350 
  241.8750    95.5730     9.3690     8.1850    11.4500    23.3690     2.4530    -7.4570 
  242.0000    95.4710    10.4760     8.8880    14.8790    23.3950     2.4730    -7.4510 
  242.1250    93.9880    11.7690     9.9970    17.0220    23.3970     2.5010    -7.4290 
  242.2500    90.0350    12.2810    10.7110    16.9170    23.3950     2.5240    -7.3820 
  242.3750    88.6830    11.4600    10.4280    15.9150    23.3750     2.5300    -7.3210 
  242.5000    93.4010     9.6170     9.1650    14.1460    23.3120     2.5130    -7.2520 
  242.6250   100.5600     7.6460     7.5100    11.2840    23.2070     2.4830    -7.1880 
  242.7500   100.7000     6.1320     6.0650     9.1040    23.1310     2.4610    -7.1280 
  242.8750    92.7910     5.1520     4.9960     7.8570    23.1050     2.4530    -7.0760 
  243.0000    81.1620     4.6370     4.3130     7.3800    23.1020     2.4490    -7.0280 
  243.1250    71.1480     4.5510     4.0220     7.2280    23.1020     2.4380    -7.0280 
  243.2500    65.2040     4.7320     3.9870     7.1440    23.1060     2.4260    -7.0440 
  243.3750    64.2990     5.0550     4.1150     7.0680    23.1210     2.4240    -7.0920 
  243.5000    69.4850     5.3790     4.3010     7.0910    23.1540     2.4310    -7.1580 
  243.6250    77.6530     5.5730     4.4430     7.1630    23.1710     2.4350    -7.2330 
  243.7500    84.5260     5.6280     4.5010     7.1740    23.1900     2.4340    -7.3150 
  243.8750    91.6980     5.5710     4.4780     7.1770    23.2370     2.4310    -7.4100 
  244.0000   100.2420     5.4480     4.4030     7.1230    23.3140     2.4250    -7.5080 
  244.1250   109.6210     5.3260     4.3170     6.8110    23.3710     2.4110    -7.5820 
  244.2500   116.0530     5.2790     4.2640     6.3200    23.3910     2.3910    -7.6550 
  244.3750   115.7230     5.3590     4.2880     5.9840    23.3950     2.3770    -7.7290 
  244.5000   108.0590     5.6080     4.4240     6.2710    23.3960     2.3750    -7.7970 
  244.6250   100.1050     6.0650     4.7040     7.3460    23.3960     2.3860    -7.8690 
  244.7500    98.9920     6.6360     5.0680     8.3240    23.3930     2.4030    -7.9660 
  244.8750   100.8840     7.1830     5.4330     8.9700    23.3910     2.4230    -8.0710 
  245.0000    98.8850     7.5430     5.7040     9.0710    23.3920     2.4480    -8.2140 
  245.1250    97.3920     7.5540     5.7860     9.0800    23.3930     2.4800    -8.3970 
  245.2500   100.3060     7.3320     5.7210     8.8270    23.3940     2.5050    -8.6330 
  245.3750   101.1620     7.0680     5.5870     8.6210    23.3940     2.5020    -8.8820 
  245.5000    94.6120     6.9320     5.4740     8.7910    23.3940     2.4640    -9.1560 
  245.6250    88.9800     6.9510     5.4440     9.0860    23.3940     2.4230    -9.4340 
  245.7500    92.1040     6.9560     5.4630     9.1920    23.3920     2.4070    -9.7000 
  245.8750    97.7390     6.8290     5.4780     9.1690    23.3910     2.4110    -9.9390 
  246.0000    98.6590     6.5720     5.4500     9.2690    23.3900     2.4140   -10.1530 
  246.1250    96.1860     6.3410     5.3910     9.3890    23.3910     2.3980   -10.3260 
  246.2500    94.3900     6.2910     5.3750     9.5400    23.3900     2.3740   -10.4560 
  246.3750    92.2910     6.4340     5.4500     9.5000    23.3910     2.3500   -10.5490 
  246.5000    90.3900     6.6640     5.6170     9.3200    23.3900     2.3280   -10.6190 
  246.6250    93.1030     6.8290     5.8300     9.3460    23.3920     2.3100   -10.6590 
  246.7500    96.4200     6.8740     6.0150     9.6820    23.3940     2.2970   -10.6960 
  246.8750    96.0040     6.8180     6.1230     9.9630    23.3940     2.2930   -10.7380 
  247.0000    92.9640     6.7040     6.1200    10.1800    23.3940     2.2960   -10.7610 
  247.1250    92.1950     6.5240     5.9720    10.4340    23.3940     2.3020   -10.7920 
  247.2500    93.2590     6.2480     5.6990    10.3760    23.3920     2.3070   -10.8050 
  247.3750    91.9700     5.8550     5.3210     9.7590    23.3900     2.3110   -10.8270 
  247.5000    87.4920     5.3550     4.8690     9.0850    23.3890     2.3120   -10.8300 
  247.6250    85.1240     4.8040     4.3750     8.4850    23.3880     2.3130   -10.8150 
  247.7500    85.2480     4.3110     3.8910     7.9700    23.3880     2.3140   -10.7700 
  247.8750    85.7340     3.9770     3.4740     7.8640    23.3880     2.3170   -10.7110 
  248.0000    86.3880     3.9040     3.2070     7.9950    23.3880     2.3190   -10.6430 
  248.1250    88.0040     4.2670     3.2420     8.8290    23.3880     2.3160   -10.5550 
  248.2500    87.8650     5.0590     3.6110     9.4410    23.3880     2.3120   -10.4580 
  248.3750    84.5670     6.2030     4.3030     9.6610    23.3880     2.3100   -10.3510 
  248.5000    84.1480     7.4520     5.1930     9.5770    23.3890     2.3130   -10.2360 
  248.6250    89.5160     8.2990     5.9620     9.5710    23.3900     2.3210   -10.1300 
  248.7500    94.1190     8.5250     6.3750     9.6350    23.3910     2.3350   -10.0360 
  248.8750    96.1760     8.2950     6.4610     9.5750    23.3900     2.3530    -9.9510 
  249.0000    96.0610     7.9570     6.4040     9.4640    23.3910     2.3730    -9.8840 
  249.1250    95.8910     7.7670     6.3700     9.4020    23.3900     2.3890    -9.8170 
  249.2500    96.5880     7.7110     6.3980     9.3310    23.3910     2.4000    -9.7690 
  249.3750    99.8320     7.7400     6.4810     9.1630    23.3910     2.4060    -9.7160 
  249.5000   105.9800     7.8370     6.6150     9.0550    23.3900     2.4060    -9.6780 
  249.6250   111.1610     8.0160     6.8090     9.3010    23.3910     2.4000    -9.6320 
  249.7500   115.3820     8.2730     7.0510     9.7180    23.3890     2.3930    -9.5940 
  249.8750   119.0810     8.6010     7.3230    10.0120    23.3880     2.3870    -9.5470 
  250.0000   118.0070     8.9630     7.5980    10.0350    23.3880     2.3850    -9.5030 
  250.1250   108.6310     9.2810     7.8320    10.2520    23.3880     2.3880    -9.4700 
  250.2500   100.0920     9.4950     7.9990    10.2520    23.3810     2.3910    -9.4460 
  250.3750    98.6750     9.5830     8.0830     9.9880    23.3540     2.3870    -9.4410 
  250.5000    98.3110     9.5710     8.0970     9.8520    23.2920     2.3750    -9.4510 
  250.6250    93.2560     9.5450     8.0910     9.8670    23.2590     2.3630    -9.4830 
  250.7500    90.0160     9.6420     8.1490    10.0250    23.2480     2.3550    -9.5190 
  250.8750    91.9320     9.9930     8.3540    10.2010    23.2460     2.3490    -9.5950 
  251.0000    95.6740    10.7140     8.8120    10.4010    23.2450     2.3410    -9.6780 
  251.1250    96.2240    11.9940     9.7420    11.3980    23.2460     2.3340    -9.7890 
  251.2500    93.2480    13.7910    11.2300    14.2270    23.2480     2.3270    -9.8930 
  251.3750    88.4320    15.9370    13.2610    19.2940    23.2420     2.3160   -10.0110 
  251.5000    85.0670    17.9260    15.4840    22.7740    23.2260     2.3040   -10.1200 
  251.6250    83.3420    18.6840    16.8930    23.3920    23.1940     2.3000   -10.2350 
  251.7500    81.4410    17.9070    16.8600    21.0470    23.1790     2.3060   -10.3530 
  251.8750    81.5280    16.1020    15.6030    17.5450    23.1690     2.3180   -10.4620 
  252.0000    84.0970    14.1670    13.9310    14.6930    23.1580     2.3290   -10.5670 
  252.1250    84.8750    12.8140    12.6390    15.2160    23.1400     2.3330   -10.6560 
  252.2500    83.9020    12.0100    11.8780    17.0050    23.1290     2.3260   -10.7420 
  252.3750    83.9850    11.5440    11.4990    16.3380    23.1170     2.3140   -10.8280 
