~V
VERS. 2.00: Ver 2.00
~W
STRT.M 57.0000:
STOP.M 247.0000:
STEP.M 0.1250:
NULL. -999.2500:
UWI. F10194:
~C
DEPT.M :
SP.MV :
DEN.GM/CC :
GR.API :
RML.OHMM :
RI. :
RXO.OHMM :
CALI.CM :
~A
# ...
  113.2500    -5.8780     2.3070   119.4980     4.5520     3.7970     4.4910    24.8410 
  113.3750    -5.8660     2.3150   122.4960     4.5290     3.8270     4.3740    24.8620 
  113.5000    -5.9390     2.3190   120.4370     4.5120     3.8430     4.2960    24.8700 
  113.6250    -6.0400     2.3190   114.9470     4.5050     3.8400     4.2310    24.8550 
  113.7500    -6.1330     2.3220   108.9900     4.4950     3.8170     4.1830    24.7950 
  113.8750    -6.2090     2.3330   104.3900     4.4700     3.7770     4.1750    24.7030 
  114.0000    -6.2870     2.3490   101.5870     4.4350     3.7310     4.1720    24.6160 
  114.1250    -6.3590     2.3630   101.1260     4.4200     3.6970     4.1390    24.5610 
  114.2500    -6.4020     2.3700   102.8930     4.4530     3.6910     4.1060    24.5340 
  114.3750    -6.4120     2.3690   104.7800     4.5340     3.7200     4.1560    24.5160 
  114.5000    -6.3920     2.3660   105.4020     4.6220     3.7660     4.3410    24.5060 
  114.6250    -6.3570     2.3660   105.6710     4.6540     3.7940     4.6260    24.4950 
  114.7500    -6.3350     2.3680   107.4690     4.5860     3.7720     4.8600    24.4930 
  114.8750    -6.3730     2.3700   111.3170     4.4060     3.6800     4.8250    24.5640 
  115.0000    -6.4620     2.3650   115.0450     4.1780     3.5420     4.4530    24.7040 
  115.1250    -6.5950     2.3530   116.8290     4.0080     3.4170     4.1280    24.8140 
  115.2500    -6.7990     2.3390   116.9090     4.0170     3.3810     4.0910    24.8360 
  115.3750    -7.1390     2.3310   115.6470     4.4060     3.5570     4.4010    24.7440 
  115.5000    -7.6480     2.3320   112.3110     5.2400     4.0310     5.3330    24.5410 
  115.6250    -8.3350     2.3440   106.2470     6.4600     4.8260     7.3800    24.3150 
  115.7500    -9.1830     2.3670    98.1130     7.9640     5.8840    10.7160    24.2060 
  115.8750   -10.1010     2.3990    89.7730     9.2160     6.9920    14.5340    24.2780 
  116.0000   -10.9690     2.4070    83.6170     9.8520     7.8210    17.4070    24.3950 
  116.1250   -11.6780     2.3500    79.9440     9.7560     8.0870    16.9760    24.4980 
  116.2500   -12.1190     2.2340    77.4930     8.9670     7.7020    12.8860    24.6860 
  116.3750   -12.2070     2.1330    77.1250     7.8170     6.8510     8.7030    24.9550 
  116.5000   -12.0020     2.1040    79.6270     6.7380     5.9110     6.4450    25.1000 
  116.6250   -11.5550     2.1400    83.4340     5.9690     5.1500     5.5620    25.0580 
  116.7500   -10.9010     2.2060    86.4760     5.5220     4.6390     5.3210    24.9280 
  116.8750   -10.1420     2.2630    89.0820     5.3280     4.3660     5.2240    24.7450 
  117.0000    -9.4280     2.3000    92.0550     5.2900     4.2640     5.0730    24.5290 
  117.1250    -8.8880     2.3200    93.8880     5.3660     4.2810     4.9730    24.3950 
  117.2500    -8.6020     2.3270    93.4490     5.5720     4.4000     5.0370    24.3320 
  117.3750    -8.5910     2.3220    91.0270     5.9370     4.6230     5.3250    24.2510 
  117.5000    -8.7440     2.3110    87.6470     6.4220     4.9260     5.8630    24.2060 
  117.6250    -8.9300     2.2990    84.1220     6.9240     5.2640     6.6730    24.3170 
  117.7500    -9.0440     2.2900    80.6770     7.3360     5.5850     7.6750    24.5900 
  117.8750    -8.9870     2.2880    77.9950     7.6170     5.8520     8.5970    24.8490 
  118.0000    -8.7580     2.2940    76.4870     7.9030     6.1150     9.2670    25.0000 
  118.1250    -8.4070     2.3090    76.4990     8.4660     6.5250     9.7880    25.0380 
  118.2500    -7.9750     2.3380    77.5130     9.6010     7.2900    10.6410    24.9720 
  118.3750    -7.4910     2.3930    77.1190    11.5850     8.6790    13.3320    24.8530 
  118.5000    -7.0040     2.4740    73.4500    14.2730    10.7130    18.0800    24.7450 
  118.6250    -6.5640     2.5590    67.3360    17.0980    13.0900    23.3090    24.6820 
  118.7500    -6.2320     2.6180    61.7100    19.2520    15.2470    26.6970    24.6550 
  118.8750    -6.1020     2.6300    59.3440    19.6660    16.2860    25.4400    24.6330 
  119.0000    -6.1830     2.6040    59.5070    18.0480    15.7320    21.4020    24.6090 
  119.1250    -6.4200     2.5580    61.1480    15.1410    13.8960    17.7900    24.5690 
  119.2500    -6.7620     2.5030    65.2210    12.1020    11.5850    14.6540    24.5100 
  119.3750    -7.1290     2.4420    71.4660     9.9660     9.6800    11.2960    24.4620 
  119.5000    -7.4350     2.3910    76.7320     9.0470     8.6000     8.9330    24.4550 
  119.6250    -7.6810     2.3660    78.5070     9.2760     8.4240     8.5960    24.4310 
  119.7500    -7.9030     2.3780    77.0000    10.5530     9.1670     9.9020    24.3530 
  119.8750    -8.1000     2.4270    73.8730    12.7030    10.8170    12.6230    24.2730 
  120.0000    -8.2230     2.4960    70.0350    15.1740    13.0110    16.4670    24.2770 
  120.1250    -8.2970     2.5570    65.5180    17.1820    15.0940    20.5370    24.3570 
  120.2500    -8.3740     2.5860    60.8710    17.9830    16.3320    22.5140    24.4420 
  120.3750    -8.4220     2.5750    57.9860    17.0310    16.0240    20.5440    24.4760 
  120.5000    -8.4360     2.5390    58.3620    14.8360    14.3860    16.2250    24.4610 
  120.6250    -8.4420     2.4970    61.5720    12.5470    12.3380    12.2340    24.4900 
  120.7500    -8.4420     2.4550    65.6200    11.0570    10.7240     9.7630    24.6130 
  120.8750    -8.4160     2.4210    68.0720    10.8730    10.1110     9.1170    24.8780 
  121.0000    -8.3550     2.3940    67.7030    11.9330    10.5670    10.3630    25.2690 
  121.1250    -8.2710     2.3710    64.8240    13.9450    11.9430    12.9690    25.6510 
  121.2500    -8.1800     2.3550    60.7690    16.5890    14.0510    15.9010    25.9210 
  121.3750    -8.0770     2.3510    57.1860    19.3670    16.5510    18.4690    26.0790 
  121.5000    -7.9690     2.3580    55.0410    21.7010    18.9270    19.8740    26.1310 
  121.6250    -7.8930     2.3750    53.7480    23.1700    20.7030    20.2790    26.0680 
  121.7500    -7.8780     2.4040    52.6460    23.6480    21.6320    20.4520    25.8550 
  121.8750    -7.9210     2.4440    51.8930    23.2680    21.6810    20.5170    25.5880 
  122.0000    -7.9800     2.4810    51.4600    22.4120    21.1230    20.1400    25.4050 
  122.1250    -8.0040     2.5020    50.5560    21.4190    20.2800    19.3200    25.3580 
  122.2500    -7.9700     2.5000    48.8850    20.4890    19.3670    18.1920    25.4330 
  122.3750    -7.9090     2.4750    48.1010    19.8140    18.5890    17.1970    25.6600 
  122.5000    -7.8590     2.4380    49.0660    19.5010    18.0820    16.5190    26.0550 
  122.6250    -7.8440     2.4010    50.1550    19.5810    17.9090    16.0500    26.4790 
  122.7500    -7.8630     2.3750    50.0610    20.0330    18.0910    15.8080    26.7850 
  122.8750    -7.8800     2.3710    49.4850    20.7990    18.6260    16.0180    26.9220 
  123.0000    -7.8820     2.3910    48.9710    21.7320    19.4170    16.7830    26.9010 
  123.1250    -7.8980     2.4320    48.2490    22.6520    20.3070    17.9270    26.7770 
  123.2500    -7.9340     2.4840    47.9130    23.3760    21.1120    19.0130    26.6500 
  123.3750    -7.9650     2.5350    48.9200    23.6820    21.5870    19.4680    26.6110 
  123.5000    -7.9960     2.5680    50.4530    23.4770    21.5950    19.4960    26.6640 
  123.6250    -7.9970     2.5680    50.9030    22.8250    21.1520    19.4380    26.7950 
  123.7500    -7.9090     2.5400    49.6230    21.8940    20.3990    18.9840    27.0310 
  123.8750    -7.7150     2.5050    46.8960    20.9470    19.5770    18.2020    27.3340 
  124.0000    -7.4670     2.4780    44.3840    20.1970    18.8960    17.6580    27.5950 
  124.1250    -7.2060     2.4590    43.8450    19.7090    18.4400    17.5300    27.7560 
  124.2500    -6.9390     2.4400    45.5780    19.4210    18.1770    17.6400    27.8580 
  124.3750    -6.6660     2.4170    48.0760    19.1910    18.0010    17.5530    27.9580 
