~V
VERS. 2.00: Ver 2.00
~W
STRT.M 50.0000:
STOP.M 222.0000:
STEP.M 0.1250:
NULL. -999.2500:
UWI. F10145:
~C
DEPT.M :
DEN.GM/CC :
GR.API :
RML.OHMM :
RI. :
RXO.OHMM :
CALI.CM :
SP.MV :
~A
# ...
   72.5000     2.2330    70.8250    10.1740     8.1050    20.1930    21.7500   -18.2090 
   72.6250     2.2180    72.7150     9.5150     7.7750    13.1100    21.1000   -18.5450 
   72.7500     2.1910    75.3640     8.7350     7.2510     9.6900    20.6380   -18.8230 
   72.8750     2.1610    76.6740     8.0760     6.7160     8.8540    20.3230   -19.0630 
   73.0000     2.1350    77.6890     7.6520     6.2910     8.8370    20.1020   -19.2630 
   73.1250     2.1160    77.5940     7.4560     6.0360     8.8560    19.9130   -19.4940 
   73.2500     2.1020    75.9630     7.3390     5.8820     8.8250    19.7060   -19.7970 
   73.3750     2.0900    76.7900     7.2190     5.7770     8.7700    19.5130   -20.1280 
   73.5000     2.0800    81.0880     7.0650     5.6830     8.5150    19.4030   -20.4340 
   73.6250     2.0710    82.1210     6.8940     5.5920     8.2390    19.3890   -20.6380 
   73.7500     2.0650    79.3290     6.7420     5.5140     8.1390    19.4180   -20.7120 
   73.8750     2.0630    78.5160     6.6300     5.4600     8.1680    19.4810   -20.7140 
   74.0000     2.0650    81.6390     6.5650     5.4340     8.2330    19.6240   -20.7320 
   74.1250     2.0700    82.7510     6.5580     5.4400     8.2270    19.8640   -20.7510 
   74.2500     2.0740    78.7470     6.5930     5.4670     8.2550    20.0940   -20.6860 
   74.3750     2.0740    73.3980     6.6610     5.5080     8.2990    20.2300   -20.5340 
   74.5000     2.0700    71.1470     6.7510     5.5480     8.4000    20.3000   -20.3370 
   74.6250     2.0640    73.7470     6.8360     5.5670     8.4920    20.3910   -20.1450 
   74.7500     2.0620    76.9710     6.8760     5.5460     8.5700    20.5410   -19.9550 
   74.8750     2.0650    78.4130     6.8280     5.4680     8.5600    20.7070   -19.7320 
   75.0000     2.0750    78.3080     6.6730     5.3270     8.4560    20.8330   -19.4120 
   75.1250     2.0890    77.0190     6.4770     5.1540     8.2760    20.8750   -18.9490 
   75.2500     2.1060    73.6910     6.4480     5.0480     8.1680    20.9180   -18.3740 
   75.3750     2.1240    70.9590     6.8830     5.1530     8.0430    21.0820   -17.6760 
   75.5000     2.1440    70.7200     8.1880     5.6930     8.0820    21.4130   -16.8690 
   75.6250     2.1700    71.7600    11.2250     7.3000     9.2850    21.9360   -15.9850 
   75.7500     2.2100    72.6940    16.4550    10.6180    14.2310    22.6500   -15.0740 
   75.8750     2.2740    74.0570    24.1280    16.3390    29.3260    23.4390   -14.1200 
   76.0000     2.3640    75.5560    32.9840    24.0370    59.4090    23.9530   -13.1230 
   76.1250     2.4650    74.2280    38.4170    30.3210    86.0670    24.0730   -12.0820 
   76.2500     2.5410    73.1810    37.0510    31.4430    83.5890    24.0410   -11.0850 
   76.3750     2.5670    78.4690    29.4680    26.8270    65.3630    23.9920   -10.2300 
   76.5000     2.5370    91.4780    19.7250    19.2660    35.3730    23.8740    -9.5460 
   76.6250     2.4650   107.7310    12.4530    12.7580    15.7230    23.7580    -9.0150 
   76.7500     2.3910   119.3660     8.2900     8.5930     7.3470    23.6260    -8.5530 
   76.8750     2.3360   123.2950     6.2850     6.2830     5.1350    23.5090    -8.1770 
   77.0000     2.3060   121.9940     5.4740     5.1130     4.5770    23.3860    -7.9540 
   77.1250     2.2940   120.5000     5.3180     4.6670     4.5180    23.2420    -8.0320 
   77.2500     2.2850   121.4100     5.4240     4.5690     4.5400    23.1550    -8.3550 
   77.3750     2.2690   120.5790     5.6740     4.6880     4.7260    23.1160    -8.8390 
   77.5000     2.2420   113.7540     6.0110     4.9380     5.0440    23.0670    -9.4160 
   77.6250     2.2080   104.1750     6.3950     5.2630     5.6680    22.9560   -10.0750 
   77.7500     2.1750    96.2580     6.7640     5.5950     6.6320    22.8800   -10.8010 
   77.8750     2.1500    91.0140     7.0550     5.8790     7.3760    23.0940   -11.5950 
   78.0000     2.1330    87.2780     7.2130     6.0630     7.4520    23.6820   -12.4180 
   78.1250     2.1260    83.8710     7.1990     6.1000     7.2180    24.2870   -13.1590 
   78.2500     2.1260    79.5230     7.0850     6.0260     7.0550    24.5950   -13.7770 
   78.3750     2.1330    74.6870     6.9580     5.8930     6.9440    24.6750   -14.2440 
   78.5000     2.1430    72.3380     6.9080     5.7730     6.8970    24.6400   -14.5470 
   78.6250     2.1480    74.7070     7.0220     5.7500     6.9150    24.5650   -14.6890 
   78.7500     2.1390    76.6130     7.2670     5.8390     7.0300    24.4420   -14.7830 
   78.8750     2.1210    76.9250     7.5740     6.0140     7.3580    24.2680   -14.8520 
   79.0000     2.1020    76.9900     7.8450     6.2120     8.4650    24.1200   -14.8770 
   79.1250     2.0900    77.8710     7.9680     6.3320    11.2280    24.0060   -14.8540 
   79.2500     2.0850    78.0310     7.9410     6.3300    12.8590    23.9520   -14.8060 
   79.3750     2.0810    76.1500     7.8120     6.2130     9.9710    23.9160   -14.7960 
   79.5000     2.0770    72.6740     7.6670     6.0380     7.5850    23.4450   -14.9030 
   79.6250     2.0780    70.2190     7.6050     5.8900     7.0700    22.2980   -15.1970 
   79.7500     2.0870    71.5900     7.6460     5.8200     7.1480    21.2550   -15.5690 
   79.8750     2.1040    75.6780     7.7610     5.8300     7.0460    20.7870   -15.9310 
   80.0000     2.1240    77.4300     7.8970     5.8910     6.8760    20.7220   -16.2810 
   80.1250     2.1430    73.8230     7.9850     5.9500     6.7810    20.7090   -16.6770 
   80.2500     2.1580    69.1840     8.0080     5.9730     6.7640    20.6300   -17.1570 
   80.3750     2.1680    67.6570     7.9790     5.9550     6.8050    20.5450   -17.6720 
   80.5000     2.1730    69.9240     7.9260     5.9110     6.8870    20.5030   -18.1760 
   80.6250     2.1760    72.1250     7.8780     5.8590     7.0380    20.4980   -18.6190 
   80.7500     2.1770    72.1390     7.8460     5.8100     7.1480    20.4830   -19.0140 
   80.8750     2.1740    72.3210     7.8250     5.7670     7.2480    20.4710   -19.3840 
   81.0000     2.1660    73.8470     7.8050     5.7290     7.3380    20.4410   -19.7420 
   81.1250     2.1530    74.1790     7.7670     5.6920     7.4080    20.3840   -20.0620 
   81.2500     2.1410    73.9730     7.7020     5.6550     7.4330    20.2850   -20.3080 
   81.3750     2.1320    76.3400     7.6120     5.6180     7.4520    20.2150   -20.4620 
   81.5000     2.1270    79.4750     7.5060     5.5860     7.5280    20.3010   -20.5120 
   81.6250     2.1240    78.9950     7.4100     5.5650     7.6160    20.5560   -20.4080 
   81.7500     2.1180    76.9790     7.3530     5.5650     7.6310    20.8360   -20.1820 
   81.8750     2.1130    75.4020     7.3540     5.5950     7.5720    21.0490   -19.8680 
   82.0000     2.1090    72.7500     7.4220     5.6600     7.3840    21.1920   -19.4900 
   82.1250     2.1080    68.1030     7.5360     5.7570     7.3450    21.3050   -18.9930 
   82.2500     2.1080    66.4410     7.6230     5.8480     7.7540    21.4040   -18.3310 
   82.3750     2.1090    70.1220     7.6010     5.8830     8.2410    21.4410   -17.5150 
   82.5000     2.1120    75.2000     7.4060     5.8130     8.4120    21.4610   -16.5520 
   82.6250     2.1160    80.6520     7.0190     5.5970     8.1510    21.5910   -15.4460 
   82.7500     2.1220    90.2210     6.5620     5.2870     7.5350    22.0770   -14.2690 
   82.8750     2.1230   102.7240     6.1580     4.9520     6.4640    22.7990   -13.0860 
   83.0000     2.1170   110.0670     5.9160     4.6720     5.5420    23.3290   -11.9460 
   83.1250     2.1040   107.0110     5.9490     4.5500     5.4400    23.3480   -10.9240 
   83.2500     2.0940   101.4800     6.2320     4.6130     5.8440    22.8800   -10.0960 
   83.3750     2.1000    97.1030     6.7300     4.8740     6.3780    22.0090    -9.5100 
   83.5000     2.1340    92.4120     7.3790     5.3080     7.0380    20.9600    -9.1640 
   83.6250     2.2010    86.7720     8.0730     5.8680     7.7850    20.4290    -9.0310 
