~V
VERS. 2.00: Ver 2.00
~W
STRT.M 52.0000:
STOP.M 224.0000:
STEP.M 0.1250:
NULL. -999.2500:
UWI. F10155:
~C
DEPT.M :
SP.MV :
GR.API :
RML.OHMM :
RI. :
RXO.OHMM :
CALI.CM :
DEN.GM/CC :
~A
# ...
  164.5000   -19.9680    67.4570    84.9420    78.1300    76.2820    25.2110     2.2290 
  164.6250   -19.9240    70.8560    91.9520    85.8150    85.3810    25.3990     2.2240 
  164.7500   -19.8490    73.8170    96.7030    91.2560    88.6030    25.5490     2.2210 
  164.8750   -19.7320    73.3910    98.2060    92.8460    88.5610    25.6340     2.2210 
  165.0000   -19.6050    71.6130    96.3050    90.0690    84.1120    25.6440     2.2270 
  165.1250   -19.5150    70.7710    93.2450    85.6430    71.4800    25.6390     2.2390 
  165.2500   -19.4790    71.4660    91.1480    82.0960    57.8850    25.6230     2.2520 
  165.3750   -19.5350    73.1220    91.8310    81.5160    51.2680    25.6050     2.2610 
  165.5000   -19.6830    74.2770    96.7390    85.7790    63.9560    25.6160     2.2560 
  165.6250   -19.8250    73.2610   104.4330    93.8420    88.9780    25.6550     2.2390 
  165.7500   -19.9560    70.5290   112.7800   103.8060   114.2810    25.6860     2.2170 
  165.8750   -20.0820    68.7880   119.0300   112.4910   129.9380    25.6010     2.2030 
  166.0000   -20.2090    69.4180   119.9560   115.3840   113.2480    25.3690     2.2020 
  166.1250   -20.3290    70.4810   115.7360   112.0670   101.1820    25.1190     2.2090 
  166.2500   -20.3700    71.0230   107.5830   104.2310    93.9010    24.9730     2.2120 
  166.3750   -20.3320    71.7850    97.4400    94.3820    85.1280    25.0150     2.2060 
  166.5000   -20.2230    74.8480    87.3140    84.5480    79.2690    25.1320     2.1960 
  166.6250   -20.1280    77.0160    78.5390    75.8980    72.3870    25.1070     2.1930 
  166.7500   -20.1060    76.4970    71.8230    69.1660    66.3900    24.9430     2.2020 
  166.8750   -20.2000    75.5630    67.6650    64.8470    57.7240    24.7120     2.2200 
  167.0000   -20.4670    76.2420    66.9150    63.7810    47.7820    24.5410     2.2360 
  167.1250   -20.8430    77.2250    69.1210    65.7970    41.4960    24.3260     2.2450 
  167.2500   -21.2980    77.7610    73.8830    70.7510    44.1800    24.0850     2.2490 
  167.3750   -21.7960    77.8920    80.3550    77.8650    47.8570    23.9910     2.2560 
  167.5000   -22.3000    77.2240    87.2010    85.6790    56.9380    24.1830     2.2770 
  167.6250   -22.8210    74.6050    92.8750    92.3660    76.3710    24.4500     2.3030 
  167.7500   -23.3410    70.7290    96.2800    96.7040    87.1100    24.5230     2.3210 
  167.8750   -23.7990    68.0680    96.7230    97.9150    73.5700    24.6480     2.3210 
  168.0000   -24.1800    69.4460    93.6070    95.1710    63.9230    25.0700     2.3010 
  168.1250   -24.5180    72.8250    88.1840    89.5530    62.8580    25.4110     2.2770 
  168.2500   -24.8210    74.1480    81.7540    82.4670    51.6230    25.2740     2.2620 
  168.3750   -25.1380    73.3240    75.8890    75.9400    29.7930    24.5430     2.2610 
  168.5000   -25.5250    73.5000    72.4660    72.3160    17.2280    23.6360     2.2680 
  168.6250   -25.9980    74.9290    71.8960    72.0190    14.9820    23.0610     2.2730 
  168.7500   -26.5300    77.3490    73.9980    74.8850    21.4480    22.9210     2.2700 
  168.8750   -27.1220    79.9080    77.8690    80.0770    37.7520    23.0790     2.2620 
  169.0000   -27.7910    81.8190    81.8810    85.7760    61.4530    23.4970     2.2540 
  169.1250   -28.5850    81.7450    84.3280    89.4700    77.9610    23.9260     2.2500 
  169.2500   -29.5280    80.6480    84.3370    89.6560    83.7410    24.0770     2.2480 
  169.3750   -30.5630    79.7280    81.9470    86.3400    78.9390    24.0770     2.2490 
  169.5000   -31.6720    79.1770    77.9840    80.7970    67.5240    24.0520     2.2480 
  169.6250   -32.8960    78.7070    74.2160    75.2630    60.2260    24.0830     2.2480 
  169.7500   -34.3430    77.2710    72.0380    71.1590    60.0110    24.1190     2.2490 
  169.8750   -36.0400    75.6960    72.8580    69.7830    62.3710    24.1200     2.2530 
  170.0000   -37.9440    74.5990    79.4550    73.7300    58.8320    24.0420     2.2580 
  170.1250   -39.9260    71.9150    93.9550    85.4050    57.9060    23.9770     2.2570 
  170.2500   -41.9140    67.3570   120.8550   109.6460    68.7640    23.8770     2.2450 
  170.3750   -43.8580    63.8220   167.1070   153.2660   120.9320    23.8900     2.2210 
  170.5000   -45.6550    63.5990   244.5000   229.5040   272.3290    24.0720     2.1910 
  170.6250   -47.1440    62.8210   344.7990   335.1820   622.7350    24.3670     2.1670 
  170.7500   -48.1540    61.1240   447.6370   448.9110   950.4760    24.6220     2.1560 
  170.8750   -48.6310    59.6530   524.0430   524.2260   988.1110    24.8090     2.1590 
  171.0000   -48.4960    60.4250   546.4590   521.8140   856.6910    25.1030     2.1710 
  171.1250   -47.8500    61.5120   530.2100   483.5110   708.5260    25.4730     2.1820 
  171.2500   -46.7190    61.6280   497.0410   443.0690   600.9890    25.7040     2.1880 
  171.3750   -45.1500    60.1780   465.4250   413.1660   538.7770    25.7570     2.1910 
  171.5000   -43.1830    57.3080   444.5550   395.5560   373.6840    25.7510     2.1960 
  171.6250   -41.0070    56.8100   431.3660   385.5820   371.0990    25.8040     2.2030 
  171.7500   -38.6990    59.3730   422.0860   380.1030   353.9170    25.8590     2.2120 
  171.8750   -36.3040    61.8910   412.6780   375.4940   368.3790    25.8700     2.2210 
  172.0000   -33.9390    61.9570   398.0120   366.3880   410.0610    25.8050     2.2340 
  172.1250   -31.7000    62.5680   376.1830   348.9660   411.7390    25.7050     2.2520 
  172.2500   -29.6480    64.8190   347.9250   322.4680   378.9490    25.5810     2.2690 
  172.3750   -27.7940    63.9000   316.9370   290.8330   316.8960    25.4870     2.2760 
  172.5000   -26.1860    58.1700   289.9480   262.0920   239.7580    25.4980     2.2610 
  172.6250   -24.7650    54.2060   272.0620   242.2830   177.9020    25.5250     2.2350 
  172.7500   -23.5670    53.3230   266.4880   234.7740   165.9480    25.4540     2.2170 
  172.8750   -22.6000    53.1450   273.6540   241.1830   203.6610    25.2600     2.2290 
  173.0000   -21.8170    53.5690   288.1370   262.2520   221.0980    24.8100     2.2880 
  173.1250   -21.1890    54.1930   294.0860   285.9610   248.4350    24.2370     2.3740 
  173.2500   -20.7190    52.7920   277.3210   290.6620   367.4980    23.7420     2.4680 
  173.3750   -20.3720    49.3240   233.0210   253.9900   619.9870    23.5680     2.5530 
  173.5000   -20.1160    47.9530   170.4910   180.1130   614.2840    23.7510     2.6210 
  173.6250   -19.8770    50.3650   111.8610   110.2040   301.4270    24.1400     2.6750 
  173.7500   -19.5050    54.7860    67.9950    61.6550    91.1570    24.5350     2.7150 
  173.8750   -18.9150    59.4090    40.1070    33.7680    32.1600    24.7260     2.7330 
  174.0000   -18.1270    62.2820    24.5160    20.6270    13.4380    24.7080     2.7150 
  174.1250   -17.1520    63.0780    14.2730    13.5690    11.1290    24.6420     2.6670 
  174.2500   -16.0080    63.7600     9.6320     9.5820     7.9020    24.3750     2.6010 
  174.3750   -14.8020    65.8130     7.1550     7.2570     5.2970    24.0700     2.5320 
  174.5000   -13.6040    65.7380     5.9290     6.0090     4.4760    23.9610     2.4750 
  174.6250   -12.4620    62.0100     5.2670     5.3220     4.3160    24.0500     2.4330 
  174.7500   -11.5030    58.8260     5.0130     5.0400     4.1620    24.2450     2.4040 
  174.8750   -10.8330    59.8170     5.0540     5.0720     4.0140    24.3500     2.3840 
  175.0000   -10.4860    63.2760     5.3290     5.3720     4.1280    24.2950     2.3770 
  175.1250   -10.3620    66.3750     5.7030     5.8000     4.6140    24.1360     2.3800 
  175.2500   -10.4210    71.4680     6.0680     6.2390     5.3310    24.0230     2.3900 
  175.3750   -10.6030    78.0620     6.3210     6.5620     5.7510    23.7590     2.4030 
  175.5000   -10.8200    80.4120     6.3680     6.6270     5.4790    23.6920     2.4170 
  175.6250   -11.0480    77.0930     6.2560     6.4760     4.8980    23.8990     2.4310 
