~V
VERS. 2.00: Ver 2.00
~W
STRT.M 63.0000:
STOP.M 800.0000:
STEP.M 0.1250:
NULL. -999.2500:
UWI. F10168:
~C
DEPT.M :
SP.MV :
GR.API :
RML.OHMM :
RI. :
RXO.OHMM :
CALI.CM :
DEN.GM/CC :
~A
# ...
  648.0000   -16.9390    67.5360    21.2730    20.3470    28.0360    23.3430     2.3950 
  648.1250   -16.5500    68.1480    20.4890    19.2590    26.0540    23.4950     2.3890 
  648.2500   -16.0000    69.0390    19.8770    18.3820    23.4240    23.6680     2.3850 
  648.3750   -15.3500    69.6530    19.4980    17.8510    21.7070    23.7860     2.3840 
  648.5000   -14.6800    68.4490    19.3470    17.7050    20.7570    23.8200     2.3870 
  648.6250   -14.0810    66.3420    19.3940    17.9310    20.8450    23.8070     2.3910 
  648.7500   -13.6140    65.3140    19.5370    18.3450    22.0900    23.8190     2.3940 
  648.8750   -13.3180    66.2900    19.7210    18.8160    23.5480    23.8600     2.3980 
  649.0000   -13.2290    67.3150    19.8940    19.2210    24.3570    23.8750     2.4010 
  649.1250   -13.3360    67.1960    19.9990    19.4200    25.2440    23.8130     2.3960 
  649.2500   -13.6080    66.6970    20.0350    19.4100    26.1040    23.6610     2.3800 
  649.3750   -13.9770    66.6730    20.0300    19.2370    25.5800    23.4710     2.3540 
  649.5000   -14.3890    68.0860    20.0090    18.9790    23.7690    23.3610     2.3230 
  649.6250   -14.7830    70.5200    19.9380    18.6920    22.5970    23.4360     2.3000 
  649.7500   -15.0800    70.7250    19.7610    18.3800    22.2890    23.6130     2.2900 
  649.8750   -15.2400    67.2780    19.4340    18.0200    22.8880    23.7610     2.2910 
  650.0000   -15.2880    64.1040    18.9690    17.6170    25.4190    23.8140     2.2990 
  650.1250   -15.2650    64.4450    18.4210    17.2240    27.3530    23.7960     2.3070 
  650.2500   -15.2150    64.6980    17.8820    16.8950    27.6120    23.7720     2.3160 
  650.3750   -15.1730    63.7640    17.4260    16.6560    26.7030    23.7600     2.3230 
  650.5000   -15.1410    63.7270    17.1530    16.5380    25.1210    23.7620     2.3280 
  650.6250   -15.1030    65.1040    17.2950    16.6730    21.7290    23.8100     2.3260 
  650.7500   -15.0880    65.4740    18.0020    17.1940    20.0730    23.8860     2.3190 
  650.8750   -15.1310    65.1470    19.4210    18.2720    21.1260    23.9360     2.3170 
  651.0000   -15.2650    65.0670    21.5850    20.0170    23.5200    23.9120     2.3290 
  651.1250   -15.4570    63.4000    24.3280    22.4260    27.1980    23.8170     2.3640 
  651.2500   -15.6680    59.0090    26.9460    24.9570    35.1820    23.7180     2.4100 
  651.3750   -15.8750    55.5010    28.6710    26.9330    52.0390    23.6410     2.4490 
  651.5000   -16.0890    55.9340    28.8450    27.6660    66.7170    23.6160     2.4670 
  651.6250   -16.3600    59.9950    27.0780    26.6030    60.3850    23.6800     2.4500 
  651.7500   -16.7140    63.6490    24.2850    24.4220    44.8630    23.7880     2.4100 
  651.8750   -17.1320    64.0780    21.3320    21.8630    31.8260    23.8600     2.3620 
  652.0000   -17.5580    61.5360    18.9170    19.5850    25.6570    23.8720     2.3160 
  652.1250   -17.9780    59.2330    17.5230    18.0640    22.8100    23.8550     2.2830 
  652.2500   -18.3750    58.9960    16.9370    17.2060    20.6490    23.8120     2.2630 
  652.3750   -18.6950    60.6720    16.8700    16.8240    19.5070    23.7220     2.2570 
  652.5000   -18.8420    63.3890    16.9370    16.6390    22.2660    23.6270     2.2620 
  652.6250   -18.7530    66.9760    16.6860    16.3160    25.9430    23.6110     2.2730 
  652.7500   -18.4080    71.1460    15.9630    15.6990    20.8870    23.6920     2.2820 
  652.8750   -17.8280    74.6600    14.8590    14.8170    14.9220    23.8310     2.2880 
  653.0000   -16.9820    77.2470    13.6700    13.8440    12.6760    23.9620     2.2930 
  653.1250   -15.9180    76.5950    12.8790    13.0880    12.1710    23.9720     2.2960 
  653.2500   -14.7080    73.7130    12.7680    12.7750    12.2170    23.9390     2.2900 
  653.3750   -13.4890    72.8060    13.4830    13.0730    12.8080    23.9160     2.2680 
  653.5000   -12.4890    73.8570    15.0120    14.0810    13.4990    23.9010     2.2350 
  653.6250   -11.8380    72.4200    17.2460    15.8940    13.0430    23.8150     2.2060 
  653.7500   -11.5940    68.7670    19.6750    18.1660    14.1370    23.5600     2.1990 
  653.8750   -11.7550    66.6920    21.8370    20.4800    17.3540    23.0330     2.2160 
  654.0000   -12.3820    67.9120    23.3240    22.3380    20.3900    21.9210     2.2500 
  654.1250   -13.3640    71.7030    23.7820    23.1990    19.8920    20.0080     2.2880 
  654.2500   -14.6240    75.2650    23.4900    23.1750    19.4440    17.9130     2.3210 
  654.3750   -16.0640    75.8280    22.7460    22.5100    20.0490    16.4310     2.3450 
  654.5000   -17.5290    73.0760    21.8610    21.5260    20.1880    15.7530     2.3580 
  654.6250   -18.8780    70.0090    21.1030    20.5260    19.8860    15.6200     2.3550 
  654.7500   -20.0390    69.4430    20.5750    19.7110    19.9550    15.6900     2.3440 
  654.8750   -20.9720    70.4300    20.2860    19.1670    20.1950    15.9020     2.3300 
  655.0000   -21.6290    72.0120    20.1880    18.9100    20.4910    16.2450     2.3210 
  655.1250   -22.0890    71.6870    20.1990    18.9260    20.6590    16.6770     2.3200 
  655.2500   -22.4110    68.1400    20.2050    19.0590    20.2960    17.1250     2.3250 
  655.3750   -22.6200    63.4860    20.1440    19.1780    19.1910    17.5800     2.3320 
  655.5000   -22.7400    62.4160    19.9850    19.1660    18.2740    18.0170     2.3370 
  655.6250   -22.8120    65.6890    19.7090    18.9240    18.3120    18.3830     2.3370 
  655.7500   -22.8470    67.7280    19.3570    18.5230    19.2980    18.6750     2.3330 
  655.8750   -22.8580    66.9250    18.9800    18.0780    19.6580    18.9450     2.3260 
  656.0000   -22.8440    66.6050    18.6590    17.7400    19.7040    19.2430     2.3180 
  656.1250   -22.7870    68.2720    18.5400    17.6910    20.4070    19.6080     2.3130 
  656.2500   -22.6710    68.5070    18.6900    17.9450    21.3360    20.0610     2.3120 
  656.3750   -22.5160    65.6530    19.1370    18.4660    21.4110    20.5930     2.3130 
  656.5000   -22.3400    61.4560    19.8280    19.1530    21.1990    21.1250     2.3180 
  656.6250   -22.1650    59.1120    20.6230    19.8460    22.7190    21.4760     2.3270 
  656.7500   -21.9940    59.6450    21.2990    20.3740    26.0670    21.6870     2.3370 
  656.8750   -21.8380    61.0100    21.6990    20.6290    28.5740    21.8300     2.3470 
  657.0000   -21.7180    61.5100    21.7400    20.5790    29.0160    21.9420     2.3560 
  657.1250   -21.6490    61.2570    21.4030    20.2560    28.2930    22.0350     2.3640 
  657.2500   -21.6220    61.6550    20.8820    19.8480    27.1230    22.1540     2.3710 
  657.3750   -21.6120    63.4300    20.3410    19.4870    26.5750    22.3190     2.3760 
  657.5000   -21.6050    64.8530    19.9310    19.2540    26.5870    22.4860     2.3780 
  657.6250   -21.5910    63.8640    19.8040    19.1880    26.4350    22.5840     2.3790 
  657.7500   -21.5640    61.7700    19.9400    19.2410    24.8820    22.6250     2.3820 
  657.8750   -21.5330    60.6530    20.2710    19.3800    24.2660    22.6450     2.3880 
  658.0000   -21.5010    60.3880    20.6610    19.5550    26.0790    22.6620     2.3940 
  658.1250   -21.4630    60.9110    20.9100    19.6900    28.4810    22.6720     2.3960 
  658.2500   -21.4340    63.5190    20.9270    19.7320    28.2210    22.6710     2.3910 
  658.3750   -21.4110    67.1220    20.7380    19.6830    26.9230    22.6600     2.3820 
  658.5000   -21.3760    69.9060    20.4710    19.5900    25.0080    22.6570     2.3730 
  658.6250   -21.3040    72.0260    20.3070    19.5400    24.4840    22.6860     2.3680 
  658.7500   -21.1640    73.1820    20.3360    19.5770    27.5040    22.7530     2.3660 
  658.8750   -20.9050    71.6590    20.5870    19.7230    31.1490    22.8490     2.3670 
  659.0000   -20.4860    67.9840    21.1020    20.0190    33.0310    22.9460     2.3750 
  659.1250   -19.9310    66.5420    22.0550    20.6360    30.2110    22.9680     2.3910 
