~V
VERS. 2.00: Ver 2.00
~W
STRT.M 45.0000:
STOP.M 252.0000:
STEP.M 0.1250:
NULL. -999.2500:
UWI. F10190:
~C
DEPT.M :
GR.API :
RML.OHMM :
RI. :
RXO.OHMM :
CALI.CM :
SP.MV :
DEN.GM/CC :
~A
# ...
   90.0000    92.7850     7.9360     5.9570     5.1080    23.9750   -14.4500     2.2730 
   90.1250    88.7740     8.0890     5.8990     5.3870    23.9490   -14.1320     2.2770 
   90.2500    80.7360     8.4280     5.9750     6.6720    23.9550   -13.8420     2.2710 
   90.3750    76.8590     8.6350     6.0150     8.2880    24.0160   -13.6290     2.2590 
   90.5000    81.9160     8.3720     5.8230     7.8800    24.1640   -13.4950     2.2440 
   90.6250    90.0850     7.7570     5.4430     5.6750    24.4010   -13.4490     2.2310 
   90.7500    95.9540     7.1030     5.0360     4.4350    24.6310   -13.5590     2.2290 
   90.8750    97.5100     6.7780     4.7990     4.4580    24.6930   -13.8490     2.2430 
   91.0000    94.9660     7.1920     4.9720     5.5990    24.5960   -14.3110     2.2540 
   91.1250    87.7610     8.3890     5.6330     8.1100    24.5090   -14.8310     2.2370 
   91.2500    76.5310    10.3240     6.8460    12.5490    24.5940   -15.4020     2.1930 
   91.3750    66.8180    12.7080     8.5440    20.1840    24.7850   -16.0640     2.1470 
   91.5000    62.9320    14.7810    10.3330    27.1850    24.8690   -16.8590     2.1220 
   91.6250    62.2570    15.7440    11.5120    29.3000    24.8030   -17.7210     2.1090 
   91.7500    62.7640    15.3050    11.6690    23.8300    24.6160   -18.5510     2.0980 
   91.8750    65.5190    13.8420    10.9190    15.3810    24.3540   -19.2810     2.0880 
   92.0000    67.9780    12.1440     9.7560    10.8990    24.1110   -19.8470     2.0920 
   92.1250    66.5560    10.8400     8.7150     9.5760    23.9650   -20.3490     2.1100 
   92.2500    63.6440    10.0960     7.9830     9.3500    23.8870   -20.8000     2.1290 
   92.3750    62.6890     9.8700     7.5960     9.2310    23.8720   -21.1540     2.1370 
   92.5000    64.4970    10.0400     7.5310     9.1840    23.9310   -21.4080     2.1290 
   92.6250    66.2440    10.3290     7.6150     9.3030    24.0380   -21.5630     2.1180 
   92.7500    67.2220    10.5760     7.7290     9.3640    24.1280   -21.5770     2.1120 
   92.8750    67.0310    10.6940     7.7820     9.4270    24.1890   -21.4470     2.1170 
   93.0000    66.0350    10.6570     7.7250     9.6620    24.2130   -21.2050     2.1340 
   93.1250    65.8530    10.5250     7.5910     9.7720    24.2390   -20.8800     2.1540 
   93.2500    66.9400    10.3010     7.3920     9.3400    24.2850   -20.4910     2.1710 
   93.3750    70.2270     9.9440     7.1110     8.4100    24.3390   -20.0920     2.1780 
   93.5000    73.3710     9.4140     6.7330     8.3100    24.3860   -19.6870     2.1720 
   93.6250    74.2040     8.8640     6.3510     8.8610    24.5090   -19.2380     2.1690 
   93.7500    74.8060     8.5300     6.1060     8.7620    24.7730   -18.8310     2.1840 
   93.8750    77.4820     8.6910     6.1590     7.6780    25.0740   -18.5790     2.2280 
   94.0000    79.9520     9.7520     6.7600     7.3040    25.1660   -18.5820     2.2960 
   94.1250    76.8680    11.6600     7.9350     9.1330    25.0290   -18.8170     2.3660 
   94.2500    69.8650    14.1530     9.6250    15.1610    24.7950   -19.2120     2.4090 
   94.3750    64.0450    16.5550    11.5020    26.8370    24.5870   -19.6770     2.4050 
   94.5000    60.9910    17.6250    12.7430    32.9120    24.3880   -20.2220     2.3580 
   94.6250    59.8140    17.0220    12.8410    32.1870    24.2220   -20.9290     2.2980 
   94.7500    59.8940    15.2480    11.9270    23.2970    24.1980   -21.7680     2.2400 
   94.8750    62.0940    13.2250    10.5710    16.0140    24.4150   -22.6500     2.1880 
   95.0000    65.6760    11.6890     9.3260    13.5130    24.6610   -23.4680     2.1460 
   95.1250    68.0740    10.6960     8.3820    11.7300    24.7420   -24.1700     2.1130 
   95.2500    68.5340    10.1540     7.7540    10.7860    24.6750   -24.8030     2.0880 
   95.3750    68.3820     9.9470     7.4050    10.3530    24.5330   -25.3900     2.0790 
   95.5000    68.0140     9.9780     7.2920    10.2200    24.4100   -25.9000     2.0920 
   95.6250    65.7800    10.0970     7.2970    10.2380    24.3270   -26.3090     2.1130 
   95.7500    60.8660    10.2370     7.3650    10.3030    24.3090   -26.6260     2.1310 
   95.8750    58.1550    10.3610     7.4580    10.2920    24.3570   -26.8610     2.1380 
   96.0000    61.7270    10.4490     7.5560    10.1910    24.5050   -27.0020     2.1290 
   96.1250    65.9810    10.5070     7.6460    10.1290    24.6790   -27.0600     2.1090 
   96.2500    67.6650    10.5400     7.7260    10.3340    24.7990   -27.0210     2.0800 
   96.3750    67.6780    10.5530     7.7900    10.9120    24.8140   -26.8980     2.0530 
   96.5000    67.3770    10.5580     7.8390    11.1290    24.7180   -26.6690     2.0410 
   96.6250    66.4150    10.5800     7.8810    10.9650    24.5910   -26.4070     2.0470 
   96.7500    66.3130    10.6350     7.9290    10.7390    24.4890   -26.1170     2.0650 
   96.8750    68.3480    10.7180     7.9860    10.6720    24.4430   -25.7630     2.0850 
   97.0000    69.6960    10.7610     8.0260    10.6870    24.4460   -25.3350     2.0960 
   97.1250    68.1110    10.6740     7.9910    10.6620    24.4740   -24.8810     2.1010 
   97.2500    64.9440    10.3920     7.8310    10.5510    24.5150   -24.4440     2.1020 
   97.3750    62.0010     9.9220     7.5350    10.1590    24.5780   -24.0170     2.1010 
   97.5000    61.8240     9.3660     7.1500     9.0960    24.6430   -23.6070     2.1010 
   97.6250    64.6110     8.9030     6.7930     7.8650    24.6900   -23.1990     2.1040 
   97.7500    67.8830     8.6570     6.5520     7.3410    24.6580   -22.8100     2.1110 
   97.8750    69.1120     8.6780     6.4750     7.4210    24.5290   -22.5220     2.1160 
   98.0000    67.3860     8.9310     6.5700     8.4740    24.3850   -22.3610     2.1150 
   98.1250    65.8560     9.2120     6.7230     8.9300    24.3150   -22.2260     2.1160 
   98.2500    66.7430     9.3450     6.8190     9.1830    24.3120   -22.0670     2.1230 
   98.3750    69.8460     9.1980     6.7500     9.0730    24.3530   -21.9240     2.1350 
   98.5000    73.4740     8.7360     6.4560     8.3200    24.3850   -21.8670     2.1540 
   98.6250    76.7810     8.1830     6.0670     7.2450    24.3940   -21.9390     2.1790 
   98.7500    79.8130     7.7460     5.7210     6.4850    24.3930   -22.1340     2.2030 
   98.8750    82.3490     7.5830     5.5320     6.1480    24.4150   -22.3930     2.2160 
   99.0000    81.6100     7.8320     5.6060     6.2650    24.4300   -22.7660     2.2100 
   99.1250    77.5730     8.4130     5.9140     7.1110    24.4350   -23.3030     2.1900 
   99.2500    71.2580     9.2030     6.4040     8.6940    24.4350   -23.9590     2.1600 
   99.3750    64.0630     9.9990     6.9710     9.9140    24.4350   -24.6820     2.1340 
   99.5000    58.2560    10.5370     7.4520    10.2770    24.4420   -25.4210     2.1170 
   99.6250    55.4270    10.7430     7.7470    10.2940    24.4610   -26.0830     2.1050 
   99.7500    54.1880    10.7060     7.8650    10.3000    24.4870   -26.6170     2.0960 
   99.8750    53.0320    10.6540     7.9170    10.3690    24.5020   -27.0140     2.0950 
  100.0000    52.8030    10.8700     8.0770    10.4420    24.5040   -27.2030     2.1080 
  100.1250    55.3050    11.3790     8.4020    10.6230    24.5000   -27.1760     2.1390 
  100.2500    59.3380    12.0470     8.8470    10.8880    24.4730   -27.0200     2.2010 
  100.3750    63.0130    12.6200     9.2720    11.0820    24.4060   -26.8310     2.2950 
  100.5000    63.7680    12.7440     9.4410    11.0670    24.3300   -26.6690     2.3740 
  100.6250    61.7360    12.3970     9.2900    10.3680    24.2980   -26.4950     2.3780 
  100.7500    60.4020    11.7550     8.8920     9.9540    24.2910   -26.3210     2.3190 
  100.8750    61.7610    11.0890     8.4060     9.9990    24.2910   -26.1960     2.2550 
  101.0000    62.4130    10.6500     8.0110    10.4460    24.2930   -26.2280     2.2220 
  101.1250    60.1690    10.4630     7.7810    11.0570    24.3090   -26.4370     2.2010 
