~V
VERS. 2.00: Ver 2.00
~W
STRT.M 52.0000:
STOP.M 216.0000:
STEP.M 0.1250:
NULL. -999.2500:
UWI. F10126:
~C
DEPT.M :
DEN.GM/CC :
GR.API :
RML.OHMM :
RI. :
RXO.OHMM :
CALI.CM :
SP.MV :
~A
   52.0000     2.0030    58.2090    17.3070     1.4280     1.0220    25.8440  -999.2500 
   52.1250     2.0020    58.9280    16.6110     1.4270     1.0630    25.8440  -999.2500 
   52.2500     1.9910    57.6730    16.0820     1.4280     1.0720    25.8460  -999.2500 
   52.3750     1.9820    56.2350    15.6700     1.4270     1.0530    25.8540  -999.2500 
   52.5000     1.9830    56.6840    15.4120     1.4190     1.0280    25.8700  -999.2500 
   52.6250     1.9930    56.0590    15.3660     1.4000     1.0580    25.8920  -999.2500 
   52.7500     2.0030    51.7780    15.4240     1.3710     1.1220    25.9010  -999.2500 
   52.8750     2.0080    45.9370    15.4740     1.3330     1.1750    25.9000  -999.2500 
   53.0000     2.0080    42.6610    15.4220     1.2870     1.1470    25.8950   271.9990 
   53.1250     2.0070    42.0900    15.2090     1.2400     1.1540    25.8930   271.9990 
   53.2500     2.0090    41.7490    14.8920     1.1990     1.4230    25.8960   271.9990 
   53.3750     2.0160    42.2830    14.5350     1.1690     2.4280    25.8760   271.9990 
   53.5000     2.0280    43.6200    14.1900     1.1530     3.5020    25.8120   271.9990 
   53.6250     2.0440    45.5330    13.8940     1.1500     2.9260    25.6960   271.9990 
   53.7500     2.0640    47.5820    13.6380     1.1510     2.2330    25.5650   271.9990 
   53.8750     2.0860    48.6150    13.4010     1.1460     1.7720    25.4240   271.9990 
   54.0000     2.1080    48.6440    13.1550     1.1310     1.5450    25.2970   271.9990 
   54.1250     2.1270    49.9200    12.8650     1.1020     1.4470    25.1850   271.9990 
   54.2500     2.1440    53.5470    12.5290     1.0670     1.3830    25.1070   271.9990 
   54.3750     2.1560    58.0530    12.1620     1.0290     1.3290    25.0680   271.9990 
   54.5000     2.1650    61.0690    11.7940     0.9970     1.3340    25.0560   271.9990 
   54.6250     2.1690    61.6340    11.4680     0.9760     1.3860    25.0490   271.5720 
   54.7500     2.1720    60.8010    11.1960     0.9660     1.3990    25.0390   270.4300 
   54.8750     2.1700    59.8640    10.9750     0.9640     1.3970    25.0450   268.2700 
   55.0000     2.1590    59.3280    10.7860     0.9670     1.4130    25.0690   264.9800 
   55.1250     2.1330    58.8380    10.6060     0.9690     1.4360    25.1150   261.0110 
   55.2500     2.0990    58.4660    10.4250     0.9690     1.4330    25.1810   257.1770 
   55.3750     2.0640    58.4730    10.2450     0.9660     1.3910    25.2610   253.5530 
   55.5000     2.0340    58.8440    10.0790     0.9640     1.4500    25.3800   249.1810 
   55.6250     2.0140    58.1260     9.9360     0.9710     1.4520    25.5050   241.7100 
   55.7500     2.0020    56.3640     9.8120     0.9850     1.4620    25.6220   232.3720 
   55.8750     1.9960    54.9680     9.6950     1.0030     1.4160    25.7190   223.3120 
   56.0000     1.9940    54.8210     9.5720     1.0240     1.3920    25.7680   215.5380 
   56.1250     1.9960    54.0210     9.4360     1.0450     1.6640    25.7750   208.7510 
   56.2500     1.9970    50.9660     9.2930     1.0720     2.0030    25.7700   202.0650 
   56.3750     1.9970    47.5300     9.1470     1.1050     2.0850    25.7590   195.0100 
   56.5000     1.9950    46.4110     8.9950     1.1440     1.9900    25.7490   187.2530 
   56.6250     1.9960    47.6110     8.8200     1.1820     1.9110    25.7640   183.9840 
   56.7500     2.0040    48.6510     8.6140     1.2130     1.8390    25.7730   184.1830 
   56.8750     2.0180    49.2020     8.3770     1.2350     1.8310    25.7720   183.9260 
   57.0000     2.0330    49.9600     8.1270     1.2480     1.8740    25.7590   182.2840 
   57.1250     2.0380    50.3950     7.8930     1.2500     1.5620    25.7370   179.1120 
   57.2500     2.0320    50.3700     7.6950     1.2490     1.2440    25.7370   174.7600 
   57.3750     2.0170    51.5200     7.5330     1.2480     1.0830    25.7560   169.8540 
   57.5000     2.0010    55.0880     7.4030     1.2490     0.9930    25.7660   165.8830 
   57.6250     1.9930    59.2890     7.3070     1.2540     0.9670    25.7580   160.3420 
   57.7500     1.9930    60.0140     7.2560     1.2600     0.9880    25.7340   153.4450 
   57.8750     1.9980    56.7930     7.2690     1.2620     0.9820    25.7150   147.3680 
   58.0000     2.0020    53.3950     7.3250     1.2550     0.9060    25.7080   142.1780 
   58.1250     2.0030    53.1200     7.2400     1.2230     0.8890    25.7060   137.7580 
   58.2500     2.0040    54.9370     6.7620     1.1390     0.9570    25.6960   133.8000 
   58.3750     2.0220    56.7280     5.7470     0.9590     1.0410    25.6720   129.8950 
   58.5000     2.0780    56.7540     4.3090     0.6860     1.1050    25.6600   125.6030 
   58.6250     2.1890    56.4710     2.8420     0.4140     1.1740    25.6680   120.2730 
   58.7500     2.3280    58.9000     1.7170     0.2230     1.5000    25.6610   113.4360 
   58.8750     2.4540    62.9990     1.0410     0.1170     1.6750    25.5850   104.5660 
   59.0000     2.5200    66.5060     0.7570     0.0770     1.9680    25.4680    93.3190 
   59.1250     2.4900    69.8850     0.8180     0.1010     2.3860    25.3260    79.6530 
   59.2500     2.3860    74.6310     1.1380     0.1930     3.2930    25.1300    64.8850 
   59.3750     2.2440    78.0690     1.7090     0.3860     3.8740    24.9990    49.9410 
   59.5000     2.1030    78.6770     2.4680     0.7230     4.0600    25.2370    35.6090 
   59.6250     2.0070    79.1870     3.2090     1.2400     4.0460    25.9950    23.1320 
   59.7500     1.9720    81.3560     3.6960     1.8060     4.0540    26.6000    13.0980 
   59.8750     1.9990    86.6380     3.8500     2.2800     4.0750    26.7550     5.9360 
   60.0000     2.0740    96.2410     3.7920     2.6310     4.2070    26.2980     1.7660 
   60.1250     2.1780   108.1960     3.8380     3.0070     4.4020    25.6550     0.4980 
   60.2500     2.2910   116.5660     4.3070     3.6490     4.7950    25.1470     0.7210 
   60.3750     2.4120   116.5050     5.5170     4.8890     5.9350    24.8350     1.5750 
   60.5000     2.5390   108.6200     7.8150     7.1920     9.2260    25.1790     2.3810 
   60.6250     2.6540    95.4400    11.4620    11.3060    21.3950    25.8710     2.5020 
   60.7500     2.7250    81.8070    15.4380    16.5430    43.8280    26.0380     1.7170 
   60.8750     2.7240    71.6740    18.3010    20.5710    60.3610    25.0390     0.0310 
   61.0000     2.6460    67.0220    18.8690    20.6740    46.3380    24.5070    -2.2910 
   61.1250     2.5120    68.2890    16.9150    17.2100    25.7130    25.1110    -4.9170 
   61.2500     2.3770    70.3300    14.2060    13.6420    13.7190    25.9130    -7.5210 
   61.3750     2.2700    70.0440    11.9710    11.1740    10.6950    26.5380    -9.9020 
   61.5000     2.1980    68.1830    10.7330     9.8890    10.6530    26.8090   -11.8920 
   61.6250     2.1530    67.9740    10.4770     9.6180    11.1060    26.8950   -13.3390 
   61.7500     2.1200    68.9230    10.6690     9.8650    11.3500    26.9190   -14.2850 
   61.8750     2.1000    68.1940    11.0080    10.3160    11.3820    26.8200   -14.7220 
   62.0000     2.1030    65.9910    11.2920    10.6990    11.1650    26.4440   -14.7450 
   62.1250     2.1370    66.9730    11.4050    10.8300    10.7220    25.7510   -14.4580 
   62.2500     2.1860    69.6910    11.3850    10.7600    10.4850    25.1330   -14.0910 
   62.3750     2.2300    71.1870    11.2810    10.5530    10.4970    24.7540   -13.7580 
   62.5000     2.2520    71.1030    11.1250    10.2600    10.5000    24.6970   -13.5670 
   62.6250     2.2420    71.7050    10.9010     9.8870    10.6610    24.9190   -13.5910 
   62.7500     2.2140    73.6090    10.5950     9.4340    10.6220    25.3030   -13.7350 
   62.8750     2.1750    74.8380    10.2140     8.8920    10.4570    25.7610   -13.9280 
   63.0000     2.1290    74.3880     9.8390     8.3180    10.5020    26.2060   -14.1690 
   63.1250     2.0780    71.3120     9.7200     7.9320    10.5210    26.4260   -14.5020 
