~V
VERS. 2.00: Ver 2.00
~W
STRT.M 49.0000:
STOP.M 223.0000:
STEP.M 0.1250:
NULL. -999.2500:
UWI. F10156:
~C
DEPT.M :
SP.MV :
GR.API :
RML.OHMM :
RI. :
RXO.OHMM :
CALI.CM :
DEN.GM/CC :
~A
# ...
   71.5000   -22.9540    61.9640     8.0140     7.0950    10.1960    23.0700     2.2130 
   71.6250   -22.8390    67.3210     8.1820     7.1490    10.1390    23.0520     2.2250 
   71.7500   -22.7680    67.4280     8.4150     7.2630    10.1310    23.0590     2.2410 
   71.8750   -22.7360    61.8500     8.6230     7.3820    10.4720    23.0560     2.2570 
   72.0000   -22.6810    56.4270     8.7360     7.4510    11.0470    23.0460     2.2670 
   72.1250   -22.6500    55.0730     8.7220     7.4360    11.2850    23.0310     2.2680 
   72.2500   -22.6870    55.8440     8.6030     7.3340    10.8400    22.9960     2.2510 
   72.3750   -22.6960    56.7190     8.4840     7.2070    10.4420    22.9520     2.2270 
   72.5000   -22.6870    58.8130     8.4390     7.1050    10.3230    22.9100     2.2090 
   72.6250   -22.7050    61.8030     8.5010     7.0540    10.4840    22.8810     2.2010 
   72.7500   -22.6520    61.2850     8.6450     7.0500    10.9140    22.8550     2.2030 
   72.8750   -22.5620    60.5440     8.7720     7.0430    11.2390    22.8160     2.2050 
   73.0000   -22.4760    64.2790     8.8010     6.9880    11.0190    22.7550     2.2040 
   73.1250   -22.4240    69.3240     8.7010     6.8620    10.2480    22.6820     2.2010 
   73.2500   -22.3070    69.7180     8.5020     6.6750     9.6170    22.6440     2.1970 
   73.3750   -22.1800    67.1320     8.3140     6.4890     9.2040    22.6410     2.1920 
   73.5000   -22.0310    64.0590     8.2210     6.3540     9.0080    22.6470     2.1880 
   73.6250   -21.8510    61.5630     8.2670     6.3040     9.0640    22.6450     2.1850 
   73.7500   -21.6520    61.3910     8.4640     6.3590     9.3400    22.6580     2.1860 
   73.8750   -21.4140    66.3320     8.7400     6.4850     9.7400    22.6910     2.1940 
   74.0000   -21.1670    72.0830     9.0340     6.6520     9.9950    22.7440     2.2070 
   74.1250   -20.9110    72.4630     9.2800     6.8220     9.9830    22.8130     2.2190 
   74.2500   -20.6650    67.7470     9.3880     6.9390     9.9330    22.8690     2.2240 
   74.3750   -20.4130    64.8400     9.3300     6.9680    10.1690    22.9050     2.2190 
   74.5000   -20.1840    65.6350     9.1020     6.8950    10.8610    22.9210     2.2120 
   74.6250   -19.9830    66.8740     8.7460     6.7300    11.0990    22.9050     2.2100 
   74.7500   -19.8000    64.2930     8.3440     6.5110    10.1060    22.8930     2.2110 
   74.8750   -19.6650    59.8170     8.0010     6.2970     9.1550    22.8940     2.2070 
   75.0000   -19.5220    58.0910     7.7710     6.1260     8.7080    22.8950     2.1980 
   75.1250   -19.3240    61.9450     7.6730     6.0130     8.5910    22.8670     2.1860 
   75.2500   -19.1360    68.7700     7.7150     5.9680     8.4660    22.7690     2.1780 
   75.3750   -18.9180    72.2150     7.8200     5.9590     8.1550    22.6460     2.1740 
   75.5000   -18.6720    71.9050     7.9100     5.9510     7.7190    22.5310     2.1770 
   75.6250   -18.3960    69.4090     7.8900     5.8990     7.2650    22.4360     2.1830 
   75.7500   -18.0980    69.6120     7.6360     5.7390     7.0520    22.3750     2.1890 
   75.8750   -17.7950    74.0780     7.1730     5.4710     6.8640    22.3620     2.1950 
   76.0000   -17.4870    81.4610     6.6570     5.1620     6.5780    22.4130     2.2090 
   76.1250   -17.2060    88.2240     6.3720     4.9500     6.1000    22.5800     2.2370 
   76.2500   -16.9720    90.8670     6.7010     5.0410     5.6540    22.8380     2.2790 
   76.3750   -16.8150    90.3930     7.6620     5.4850     6.1770    22.9680     2.3220 
   76.5000   -16.7360    86.8260     9.1250     6.2800     8.5120    22.9410     2.3570 
   76.6250   -16.7050    81.6310    10.7140     7.3040    14.6810    22.8800     2.3850 
   76.7500   -16.7540    75.3130    11.6580     8.1500    18.1660    22.8040     2.4030 
   76.8750   -16.7660    67.4880    11.5110     8.3830    13.3500    22.7240     2.3910 
   77.0000   -16.7740    60.4530    10.3810     7.9260     9.2160    22.7700     2.3330 
   77.1250   -16.7540    59.3760     8.8170     7.0680     8.0670    22.9760     2.2560 
   77.2500   -16.6260    65.9380     7.4500     6.1950     7.9720    23.2270     2.2130 
   77.3750   -16.4400    74.9000     6.5050     5.5100     7.2380    23.4870     2.2110 
   77.5000   -16.1620    85.4410     5.9620     5.0530     5.9800    23.8240     2.2370 
   77.6250   -15.8810    96.0170     5.7470     4.8100     5.1980    24.2100     2.2750 
   77.7500   -15.5960   100.5540     5.8690     4.8010     5.0020    24.3900     2.3140 
   77.8750   -15.3720   100.7370     6.2690     4.9780     5.4570    24.3730     2.3440 
   78.0000   -15.2210    98.5330     6.8810     5.3070     6.9150    24.2330     2.3630 
   78.1250   -15.1180    93.1280     7.5520     5.7120     9.0800    24.0350     2.3740 
   78.2500   -15.1500    85.0770     8.0300     6.0520    10.2700    23.6970     2.3730 
   78.3750   -15.2310    81.6350     8.1980     6.2300     8.5780    23.3530     2.3540 
   78.5000   -15.3580    82.7620     8.0820     6.2330     7.4120    23.0680     2.3200 
   78.6250   -15.4850    82.2320     7.8160     6.1160     7.0680    22.8280     2.2880 
   78.7500   -15.6040    78.7690     7.5680     5.9660     7.1780    22.5520     2.2760 
   78.8750   -15.7130    75.0010     7.4310     5.8530     7.3380    22.3960     2.2790 
   79.0000   -15.7680    74.7610     7.4120     5.8010     7.5020    22.4240     2.2870 
   79.1250   -15.8390    78.3320     7.4750     5.8050     7.6160    22.5480     2.2910 
   79.2500   -15.8720    82.3380     7.6000     5.8550     7.7350    22.6390     2.2880 
   79.3750   -15.8970    85.0720     7.7560     5.9250     7.8010    22.6960     2.2800 
   79.5000   -15.9260    86.3940     7.9080     5.9850     7.9000    22.7220     2.2700 
   79.6250   -15.9300    87.4920     8.0160     6.0040     7.9170    22.7080     2.2610 
   79.7500   -15.9360    87.1910     8.0280     5.9430     7.9320    22.7240     2.2580 
   79.8750   -15.9360    87.3240     7.9160     5.8000     7.6080    22.9130     2.2620 
   80.0000   -15.9550    89.5240     7.6360     5.5670     6.9680    23.2640     2.2700 
   80.1250   -15.9730    92.5130     7.1700     5.2500     6.4650    23.4950     2.2830 
   80.2500   -15.9730    94.6570     6.5940     4.8950     6.9080    23.4730     2.2980 
   80.3750   -16.0160    92.0540     6.1660     4.6220     7.3580    23.4150     2.3120 
   80.5000   -16.0810    87.4350     6.1750     4.5610     6.9160    23.5390     2.3300 
   80.6250   -16.1930    85.5560     6.8770     4.8340     6.8060    23.7950     2.3560 
   80.7500   -16.3310    85.3500     8.5180     5.6170     9.1430    23.9120     2.3840 
   80.8750   -16.4980    81.9540    10.8050     6.8680    15.3860    23.8920     2.4100 
   81.0000   -16.7010    76.4180    13.3060     8.4760    23.8520    23.9020     2.4400 
   81.1250   -16.9430    73.1030    15.3550    10.1130    29.6150    23.9250     2.4750 
   81.2500   -17.2420    69.9040    16.0850    11.1530    28.0900    23.7870     2.4860 
   81.3750   -17.5170    65.6280    15.6290    11.3980    22.2810    23.5410     2.4540 
   81.5000   -17.8100    63.4850    14.4890    11.0200    16.3150    23.3080     2.3990 
   81.6250   -18.0850    64.3700    13.1960    10.3250    13.9360    23.0830     2.3570 
   81.7500   -18.3520    64.9660    12.0430     9.5190    12.1980    22.7810     2.3320 
   81.8750   -18.5970    64.8880    11.0350     8.7190    10.3610    22.4960     2.2990 
   82.0000   -18.8060    65.7440    10.1490     7.9790     9.2370    22.3290     2.2520 
   82.1250   -18.9880    67.3480     9.4050     7.3450     8.6690    22.2460     2.2080 
   82.2500   -19.1070    68.1720     8.9130     6.8950     8.2910    22.1720     2.1870 
   82.3750   -19.2110    67.1530     8.6750     6.6240     8.0940    22.1980     2.1830 
   82.5000   -19.2920    64.7110     8.6520     6.5160     8.2070    22.3340     2.1820 
   82.6250   -19.3540    63.8930     8.7670     6.5300     8.4860    22.5130     2.1780 
