~V
VERS. 2.00: Ver 2.00
~W
STRT.M 60.0000:
STOP.M 220.0000:
STEP.M 0.1250:
NULL. -999.2500:
UWI. F10154:
~C
DEPT.M :
GR.API :
RML.OHMM :
RI. :
RXO.OHMM :
CALI.CM :
DEN.GM/CC :
SP.MV :
~A
   60.0000    53.8070     1.7890     0.6380     0.5590    23.8290     2.4560   188.0060 
   60.1250    52.4440     1.8080     0.6320     0.5870    23.6190     2.4980   187.3630 
   60.2500    51.2610     1.7990     0.6270     0.7050    23.6400     2.5300   187.1280 
   60.3750    50.0820     1.7870     0.6240     0.8700    23.8150     2.5560   186.9950 
   60.5000    48.1640     1.7950     0.6230     1.0550    23.9880     2.5750   186.9350 
   60.6250    47.0990     1.8210     0.6320     1.2450    24.0650     2.5870   186.8310 
   60.7500    47.8540     1.8270     0.6490     1.3270    24.0770     2.5880   186.7850 
   60.8750    48.3820     1.7810     0.6710     1.3380    24.0710     2.5760   186.7290 
   61.0000    47.0870     1.6760     0.6900     1.3280    24.0920     2.5540   186.6610 
   61.1250    46.9500     1.5300     0.6970     1.3150    24.1550     2.5320   186.6610 
   61.2500    48.8130     1.3840     0.6960     1.3530    24.2350     2.5140   186.6970 
   61.3750    49.4170     1.2580     0.6920     1.0550    24.3490     2.4980   186.7130 
   61.5000    46.4240     1.1640     0.6900     0.7490    24.6170     2.4790   186.7520 
   61.6250    44.8970     1.1140     0.6930     0.6460    24.9390     2.4500   186.7980 
   61.7500    48.8760     1.1010     0.7000     0.6450    25.0260     2.4130   186.8830 
   61.8750    54.4830     1.1270     0.7120     0.6880    25.0410     2.3770   187.1590 
   62.0000    56.3330     1.2130     0.7310     0.7130    25.0690     2.3520   187.7120 
   62.1250    54.3860     1.3920     0.7540     0.7140    25.0730     2.3460   186.4390 
   62.2500    54.1370     1.6150     0.7750     0.7170    25.0880     2.3540   183.6010 
   62.3750    54.9950     1.7920     0.7900     0.7310    25.1410     2.3680   182.1500 
   62.5000    53.0950     1.8270     0.7950     0.7340    25.2310     2.3780   180.0520 
   62.6250    50.4550     1.6670     0.7910     0.6820    25.3300     2.3670   176.1900 
   62.7500    51.1270     1.4140     0.7850     0.6450    25.3790     2.3270   170.9150 
   62.8750    52.6240     1.1730     0.7840     0.6280    25.3930     2.2620   164.2690 
   63.0000    51.1660     1.0130     0.7940     0.6340    25.3940     2.1830   156.2670 
   63.1250    51.9550     0.9470     0.8140     0.6160    25.3940     2.1090   148.9980 
   63.2500    58.6690     0.9200     0.8360     0.5980    25.4000     2.0550   142.4250 
   63.3750    65.9210     0.8990     0.8510     0.5810    25.4260     2.0270   133.7650 
   63.5000    67.6210     0.8770     0.8530     0.5760    25.4830     2.0180   125.2000 
   63.6250    64.7930     0.8740     0.8360     0.5770    25.5120     2.0210   117.8190 
   63.7500    63.2890     0.9330     0.8040     0.5890    25.5200     2.0230   111.3870 
   63.8750    65.2410     1.0790     0.7550     0.5850    25.5020     2.0240   105.7990 
   64.0000    67.2380     1.2700     0.6780     0.5870    25.4380     2.0260   100.8530 
   64.1250    65.1610     1.3390     0.5460     0.6400    25.2900     2.0530    96.3420 
   64.2500    61.1840     1.1860     0.3750     0.7230    25.1300     2.1270    92.0790 
   64.3750    60.2370     0.8580     0.2130     0.7590    25.0270     2.2570    87.6840 
   64.5000    62.4790     0.4950     0.1000     0.7580    24.9870     2.4230    82.5800 
   64.6250    64.5750     0.2410     0.0490     0.8280    25.0150     2.5540    76.0710 
   64.7500    66.1850     0.1090     0.0380     0.9420    25.0600     2.5880    68.1600 
   64.8750    66.8080     0.0910     0.0770     1.1300    25.1900     2.5060    59.1330 
   65.0000    65.3850     0.2030     0.2110     1.5780    25.5660     2.3390    49.5610 
   65.1250    61.1250     0.6080     0.5990     2.6300    26.5510     2.1590    39.9150 
   65.2500    56.1290     1.5130     1.4250     3.2210    27.8100     2.0290    30.4060 
   65.3750    52.2670     3.0690     2.8910     3.2610    28.9220     1.9630    21.3330 
   65.5000    51.3140     5.0520     4.9020     3.5060    28.9630     1.9510    13.1450 
   65.6250    53.8900     6.7510     6.7400     4.7220    27.6970     1.9770     6.5770 
   65.7500    56.8580     7.7360     7.8960     6.5830    26.5530     2.0170     1.5440 
   65.8750    59.8630     8.1230     8.4880     7.8850    25.9130     2.0620    -2.2410 
   66.0000    61.4780     8.2550     8.7740     8.2580    25.4230     2.1030    -5.2260 
   66.1250    61.2630     8.3500     8.8800     8.2530    24.9130     2.1360    -7.6580 
   66.2500    62.3740     8.4190     8.8760     8.1780    24.4980     2.1620    -9.7090 
   66.3750    65.5170     8.4300     8.7920     7.9750    24.1810     2.1820   -11.4220 
   66.5000    70.1670     8.3770     8.6570     7.9390    23.9900     2.1970   -12.8670 
   66.6250    72.6890     8.2820     8.4980     8.0290    23.9130     2.2050   -14.0520 
   66.7500    72.2180     8.1840     8.3390     8.0210    23.8820     2.2070   -15.0610 
   66.8750    68.5640     8.1090     8.1920     8.0160    23.8460     2.2010   -15.9280 
   67.0000    64.6430     8.0860     8.0850     8.0660    23.8170     2.1840   -16.6800 
   67.1250    67.9680     8.1780     8.0960     7.9590    23.8340     2.1640   -17.3200 
   67.2500    73.6940     8.4120     8.2620     7.7670    23.8570     2.1630   -17.9020 
   67.3750    75.0990     8.7890     8.5910     7.6090    23.7720     2.1980   -18.4780 
   67.5000    70.2350     9.2560     9.0290     7.6490    23.4920     2.2680   -19.0510 
   67.6250    63.7920     9.6820     9.4440     7.6510    23.2320     2.3440   -19.6130 
   67.7500    60.8360     9.9410     9.6840     7.7020    23.2680     2.3830   -20.1650 
   67.8750    59.5980     9.9750     9.6770     8.0490    23.6790     2.3670   -20.7070 
   68.0000    58.0420     9.8100     9.4500     8.5530    24.2850     2.3050   -21.2390 
   68.1250    56.9010     9.5230     9.0920     8.9790    25.0380     2.2270   -21.7700 
   68.2500    57.8670     9.2350     8.7330     8.9730    25.0840     2.1630   -22.2740 
   68.3750    61.2160     8.9990     8.4280     8.7640    25.0150     2.1230   -22.7050 
   68.5000    63.9540     8.8290     8.1890     8.3380    24.9290     2.1070   -23.0870 
   68.6250    64.0720     8.7220     8.0100     7.6550    24.7900     2.1120   -23.4090 
   68.7500    62.6470     8.6560     7.8730     7.2650    24.6590     2.1250   -23.7040 
   68.8750    60.0180     8.6260     7.7880     7.0960    24.5000     2.1410   -23.9610 
   69.0000    57.8210     8.6360     7.7640     7.1670    24.3090     2.1520   -24.1260 
   69.1250    57.2740     8.6990     7.8030     7.1760    24.1820     2.1590   -24.1370 
   69.2500    57.8170     8.8070     7.8850     7.1110    24.1070     2.1630   -24.0540 
   69.3750    58.7940     8.9540     7.9940     7.0900    24.0400     2.1690   -23.9360 
   69.5000    60.0910     9.1210     8.1170     7.1970    23.9540     2.1800   -23.7660 
   69.6250    61.6130     9.2900     8.2400     7.4610    23.8680     2.1970   -23.5590 
   69.7500    61.9050     9.4350     8.3450     7.6880    23.7550     2.2120   -23.2730 
   69.8750    62.1370     9.5400     8.4130     8.0540    23.6490     2.2190   -22.9090 
   70.0000    63.9210     9.5930     8.4340     8.4530    23.6250     2.2140   -22.5390 
   70.1250    66.5460     9.5900     8.4030     8.6610    23.7030     2.1990   -22.2610 
   70.2500    66.5860     9.5600     8.3460     8.4560    23.8170     2.1810   -22.0620 
   70.3750    63.4080     9.5300     8.2900     8.3300    23.8490     2.1670   -21.8820 
   70.5000    60.3910     9.5170     8.2510     8.3940    23.8170     2.1610   -21.7030 
   70.6250    60.5430     9.5120     8.2260     8.5450    24.0130     2.1610   -21.5000 
   70.7500    62.4560     9.4840     8.1810     8.5660    24.3960     2.1630   -21.2680 
   70.8750    64.8660     9.4080     8.0920     8.5040    24.5030     2.1650   -21.0410 
   71.0000    67.2880     9.2720     7.9440     8.2370    24.3300     2.1690   -20.8080 
   71.1250    68.7860     9.0740     7.7330     7.8830    24.1610     2.1750   -20.5010 
