~V
VERS. 2.00: Ver 2.00
~W
STRT.M 50.0000:
STOP.M 251.0000:
STEP.M 0.1250:
NULL. -999.2500:
UWI. F10193:
~C
DEPT.M :
DEN.GM/CC :
GR.API :
RML.OHMM :
RI. :
RXO.OHMM :
CALI.CM :
SP.MV :
~A
# ...
  207.5000     2.3720    89.2160     9.1110     7.9800     7.5390    25.5960    -0.7120 
  207.6250     2.3690    88.7250     8.7680     7.5490     7.2270    25.5970    -0.5560 
  207.7500     2.3670    91.0720     8.3970     7.0670     6.6210    25.6320    -0.4740 
  207.8750     2.3670    94.2030     8.1320     6.6650     5.9880    25.7180    -0.4490 
  208.0000     2.3660    95.4280     8.1010     6.4520     5.8880    25.8030    -0.4770 
  208.1250     2.3600    94.2850     8.4750     6.5460     6.6780    25.7870    -0.5780 
  208.2500     2.3470    93.9600     9.2570     6.9380     7.8920    25.6970    -0.7490 
  208.3750     2.3300    94.1700    10.4250     7.6180     9.1500    25.6200    -0.9880 
  208.5000     2.3120    92.1170    11.8620     8.5410    10.7580    25.5950    -1.2820 
  208.6250     2.3000    87.3130    13.3790     9.6230    11.8080    25.5990    -1.6140 
  208.7500     2.2930    83.0230    14.7790    10.7080    13.0790    25.6000    -1.9510 
  208.8750     2.2920    79.8880    15.9660    11.6910    14.7150    25.6000    -2.2550 
  209.0000     2.2940    76.5510    16.9120    12.5030    15.9020    25.6000    -2.4870 
  209.1250     2.2950    72.7370    17.6240    13.1020    15.9440    25.6000    -2.6110 
  209.2500     2.2960    70.5290    18.2310    13.5790    15.7100    25.6000    -2.6590 
  209.3750     2.2960    71.4860    18.8300    14.0100    15.9760    25.5990    -2.6680 
  209.5000     2.2950    75.3380    19.4900    14.4520    16.8660    25.5970    -2.6770 
  209.6250     2.2940    78.9200    20.1900    14.9060    17.7340    25.6190    -2.7090 
  209.7500     2.2930    79.7950    20.7680    15.3020    18.3530    25.6640    -2.7490 
  209.8750     2.2940    79.9110    21.0560    15.5480    18.2640    25.7210    -2.7720 
  210.0000     2.2950    80.7640    20.9800    15.5920    17.7300    25.7810    -2.7600 
  210.1250     2.2950    79.8110    20.5580    15.4280    17.1110    25.8320    -2.7060 
  210.2500     2.2930    77.5310    19.9890    15.1600    16.4300    25.8620    -2.6310 
  210.3750     2.2910    77.9360    19.4020    14.8550    15.5350    25.8700    -2.5530 
  210.5000     2.2910    81.2880    18.8880    14.5690    14.7860    25.8680    -2.4870 
  210.6250     2.2910    83.2780    18.5360    14.3460    14.4110    25.8490    -2.4380 
  210.7500     2.2920    82.7390    18.3540    14.1840    13.7610    25.7990    -2.4000 
  210.8750     2.2910    81.8260    18.3330    14.0820    13.3430    25.7140    -2.3640 
  211.0000     2.2900    81.7930    18.4130    14.0240    13.8030    25.5760    -2.3210 
  211.1250     2.2880    81.2170    18.3960    13.9210    14.3750    25.2090    -2.2540 
  211.2500     2.2860    79.0710    18.0900    13.6730    13.7860    25.2080    -2.1650 
  211.3750     2.2820    75.3920    17.4500    13.2660    13.2040    25.1970    -2.0630 
  211.5000     2.2750    71.6170    16.6270    12.7850    12.3160    25.1400    -1.9640 
  211.6250     2.2670    71.2380    16.0270    12.4480    10.9780    25.0690    -1.8990 
  211.7500     2.2630    72.9410    16.0040    12.4600    10.0780    25.0070    -1.8950 
  211.8750     2.2630    73.3450    16.7240    12.9730    11.2060    24.9850    -1.9700 
  212.0000     2.2670    71.6870    18.1190    14.0250    13.8200    24.9900    -2.1240 
  212.1250     2.2700    69.6640    19.8740    15.5160    16.2800    25.0580    -2.3430 
  212.2500     2.2690    68.6000    21.3820    17.0080    17.6450    25.2220    -2.5810 
  212.3750     2.2660    69.8970    22.1920    18.0770    17.6410    25.4340    -2.8190 
  212.5000     2.2640    71.8700    22.1630    18.4580    16.5780    25.5070    -3.0550 
  212.6250     2.2650    73.2680    21.5410    18.1750    15.2540    25.3880    -3.2870 
  212.7500     2.2680    74.6500    20.9110    17.6830    14.8220    25.1420    -3.5100 
  212.8750     2.2730    75.9630    20.5370    17.2330    14.7570    24.9770    -3.7060 
  213.0000     2.2780    74.7150    20.4530    16.9270    14.5090    24.8950    -3.8600 
  213.1250     2.2830    70.1190    20.5220    16.7870    13.9880    24.8780    -3.9570 
  213.2500     2.2840    68.3520    20.5550    16.7370    13.6730    24.8780    -4.0100 
  213.3750     2.2810    69.4100    20.4990    16.7210    13.8490    24.8870    -4.0330 
  213.5000     2.2770    69.8590    20.3590    16.6950    15.0990    24.8900    -4.0480 
  213.6250     2.2780    69.1070    20.1750    16.6270    16.6220    24.8790    -4.0810 
  213.7500     2.2830    71.3600    20.0850    16.5800    16.9500    24.8500    -4.1540 
  213.8750     2.2880    77.7120    20.3530    16.7210    16.6010    24.8150    -4.2700 
  214.0000     2.2890    83.0950    21.3720    17.3200    16.2490    24.8080    -4.4300 
  214.1250     2.2810    82.6790    23.9350    18.9400    16.6560    24.8550    -4.6320 
  214.2500     2.2660    77.7640    28.3940    21.9390    20.8990    24.9690    -4.8540 
  214.3750     2.2490    70.6410    35.0310    26.7180    31.2780    25.1390    -5.0800 
  214.5000     2.2320    64.2650    43.6640    33.3840    46.6960    25.3020    -5.2960 
  214.6250     2.2180    62.0940    53.2480    41.3980    55.9950    25.3780    -5.5080 
  214.7500     2.2070    62.4600    61.5610    48.8620    60.4550    25.3970    -5.7430 
  214.8750     2.1990    61.9070    66.8320    54.0960    63.5040    25.3990    -6.0270 
  215.0000     2.1930    60.9440    68.3810    56.2560    66.6040    25.3990    -6.3770 
  215.1250     2.1920    62.8090    66.5900    55.4340    66.1640    25.4000    -6.8050 
  215.2500     2.1940    65.0460    63.4760    53.3050    63.4420    25.4000    -7.2800 
  215.3750     2.1970    64.6680    60.2990    50.9340    56.1840    25.4010    -7.7840 
  215.5000     2.1980    62.5790    58.1120    49.1870    48.4980    25.4010    -8.2970 
  215.6250     2.1950    62.9780    58.0800    49.0270    46.3770    25.4010    -8.8110 
  215.7500     2.1930    64.2970    60.2410    50.6320    51.5520    25.4060    -9.3280 
  215.8750     2.1910    64.0220    64.3960    54.0070    59.9190    25.4160    -9.8590 
  216.0000     2.1900    63.4870    69.9570    58.8140    66.9900    25.4320   -10.4190 
  216.1250     2.1910    64.4360    76.0520    64.4170    72.8460    25.4260   -11.0240 
  216.2500     2.1920    65.4240    81.7460    69.8760    78.6900    25.4270   -11.6660 
  216.3750     2.1930    65.5240    86.7280    74.7690    85.9020    25.4350   -12.3250 
  216.5000     2.1940    67.1820    91.1340    79.1100    91.7100    25.4430   -12.9730 
  216.6250     2.1960    69.2680    95.4070    83.2430    94.4980    25.4450   -13.5720 
  216.7500     2.1970    68.3840   100.0550    87.6310    98.5310    25.4490   -14.1100 
  216.8750     2.1980    67.4670   105.4670    92.6060   110.6650    25.4560   -14.5930 
  217.0000     2.2000    68.7550   112.0860    98.5690   116.4050    25.4590   -15.0240 
  217.1250     2.2040    69.6740   120.8820   106.4620   115.3360    25.8510   -15.3780 
  217.2500     2.2050    68.3890   132.2180   116.7960   114.7410    25.9880   -15.6370 
  217.3750     2.2030    67.3960   146.5010   130.1740   120.8410    26.0450   -15.7830 
  217.5000     2.1970    66.9240   163.6700   146.7510   148.6640    26.0870   -15.8230 
  217.6250     2.1930    64.7120   182.6800   165.7300   184.4950    26.1240   -15.7770 
  217.7500     2.1940    62.2840   200.2840   183.9110   228.4620    26.1400   -15.6870 
  217.8750     2.1990    61.9560   212.9500   197.8380   251.4460    26.1700   -15.5610 
  218.0000     2.2040    63.7630   217.8890   204.6090   254.2960    26.2220   -15.3890 
  218.1250     2.2050    65.7650   213.2780   202.0550   247.9990    26.2590   -15.1320 
  218.2500     2.2060    66.2600   202.7370   193.3830   250.4610    26.2710   -14.7910 
  218.3750     2.2090    65.8970   189.0690   181.2860   232.5020    26.2590   -14.3890 
  218.5000     2.2130    65.4760   174.4810   167.9930   197.4990    26.2210   -13.9690 
  218.6250     2.2140    63.8020   160.3820   154.8780   169.2160    26.1720   -13.5880 
