~V
VERS. 2.00: Ver 2.00
~W
STRT.M 50.0000:
STOP.M 268.0000:
STEP.M 0.1250:
NULL. -999.2500:
UWI. F10199:
~C
DEPT.M :
GR.API :
RML.OHMM :
RI. :
RXO.OHMM :
CALI.CM :
DEN.GM/CC :
SP.MV :
~A
# ...
  196.2500    86.3480     7.9880     7.2900     8.8070    24.0790     2.3380   -17.5630 
  196.3750    87.4290     7.9660     7.2010     8.9360    24.1910     2.3530   -18.0160 
  196.5000    92.1190     8.0070     7.1830     9.1870    24.2930     2.3610   -18.5060 
  196.6250    93.3250     8.1680     7.2760     9.2230    24.3890     2.3570   -18.9830 
  196.7500    88.5850     8.4840     7.5010     9.2300    24.4970     2.3450   -19.4240 
  196.8750    82.8480     8.9660     7.8700     9.5430    24.6060     2.3320   -19.7510 
  197.0000    80.0530     9.5630     8.3540    10.1750    24.6790     2.3260   -19.9280 
  197.1250    79.5720    10.1380     8.8600    10.6830    24.7030     2.3300   -19.9550 
  197.2500    78.8840    10.5300     9.2490    10.9090    24.6870     2.3360   -19.8520 
  197.3750    77.4000    10.6290     9.4110    10.6220    24.6450     2.3390   -19.5650 
  197.5000    76.5710    10.4100     9.2930     9.7810    24.5880     2.3310   -19.1280 
  197.6250    75.7910     9.9500     8.9220     9.3570    24.5020     2.3100   -18.4980 
  197.7500    76.2640     9.4850     8.4920     9.3760    24.3900     2.2840   -17.7730 
  197.8750    79.2520     9.1910     8.1600     9.5720    24.2700     2.2640   -17.0260 
  198.0000    83.1530     9.1830     8.0410     9.9240    24.1410     2.2590   -16.3390 
  198.1250    84.5160     9.5200     8.2170    10.6530    24.0040     2.2750   -15.7880 
  198.2500    83.5570    10.0580     8.6010    11.2360    23.8900     2.3020   -15.3080 
  198.3750    82.7860    10.6610     9.0990    11.6130    23.8170     2.3300   -14.8730 
  198.5000    82.2480    11.1860     9.6010    12.0890    23.7850     2.3510   -14.4900 
  198.6250    80.9550    11.4830     9.9780    12.4310    23.7890     2.3640   -14.1970 
  198.7500    79.4230    11.5530    10.1890    12.1150    23.8030     2.3740   -13.9340 
  198.8750    79.8390    11.4360    10.2350    11.3840    23.8270     2.3850   -13.7130 
  199.0000    84.9940    11.1960    10.1440    11.0290    23.8750     2.3990   -13.4580 
  199.1250    92.5180    10.8840     9.9260    11.0160    23.9420     2.4150   -13.0890 
  199.2500    96.5450    10.5650     9.5950    10.8350    24.0290     2.4280   -12.6280 
  199.3750    96.7170    10.1780     9.1320    10.3630    24.1540     2.4380   -12.1310 
  199.5000    97.2410     9.6860     8.5360     9.7470    24.3020     2.4380   -11.6030 
  199.6250    95.6120     9.2160     7.8430     8.9350    24.4540     2.4230   -11.0290 
  199.7500    87.7210     8.4280     7.1730     7.9990    24.6080     2.3920   -10.4490 
  199.8750    76.2500     7.8050     6.6260     7.0080    24.7390     2.3470    -9.8510 
  200.0000    67.2360     7.4240     6.2730     6.2140    24.8280     2.2960    -9.2350 
  200.1250    63.4010     7.3210     6.1630     5.7740    24.8580     2.2560    -8.6850 
  200.2500    60.7290     7.3800     6.2160     5.7170    24.8190     2.2370    -8.2460 
  200.3750    59.4030     7.4990     6.3590     5.7580    24.6960     2.2420    -7.8610 
  200.5000    59.2980     7.5870     6.5130     5.8190    24.5030     2.2610    -7.5680 
  200.6250    60.6120     7.5790     6.6060     5.8650    24.2580     2.2820    -7.4140 
  200.7500    64.3210     7.5010     6.6300     5.8540    24.0070     2.2880    -7.3210 
  200.8750    71.9640     7.3970     6.6080     5.8230    23.8120     2.2780    -7.3060 
  201.0000    80.0080     7.3070     6.5720     5.8710    23.6920     2.2570    -7.4280 
  201.1250    80.8220     7.2610     6.5500     6.0340    23.6260     2.2380    -7.5700 
  201.2500    76.9510     7.2500     6.5470     6.2320    23.5820     2.2300    -7.7700 
  201.3750    75.4740     7.2630     6.5560     6.3510    23.5170     2.2350    -8.0380 
  201.5000    78.7040     7.2850     6.5630     6.3090    23.4130     2.2520    -8.3190 
  201.6250    82.0000     7.3030     6.5540     6.2010    23.2680     2.2720    -8.6850 
  201.7500    81.6580     7.3080     6.5260     6.2150    23.1110     2.2880    -9.1130 
  201.8750    79.4130     7.3060     6.4800     6.2880    22.9750     2.2980    -9.6270 
  202.0000    76.9390     7.3100     6.4300     6.3170    22.8900     2.3050   -10.1870 
  202.1250    74.1750     7.3550     6.4060     6.3630    22.8330     2.3100   -10.8030 
  202.2500    73.2580     7.4690     6.4340     6.5230    22.7870     2.3140   -11.4530 
  202.3750    78.9840     7.6860     6.5440     6.8740    22.7570     2.3160   -12.1350 
  202.5000    87.7820     8.0520     6.7720     7.3560    22.7350     2.3150   -12.8660 
  202.6250    88.2180     8.6750     7.2030     8.0840    22.7180     2.3070   -13.6080 
  202.7500    81.5710     9.6140     7.8830     8.9760    22.7120     2.2970   -14.3550 
  202.8750    76.6500    10.9670     8.8930    10.0840    22.7020     2.2860   -15.0800 
  203.0000    75.2780    12.8400    10.3330    11.7910    22.6970     2.2760   -15.7900 
  203.1250    72.1790    15.4860    12.4340    16.0310    22.7160     2.2660   -16.5050 
  203.2500    68.0080    18.9750    15.2790    21.7860    22.7430     2.2560   -17.1750 
  203.3750    66.9130    23.4920    19.0580    29.4610    22.7810     2.2450   -17.8500 
  203.5000    66.8880    29.2190    23.9700    40.3790    22.8410     2.2330   -18.4940 
  203.6250    65.3650    36.4660    30.3670    47.2620    22.9180     2.2250   -19.0750 
  203.7500    64.2730    44.8020    37.9260    54.9510    23.0160     2.2210   -19.6140 
  203.8750    64.0700    53.6590    46.1950    62.5470    23.1200     2.2190   -20.1110 
  204.0000    61.9200    62.1830    54.4080    66.9830    23.2160     2.2180   -20.5930 
  204.1250    57.1930    69.2070    61.4410    66.9580    23.2950     2.2160   -21.0630 
  204.2500    54.6020    74.5470    66.9320    66.0060    23.3290     2.2110   -21.4660 
  204.3750    54.8550    78.6020    71.0970    64.9360    23.3030     2.2020   -21.8180 
  204.5000    55.8050    82.2320    74.6430    64.2510    23.2470     2.1890   -22.1310 
  204.6250    57.7330    86.3320    78.4110    64.9540    23.1750     2.1750   -22.4210 
  204.7500    58.9570    91.0040    82.6460    66.2550    23.0940     2.1650   -22.7420 
  204.8750    57.2510    95.9300    87.1380    67.6940    23.0220     2.1660   -23.0440 
  205.0000    52.8240   100.7220    91.5550    69.1130    22.9650     2.1780   -23.3030 
  205.1250    50.6690   105.1520    95.6630    69.7520    22.9190     2.1960   -23.5460 
  205.2500    53.3460   109.5310    99.6880    68.6010    22.9150     2.2110   -23.8190 
  205.3750    57.3900   114.3740   104.0800    65.7950    22.9760     2.2170   -24.0970 
  205.5000    59.4340   120.1660   109.3090    64.1650    23.1020     2.2150   -24.3590 
  205.6250    59.8590   127.1440   115.6900    65.0850    23.2610     2.2090   -24.6000 
  205.7500    60.3850   134.5820   122.6410    67.3510    23.3940     2.2040   -24.7860 
  205.8750    59.6820   141.6200   129.4500    68.8850    23.4700     2.2010   -24.9680 
  206.0000    56.2060   147.3500   135.3370    69.2850    23.5120     2.1980   -25.1590 
  206.1250    52.9080   150.6590   139.3430    69.0700    23.5430     2.1960   -25.2620 
  206.2500    52.3990   151.5920   141.4070    69.5800    23.5620     2.1930   -25.3170 
  206.3750    53.4240   150.5020   141.4910    71.6640    23.5830     2.1920   -25.3590 
  206.5000    54.0480   147.4260   139.6180    74.0610    23.6070     2.1910   -25.4270 
  206.6250    54.0730   142.9830   135.5780    75.2860    23.6070     2.1890   -25.4350 
  206.7500    53.2530   138.1630   130.0670    74.9080    23.5890     2.1830   -25.4270 
  206.8750    52.1990   132.8620   123.7320    72.8360    23.5630     2.1740   -25.4200 
  207.0000    51.6720   127.9860   117.3180    70.2480    23.5200     2.1640   -25.3480 
  207.1250    53.2470   123.4250   111.6030    69.3630    23.4620     2.1640   -25.2910 
  207.2500    55.4710   118.9610   106.8420    70.3010    23.3980     2.1780   -25.2350 
  207.3750    56.1550   114.4010   103.1110    71.8060    23.3180     2.2090   -25.1330 
