~V
VERS. 2.00: Ver 2.00
~W
STRT.M 47.0000:
STOP.M 242.0000:
STEP.M 0.1250:
NULL. -999.2500:
UWI. F10188:
~C
DEPT.M :
SP.MV :
DEN.GM/CC :
GR.API :
RML.OHMM :
RI. :
RXO.OHMM :
CALI.CM :
~A
# ...
  125.7500   -18.7670     2.3660    65.6690     6.3160     6.0940     9.2510    24.4130 
  125.8750   -18.8270     2.3640    66.6880     6.8790     6.1720    11.5430    24.3850 
  126.0000   -18.8860     2.3920    64.2550     8.5970     7.2630    14.9590    24.5390 
  126.1250   -18.9060     2.4440    60.8590    11.3120     9.3380    18.2130    24.7930 
  126.2500   -18.9260     2.5070    56.2980    16.0110    12.3680    20.2680    25.0200 
  126.3750   -18.9180     2.5570    50.1470    20.4040    15.9250    20.5420    25.1050 
  126.5000   -18.8730     2.5800    45.8470    23.2320    18.8930    19.7950    25.0720 
  126.6250   -18.8360     2.5910    44.6430    24.2750    20.5320    19.9190    25.0460 
  126.7500   -18.8310     2.6010    45.0830    23.9200    20.8920    20.6630    25.0900 
  126.8750   -18.8510     2.6050    46.2320    22.9600    20.4760    20.8060    25.1290 
  127.0000   -18.8360     2.6010    46.5680    22.0090    19.7550    19.8800    25.0940 
  127.1250   -18.8090     2.5930    45.5600    21.2790    19.0240    20.2950    25.0230 
  127.2500   -18.7350     2.5820    45.5990    20.8210    18.4110    21.9210    24.9280 
  127.3750   -18.6440     2.5710    48.2860    20.6610    18.0300    23.4330    24.7940 
  127.5000   -18.5280     2.5640    51.7930    20.8430    18.0060    23.4090    24.7560 
  127.6250   -18.4090     2.5660    53.4980    21.2710    18.2800    22.0850    24.7970 
  127.7500   -18.2810     2.5760    53.5010    21.8820    18.7920    21.1400    24.7960 
  127.8750   -18.1310     2.5850    52.7730    22.5790    19.4550    22.2220    24.6710 
  128.0000   -18.0490     2.5840    53.2050    23.2030    20.1320    24.4860    24.5400 
  128.1250   -17.9660     2.5750    55.2330    23.6720    20.6970    25.9340    24.5490 
  128.2500   -17.8930     2.5650    54.6790    24.0410    21.1430    26.4200    24.6580 
  128.3750   -17.8810     2.5600    50.1920    24.4550    21.5670    27.4050    24.7460 
  128.5000   -17.9460     2.5630    48.2840    25.0350    22.1030    28.9180    24.7770 
  128.6250   -17.9850     2.5710    50.3120    25.6650    22.7310    31.1450    24.8030 
  128.7500   -18.0090     2.5770    52.0470    26.1020    23.3020    32.7510    24.8470 
  128.8750   -18.0640     2.5790    51.2670    26.0820    23.5900    32.2690    24.8820 
  129.0000   -18.1160     2.5750    51.7120    25.3950    23.3320    29.3950    24.9080 
  129.1250   -18.2100     2.5670    52.8090    24.3150    22.6310    25.2440    24.9080 
  129.2500   -18.3320     2.5510    52.7910    23.1570    21.6910    22.1580    24.9150 
  129.3750   -18.4480     2.5340    52.4650    22.1890    20.7560    20.2640    24.9260 
  129.5000   -18.5690     2.5250    52.1220    21.6010    20.0550    18.0850    24.9030 
  129.6250   -18.7260     2.5190    50.2170    21.3100    19.6300    16.1100    24.7750 
  129.7500   -18.8920     2.5090    47.7510    21.2180    19.4540    15.1940    24.4900 
  129.8750   -19.0530     2.4980    47.9620    21.2470    19.4700    15.1050    24.1420 
  130.0000   -19.2480     2.4950    51.1150    21.3990    19.6600    15.3990    23.7780 
  130.1250   -19.4130     2.4970    53.0210    21.6730    19.9860    15.5010    23.4730 
  130.2500   -19.5410     2.4940    52.6570    22.0420    20.4150    15.5100    23.3460 
  130.3750   -19.6510     2.4720    51.0920    22.4260    20.8670    15.9760    23.3940 
  130.5000   -19.7480     2.4350    49.7060    22.6910    21.2150    17.4990    23.4920 
  130.6250   -19.8220     2.4080    48.1900    22.7650    21.3820    19.1630    23.5980 
  130.7500   -19.8630     2.4050    46.8110    22.6470    21.3540    20.7590    23.8120 
  130.8750   -19.9250     2.4190    46.7220    22.3910    21.1850    21.1470    24.1400 
  131.0000   -19.9500     2.4340    49.1070    22.0650    20.9540    20.2290    24.3820 
  131.1250   -19.9070     2.4450    51.4430    21.7410    20.7240    19.9410    24.4130 
  131.2500   -19.8640     2.4480    51.5610    21.4830    20.5340    20.0480    24.3140 
  131.3750   -19.8340     2.4380    50.0840    21.3710    20.4300    19.7280    24.2430 
  131.5000   -19.7480     2.4140    49.2240    21.4930    20.4810    19.1890    24.0780 
  131.6250   -19.6840     2.3930    49.5610    21.8040    20.6850    18.4160    23.9550 
  131.7500   -19.7030     2.3880    50.4960    22.2280    21.0180    18.2280    24.1230 
  131.8750   -19.7360     2.4060    53.0120    22.6350    21.3950    18.9600    24.5140 
  132.0000   -19.7670     2.4420    56.4430    22.8420    21.6500    19.4270    24.9850 
  132.1250   -19.8980     2.4730    58.9600    22.8170    21.6950    18.6880    25.2500 
  132.2500   -20.0980     2.4870    59.2570    22.6140    21.5470    17.4200    25.3560 
  132.3750   -20.2980     2.4820    57.4090    22.3470    21.2980    16.5000    25.3530 
  132.5000   -20.5220     2.4710    54.9050    22.1690    21.0900    16.9800    25.2580 
  132.6250   -20.7620     2.4640    51.6020    22.1690    21.0260    18.3020    25.1660 
  132.7500   -20.9970     2.4670    48.3080    22.3570    21.1380    20.0020    25.0770 
  132.8750   -21.1950     2.4750    47.8240    22.6870    21.4000    21.5230    25.0250 
  133.0000   -21.3630     2.4740    51.7870    23.0810    21.7490    22.7790    24.9980 
  133.1250   -21.5180     2.4680    55.1370    23.4580    22.0960    24.0910    24.9550 
  133.2500   -21.6420     2.4670    54.9950    23.7980    22.4090    25.8060    24.9630 
  133.3750   -21.7440     2.4700    53.6910    24.1420    22.7080    26.5770    25.1300 
  133.5000   -21.8070     2.4640    55.1960    24.6320    23.0990    25.1120    25.2050 
  133.6250   -21.8240     2.4570    56.3520    25.3490    23.6760    23.0270    25.1840 
  133.7500   -21.7720     2.4600    55.1240    26.2870    24.4620    22.4780    25.1370 
  133.8750   -21.6830     2.4720    53.2780    27.3180    25.3850    23.2450    25.1070 
  134.0000   -21.5730     2.4760    55.2880    28.1200    26.2200    23.8360    25.0560 
  134.1250   -21.3990     2.4680    59.2120    28.4040    26.6980    23.1380    24.9560 
  134.2500   -21.1610     2.4550    60.6980    28.0160    26.6370    21.2460    24.8010 
  134.3750   -20.8780     2.4390    59.6300    27.0480    26.0500    19.7260    24.6730 
  134.5000   -20.5940     2.4240    59.8180    25.8520    25.1760    19.6440    24.6910 
  134.6250   -20.2890     2.4200    60.4720    24.8980    24.4280    20.5800    24.8190 
  134.7500   -19.9650     2.4350    59.5930    24.4540    24.0610    21.1350    24.9450 
  134.8750   -19.7000     2.4620    56.7560    24.6290    24.2140    20.8260    25.0320 
  135.0000   -19.5120     2.4850    54.6040    25.4580    24.9940    20.8810    25.0870 
  135.1250   -19.3460     2.4960    53.9140    26.6250    26.1850    21.8880    25.0400 
  135.2500   -19.2430     2.4970    53.7060    27.7850    27.5060    22.9030    24.8780 
  135.3750   -19.2660     2.4950    53.6700    28.3890    28.4470    22.5090    24.6050 
  135.5000   -19.3690     2.4870    52.8370    27.4000    27.9370    19.9940    24.3840 
  135.6250   -19.4650     2.4680    53.2190    24.5970    25.5630    17.1780    24.3390 
  135.7500   -19.6290     2.4330    56.1920    21.0620    21.6770    14.9680    24.5070 
  135.8750   -19.8340     2.3840    60.6500    16.8040    17.3650    13.4220    24.7660 
  136.0000   -20.0050     2.3370    64.7260    13.4560    13.9260    12.1550    25.0890 
  136.1250   -20.1480     2.3050    68.0500    11.6000    11.7620    11.3120    25.3670 
  136.2500   -20.2370     2.2930    70.7150    11.2650    10.9120    11.9130    25.5170 
  136.3750   -20.2120     2.3040    69.9220    12.3870    11.3440    14.5470    25.4890 
  136.5000   -20.1310     2.3410    66.8660    15.1130    13.3250    20.1020    25.3300 
  136.6250   -20.0480     2.3930    65.2470    18.8610    16.5620    24.1760    25.2570 
  136.7500   -19.8720     2.4400    62.9290    22.6730    20.4200    27.0870    25.2800 
  136.8750   -19.5650     2.4610    59.7040    24.9230    23.3970    27.0230    25.3150 
