~V
VERS. 2.00: Ver 2.00
~W
STRT.M 64.0000:
STOP.M 215.0000:
STEP.M 0.1250:
NULL. -999.2500:
UWI. F10146:
~C
DEPT.M :
DEN.GM/CC :
GR.API :
RML.OHMM :
RI. :
RXO.OHMM :
CALI.CM :
SP.MV :
~A
# ...
   75.2500     2.1610    68.4920     8.4090     6.0760     9.2030    25.8690   -30.8700 
   75.3750     2.1400    65.2660     8.1940     5.9580     9.0120    26.0550   -31.4310 
   75.5000     2.1180    63.0140     8.0410     5.8170     8.5650    26.0780   -31.8060 
   75.6250     2.1030    60.7950     8.0070     5.7070     8.1440    25.7680   -32.0400 
   75.7500     2.0960    59.1780     8.0440     5.6310     8.1200    25.5100   -32.0880 
   75.8750     2.0960    60.4510     8.0910     5.5650     8.1790    25.3500   -31.9160 
   76.0000     2.1020    65.0030     8.0830     5.4820     8.3250    25.3280   -31.5650 
   76.1250     2.1140    67.9940     7.9610     5.3570     8.5790    25.4150   -30.9600 
   76.2500     2.1310    68.0120     7.7620     5.2070     8.7540    25.6240   -30.1720 
   76.3750     2.1480    68.2780     7.6170     5.0870     8.5570    25.8520   -29.2230 
   76.5000     2.1590    68.2910     7.7790     5.1080     8.5070    26.1130   -28.0890 
   76.6250     2.1710    65.9390     8.7510     5.5160     8.6740    26.1480   -26.8030 
   76.7500     2.1970    63.5110    10.7840     6.4850     9.2980    26.1030   -25.4510 
   76.8750     2.2560    62.8790    14.0520     8.2190    11.7030    25.8180   -24.0570 
   77.0000     2.3510    62.4790    18.3670    10.8190    18.7290    25.4710   -22.6780 
   77.1250     2.4600    61.8920    22.3970    13.8690    38.3730    25.2350   -21.3810 
   77.2500     2.5390    68.2030    23.7360    15.7800    50.4750    25.0340   -20.1770 
   77.3750     2.5630    82.5660    21.1650    15.2310    36.1430    25.0210   -19.1210 
   77.5000     2.5330    96.8200    16.1890    12.6120    19.0940    25.0970   -18.2690 
   77.6250     2.4760   101.6740    11.6750     9.6040    10.1680    25.2450   -17.6850 
   77.7500     2.4210   101.0550     8.6920     7.2820     6.4320    25.3620   -17.3490 
   77.8750     2.3760    98.8630     7.0220     5.7460     4.7890    25.5610   -17.2410 
   78.0000     2.3420    96.6560     6.1970     4.8360     4.2070    25.7780   -17.3560 
   78.1250     2.3180    98.5550     5.8800     4.3990     4.1410    25.9690   -17.7480 
   78.2500     2.3000   105.2380     5.8200     4.2260     4.0400    26.0680   -18.3190 
   78.3750     2.2900   111.1850     6.0020     4.2690     3.9470    26.0970   -19.0740 
   78.5000     2.2900   108.9450     6.4560     4.5170     4.0190    26.1560   -19.9900 
   78.6250     2.2970    99.8270     7.2290     4.9900     4.4920    26.2640   -20.9930 
   78.7500     2.3020    90.6310     8.1840     5.6030     5.7080    26.3460   -22.1010 
   78.8750     2.2910    81.5030     9.1240     6.2480     7.7070    26.5070   -23.2490 
   79.0000     2.2530    72.0370     9.7890     6.7650     9.3710    26.8640   -24.3390 
   79.1250     2.1890    64.6860     9.9150     6.9590     8.6050    28.0030   -25.3530 
   79.2500     2.1180    63.0060     9.6720     6.8790     6.9040    29.1510   -26.2420 
   79.3750     2.0580    64.9740     9.3110     6.6530     6.0970    29.4940   -26.9710 
   79.5000     2.0180    65.5930     9.0630     6.4270     5.8560    29.2870   -27.5770 
   79.6250     2.0070    62.9170     9.0730     6.3160     6.0090    28.4800   -28.0250 
   79.7500     2.0140    59.6240     9.2520     6.3080     6.5000    27.8390   -28.3480 
   79.8750     2.0320    58.9360     9.4810     6.3510     7.1680    27.3800   -28.6290 
   80.0000     2.0570    62.0710     9.6440     6.3780     7.8410    26.8770   -28.8620 
   80.1250     2.0830    64.9530     9.6590     6.3380     8.4840    26.5480   -29.0460 
   80.2500     2.1080    65.0060     9.5640     6.2360     8.9080    26.4920   -29.2850 
   80.3750     2.1280    63.5440     9.4160     6.0910     8.8220    26.4830   -29.5830 
   80.5000     2.1390    63.2490     9.2840     5.9410     8.3840    26.4830   -29.9580 
   80.6250     2.1390    63.4000     9.2290     5.8250     8.0470    26.4830   -30.4440 
   80.7500     2.1300    61.1080     9.2520     5.7550     8.1550    26.4830   -30.9390 
   80.8750     2.1170    58.2740     9.3280     5.7270     8.3510    26.4800   -31.4340 
   81.0000     2.1060    55.9180     9.4230     5.7280     8.2680    26.4700   -31.9690 
   81.1250     2.1030    53.7390     9.4770     5.7330     8.3100    26.4160   -32.4640 
   81.2500     2.1060    53.9460     9.4610     5.7150     8.6010    26.4080   -32.9140 
   81.3750     2.1110    58.0330     9.3790     5.6670     8.8520    26.4220   -33.2900 
   81.5000     2.1140    63.0840     9.2750     5.6020     8.9620    26.4900   -33.5350 
   81.6250     2.1110    63.7140     9.2070     5.5470     8.9700    26.8450   -33.6880 
   81.7500     2.1050    61.8290     9.1960     5.5190     8.8830    27.0450   -33.7830 
   81.8750     2.0980    59.7630     9.2310     5.5190     8.6890    27.0820   -33.7960 
   82.0000     2.0930    57.4600     9.2780     5.5280     8.5560    26.9980   -33.7820 
   82.1250     2.0930    55.4340     9.2880     5.5170     8.5000    26.9560   -33.7400 
   82.2500     2.0970    55.9760     9.2460     5.4790     8.4500    26.9750   -33.6430 
   82.3750     2.1040    58.2330     9.1570     5.4280     8.5070    27.1240   -33.5460 
   82.5000     2.1140    59.8300     9.0390     5.3810     8.8130    27.3580   -33.4370 
   82.6250     2.1200    61.0850     8.9150     5.3440     8.8600    27.5930   -33.2960 
   82.7500     2.1210    62.5520     8.8130     5.3120     8.6240    27.7740   -33.1180 
   82.8750     2.1140    61.8530     8.7540     5.2810     8.3380    27.8030   -32.8720 
   83.0000     2.1020    59.4590     8.7460     5.2600     8.2000    27.8050   -32.5370 
   83.1250     2.0920    57.4020     8.7910     5.2660     8.2010    27.7720   -32.1550 
   83.2500     2.0880    57.2900     8.8620     5.3020     8.2920    27.6170   -31.7480 
   83.3750     2.0930    59.4450     8.9360     5.3500     8.5440    27.3850   -31.2820 
   83.5000     2.1040    62.2820     8.9910     5.3840     8.8140    27.3690   -30.7890 
   83.6250     2.1150    63.5800     9.0080     5.3790     9.0070    27.6730   -30.2860 
   83.7500     2.1160    62.6890     8.9950     5.3460     8.7680    27.7840   -29.7950 
   83.8750     2.1030    63.4430     8.9610     5.3010     8.3880    27.8050   -29.3370 
   84.0000     2.0780    66.6400     8.9160     5.2630     8.1760    27.8010   -28.9180 
   84.1250     2.0520    68.3690     8.8700     5.2440     8.2850    27.7040   -28.5980 
   84.2500     2.0360    66.7660     8.8180     5.2410     8.4400    27.2630   -28.3180 
   84.3750     2.0370    61.9670     8.7540     5.2450     8.4850    26.4900   -28.1030 
   84.5000     2.0550    58.0050     8.6760     5.2520     8.6970    26.0220   -27.9450 
   84.6250     2.0810    58.7270     8.6010     5.2640     8.8440    25.7880   -27.7610 
   84.7500     2.1010    60.4250     8.5580     5.2860     8.8490    25.6350   -27.5710 
   84.8750     2.1100    59.9690     8.5710     5.3240     8.6710    25.5610   -27.3400 
   85.0000     2.1100    57.8580     8.6500     5.3790     8.4820    25.5430   -26.9770 
   85.1250     2.1060    58.4610     8.7950     5.4510     8.8740    25.5390   -26.4460 
   85.2500     2.1050    61.1720     8.9730     5.5330     9.3090    25.5220   -25.7740 
   85.3750     2.1080    61.5680     9.1440     5.6200     9.4440    25.4480   -24.9280 
   85.5000     2.1150    59.7120     9.2450     5.6900     9.2360    25.3260   -23.9040 
   85.6250     2.1260    61.4490     9.1710     5.6840     8.9240    25.3050   -22.6820 
   85.7500     2.1390    65.0620     8.8970     5.5620     8.6170    25.2970   -21.3240 
   85.8750     2.1510    68.2460     8.4440     5.3140     8.2280    25.3130   -19.9260 
   86.0000     2.1580    74.2020     7.8920     4.9800     7.3310    25.3750   -18.5670 
   86.1250     2.1630    89.2090     7.3900     4.6540     5.7280    25.6250   -17.2850 
   86.2500     2.1710   104.4430     7.0640     4.4230     4.6750    25.6600   -16.1430 
   86.3750     2.1860   108.8260     6.9650     4.3300     4.4150    25.5210   -15.1650 
