~V
VERS. 2.00: Ver 2.00
~W
STRT.M 50.0000:
STOP.M 207.0000:
STEP.M 0.1250:
NULL. -999.2500:
UWI. F10134:
~C
DEPT.M :
SP.MV :
DEN.GM/CC :
GR.API :
RML.OHMM :
RI. :
RXO.OHMM :
CALI.CM :
~A
# ...
   61.2500   145.0380     2.0370    43.1190     1.8780     1.1470     0.3610    25.5960 
   61.3750   144.7040     2.0170    41.5660     2.0410     1.1740     0.3750    25.5950 
   61.5000   144.2970     2.0010    37.2070     2.2700     1.1900     0.4990    25.5990 
   61.6250   143.7190     1.9930    34.1230     2.4540     1.1920     0.4150    25.6020 
   61.7500   142.8710     1.9940    36.1540     2.3920     1.1880     0.3980    25.6000 
   61.8750   141.6800     2.0040    40.1150     1.9720     1.1830     0.5050    25.5970 
   62.0000   140.1220     2.0200    41.8480     1.3940     1.1770     0.5910    25.5970 
   62.1250   138.1860     2.0380    43.1980     0.9860     1.1660     0.6090    25.5960 
   62.2500   135.9970     2.0520    45.4250     0.8310     1.1450     0.7550    25.5930 
   62.3750   133.6270     2.0640    46.7510     0.9160     1.1180     0.8950    25.5910 
   62.5000   131.1450     2.0730    46.7950     1.1690     1.0900     1.0960    25.5960 
   62.6250   128.5600     2.0780    45.1950     1.4840     1.0590     1.3860    25.6030 
   62.7500   125.8440     2.0760    41.8590     1.7350     1.0150     1.4880    25.6050 
   62.8750   122.8890     2.0640    38.8320     1.7920     0.9370     1.6890    25.6010 
   63.0000   119.5590     2.0480    39.8770     1.5100     0.8010     1.9750    25.5960 
   63.1250   115.6100     2.0550    45.6010     0.9470     0.5960     2.5020    25.5980 
   63.2500   111.0070     2.1380    50.0850     0.5110     0.3810     3.3050    25.6040 
   63.3750   105.6270     2.3270    50.9200     0.2770     0.2060     4.5140    25.6080 
   63.5000    99.3570     2.5250    49.4110     0.1660     0.0920     5.1120    25.6100 
   63.6250    91.9070     2.5220    48.5280     0.1330     0.0520     3.3570    25.5750 
   63.7500    83.4260     2.3800    51.2000     0.1680     0.0830     3.0410    25.6790 
   63.8750    74.0220     2.1810    56.0060     0.3190     0.2140     3.2030    26.3010 
   64.0000    64.0280     1.9860    59.9160     0.6730     0.5000     3.4430    27.3130 
   64.1250    54.0570     1.8540    63.3510     1.4370     1.0510     3.5590    27.5910 
   64.2500    44.7450     1.8140    68.1820     2.6230     1.8510     4.0880    26.7980 
   64.3750    36.5460     1.8740    73.5160     3.9630     2.8040     5.2250    25.7270 
   64.5000    29.7750     2.0030    76.0530     4.9540     3.7140     6.1810    25.2270 
   64.6250    24.8200     2.1260    77.7270     5.3330     4.3580     6.5810    25.2770 
   64.7500    21.3160     2.1970    82.7550     5.4180     4.7340     6.3670    25.3420 
   64.8750    18.9890     2.2270    88.7720     5.3970     4.8980     5.8270    25.3510 
   65.0000    17.4560     2.2370    91.3850     5.3860     4.9260     5.2370    25.3480 
   65.1250    16.3990     2.2390    90.4360     5.4960     4.9020     5.0680    25.3370 
   65.2500    15.5280     2.2390    88.9840     5.6930     4.8920     5.0200    25.2810 
   65.3750    14.7670     2.2360    88.3090     5.9000     4.9060     5.3390    25.2030 
   65.5000    14.0610     2.2290    88.9920     6.0500     4.9310     5.7110    25.1790 
   65.6250    13.3810     2.2170    91.9340     6.1520     4.9690     5.3540    25.2410 
   65.7500    12.7200     2.2040    94.9100     6.3220     5.0470     4.8480    25.2870 
   65.8750    12.0950     2.1950    94.4090     6.6460     5.1850     5.0170    25.2720 
   66.0000    11.5210     2.1960    90.5650     7.1420     5.3750     5.8430    25.2470 
   66.1250    11.0310     2.2060    86.6650     7.7070     5.5610     6.5250    25.2700 
   66.2500    10.6230     2.2160    86.5730     8.1050     5.6640     6.8630    25.3050 
   66.3750    10.2960     2.2240    90.0470     8.1500     5.6260     6.5410    25.3200 
   66.5000    10.0390     2.2280    94.9600     7.8000     5.4400     5.3510    25.3190 
   66.6250     9.8230     2.2360   101.5170     7.1950     5.1520     4.6800    25.3240 
   66.7500     9.6310     2.2510   107.7900     6.6150     4.8520     4.3070    25.3290 
   66.8750     9.4630     2.2730   109.7810     6.2150     4.5810     3.9860    25.3150 
   67.0000     9.3110     2.2970   106.5310     6.0650     4.3720     3.8490    25.2880 
   67.1250     9.1470     2.3140   102.6160     6.2260     4.2750     3.9280    25.2800 
   67.2500     8.9270     2.3220   100.9070     6.5300     4.3060     4.0270    25.2880 
   67.3750     8.6220     2.3240    99.4700     6.6990     4.4770     4.1600    25.2850 
   67.5000     8.1860     2.3190    97.0420     7.0220     4.7830     4.6700    25.2540 
   67.6250     7.5500     2.2990    92.1670     7.5610     5.2090     5.6030    25.1650 
   67.7500     6.7220     2.2690    84.0490     8.4520     5.6800     6.2720    25.0400 
   67.8750     5.7030     2.2340    73.1310     9.3740     6.1290     6.3040    24.9170 
   68.0000     4.5350     2.2030    64.4270    10.0600     6.4970     6.7290    24.8280 
   68.1250     3.2830     2.1790    62.3630    10.3900     6.7210     7.2940    24.7740 
   68.2500     2.0580     2.1600    62.6190    10.4470     6.8130     7.5480    24.7440 
   68.3750     0.9260     2.1400    61.6800    10.3040     6.7950     7.3790    24.7380 
   68.5000    -0.0570     2.1220    59.9520    10.0310     6.7000     7.1590    24.7180 
   68.6250    -0.8400     2.1140    59.9500     9.7170     6.5490     6.9580    24.6500 
   68.7500    -1.4560     2.1170    60.9930     9.4800     6.3750     6.7800    24.5800 
   68.8750    -1.9220     2.1290    61.7770     9.3660     6.2080     6.7710    24.5520 
   69.0000    -2.2660     2.1430    62.1690     9.3430     6.0680     6.7080    24.5680 
   69.1250    -2.5000     2.1540    61.7010     9.3410     5.9730     6.5600    24.5880 
   69.2500    -2.6730     2.1610    62.1200     9.3340     5.9160     6.5490    24.5970 
   69.3750    -2.7860     2.1620    63.8710     9.3360     5.8970     6.6850    24.5950 
   69.5000    -2.8600     2.1570    66.0680     9.3420     5.9150     6.7120    24.5800 
   69.6250    -2.8850     2.1460    66.5350     9.3350     5.9720     6.6530    24.5570 
   69.7500    -2.9000     2.1370    64.4790     9.3420     6.0520     6.6370    24.5440 
   69.8750    -2.9270     2.1350    62.3920     9.3900     6.1390     6.7860    24.5440 
   70.0000    -2.9920     2.1410    63.2250     9.4710     6.2160     7.1330    24.5470 
   70.1250    -3.1300     2.1530    67.1310     9.5480     6.2640     7.3550    24.5570 
   70.2500    -3.3380     2.1630    68.6830     9.6240     6.2810     7.3910    24.6070 
   70.3750    -3.6210     2.1660    65.4970     9.7250     6.2710     7.3170    24.7280 
   70.5000    -3.9580     2.1600    61.9740     9.8460     6.2440     7.2100    24.9190 
   70.6250    -4.3350     2.1510    60.8680     9.9050     6.2110     7.4270    25.1390 
   70.7500    -4.7210     2.1460    59.5320     9.8550     6.1820     7.5010    25.3190 
   70.8750    -5.0900     2.1450    57.7940     9.7330     6.1600     7.3970    25.4290 
   71.0000    -5.4190     2.1440    57.9950     9.6440     6.1440     7.3830    25.4730 
   71.1250    -5.7030     2.1370    60.0300     9.5940     6.1320     7.4470    25.4670 
   71.2500    -5.9350     2.1250    60.0420     9.4430     6.1110     7.6050    25.4330 
   71.3750    -6.1140     2.1130    59.0040     9.1520     6.0660     7.6880    25.3810 
   71.5000    -6.2340     2.1070    59.2350     8.8100     5.9920     7.6660    25.3180 
   71.6250    -6.2660     2.1130    61.1900     8.5200     5.8890     7.5450    25.2510 
   71.7500    -6.2030     2.1290    62.7530     8.2830     5.7880     7.4640    25.1810 
   71.8750    -6.0340     2.1480    61.9140     8.1010     5.7140     7.4320    25.1040 
   72.0000    -5.7690     2.1630    58.8220     8.0220     5.6890     7.3410    25.0150 
   72.1250    -5.3970     2.1620    57.0440     8.1300     5.7380     7.2650    24.9300 
   72.2500    -4.9510     2.1480    57.5270     8.3630     5.8220     7.2600    24.8690 
   72.3750    -4.4370     2.1350    57.9920     8.5690     5.8840     7.3040    24.8550 
