~V
VERS. 2.00: Ver 2.00
~W
STRT.M 59.0000:
STOP.M 212.0000:
STEP.M 0.1250:
NULL. -999.2500:
UWI. F10143:
~C
DEPT.M :
GR.API :
RML.OHMM :
RI. :
RXO.OHMM :
CALI.CM :
SP.MV :
DEN.GM/CC :
~A
# ...
   81.5000    62.4060    11.1800     6.3540    10.4080    24.4420   -36.1330     2.1030 
   81.6250    65.0810    11.0000     6.3150     9.8090    24.5680   -35.8760     2.1050 
   81.7500    64.9900    10.8060     6.2560     8.8470    24.6330   -35.6320     2.1030 
   81.8750    61.7580    10.6680     6.2050     8.4340    24.6030   -35.3700     2.0950 
   82.0000    58.2100    10.6090     6.1760     9.1210    24.4970   -35.0460     2.0870 
   82.1250    58.4490    10.6230     6.1790     9.6310    24.3730   -34.6280     2.0900 
   82.2500    60.5140    10.6780     6.2090     9.7510    24.3300   -34.1310     2.1000 
   82.3750    61.9500    10.7560     6.2630     9.5990    24.3490   -33.5600     2.1130 
   82.5000    63.1120    10.8590     6.3380     9.4850    24.4100   -32.9340     2.1230 
   82.6250    64.7620    11.0070     6.4310     9.4950    24.4470   -32.2540     2.1350 
   82.7500    63.5810    11.1720     6.5240     9.4180    24.4600   -31.5220     2.1510 
   82.8750    60.3120    11.2680     6.5740     9.3530    24.4620   -30.7480     2.1710 
   83.0000    61.1090    11.1660     6.5250     9.2350    24.4790   -29.9380     2.1880 
   83.1250    67.3370    10.7060     6.3100     8.8410    24.5670   -29.0880     2.1960 
   83.2500    74.5200     9.9690     5.9630     7.7130    24.7450   -28.2230     2.1910 
   83.3750    81.6230     9.1350     5.5530     6.2390    24.9330   -27.3670     2.1760 
   83.5000    89.5540     8.4700     5.1810     5.3080    25.0420   -26.5560     2.1610 
   83.6250    96.3420     8.2780     4.9780     4.8830    25.0760   -25.8450     2.1590 
   83.7500    97.7760     8.5420     4.9800     4.7890    25.0620   -25.2620     2.1640 
   83.8750    92.5990     9.1500     5.1850     4.9690    25.0020   -24.8080     2.1700 
   84.0000    84.1870     9.8900     5.5370     5.6420    24.8760   -24.4930     2.1780 
   84.1250    79.9030    10.4510     5.9140     6.6440    24.7600   -24.3380     2.1910 
   84.2500    82.4840    10.6550     6.1720     7.4430    24.7680   -24.2950     2.2070 
   84.3750    88.0430    10.4860     6.2430     7.2680    24.9140   -24.3390     2.2210 
   84.5000    93.2740    10.0820     6.1540     6.2530    25.0950   -24.4320     2.2310 
   84.6250    95.7260     9.6700     6.0000     5.8620    25.2220   -24.5450     2.2330 
   84.7500    96.7120     9.4310     5.9030     5.8530    25.3090   -24.6490     2.2250 
   84.8750    96.3460     9.4460     5.9180     5.7270    25.4050   -24.7440     2.2040 
   85.0000    93.8520     9.7220     6.0540     5.7940    25.5110   -24.8230     2.1740 
   85.1250    89.7580    10.2030     6.2930     6.1600    25.5770   -24.8990     2.1450 
   85.2500    87.1790    10.7140     6.5630     6.5590    25.6210   -24.9760     2.1230 
   85.3750    85.1530    11.1240     6.8120     6.9620    25.6560   -25.0430     2.1090 
   85.5000    81.5540    11.3500     6.9940     7.4320    25.6150   -25.0790     2.1040 
   85.6250    78.3920    11.3540     7.0660     7.8290    25.4500   -25.0640     2.1150 
   85.7500    79.8180    11.2190     7.0460     7.7490    25.3730   -25.0030     2.1320 
   85.8750    84.9470    11.0200     6.9610     7.4390    25.3710   -24.9010     2.1460 
   86.0000    88.4270    10.8160     6.8490     7.1230    25.3320   -24.7740     2.1570 
   86.1250    87.4510    10.6590     6.7520     7.0530    25.1980   -24.6370     2.1660 
   86.2500    88.0520    10.5660     6.6840     7.1950    25.1300   -24.4990     2.1720 
   86.3750    91.0000    10.5370     6.6430     7.0980    25.1690   -24.3670     2.1740 
   86.5000    91.4950    10.5480     6.6180     6.9880    25.2020   -24.2490     2.1740 
   86.6250    88.9300    10.5570     6.5990     7.1580    25.2250   -24.1520     2.1720 
   86.7500    87.3650    10.5400     6.5790     7.0660    25.2850   -24.0600     2.1700 
   86.8750    87.8540    10.5040     6.5590     6.6690    25.3600   -23.9730     2.1660 
   87.0000    89.4450    10.4600     6.5440     6.4120    25.3990   -23.8950     2.1630 
   87.1250    92.3480    10.4050     6.5300     6.4840    25.4050   -23.8190     2.1670 
   87.2500    93.4770    10.3190     6.5100     6.6330    25.3890   -23.7460     2.1780 
   87.3750    92.2440    10.1780     6.4730     6.5900    25.3470   -23.6910     2.1940 
   87.5000    93.6760     9.9670     6.4110     6.4980    25.2880   -23.6690     2.2140 
   87.6250    99.1380     9.7190     6.3280     6.3090    25.2230   -23.6920     2.2310 
   87.7500   101.5670     9.5290     6.2510     6.0680    25.1210   -23.7640     2.2390 
   87.8750    99.8650     9.4770     6.2010     5.9170    24.9900   -23.8910     2.2340 
   88.0000    99.0140     9.6070     6.1880     5.9330    24.8990   -24.0780     2.2220 
   88.1250   101.2150     9.9070     6.2170     6.0580    24.8600   -24.3300     2.2080 
   88.2500   100.2950    10.2500     6.2740     6.2080    24.8380   -24.6250     2.1920 
   88.3750    94.3320    10.5470     6.3540     6.3160    24.7980   -24.9370     2.1760 
   88.5000    88.0920    10.7550     6.4590     6.3700    24.7500   -25.2500     2.1630 
   88.6250    84.1960    10.8760     6.5950     6.4990    24.6890   -25.5900     2.1590 
   88.7500    81.0820    10.9620     6.7490     6.7480    24.5930   -25.9550     2.1590 
   88.8750    78.6290    11.0210     6.8900     7.1110    24.5050   -26.3290     2.1600 
   89.0000    79.2660    11.0380     6.9760     7.3500    24.4790   -26.7030     2.1620 
   89.1250    83.3280    10.9900     6.9580     7.4320    24.5440   -27.1130     2.1640 
   89.2500    86.0840    10.8910     6.8460     7.0920    24.6790   -27.5570     2.1640 
   89.3750    86.4710    10.7450     6.6620     6.6190    24.8120   -28.0380     2.1620 
   89.5000    86.0640    10.5570     6.4440     6.4290    24.8800   -28.5580     2.1570 
   89.6250    87.2820    10.3360     6.2260     6.5190    24.8960   -29.0850     2.1560 
   89.7500    88.7190    10.0920     6.0320     6.5790    24.9090   -29.6110     2.1620 
   89.8750    88.5060     9.8420     5.8780     6.4360    24.9380   -30.1420     2.1720 
   90.0000    87.2700     9.6530     5.7980     6.4630    24.9600   -30.6820     2.1840 
   90.1250    84.5600     9.7580     5.8960     6.9460    24.9660   -31.2060     2.2000 
   90.2500    81.2660    10.4150     6.2780     7.7240    24.9630   -31.7110     2.2210 
   90.3750    77.4770    11.9180     7.0960     8.8690    24.9490   -32.1930     2.2490 
   90.5000    72.3410    14.4580     8.4940    12.0400    24.9060   -32.6420     2.2960 
   90.6250    67.5990    18.0250    10.6090    20.7600    24.8550   -33.0730     2.3690 
   90.7500    66.2410    21.6010    12.9870    33.3780    24.8710   -33.4900     2.4420 
   90.8750    67.9140    23.7410    14.7940    42.6860    24.9140   -33.9060     2.4760 
   91.0000    67.5620    23.2050    15.1160    43.3580    24.9200   -34.3260     2.4450 
   91.1250    65.2060    19.9950    13.6730    30.9910    24.8550   -34.7330     2.3570 
   91.2500    64.6090    16.2740    11.6620    18.2370    24.7750   -35.1160     2.2540 
   91.3750    65.2340    13.2980     9.8250    11.1190    24.6890   -35.4810     2.1700 
   91.5000    64.8540    11.5020     8.4590     8.6590    24.5930   -35.8400     2.1220 
   91.6250    65.2350    10.8810     7.6320     8.0940    24.4830   -36.1770     2.1080 
   91.7500    67.4090    10.8250     7.1470     8.0790    24.3880   -36.4750     2.1060 
   91.8750    68.7710    10.9530     6.9000     8.1790    24.3700   -36.7170     2.1080 
   92.0000    68.9350    11.0370     6.8150     8.1400    24.4450   -36.8960     2.1120 
   92.1250    70.9920    11.0540     6.8530     7.9700    24.5100   -37.0040     2.1200 
   92.2500    73.0050    11.1120     6.9520     8.1230    24.5470   -37.0790     2.1250 
   92.3750    72.6370    11.2170     7.0650     8.4990    24.5680   -37.1310     2.1270 
   92.5000    72.2850    11.2660     7.1430     8.9810    24.5590   -37.1520     2.1270 
   92.6250    73.3350    11.0950     7.1420     9.1190    24.5150   -37.1140     2.1300 
