~V
VERS. 2.00: Ver 2.00
~W
STRT.M 55.0000:
STOP.M 228.0000:
STEP.M 0.1250:
NULL. -999.2500:
UWI. F10142:
~C
DEPT.M :
DEN.GM/CC :
GR.API :
RML.OHMM :
RI. :
RXO.OHMM :
CALI.CM :
SP.MV :
~A
# ...
  212.5000     2.3880    69.2320     8.0390     6.8620    10.5940    25.1520    -3.2530 
  212.6250     2.3910    70.1910     8.1130     6.9000     7.1400    25.2390    -3.2320 
  212.7500     2.3880    68.9300     8.2660     7.0540     6.1070    25.3330    -3.2260 
  212.8750     2.3840    68.3510     8.4600     7.2810     6.8830    25.3710    -3.2290 
  213.0000     2.3850    70.9250     8.6510     7.5240     7.4990    25.3390    -3.2230 
  213.1250     2.3900    73.2340     8.7730     7.6970     7.2310    25.2470    -3.2290 
  213.2500     2.3920    71.4830     8.7870     7.7450     6.7650    25.1320    -3.2260 
  213.3750     2.3820    66.5970     8.6870     7.6510     6.4550    24.9950    -3.2130 
  213.5000     2.3620    62.8560     8.5010     7.4500     6.4220    24.8270    -3.1920 
  213.6250     2.3440    62.2170     8.2940     7.2140     6.3690    24.7660    -3.1770 
  213.7500     2.3430    61.2010     8.1300     7.0170     6.3240    24.7890    -3.1620 
  213.8750     2.3580    59.4700     8.0310     6.8730     6.1840    24.7890    -3.1420 
  214.0000     2.3750    57.5610     7.9810     6.7570     5.9730    24.7310    -3.1190 
  214.1250     2.3730    56.6430     7.9220     6.6190     5.5330    24.7340    -3.0810 
  214.2500     2.3520    57.2660     7.8050     6.4410     5.0750    24.8220    -3.0520 
  214.3750     2.3260    58.3850     7.6260     6.2430     4.9000    24.9500    -3.0320 
  214.5000     2.3120    59.0930     7.4280     6.0610     4.9670    25.0610    -3.0030 
  214.6250     2.3120    59.1030     7.2940     5.9470     5.0450    24.9450    -2.9800 
  214.7500     2.3110    58.2380     7.2620     5.9070     5.0750    24.8360    -2.9540 
  214.8750     2.3000    56.5290     7.3170     5.9360     4.9570    24.9550    -2.9280 
  215.0000     2.2820    55.1940     7.4120     6.0120     4.7150    25.1340    -2.9110 
  215.1250     2.2730    54.6310     7.4930     6.1010     4.6860    25.2330    -2.9110 
  215.2500     2.2840    53.3780     7.5470     6.1740     5.0420    25.1890    -2.9050 
  215.3750     2.3150    52.4630     7.5900     6.2240     5.5010    25.1070    -2.8850 
  215.5000     2.3550    54.3870     7.6430     6.2550     6.0540    25.1120    -2.8690 
  215.6250     2.3900    58.4110     7.7070     6.2770     6.3120    25.1240    -2.8670 
  215.7500     2.4100    59.3660     7.7660     6.3010     6.3310    25.1000    -2.8630 
  215.8750     2.4140    56.5440     7.8060     6.3320     6.7550    25.0710    -2.8630 
  216.0000     2.4030    52.9810     7.8270     6.3640     7.3470    25.0670    -2.8440 
  216.1250     2.3830    52.2330     7.8360     6.3860     7.4550    25.0600    -2.8150 
  216.2500     2.3650    53.9860     7.8510     6.3940     7.1920    25.0350    -2.7980 
  216.3750     2.3560    56.5710     7.8800     6.3950     6.8130    24.9510    -2.7950 
  216.5000     2.3570    58.1290     7.9300     6.4070     6.7320    24.7970    -2.7890 
  216.6250     2.3640    56.8860     8.0010     6.4540     7.4160    24.7330    -2.7570 
  216.7500     2.3660    55.4450     8.0830     6.5330     7.5230    24.8310    -2.7220 
  216.8750     2.3620    55.8420     8.1680     6.6240     6.9240    25.0780    -2.6960 
  217.0000     2.3580    57.1000     8.2450     6.7000     6.6810    25.2850    -2.6860 
  217.1250     2.3650    57.1000     8.2960     6.7360     6.6810    25.3030    -2.6820 
  217.2500     2.3870    57.1000     8.3130     6.7390     6.4970    25.2390    -2.6640 
  217.3750     2.4200    57.1000     8.2950     6.7220     5.9990    25.1890    -2.6500 
  217.5000     2.4550    57.1000     8.2610     6.7040     5.5310    25.2130    -2.6430 
  217.6250     2.4780    57.1000     8.2390     6.7000     5.2550    25.2680    -2.6440 
  217.7500     2.4850    57.1000     8.2450     6.7090     5.1280    25.3320    -2.6460 
  217.8750     2.4760    57.1000     8.2770     6.7210     5.0110    25.3610    -2.6470 
  218.0000     2.4610    57.1000     8.3240     6.7300     4.9860    25.3600    -2.6610 
  218.1250     2.4540    57.1000     8.3820     6.7310     4.7780    25.3600    -2.6640 
  218.2500     2.4600    57.1000     8.4510     6.7300     4.7130    25.3450    -2.6790 
  218.3750     2.4750    57.1000     8.5270     6.7330     4.9600    25.3110    -2.6860 
  218.5000     2.4890    57.1000     8.5980     6.7490     5.3840    25.2220    -2.6980 
  218.6250     2.4910    57.1000     8.6450     6.7820     5.3690    25.1760    -2.7300 
  218.7500     2.4860    57.1000     8.6720     6.8290     5.4120    25.1580    -2.7710 
  218.8750     2.4820    57.1000     8.6940     6.8840     5.6900    25.1570    -2.8080 
  219.0000     2.4870    57.1000     8.7370     6.9440     7.0590    25.1650    -2.8260 
  219.1250     2.4970    57.1000     8.8230     7.0100     8.7000    25.1610    -2.8400 
  219.2500     2.5030    57.1000     8.9370     7.0720     9.0240    25.1600    -2.8500 
  219.3750     2.4980    57.1000     9.0460     7.1150     8.0370    25.1640    -2.8700 
  219.5000     2.4810    57.1000     9.1030     7.1210     7.5380    25.1880    -2.8750 
  219.6250     2.4570    57.1000     9.0500     7.0710     7.2970    25.2110    -2.8520 
  219.7500     2.4380    57.1000     8.9000     6.9780     6.6210    25.2160    -2.8320 
  219.8750     2.4290    57.1000     8.6940     6.8600     5.9990    25.2000    -2.8170 
  220.0000     2.4310    57.1000     8.4920     6.7430     6.0360    25.1680    -2.8080 
  220.1250     2.4350    57.1000     8.3710     6.6580     7.1020    25.1590    -2.8060 
  220.2500     2.4290    57.1000     8.3440     6.6110     8.0470    25.1560    -2.7950 
  220.3750     2.4100    57.1000     8.3910     6.5990     8.0200    25.1590    -2.7800 
  220.5000     2.3810    57.1000     8.4690     6.6140     7.1900    25.1690    -2.7650 
  220.6250     2.3540    57.1000     8.5280     6.6530     6.0690    25.1690    -2.7600 
  220.7500     2.3390    57.1000     8.5570     6.7070     5.3050    25.1850    -2.7680 
  220.8750     2.3380    57.1000     8.5750     6.7670     5.2370    25.2100    -2.7710 
  221.0000     2.3470    57.1000     8.6030     6.8250     5.5060    25.2220    -2.7650 
  221.1250     2.3580    57.1000     8.6440     6.8690     5.5240    25.2280    -2.7600 
  221.2500     2.3620    57.1000     8.6810     6.9050     5.3800    25.2310    -2.7680 
  221.3750     2.3590    57.1000     8.7010     6.9400     5.2630    25.2570    -2.7800 
  221.5000     2.3530    57.1000     8.7070     6.9740     5.2120    25.2870    -2.8080 
  221.6250     2.3600    57.1000     8.7130     6.9930     4.9610    25.2760    -2.8260 
  221.7500     2.3890    57.1000     8.7220     6.9910     4.7870    25.2110    -2.8200 
  221.8750     2.4350    57.1000     8.7270     6.9750     4.7250    25.1530    -2.8090 
  222.0000     2.4830    57.1000     8.7220     6.9640     4.9070    25.1620    -2.8140 
  222.1250     2.5040    57.1000     8.7110     6.9630     5.2540    25.1900    -2.8290 
  222.2500     2.4890    57.1000     8.7040     6.9560     5.4890    25.2020    -2.8410 
  222.3750     2.4490    57.1000     8.7000     6.9260     5.6410    25.1910    -2.8400 
  222.5000     2.4040    57.1000     8.6950     6.8670     5.7970    25.1660    -2.8260 
  222.6250     2.3800    57.1000     8.6840     6.7930     6.1130    25.1280    -2.8110 
  222.7500     2.3830    57.1000     8.6760     6.7340     5.4790    25.1100    -2.8020 
  222.8750     2.4060    57.1000     8.6710     6.7070     5.3610    25.0990    -2.8020 
  223.0000     2.4360    57.1000     8.6700     6.7070     5.4520    25.0430    -2.7890 
  223.1250     2.4580    57.1000     8.6700     6.7140     5.5570    25.0220    -2.7730 
  223.2500     2.4640    57.1000     8.6700     6.7160     6.3730    25.0240    -2.7530 
  223.3750     2.4560    57.1000     8.6700     6.7160     8.0060    25.0590    -2.7420 
  223.5000     2.4390    57.1000     8.6700     6.7160     8.5780    25.0630    -2.7280 
  223.6250     2.4260    57.1000     8.6700     6.7160     9.3890    25.0400    -2.7330 
