~V
VERS. 2.00: Ver 2.00
~W
STRT.M 49.0000:
STOP.M 243.0000:
STEP.M 0.1250:
NULL. -999.2500:
UWI. F10196:
~C
DEPT.M :
SP.MV :
DEN.GM/CC :
GR.API :
RML.OHMM :
RI. :
RXO.OHMM :
CALI.CM :
~A
# ...
  105.2500   -24.9050     2.1380    67.6540    10.4000     9.0180    12.9780    22.8800 
  105.3750   -24.6290     2.1470    67.8510    10.5530     9.1050    13.1500    22.7050 
  105.5000   -24.3930     2.1530    67.2660    10.6410     9.1700    13.1070    22.5870 
  105.6250   -24.2100     2.1570    66.3590    10.6280     9.1740    12.9120    22.4820 
  105.7500   -24.1180     2.1620    66.1660    10.4930     9.0780    12.7490    22.2960 
  105.8750   -24.1020     2.1650    68.2050    10.2880     8.9110    12.7420    22.0900 
  106.0000   -24.1370     2.1650    70.4060    10.0690     8.7150    12.6980    21.9120 
  106.1250   -24.2020     2.1630    69.6860     9.8890     8.5370    12.7420    21.7430 
  106.2500   -24.3150     2.1570    66.6170     9.7910     8.4200    13.1150    21.4970 
  106.3750   -24.4330     2.1500    63.8990     9.7620     8.3580    13.5520    21.1810 
  106.5000   -24.4930     2.1440    63.3600     9.7700     8.3320    13.8830    20.9240 
  106.6250   -24.4570     2.1390    65.5870     9.7840     8.3190    14.1060    20.8260 
  106.7500   -24.3540     2.1350    67.8470     9.8050     8.3200    14.2670    20.8960 
  106.8750   -24.2090     2.1310    68.3250     9.8760     8.3580    14.2060    21.0770 
  107.0000   -23.9860     2.1300    68.0530    10.0280     8.4550    13.8900    21.3070 
  107.1250   -23.6560     2.1310    68.6630    10.2440     8.5980    13.8240    21.4730 
  107.2500   -23.2340     2.1330    68.5830    10.4150     8.7210    15.1290    21.5350 
  107.3750   -22.8530     2.1350    67.9950    10.4040     8.7280    17.3210    21.5450 
  107.5000   -22.5210     2.1380    69.4530    10.1400     8.5530    17.8820    21.5970 
  107.6250   -22.2200     2.1440    72.5540     9.6770     8.2060    15.4470    21.8160 
  107.7500   -21.9500     2.1590    76.1500     9.2270     7.8060    13.2570    22.1490 
  107.8750   -21.7830     2.1770    78.9040     9.0070     7.5240    12.1710    22.3080 
  108.0000   -21.8180     2.1910    78.6910     9.1060     7.4560    12.0490    22.3020 
  108.1250   -22.0290     2.1940    74.1490     9.4930     7.6230    13.0350    22.2440 
  108.2500   -22.3250     2.1800    69.5170    10.0240     7.9760    17.3330    22.2240 
  108.3750   -22.6510     2.1550    68.0810    10.4430     8.3360    25.8230    22.3110 
  108.5000   -22.9910     2.1330    67.1940    10.5790     8.5570    29.8870    22.4610 
  108.6250   -23.2730     2.1270    65.6660    10.3890     8.5620    23.0590    22.5900 
  108.7500   -23.3790     2.1340    66.6780     9.9660     8.3630    15.5900    22.6910 
  108.8750   -23.2320     2.1390    69.1490     9.5440     8.1030    13.1580    22.8760 
  109.0000   -22.7970     2.1340    70.2570     9.2600     7.8850    12.8190    23.0930 
  109.1250   -22.0570     2.1260    71.1030     9.1890     7.7850    13.1370    23.1760 
  109.2500   -21.0080     2.1250    75.9480     9.3680     7.8660    13.0850    23.0270 
  109.3750   -19.7550     2.1310    81.9070     9.6730     8.0750    12.7180    22.8040 
  109.5000   -18.3230     2.1420    83.3370     9.9480     8.3140    12.4970    22.6730 
  109.6250   -16.7450     2.1560    78.3640     9.9910     8.4270    13.0000    22.6610 
  109.7500   -15.0520     2.1720    73.6990     9.5330     8.1760    13.8910    22.8210 
  109.8750   -13.3390     2.1940    76.0510     8.6350     7.5550    13.5430    23.2070 
  110.0000   -11.6930     2.2180    84.5900     7.5170     6.6970    11.1920    23.7290 
  110.1250   -10.2070     2.2370    94.0210     6.4780     5.8220     7.8520    24.1770 
  110.2500    -8.9350     2.2490    98.9160     5.8000     5.1560     6.1010    24.4560 
  110.3750    -7.8130     2.2590    98.5480     5.4840     4.7500     5.5100    24.5960 
  110.5000    -6.8650     2.2650    95.9660     5.4610     4.5890     5.5790    24.5200 
  110.6250    -6.1460     2.2660    95.7020     5.6080     4.6150     5.9430    24.2030 
  110.7500    -5.7540     2.2750   100.9910     5.7750     4.7370     6.0730    23.7710 
  110.8750    -5.5530     2.2970   109.2340     5.8480     4.8420     6.1720    23.4280 
  111.0000    -5.3850     2.3160   116.6000     5.8100     4.8850     6.2280    23.1280 
  111.1250    -5.2540     2.3170   120.7580     5.7080     4.8700     5.8400    22.9660 
  111.2500    -5.2240     2.2980   120.4910     5.6290     4.8380     5.4970    23.0460 
  111.3750    -5.2190     2.2740   117.3460     5.6230     4.8340     5.3950    23.3410 
  111.5000    -5.1870     2.2560   113.4700     5.6950     4.8760     5.4680    23.7210 
  111.6250    -5.1180     2.2530   110.4040     5.8150     4.9550     5.7700    23.8450 
  111.7500    -5.0300     2.2660   108.1440     5.9110     5.0290     5.9980    23.4700 
  111.8750    -4.9610     2.2850   106.3870     5.9200     5.0480     5.9620    23.1070 
  112.0000    -4.8920     2.2990   106.7650     5.8210     4.9870     5.8590    23.1620 
  112.1250    -4.7930     2.3050   109.8000     5.6330     4.8530     5.9150    23.5390 
  112.2500    -4.6720     2.3060   109.8030     5.4140     4.6800     5.7740    23.8080 
  112.3750    -4.5510     2.3070   106.2200     5.2400     4.5260     5.3560    23.9350 
  112.5000    -4.4210     2.3080   102.4560     5.1470     4.4270     5.1000    23.9860 
  112.6250    -4.2910     2.3100   101.6210     5.1360     4.3930     5.1730    23.9890 
  112.7500    -4.1820     2.3180   102.5860     5.1860     4.4220     5.2680    23.9940 
  112.8750    -4.1070     2.3320   103.0490     5.2460     4.4790     5.5070    24.0620 
  113.0000    -4.0730     2.3490   104.6100     5.2830     4.5320     5.7650    24.1910 
  113.1250    -4.0570     2.3600   106.3190     5.2850     4.5630     5.7860    24.2900 
  113.2500    -4.0490     2.3580   104.7400     5.2620     4.5730     5.5970    24.3220 
  113.3750    -4.0870     2.3500   101.5370     5.2480     4.5870     5.4530    24.3520 
  113.5000    -4.1840     2.3410    99.6900     5.2620     4.6230     5.3870    24.3870 
  113.6250    -4.2880     2.3350   100.7650     5.3040     4.6820     5.4390    24.4090 
  113.7500    -4.3070     2.3370   101.8100     5.3410     4.7510     5.6020    24.4150 
  113.8750    -4.2780     2.3470   101.7090     5.3310     4.7980     5.5980    24.4150 
  114.0000    -4.2850     2.3550   100.7520     5.2620     4.8080     5.4890    24.4070 
  114.1250    -4.3530     2.3530    98.9050     5.1550     4.7860     5.4580    24.3760 
  114.2500    -4.4210     2.3440   101.1140     5.0580     4.7510     5.4600    24.2850 
  114.3750    -4.4380     2.3420   105.7210     5.0030     4.7270     5.4680    24.1400 
  114.5000    -4.4450     2.3480   108.5650     4.9910     4.7190     5.5480    23.9110 
  114.6250    -4.5160     2.3560   109.3570     5.0060     4.7180     5.6450    23.6350 
  114.7500    -4.6660     2.3570   110.9250     5.0250     4.7030     5.5440    23.4240 
  114.8750    -4.8240     2.3520   110.9630     5.0360     4.6620     5.2000    23.3780 
  115.0000    -4.9680     2.3480   107.1960     5.0280     4.5950     5.1190    23.5160 
  115.1250    -5.1310     2.3470   105.5480     4.9900     4.5060     5.2060    23.7650 
  115.2500    -5.3810     2.3490   110.2610     4.8990     4.3950     5.2560    23.9210 
  115.3750    -5.6920     2.3500   112.3860     4.7630     4.2650     5.2720    23.9580 
  115.5000    -6.0210     2.3490   109.5360     4.6430     4.1440     5.2710    23.9290 
  115.6250    -6.3870     2.3460   108.0730     4.6670     4.1150     5.3070    23.9000 
  115.7500    -6.8730     2.3450   111.1060     5.0730     4.3500     5.4750    23.9660 
  115.8750    -7.4700     2.3470   110.2710     5.9980     4.9630     6.0520    24.1040 
  116.0000    -8.1340     2.3630   101.8310     7.6200     6.1150     8.0180    24.1920 
  116.1250    -8.8150     2.4020    88.3770    11.3760     8.0070    13.1690    24.1690 
  116.2500    -9.4200     2.4590    74.5030    15.0640    10.9300    27.4450    24.0050 
  116.3750    -9.8820     2.4840    63.6220    18.8500    14.4850    36.9510    23.6710 
