~V
VERS. 2.00: Ver 2.00
~W
STRT.M 56.0000:
STOP.M 214.0000:
STEP.M 0.1250:
NULL. -999.2500:
UWI. F10128:
~C
DEPT.M :
SP.MV :
GR.API :
RML.OHMM :
RI. :
RXO.OHMM :
CALI.CM :
DEN.GM/CC :
~A
# ...
  191.0000   -13.3730    64.1290     8.2360     7.1820     7.8310    24.9170     2.3150 
  191.1250   -13.3160    60.2980     8.2590     7.2180     7.7080    24.6930     2.3230 
  191.2500   -13.2000    56.5870     8.2480     7.2040     7.2900    24.3660     2.3380 
  191.3750   -13.0570    57.4090     8.1900     7.1310     7.1660    24.1460     2.3540 
  191.5000   -12.9110    60.6390     8.0930     7.0130     7.1960    24.3190     2.3660 
  191.6250   -12.7840    61.6620     7.9680     6.8670     7.3270    24.6160     2.3740 
  191.7500   -12.7010    59.6260     7.8320     6.7090     7.3800    24.7840     2.3800 
  191.8750   -12.6660    57.9690     7.7280     6.5700     7.2050    24.8010     2.3840 
  192.0000   -12.6780    58.7360     7.6990     6.4990     6.7750    24.8130     2.3850 
  192.1250   -12.7590    61.3730     7.7740     6.5390     6.6980    24.8940     2.3830 
  192.2500   -12.9070    62.9880     7.9470     6.6930     6.8840    24.9770     2.3760 
  192.3750   -13.0470    62.6770     8.1890     6.9430     7.5560    24.9440     2.3620 
  192.5000   -13.1140    63.5980     8.4690     7.2390     9.0270    24.7440     2.3450 
  192.6250   -13.0900    66.9170     8.8150     7.5900    10.1810    24.3990     2.3310 
  192.7500   -13.0140    70.6290     9.3090     8.0480     9.8400    24.0280     2.3270 
  192.8750   -12.8890    70.0720    10.0810     8.7220     8.7000    23.8410     2.3430 
  193.0000   -12.7080    66.9370    11.0720     9.6000     9.7170    23.8040     2.3690 
  193.1250   -12.4470    65.3730    12.0930    10.5590    13.7040    23.8300     2.3940 
  193.2500   -12.1160    67.5500    12.8170    11.3090    18.2990    23.8710     2.4040 
  193.3750   -11.7650    69.0870    12.7850    11.3590    18.5100    23.8870     2.3930 
  193.5000   -11.4140    66.7640    12.0230    10.6720    14.6110    23.9680     2.3700 
  193.6250   -11.0780    63.6760    10.7840     9.5170    10.5710    24.2660     2.3480 
  193.7500   -10.7320    64.4170     9.4960     8.3300     8.1890    24.7320     2.3330 
  193.8750   -10.3980    70.5190     8.6810     7.5590     7.4970    24.9120     2.3270 
  194.0000   -10.1030    77.9850     8.5600     7.3350     7.4040    24.9440     2.3280 
  194.1250    -9.8490    83.2200     9.2690     7.7400     7.5280    25.0710     2.3390 
  194.2500    -9.6410    85.7570    10.8840     8.8680     9.6480    25.3800     2.3640 
  194.3750    -9.4710    89.3800    13.5180    10.9570    14.0450    25.4550     2.4000 
  194.5000    -9.3310    95.4260    16.7150    13.8130    21.6450    25.1470     2.4370 
  194.6250    -9.2270    99.7250    19.8740    17.0280    26.1870    24.8470     2.4640 
  194.7500    -9.1420    97.4310    22.2190    19.7880    29.4830    24.6790     2.4780 
  194.8750    -9.0340    88.9080    22.8460    20.8780    32.4040    24.6360     2.4820 
  195.0000    -8.8790    82.5350    21.9610    20.2830    30.5070    24.6220     2.4860 
  195.1250    -8.6940    82.4590    20.0700    18.5560    24.5220    24.5560     2.4930 
  195.2500    -8.4700    86.2420    17.8520    16.4580    19.5750    24.5140     2.5000 
  195.3750    -8.2100    89.0130    15.9630    14.6430    15.7270    24.4850     2.5000 
  195.5000    -7.9440    89.3160    14.6620    13.3490    12.9700    24.4660     2.4890 
  195.6250    -7.6830    88.1510    13.9850    12.6200    11.4840    24.4550     2.4700 
  195.7500    -7.4390    85.2250    13.8250    12.3830    11.5290    24.5020     2.4500 
  195.8750    -7.2090    81.5950    14.0010    12.5210    13.3890    24.5320     2.4400 
  196.0000    -7.0000    80.1270    14.2310    12.7810    14.8960    24.5620     2.4450 
  196.1250    -6.8100    80.1570    14.3820    13.0290    14.5610    24.5660     2.4590 
  196.2500    -6.6400    80.7230    14.4050    13.1910    14.2100    24.7190     2.4760 
  196.3750    -6.4870    81.3210    14.3020    13.2350    15.0330    25.0030     2.4890 
  196.5000    -6.3640    81.4140    14.1400    13.1960    15.2700    25.0440     2.5000 
  196.6250    -6.2460    79.3180    13.9440    13.0860    12.7820    24.6660     2.5090 
  196.7500    -6.1080    75.3530    13.7230    12.9010    10.6550    24.3470     2.5140 
  196.8750    -5.9930    74.6590    13.4750    12.6240    10.2220    24.3700     2.5050 
  197.0000    -5.9350    76.0470    13.2100    12.2940    10.7660    24.4320     2.4840 
  197.1250    -5.9020    77.6820    12.9370    11.9490    10.7800    24.4410     2.4580 
  197.2500    -5.8750    79.6370    12.6590    11.6190    10.5900    24.3990     2.4380 
  197.3750    -5.8690    81.0540    12.3760    11.3140    12.3390    24.3040     2.4310 
  197.5000    -5.8620    80.0500    12.0960    11.0200    14.6340    24.2130     2.4330 
  197.6250    -5.8350    78.1900    11.8460    10.7450    15.4770    24.2230     2.4350 
  197.7500    -5.8090    78.1910    11.6770    10.5270    13.3050    24.2510     2.4300 
  197.8750    -5.7970    79.3810    11.6910    10.4670    10.5300    24.1260     2.4190 
  198.0000    -5.7620    81.7500    11.9160    10.6060     8.8170    23.9930     2.4100 
  198.1250    -5.7020    85.7390    12.3480    10.9530     8.6820    23.9710     2.4110 
  198.2500    -5.6290    87.9430    12.9230    11.4640     9.4980    24.0730     2.4240 
  198.3750    -5.5810    84.8200    13.5140    12.0420    10.0650    24.2040     2.4450 
  198.5000    -5.5390    80.1630    14.0000    12.5670    10.2450    24.3140     2.4640 
  198.6250    -5.4980    77.6240    14.3240    12.9690    10.5830    24.4100     2.4760 
  198.7500    -5.4490    78.8530    14.4830    13.2180    11.2130    24.4220     2.4830 
  198.8750    -5.4030    84.0740    14.4850    13.2880    12.4060    24.3500     2.4910 
  199.0000    -5.3800    88.5100    14.3840    13.2290    13.9800    24.3110     2.5030 
  199.1250    -5.4010    88.0330    14.2070    13.0710    14.7740    24.2680     2.5170 
  199.2500    -5.4830    84.9140    13.9840    12.8590    13.9790    24.2850     2.5310 
  199.3750    -5.5560    85.4530    13.7600    12.6410    12.4840    24.3880     2.5400 
  199.5000    -5.6320    86.1110    13.5720    12.4510    12.1340    24.4490     2.5410 
  199.6250    -5.7340    83.8240    13.4330    12.2990    12.6980    24.4770     2.5340 
  199.7500    -5.8490    81.4910    13.3350    12.1870    13.4470    24.5030     2.5220 
  199.8750    -5.9750    83.4390    13.2620    12.1110    14.1040    24.5320     2.5140 
  200.0000    -6.1050    85.4950    13.1860    12.0540    14.6740    24.5760     2.5160 
  200.1250    -6.2200    83.4330    13.0900    11.9950    14.7320    24.6100     2.5230 
  200.2500    -6.3140    78.9080    12.9600    11.9120    13.6010    24.6120     2.5260 
  200.3750    -6.3840    76.6060    12.7860    11.7890    12.3050    24.8130     2.5120 
  200.5000    -6.4240    77.0150    12.5960    11.6430    11.3770    25.0390     2.4830 
  200.6250    -6.4540    79.7200    12.4220    11.5060    11.0060    24.9020     2.4480 
  200.7500    -6.4940    81.3660    12.3050    11.4120    10.7730    24.6290     2.4170 
  200.8750    -6.5240    80.5720    12.2910    11.4030    10.3260    24.4360     2.3940 
  201.0000    -6.5340    78.8790    12.3670    11.4670    10.6420    24.3650     2.3780 
  201.1250    -6.5240    78.2600    12.4940    11.5760    11.3310    24.2540     2.3700 
  201.2500    -6.4810    79.3320    12.6120    11.6840    12.2250    24.1290     2.3700 
  201.3750    -6.4360    80.1040    12.6460    11.7320    12.3330    24.0400     2.3830 
  201.5000    -6.4140    78.8930    12.5800    11.6980    12.0850    24.0910     2.4030 
  201.6250    -6.3980    77.0330    12.4350    11.5860    11.2270    24.2600     2.4270 
  201.7500    -6.3810    77.8840    12.2560    11.4270     9.8940    24.3310     2.4510 
  201.8750    -6.3580    80.9400    12.1070    11.2720     9.4740    24.3120     2.4740 
  202.0000    -6.3540    80.7140    12.0230    11.1640     9.5380    24.3280     2.4930 
  202.1250    -6.3610    78.2360    12.0160    11.1260     9.6550    24.3880     2.5030 
