~V
VERS. 2.00: Ver 2.00
~W
STRT.M 63.0000:
STOP.M 800.0000:
STEP.M 0.1250:
NULL. -999.2500:
UWI. F10168:
~C
DEPT.M :
SP.MV :
GR.API :
RML.OHMM :
RI. :
RXO.OHMM :
CALI.CM :
DEN.GM/CC :
~A
# ...
  603.0000    -7.5260    77.8570    15.1310    13.3020    14.6070    20.9240     2.2320 
  603.1250    -8.7920    73.4120    17.5890    15.5930    14.5620    19.6640     2.2600 
  603.2500   -10.2920    67.8580    21.0760    18.8230    14.6610    18.3910     2.2930 
  603.3750   -12.0240    65.3770    25.4140    22.8430    14.3250    17.3820     2.3170 
  603.5000   -13.9850    66.1560    30.0230    27.1740    13.8680    16.7140     2.3240 
  603.6250   -16.0550    65.4530    33.7530    30.8750    13.4260    16.2740     2.3110 
  603.7500   -18.1390    62.7280    35.9580    33.3290    13.1510    15.9130     2.2910 
  603.8750   -20.1480    61.1450    36.6560    34.4300    13.0570    15.6610     2.2740 
  604.0000   -21.9950    62.6150    36.3900    34.5210    13.1230    15.5240     2.2660 
  604.1250   -23.6540    63.3670    35.8480    34.1030    13.3790    15.4670     2.2660 
  604.2500   -25.0750    60.5970    35.5630    33.7020    13.7660    15.4360     2.2650 
  604.3750   -26.2330    58.2190    35.7300    33.5580    14.1810    15.4130     2.2610 
  604.5000   -27.0860    58.3730    36.3690    33.7910    14.3970    15.3880     2.2530 
  604.6250   -27.7190    57.2350    37.3690    34.4640    13.7330    15.3490     2.2470 
  604.7500   -28.1970    53.4330    38.3850    35.3770    13.4940    15.3060     2.2470 
  604.8750   -28.5830    51.0960    39.1510    36.3260    13.8070    15.2710     2.2520 
  605.0000   -28.8850    52.6280    39.5100    37.0960    14.1950    15.2560     2.2560 
  605.1250   -29.1260    55.6520    39.4260    37.4710    14.8240    15.2750     2.2550 
  605.2500   -29.3070    58.6080    39.1420    37.4960    15.3240    15.3600     2.2510 
  605.3750   -29.4310    60.7100    38.8220    37.2850    15.3100    15.5930     2.2480 
  605.5000   -29.5200    61.4990    38.5590    37.0040    15.0870    16.0640     2.2540 
  605.6250   -29.5900    60.9040    38.3900    36.8310    16.0220    16.8660     2.2730 
  605.7500   -29.6460    59.1370    38.2920    36.8380    18.2670    17.8810     2.2990 
  605.8750   -29.6750    56.7360    38.2680    37.0320    21.2890    18.9740     2.3250 
  606.0000   -29.6720    55.5950    38.3390    37.3810    24.6190    20.0270     2.3440 
  606.1250   -29.6510    57.0490    38.5560    37.8310    29.4430    20.9650     2.3480 
  606.2500   -29.6250    57.3310    38.9000    38.2860    36.0540    21.8130     2.3400 
  606.3750   -29.6200    55.4410    39.3340    38.6940    43.5430    22.5390     2.3220 
  606.5000   -29.6200    53.7600    39.7940    39.0380    48.5530    23.0850     2.3010 
  606.6250   -29.6260    54.7260    40.2010    39.3480    50.3860    23.4020     2.2840 
  606.7500   -29.6370    56.3330    40.5310    39.6780    51.1090    23.5690     2.2770 
  606.8750   -29.6200    55.6640    40.7970    40.0340    50.8150    23.6410     2.2820 
  607.0000   -29.5730    53.1440    41.0270    40.3740    49.8110    23.6630     2.2970 
  607.1250   -29.5130    52.7220    41.2390    40.6060    49.3820    23.6560     2.3150 
  607.2500   -29.4450    53.8290    41.4380    40.7050    50.7190    23.6380     2.3270 
  607.3750   -29.3820    54.0090    41.6070    40.6880    52.7070    23.6090     2.3320 
  607.5000   -29.3380    53.4290    41.6980    40.6020    52.5840    23.5570     2.3300 
  607.6250   -29.2910    53.6280    41.6050    40.4750    49.2690    23.4830     2.3290 
  607.7500   -29.2210    54.0930    41.2920    40.2880    48.0140    23.3840     2.3320 
  607.8750   -29.1500    54.6460    40.7540    39.9660    49.2890    23.2400     2.3400 
  608.0000   -29.0910    57.1110    40.0470    39.4390    49.5060    23.0440     2.3510 
  608.1250   -29.0440    59.6740    39.2870    38.6770    48.8130    22.8440     2.3580 
  608.2500   -29.0050    59.5880    38.5970    37.8290    48.4530    22.6990     2.3600 
  608.3750   -28.9550    58.2120    38.0310    37.0420    47.7750    22.6270     2.3590 
  608.5000   -28.8650    58.4840    37.5930    36.4300    46.2830    22.6140     2.3580 
  608.6250   -28.7470    60.3370    37.2550    36.0320    45.1540    22.6810     2.3570 
  608.7500   -28.6250    60.7800    36.9350    35.7040    45.7230    22.8470     2.3520 
  608.8750   -28.5030    59.8660    36.5840    35.3130    45.1540    23.0950     2.3430 
  609.0000   -28.3610    59.0890    36.1810    34.7940    43.4800    23.3220     2.3320 
  609.1250   -28.1890    58.5200    35.7060    34.1690    42.0020    23.3500     2.3180 
  609.2500   -27.9710    57.6830    35.1400    33.5400    41.6400    23.1610     2.3010 
  609.3750   -27.6920    57.3480    34.4500    32.9500    40.7640    22.8290     2.2780 
  609.5000   -27.3540    56.8680    33.6390    32.4110    38.4650    22.4950     2.2490 
  609.6250   -26.9560    55.2880    32.8540    31.9550    34.3890    22.2760     2.2230 
  609.7500   -26.4800    54.6750    32.5310    31.6730    27.1890    22.1940     2.2120 
  609.8750   -25.9030    55.2490    33.0630    31.7530    19.5140    22.2010     2.2170 
  610.0000   -25.1950    54.2840    34.1820    32.4140    15.0900    22.2120     2.2330 
  610.1250   -24.3620    50.8680    35.8090    33.8040    15.9540    22.1550     2.2490 
  610.2500   -23.4150    48.1740    37.2230    35.3280    19.5990    22.0570     2.2580 
  610.3750   -22.3390    46.7860    37.1870    35.9640    23.8440    21.9910     2.2620 
  610.5000   -21.0650    45.9270    34.3490    34.5400    27.5060    22.0260     2.2670 
  610.6250   -19.6080    48.1760    28.3640    30.2340    29.8350    22.2370     2.2830 
  610.7500   -17.9630    54.4800    21.6180    24.4970    27.4760    22.5990     2.3130 
  610.8750   -16.1440    62.4700    15.9500    18.7870    19.6980    23.0570     2.3570 
  611.0000   -14.1660    68.2540    12.1580    14.1320    11.5240    23.5290     2.4050 
  611.1250   -12.1030    68.6970    10.2770    11.0920     9.0760    23.8820     2.4400 
  611.2500   -10.0130    67.4370     9.4470     9.2690     8.4940    24.0680     2.4540 
  611.3750    -7.9770    67.1500     9.2530     8.3890     8.5430    24.1120     2.4510 
  611.5000    -6.1690    67.7730     9.4140     8.1800     8.5120    24.1020     2.4470 
  611.6250    -4.6450    66.5450     9.7500     8.4300     8.8960    24.1010     2.4640 
  611.7500    -3.4360    63.6680    10.1160     8.8520     9.3420    24.0870     2.5020 
  611.8750    -2.5640    61.0210    10.4890     9.3290     9.8840    24.0520     2.5450 
  612.0000    -2.0720    59.3480    10.8860     9.8040    10.1820    23.9970     2.5720 
  612.1250    -1.8710    58.3080    11.2160    10.2390    10.7690    23.9280     2.5660 
  612.2500    -1.9030    58.1140    11.3900    10.6000    11.9050    23.8250     2.5380 
  612.3750    -2.1060    59.0130    11.4870    10.8480    12.9700    23.6600     2.5020 
  612.5000    -2.4180    61.5940    11.6080    10.9670    12.7190    23.4380     2.4700 
  612.6250    -2.7740    65.3960    11.7160    10.9840    11.5180    23.1950     2.4460 
  612.7500    -3.1520    67.8620    11.7760    11.0100    10.7820    22.9450     2.4270 
  612.8750    -3.5160    67.1060    11.8660    11.1340    11.3900    22.6800     2.4100 
  613.0000    -3.8390    63.2910    12.1370    11.4020    12.4940    22.4260     2.3940 
  613.1250    -4.1320    57.7120    12.6280    11.7940    13.1390    22.2460     2.3800 
  613.2500    -4.3980    54.6260    13.1730    12.1710    13.2870    22.1780     2.3700 
  613.3750    -4.6260    57.8350    13.5810    12.3880    13.1960    22.2230     2.3670 
  613.5000    -4.7440    67.1960    13.6920    12.3320    13.2430    22.3030     2.3720 
  613.6250    -4.7390    76.6000    13.3600    11.9320    13.0560    22.3690     2.3810 
  613.7500    -4.6070    80.6030    12.7230    11.3320    12.3390    22.4640     2.3910 
  613.8750    -4.3520    78.8140    11.9590    10.6710    11.0100    22.6440     2.4020 
  614.0000    -3.9780    74.0890    11.2770    10.0860     9.9030    22.9120     2.4170 
  614.1250    -3.5190    69.3430    10.8840     9.6990     9.6040    23.2420     2.4390 
