~V
VERS. 2.00: Ver 2.00
~W
STRT.M 50.0000:
STOP.M 200.0000:
STEP.M 0.1250:
NULL. -999.2500:
UWI. F10131:
~C
DEPT.M :
GR.API :
RML.OHMM :
RI. :
RXO.OHMM :
CALI.CM :
SP.MV :
DEN.GM/CC :
~A
# ...
  140.0000    72.5120    13.8180    13.3210     9.3620    25.3500    -7.8440     2.4430 
  140.1250    74.3070    15.1750    14.1160    10.0900    25.3780    -8.1710     2.3900 
  140.2500    76.3310    17.4030    15.8090    12.7880    25.3850    -8.5280     2.3360 
  140.3750    81.4940    20.2730    18.3310    18.5200    25.4080    -8.8980     2.2920 
  140.5000    86.5740    23.4240    21.4100    25.2330    25.4280    -9.2660     2.2670 
  140.6250    87.0690    26.4780    24.5930    29.2530    25.4730    -9.6350     2.2660 
  140.7500    85.7110    29.4510    27.5840    23.7510    25.5310   -10.0380     2.2800 
  140.8750    82.5030    32.8100    30.6050    20.2650    25.5950   -10.4960     2.2970 
  141.0000    78.2300    37.3310    34.3460    26.1360    25.6860   -10.9690     2.3050 
  141.1250    74.7660    44.2770    40.1730    53.1080    25.8510   -11.4020     2.2960 
  141.2500    73.3600    53.9120    48.6780    72.8660    26.0720   -11.7840     2.2780 
  141.3750    71.8430    66.3510    60.1770    71.2680    26.2860   -12.1470     2.2580 
  141.5000    68.4250    81.2940    74.4520    64.9060    26.4540   -12.5440     2.2400 
  141.6250    65.3790    98.1810    90.9870    74.5930    26.6530   -12.9720     2.2280 
  141.7500    63.3750   115.2430   108.0850    96.8470    26.8540   -13.3890     2.2180 
  141.8750    62.4120   130.1000   123.7140   110.5100    27.0120   -13.7510     2.2100 
  142.0000    62.2270   139.1560   134.7360   132.2220    27.1040   -14.0820     2.2010 
  142.1250    62.0460   137.0050   135.8940   155.3620    27.2020   -14.4010     2.1940 
  142.2500    61.4980   125.1000   127.3490   164.1890    27.3620   -14.7100     2.1920 
  142.3750    61.6270   107.6540   111.9420   142.7120    27.5310   -15.0060     2.1960 
  142.5000    63.7800    90.5570    94.8750   100.3610    27.6270   -15.2840     2.2070 
  142.6250    67.2360    79.5430    82.1810    65.1070    27.6400   -15.5220     2.2210 
  142.7500    68.7610    75.2570    76.0350    47.2380    27.6770   -15.7330     2.2310 
  142.8750    67.7300    77.1950    76.7560    48.3380    27.7620   -15.9340     2.2320 
  143.0000    65.7560    86.0950    83.3990    69.1610    27.9140   -16.1080     2.2220 
  143.1250    64.3100   101.9340    93.9700   111.9310    28.1000   -16.2380     2.2040 
  143.2500    64.0060   117.2290   104.0400   137.9430    28.2660   -16.3680     2.1870 
  143.3750    64.6210   125.0410   110.1740   136.7700    28.3630   -16.4970     2.1780 
  143.5000    65.7220   123.4910   110.5800   116.7460    28.4270   -16.6510     2.1780 
  143.6250    66.5600   116.2530   105.6790    91.2530    28.5420   -16.8410     2.1880 
  143.7500    66.5300   108.9350    99.5150    80.3630    28.6660   -17.0210     2.2000 
  143.8750    65.8280   103.9990    94.8520    76.5190    28.7830   -17.1870     2.2090 
  144.0000    65.3760   102.6600    93.2090    75.2010    28.8680   -17.3230     2.2140 
  144.1250    65.9750   104.8890    95.0580    76.2810    28.9140   -17.4170     2.2110 
  144.2500    66.8730   108.1930    98.3720    86.1320    28.9260   -17.5000     2.2020 
  144.3750    65.7730   110.0940   100.9470   111.3770    28.9180   -17.6190     2.1910 
  144.5000    62.2350   108.4580   100.6550   118.9330    28.8910   -17.7500     2.1820 
  144.6250    60.3000   102.1410    95.9480   114.3770    28.8560   -17.8690     2.1850 
  144.7500    63.2650    93.6930    88.6420    90.1720    28.8020   -18.0030     2.1980 
  144.8750    68.7880    85.7900    80.9820    70.1380    28.7440   -18.1100     2.2160 
  145.0000    70.9600    80.6660    75.1600    63.1820    28.6650   -18.1650     2.2320 
  145.1250    69.5120    80.1630    73.2110    70.4160    28.4420   -18.2280     2.2380 
  145.2500    69.2880    83.6560    74.9550    71.0190    28.0300   -18.3360     2.2400 
  145.3750    68.3720    90.6630    80.0830    68.6860    27.6420   -18.4490     2.2410 
  145.5000    64.7780   100.5250    88.0010    66.6930    27.6220   -18.5620     2.2440 
  145.6250    61.6150   112.7220    98.1850    76.1210    27.8000   -18.6810     2.2470 
  145.7500    61.8750   126.0790   109.4700    82.0460    27.9700   -18.7780     2.2430 
  145.8750    62.6570   139.9440   121.2340   100.6840    28.0630   -18.8300     2.2320 
  146.0000    62.6400   153.6990   132.9400   130.4880    28.1370   -18.8300     2.2150 
  146.1250    62.8580   166.3330   143.7800   130.7580    27.9220   -18.7770     2.2000 
  146.2500    61.5550   176.9010   152.9990   102.3780    27.3020   -18.6960     2.1920 
  146.3750    59.3310   184.3080   159.7080    75.5570    26.5100   -18.6200     2.1930 
  146.5000    58.9850   187.6250   163.1160    81.4930    26.0800   -18.5430     2.1980 
  146.6250    61.2410   185.6850   162.1920   134.8010    26.2630   -18.4590     2.2010 
  146.7500    62.3030   179.7350   157.8840   181.6110    26.6070   -18.3270     2.1970 
  146.8750    61.4660   170.9020   151.0690   154.8020    26.8460   -18.1340     2.1930 
  147.0000    61.5250   160.5440   142.8590   111.5870    26.9290   -17.9090     2.1920 
  147.1250    64.0230   149.8850   134.3000   100.5540    26.8320   -17.7290     2.2010 
  147.2500    66.9120   139.6000   126.0430    96.5110    26.6020   -17.5580     2.2130 
  147.3750    68.0820   129.7350   118.1550    92.2470    26.3430   -17.3680     2.2220 
  147.5000    68.1910   120.2060   110.5150    82.1370    26.0930   -17.0970     2.2240 
  147.6250    68.2070   111.3230   103.2340    64.2660    25.7490   -16.7000     2.2230 
  147.7500    66.8900   103.6840    96.7610    53.7900    25.3690   -16.2390     2.2260 
  147.8750    65.7450    98.0690    91.8040    52.4240    25.1880   -15.8470     2.2360 
  148.0000    66.4490    95.0450    89.0110    55.4190    25.1350   -15.6080     2.2470 
  148.1250    68.2630    95.0280    89.0410    51.1970    24.7580   -15.4500     2.2500 
  148.2500    71.0230    96.7040    90.9600    43.7480    23.8130   -15.2990     2.2420 
  148.3750    75.0350    98.5660    93.5100    36.9940    22.8930   -15.1250     2.2260 
  148.5000    77.8070    98.8290    94.9500    33.0040    22.3140   -14.9420     2.2110 
  148.6250    78.1880    95.6080    93.1220    30.3080    21.9600   -14.7940     2.2060 
  148.7500    79.7990    89.5460    88.1500    28.2890    21.6770   -14.7130     2.2100 
  148.8750    82.7330    82.1020    81.1750    27.5780    21.5910   -14.6780     2.2190 
  149.0000    83.0000    75.1410    74.0160    27.5510    21.6850   -14.6490     2.2260 
  149.1250    78.7040    70.5900    68.7130    28.5120    21.9070   -14.6080     2.2200 
  149.2500    73.4270    68.7530    65.8910    30.3660    22.1490   -14.5880     2.2000 
  149.3750    69.1170    69.6220    65.6780    30.4740    22.4190   -14.5640     2.1710 
  149.5000    67.1390    73.0190    67.9650    28.5760    22.7210   -14.5210     2.1420 
  149.6250    67.5980    79.1440    73.0360    26.8530    22.9300   -14.4740     2.1260 
  149.7500    68.4210    87.3650    80.4210    25.8290    22.6440   -14.4660     2.1270 
  149.8750    70.2780    97.0290    89.7550    27.4800    22.0460   -14.4630     2.1450 
  150.0000    71.0490   106.4740    99.7390    33.1490    21.7660   -14.4420     2.1730 
  150.1250    69.3910   111.5790   106.6500    37.3330    21.9810   -14.3700     2.2020 
  150.2500    69.0710   109.3010   106.8970    37.8290    22.2550   -14.2040     2.2240 
  150.3750    71.4000    98.8470    98.8460    38.8640    22.4480   -14.0190     2.2390 
  150.5000    74.5430    82.8940    84.3220    36.9970    22.5590   -13.9170     2.2490 
  150.6250    76.3290    66.9450    68.2680    31.0540    22.6470   -13.9470     2.2610 
  150.7500    78.6360    55.3770    55.6150    25.0160    22.6400   -13.9990     2.2760 
  150.8750    80.5150    49.4720    48.1340    22.5680    22.4590   -14.0420     2.2890 
  151.0000    81.8570    48.7550    45.7510    23.9860    22.2660   -14.0820     2.2950 
  151.1250    84.1360    52.2730    47.9240    32.1330    22.1840   -14.1200     2.2920 
