~V
VERS. 2.00: Ver 2.00
~W
STRT.M 55.0000:
STOP.M 239.0000:
STEP.M 0.1250:
NULL. -999.2500:
UWI. F10186:
~C
DEPT.M :
GR.API :
RML.OHMM :
RI. :
RXO.OHMM :
CALI.CM :
DEN.GM/CC :
SP.MV :
~A
# ...
  212.5000    52.7750   188.6580   173.8880   168.0960    24.2940     2.1830   -22.1940 
  212.6250    53.9120   191.0310   175.6750   163.5310    24.2920     2.1920   -22.0580 
  212.7500    53.2160   192.2740   176.3170   159.3450    24.2910     2.1990   -21.8910 
  212.8750    53.1780   193.1480   176.5200   158.3670    24.2910     2.2000   -21.7300 
  213.0000    55.3910   194.2660   176.8830   158.6300    24.2880     2.1970   -21.6080 
  213.1250    57.8570   195.6620   177.5110   161.0620    24.2860     2.1950   -21.4730 
  213.2500    57.9320   196.6410   177.8300   166.7540    24.2850     2.1940   -21.3120 
  213.3750    56.5900   196.5330   177.2340   174.9040    24.2850     2.1940   -21.1320 
  213.5000    56.7140   195.0760   175.4240   179.6940    24.2850     2.1960   -20.9360 
  213.6250    57.5270   192.7680   172.6980   177.3000    24.3030     2.2000   -20.7460 
  213.7500    55.9920   191.0670   170.2890   169.2700    24.3470     2.2060   -20.5850 
  213.8750    53.0810   191.0180   169.1760   153.1730    24.4060     2.2130   -20.3930 
  214.0000    51.2020   192.8080   169.7090   130.5240    24.4090     2.2150   -20.1060 
  214.1250    50.0300   195.3220   171.2310   113.7710    24.3300     2.2110   -19.7950 
  214.2500    48.4260   196.3050   171.9160   113.2860    24.2080     2.2050   -19.5870 
  214.3750    48.6490   194.0430   170.2930   130.1110    24.2260     2.2020   -19.4300 
  214.5000    51.3610   187.9660   165.7120   151.9050    24.3470     2.2050   -19.2090 
  214.6250    54.2450   178.9280   158.5820   161.8120    24.4150     2.2130   -18.8990 
  214.7500    55.6320   169.7470   151.0780   158.1380    24.4620     2.2210   -18.5830 
  214.8750    55.6180   162.1840   144.7520   151.1150    24.5000     2.2190   -18.2860 
  215.0000    53.9690   156.8690   140.3670   152.8320    24.5380     2.2070   -17.9940 
  215.1250    50.5720   153.2810   137.7350   156.4020    24.5360     2.1980   -17.7650 
  215.2500    48.3670   149.5110   135.2040   155.1990    24.4590     2.2110   -17.4970 
  215.3750    48.4630   143.9550   131.2550   150.9330    24.2690     2.2500   -17.1460 
  215.5000    50.6570   135.3650   124.5880   152.3900    24.0490     2.3030   -16.8840 
  215.6250    53.1750   122.7150   113.9720   147.2930    24.0210     2.3340   -16.7360 
  215.7500    54.6550   107.5260   100.5750   132.2670    24.1170     2.3290   -16.5200 
  215.8750    55.0740    91.7420    86.0710   112.6070    24.1810     2.3010   -16.3140 
  216.0000    55.4100    77.5570    72.5760    97.7010    24.1740     2.2760   -16.2060 
  216.1250    56.4330    67.1130    62.3010    76.5800    24.1470     2.2730   -16.0290 
  216.2500    57.9380    60.0580    55.1970    58.0430    24.1170     2.2840   -15.8520 
  216.3750    58.8890    55.6220    50.6630    47.9220    24.1040     2.2990   -15.7390 
  216.5000    59.0070    52.7830    47.8100    46.6490    24.1360     2.3130   -15.5770 
  216.6250    59.6870    50.8420    46.0390    51.1450    24.1550     2.3240   -15.3420 
  216.7500    59.5430    49.5420    45.0210    54.0280    24.0710     2.3330   -15.1260 
  216.8750    58.7570    49.3300    45.0820    49.5630    24.0160     2.3390   -14.8720 
  217.0000    58.9450    50.7570    46.6430    41.7140    24.0920     2.3510   -14.5090 
  217.1250    59.6150    53.9480    49.7860    45.4080    24.0370     2.3830   -14.1350 
  217.2500    58.6260    57.1100    52.8710    57.2170    23.8220     2.4420   -13.7340 
  217.3750    56.1440    57.9230    53.7640    78.1420    23.6390     2.5220   -13.3050 
  217.5000    54.7600    54.2110    50.3330    95.5350    23.5310     2.6010   -12.9100 
  217.6250    57.1040    44.6200    41.1200    88.0530    23.4310     2.6370   -12.5470 
  217.7500    61.2790    32.6110    29.7960    64.8010    23.2360     2.6240   -12.2360 
  217.8750    65.1080    21.8490    20.0470    40.5530    22.9180     2.5800   -12.0160 
  218.0000    67.3120    14.3820    13.4770    20.6420    22.6310     2.5250   -11.9520 
  218.1250    69.3310    10.4080    10.0370    11.8380    22.7490     2.4800   -12.0100 
  218.2500    72.6340     8.8720     8.2870     8.3810    23.2030     2.4530   -12.1410 
  218.3750    73.8700     8.4200     7.5870     8.1550    23.7190     2.4410   -12.3680 
  218.5000    70.8960     8.5410     7.5310     8.8270    24.0510     2.4380   -12.6540 
  218.6250    67.1170     8.9210     7.8570     9.2170    24.1660     2.4340   -12.9600 
  218.7500    66.5000     9.3030     8.2650     9.4070    24.2180     2.4290   -13.2820 
  218.8750    69.0410     9.5810     8.6060     9.5760    24.2610     2.4250   -13.5860 
  219.0000    72.1850     9.7230     8.8090     9.7970    24.3010     2.4220   -13.8200 
  219.1250    74.0810     9.7470     8.8550    10.1610    24.3450     2.4210   -14.0410 
  219.2500    75.3510     9.7290     8.8140    10.4330    24.3710     2.4190   -14.2740 
  219.3750    77.6210     9.7240     8.7410    10.4040    24.3720     2.4180   -14.4990 
  219.5000    80.8140     9.7900     8.6910    10.4030    24.3370     2.4170   -14.7290 
  219.6250    81.8340    10.0150     8.7400    10.5240    24.2670     2.4180   -15.0080 
  219.7500    81.5760    10.4300     8.9280    10.6730    24.2350     2.4180   -15.2970 
  219.8750    81.8900    10.9880     9.2850    10.9430    24.2270     2.4120   -15.5760 
  220.0000    83.0230    11.7050     9.8210    11.5030    24.2280     2.4010   -15.8700 
  220.1250    82.7350    12.4260    10.5330    12.5870    24.2310     2.3850   -16.0890 
  220.2500    79.5940    13.0530    11.3400    14.1290    24.2240     2.3700   -16.2000 
  220.3750    75.0400    13.7350    12.1760    15.4790    24.1810     2.3610   -16.2470 
  220.5000    70.3760    14.4010    12.9770    16.5550    24.0780     2.3580   -16.1820 
  220.6250    67.3820    14.9830    13.6590    17.5650    23.9930     2.3610   -15.9820 
  220.7500    65.9830    15.5760    14.1840    18.6390    23.9550     2.3650   -15.7330 
  220.8750    64.7330    15.9630    14.5130    19.3850    23.9480     2.3690   -15.4060 
  221.0000    63.4300    16.1270    14.6270    19.7030    23.9470     2.3700   -14.9670 
  221.1250    64.8780    16.0510    14.5060    19.7340    23.9470     2.3690   -14.4890 
  221.2500    68.2290    15.8260    14.2390    19.1700    23.9440     2.3680   -13.9780 
  221.3750    70.6780    15.5210    13.8960    18.1420    23.9300     2.3680   -13.4170 
  221.5000    70.4500    15.2010    13.5420    17.0680    23.9000     2.3720   -12.8740 
  221.6250    69.7220    14.9160    13.2320    16.6460    23.8850     2.3820   -12.3350 
  221.7500    67.6290    14.6920    12.9880    16.5970    23.8800     2.3960   -11.7500 
  221.8750    62.9020    14.5690    12.8410    16.5680    23.8800     2.4110   -11.2070 
  222.0000    60.3660    14.6020    12.8320    16.3340    23.8800     2.4230   -10.7070 
  222.1250    63.1300    14.8620    13.0240    16.3050    23.8800     2.4270   -10.2260 
  222.2500    65.2490    15.2650    13.3580    16.3170    23.8800     2.4310    -9.7910 
  222.3750    64.9020    15.6600    13.7240    16.5400    23.8800     2.4360    -9.3980 
  222.5000    64.8540    15.8410    13.9630    17.4460    23.8800     2.4440    -9.0220 
  222.6250    67.3140    15.5840    13.8720    18.8520    23.8800     2.4490    -8.6970 
  222.7500    68.8030    14.9940    13.4820    19.1700    23.8800     2.4430    -8.4000 
  222.8750    68.0780    14.3010    12.9400    17.4540    23.8800     2.4280    -8.0650 
  223.0000    65.4480    13.7790    12.4570    15.0690    23.8800     2.4110    -7.7650 
  223.1250    62.4260    13.6270    12.2070    13.6340    23.8800     2.4060    -7.4660 
  223.2500    61.8550    13.6820    12.1140    13.6490    23.8800     2.4150    -7.1850 
  223.3750    63.1780    13.6870    12.0100    14.8180    23.8800     2.4320    -6.9410 
  223.5000    64.2550    13.3840    11.7030    16.4980    23.8800     2.4430    -6.6910 
  223.6250    64.7410    12.5990    11.0350    16.3680    23.8800     2.4350    -6.4760 
