~V
VERS. 2.00: Ver 2.00
~W
STRT.M 50.0000:
STOP.M 200.0000:
STEP.M 0.1250:
NULL. -999.2500:
UWI. F10131:
~C
DEPT.M :
GR.API :
RML.OHMM :
RI. :
RXO.OHMM :
CALI.CM :
SP.MV :
DEN.GM/CC :
~A
# ...
  106.2500    64.6690     7.5130     6.7390    10.1980    25.7060   -18.7660     2.1440 
  106.3750    63.1940     7.8590     6.9630    10.0890    25.4410   -17.9470     2.1530 
  106.5000    62.5470     8.3970     7.3530    10.0190    25.3220   -17.0240     2.1740 
  106.6250    63.9660     8.9390     7.8090    10.5220    25.2100   -15.9910     2.2180 
  106.7500    67.1320     9.1780     8.0970    13.2310    24.9400   -14.8570     2.2730 
  106.8750    71.0580     8.8920     8.0150    17.7240    24.3500   -13.6640     2.3230 
  107.0000    74.8300     8.0640     7.4930    15.9950    23.7260   -12.4700     2.3540 
  107.1250    81.4490     6.9150     6.6360     9.6800    23.3870   -11.3410     2.3580 
  107.2500    92.0320     5.8650     5.7630     6.2150    23.3310   -10.3190     2.3460 
  107.3750   103.1280     5.1300     5.0600     5.0760    23.4170    -9.4570     2.3290 
  107.5000   108.4980     4.7590     4.6070     4.8210    23.5160    -8.7840     2.3120 
  107.6250   104.8960     4.7090     4.4280     5.0880    23.5530    -8.3900     2.2980 
  107.7500    98.4650     4.8090     4.4230     5.3210    23.5160    -8.2800     2.2830 
  107.8750    91.8600     4.9760     4.5360     5.2250    23.4040    -8.4220     2.2660 
  108.0000    88.4500     5.1770     4.7250     4.9140    23.3010    -8.7900     2.2460 
  108.1250    87.4220     5.4080     4.9730     5.2180    23.3120    -9.3360     2.2240 
  108.2500    84.6770     5.6550     5.2500     6.2840    23.4520    -9.9440     2.2100 
  108.3750    80.6040     5.8880     5.5250     7.0750    23.6870   -10.5830     2.2070 
  108.5000    78.7470     6.0760     5.7630     7.1440    23.8900   -11.2440     2.2160 
  108.6250    79.9160     6.1940     5.9260     7.2280    24.0090   -11.9030     2.2330 
  108.7500    80.1740     6.2830     6.0330     7.5830    24.0140   -12.5350     2.2500 
  108.8750    80.0750     6.3940     6.1220     7.8030    23.9620   -13.1160     2.2590 
  109.0000    81.0640     6.5560     6.2280     7.8610    23.9220   -13.5930     2.2540 
  109.1250    82.1660     6.7260     6.3430     7.8300    24.0290   -13.9310     2.2290 
  109.2500    81.1000     6.7860     6.3880     7.8750    24.3280   -14.1240     2.1880 
  109.3750    77.7280     6.6170     6.2670     8.0320    24.6810   -14.1030     2.1410 
  109.5000    75.3550     6.1580     5.9160     7.8070    24.8380   -13.8190     2.1060 
  109.6250    77.7360     5.4450     5.3330     6.6130    24.6860   -13.2970     2.1020 
  109.7500    83.3400     4.7220     4.6900     5.1450    24.6790   -12.6930     2.1270 
  109.8750    89.3810     4.2110     4.1530     4.2210    24.8230   -12.1030     2.1700 
  110.0000    94.6350     4.0870     3.8690     3.7860    24.8590   -11.6340     2.2170 
  110.1250    95.0080     4.5210     4.0040     3.8300    24.6920   -11.4360     2.2590 
  110.2500    88.0210     5.3960     4.5270     4.5820    24.5960   -11.5820     2.2950 
  110.3750    77.5360     6.5390     5.3710     6.9840    24.6140   -12.1410     2.3190 
  110.5000    70.5170     7.6500     6.3550    11.4610    24.6400   -13.1300     2.3260 
  110.6250    68.0530     8.2950     7.1400    15.4200    24.6420   -14.4880     2.3040 
  110.7500    64.7410     8.3720     7.5050    14.1860    24.7130   -15.9340     2.2660 
  110.8750    60.6220     8.0060     7.4320    11.4260    24.8650   -17.3350     2.2240 
  111.0000    59.4780     7.4710     7.0780    10.0620    24.9650   -18.6040     2.1930 
  111.1250    63.1590     7.0700     6.6780     9.9240    25.1260   -19.6480     2.1790 
  111.2500    67.8420     6.8980     6.3960     9.7780    25.3200   -20.4390     2.1740 
  111.3750    70.4480     6.9220     6.2630     9.9340    25.5210   -20.9590     2.1720 
  111.5000    69.1870     7.0610     6.2520    10.1650    25.6210   -21.2230     2.1680 
  111.6250    66.6000     7.2290     6.3210    10.1110    25.5350   -21.2290     2.1630 
  111.7500    65.7780     7.3670     6.4060     9.9970    25.2990   -21.1040     2.1600 
  111.8750    65.5160     7.4570     6.4770     9.8810    25.0450   -20.8830     2.1600 
  112.0000    64.9810     7.5030     6.5180     9.8980    24.9180   -20.5700     2.1630 
  112.1250    65.5190     7.5160     6.5210     9.7790    24.7800   -20.1410     2.1670 
  112.2500    68.8260     7.5150     6.5050     9.8450    24.6990   -19.6210     2.1740 
  112.3750    71.6030     7.5080     6.4820     9.8100    24.6510   -19.0320     2.1830 
  112.5000    72.0220     7.4990     6.4620     9.6070    24.6270   -18.3910     2.1920 
  112.6250    72.5700     7.4970     6.4530     9.4880    24.6670   -17.7420     2.2000 
  112.7500    73.9470     7.5110     6.4540     9.5850    24.7200   -17.1580     2.2030 
  112.8750    74.2550     7.5410     6.4630     9.5940    24.7360   -16.6830     2.2030 
  113.0000    72.7730     7.5820     6.4740     9.5820    24.7260   -16.3340     2.2030 
  113.1250    71.9400     7.6160     6.4810     9.7730    24.7430   -16.1250     2.2050 
  113.2500    72.0480     7.6360     6.4800     9.8840    24.7880   -16.0380     2.2070 
  113.3750    70.7830     7.6470     6.4750     9.8530    24.7480   -16.0790     2.2090 
  113.5000    70.0960     7.6620     6.4750     9.4160    24.5540   -16.2610     2.2100 
  113.6250    71.7220     7.6940     6.4930     9.2460    24.3720   -16.6280     2.2100 
  113.7500    73.2720     7.7370     6.5320     9.8110    24.2490   -17.0660     2.2100 
  113.8750    74.6230     7.7780     6.5840    10.5350    24.1850   -17.4910     2.2090 
  114.0000    75.5960     7.8000     6.6380    10.7070    24.1610   -17.8540     2.2050 
  114.1250    73.3800     7.7990     6.6810    10.3460    24.1870   -18.1220     2.2020 
  114.2500    68.6470     7.7940     6.7180     9.9630    24.2380   -18.3020     2.2020 
  114.3750    67.8790     7.8090     6.7630     9.8500    24.3190   -18.3730     2.2090 
  114.5000    73.7220     7.8650     6.8300    10.0120    24.3720   -18.3240     2.2180 
  114.6250    79.0920     7.9650     6.9250    10.2750    24.3670   -18.1210     2.2240 
  114.7500    79.2960     8.0670     7.0260    10.3210    24.2780   -17.8200     2.2250 
  114.8750    76.4690     8.1240     7.1020     9.9080    24.2150   -17.4880     2.2260 
  115.0000    74.3250     8.0930     7.1230     9.5180    24.3020   -17.1700     2.2330 
  115.1250    74.1790     7.9450     7.0570     9.4330    24.5170   -16.9520     2.2420 
  115.2500    74.0900     7.7340     6.9280     9.7960    24.7660   -16.8370     2.2440 
  115.3750    74.2450     7.5390     6.7770    10.0850    25.0540   -16.7960     2.2310 
  115.5000    74.8940     7.4500     6.6710    10.0800    25.3700   -16.7490     2.2040 
  115.6250    75.3300     7.5570     6.7040     9.8410    25.4100   -16.5780     2.1850 
  115.7500    74.8940     7.7930     6.8720     9.6020    25.2290   -16.2330     2.1930 
  115.8750    73.4180     8.0300     7.1040     9.6400    24.9560   -15.6550     2.2380 
  116.0000    71.7610     8.0960     7.2620    11.3900    24.7530   -14.8140     2.3040 
  116.1250    71.3070     7.7720     7.1480    16.2300    24.7150   -13.6820     2.3610 
  116.2500    74.4080     7.2000     6.7470    16.7210    24.7200   -12.3820     2.3840 
  116.3750    82.0170     6.6480     6.1470     9.8230    24.6790   -11.0270     2.3700 
  116.5000    90.7070     6.2680     5.5030     5.6790    24.5850    -9.6990     2.3360 
  116.6250    95.2910     6.0060     4.9910     4.6860    24.5000    -8.5140     2.3040 
  116.7500    95.8730     5.7890     4.6650     4.6620    24.4160    -7.5480     2.2850 
  116.8750    95.6210     5.6860     4.5220     4.7920    24.3150    -6.8340     2.2790 
  117.0000    96.0790     5.7220     4.5210     4.9490    24.2380    -6.3910     2.2800 
  117.1250    95.2980     5.8210     4.6160     4.9120    24.1880    -6.2230     2.2870 
  117.2500    94.9410     5.9320     4.7420     4.7310    24.1640    -6.2170     2.2980 
  117.3750    95.6040     6.0380     4.8700     4.7230    24.1520    -6.3170     2.3080 
