~V
VERS. 2.00: Ver 2.00
~W
STRT.M 54.0000:
STOP.M 236.0000:
STEP.M 0.1250:
NULL. -999.2500:
UWI. F10195:
~C
DEPT.M :
GR.API :
RML.OHMM :
RI. :
RXO.OHMM :
CALI.CM :
SP.MV :
DEN.GM/CC :
~A
# ...
  155.2500    70.4730    26.6710    22.2780    23.7280    22.9570   -11.6430     2.2240 
  155.3750    67.8190    28.7240    24.2870    25.5110    23.3150   -11.2170     2.2260 
  155.5000    66.8540    29.6380    25.4450    26.5950    23.4090   -10.8050     2.2280 
  155.6250    66.2540    29.3710    25.6120    26.5940    23.3410   -10.4690     2.2310 
  155.7500    64.8440    28.3260    25.0270    25.9450    23.1770   -10.2490     2.2380 
  155.8750    65.1720    27.2750    24.3450    23.9760    22.8900   -10.0720     2.2510 
  156.0000    66.8510    26.6200    23.9400    21.6080    22.6900    -9.9090     2.2640 
  156.1250    66.1290    26.5970    24.0420    21.3900    22.7960    -9.7610     2.2700 
  156.2500    64.3200    27.4480    24.9000    24.0570    23.1270    -9.6790     2.2640 
  156.3750    65.4070    28.9900    26.4310    28.4140    23.3550    -9.6360     2.2520 
  156.5000    69.3590    30.8930    28.4650    28.9900    23.4010    -9.5980     2.2420 
  156.6250    72.6720    32.4510    30.4750    27.1100    23.3410    -9.5600     2.2400 
  156.7500    70.3900    32.2060    31.0750    29.0390    23.3310    -9.5170     2.2390 
  156.8750    63.7110    29.5480    29.2810    31.6890    23.4180    -9.4960     2.2340 
  157.0000    57.9070    24.8270    25.1350    27.2360    23.4460    -9.5160     2.2310 
  157.1250    60.3200    19.2990    19.8730    17.7320    23.2820    -9.6020     2.2410 
  157.2500    72.4850    14.4650    15.1090    11.4250    22.9540    -9.7400     2.2640 
  157.3750    84.2680    10.8830    11.4890     8.4440    22.6940    -9.8620     2.2840 
  157.5000    89.8910     8.5480     9.0110     7.1400    22.6740    -9.9520     2.2930 
  157.6250    90.4130     7.2090     7.4590     6.3290    22.7580   -10.0720     2.2950 
  157.7500    89.5250     6.6570     6.6850     5.6580    22.6860   -10.2430     2.2970 
  157.8750    89.5530     6.5750     6.3970     5.3950    22.4370   -10.4300     2.3000 
  158.0000    90.2530     6.9480     6.5450     5.7280    22.1220   -10.6020     2.3020 
  158.1250    89.1190     7.8930     7.1770     6.6090    21.9040   -10.7320     2.2950 
  158.2500    83.3050     9.7640     8.5550     8.3700    21.8280   -10.8610     2.2790 
  158.3750    75.6960    12.6100    10.7810    12.1890    21.9110   -11.0400     2.2590 
  158.5000    69.6860    16.4280    13.9810    18.7940    22.2780   -11.2230     2.2380 
  158.6250    66.1960    20.9360    18.0680    26.0340    22.8570   -11.3110     2.2180 
  158.7500    63.6960    25.3480    22.4770    27.9460    23.4250   -11.3510     2.2050 
  158.8750    64.0470    28.6010    26.0760    30.2570    23.6420   -11.4030     2.1990 
  159.0000    67.8400    29.9410    27.9690    31.2380    23.7120   -11.4690     2.1980 
  159.1250    72.0980    29.2030    27.8220    30.9230    23.7660   -11.5130     2.2000 
  159.2500    72.5260    26.6780    25.7740    29.1450    23.7950   -11.4630     2.2060 
  159.3750    72.0650    23.4390    22.8620    25.0690    23.7320   -11.3630     2.2170 
  159.5000    72.7720    20.1290    19.7400    19.9860    23.5610   -11.2960     2.2330 
  159.6250    73.5740    17.2010    16.8830    15.3930    23.3110   -11.2870     2.2520 
  159.7500    74.3070    14.9720    14.6250    13.2120    23.1430   -11.2670     2.2680 
  159.8750    76.7730    13.3010    12.8840    11.8840    23.0450   -11.2200     2.2770 
  160.0000    80.8270    12.0260    11.5510    10.9520    22.9280   -11.1500     2.2810 
  160.1250    85.1090    10.9600    10.4830    10.2120    22.7180   -11.1100     2.2810 
  160.2500    88.1820     9.9740     9.5710     9.0350    22.4610   -11.1730     2.2810 
  160.3750    87.5630     9.0550     8.7540     7.9950    22.3190   -11.2660     2.2810 
  160.5000    82.9170     8.2860     8.0680     7.3440    22.3150   -11.3220     2.2810 
  160.6250    78.6790     7.7550     7.5720     6.7290    22.4010   -11.3240     2.2800 
  160.7500    79.2670     7.5490     7.3460     6.4170    22.4350   -11.3100     2.2820 
  160.8750    82.0750     7.5940     7.3480     6.6160    22.3470   -11.3600     2.2840 
  161.0000    83.6050     7.8220     7.5300     7.0460    22.1930   -11.4560     2.2830 
  161.1250    82.1570     8.1520     7.8280     7.2580    22.0910   -11.5010     2.2800 
  161.2500    78.5470     8.4850     8.1620     7.4150    22.1160   -11.4660     2.2790 
  161.3750    75.7940     8.7270     8.4350     7.6040    22.2290   -11.4180     2.2810 
  161.5000    76.0280     8.8230     8.5790     7.9600    22.3370   -11.3980     2.2830 
  161.6250    78.0320     8.7730     8.5660     8.1280    22.4050   -11.3970     2.2860 
  161.7500    79.1840     8.6340     8.4280     8.0470    22.3850   -11.3680     2.2880 
  161.8750    78.8460     8.5220     8.2840     7.7860    22.3820   -11.3020     2.2910 
  162.0000    78.3440     8.5100     8.2090     7.5180    22.3980   -11.2180     2.2940 
  162.1250    79.0460     8.6110     8.2210     7.4340    22.4600   -11.1590     2.2930 
  162.2500    78.4330     8.7660     8.2700     7.7840    22.4430   -11.0810     2.2860 
  162.3750    76.4580     8.8590     8.2670     8.5270    22.4220   -10.9480     2.2740 
  162.5000    76.4580     8.8290     8.1630     8.7390    22.4680   -10.7740     2.2620 
  162.6250    80.6830     8.7120     7.9820     8.2520    22.6180   -10.6100     2.2550 
  162.7500    85.2750     8.6870     7.8480     7.9260    22.8160   -10.5240     2.2550 
  162.8750    85.5370     8.9750     7.9270     7.9390    22.9970   -10.4600     2.2570 
  163.0000    83.5830     9.7760     8.3760     8.6620    23.0510   -10.3960     2.2560 
  163.1250    82.1200    11.2390     9.3330    10.3660    23.0610   -10.3410     2.2540 
  163.2500    79.6660    13.5370    11.0100    12.9210    23.1310   -10.3300     2.2520 
  163.3750    75.4150    16.4180    13.3080    16.1620    23.2140   -10.4020     2.2490 
  163.5000    71.9170    19.5500    16.0510    20.0520    23.2800   -10.5650     2.2400 
  163.6250    71.2940    22.4250    18.8430    23.5790    23.3090   -10.7740     2.2280 
  163.7500    72.8950    24.3020    20.9570    25.3800    23.3220   -10.9360     2.2230 
  163.8750    74.6190    25.0190    22.0390    25.5990    23.3340   -11.0280     2.2230 
  164.0000    74.7090    24.7200    22.1010    23.5490    23.3290   -11.1050     2.2290 
  164.1250    73.5200    23.8140    21.4750    20.6310    23.3170   -11.2140     2.2390 
  164.2500    73.6570    22.7910    20.5980    19.7730    23.3100   -11.3300     2.2490 
  164.3750    75.5730    21.9900    19.8330    19.8150    23.3030   -11.3970     2.2540 
  164.5000    75.4840    21.5040    19.3020    19.9100    23.2900   -11.4050     2.2540 
  164.6250    71.4600    21.3210    19.0390    19.6350    23.2570   -11.4090     2.2560 
  164.7500    67.3400    21.4720    19.1030    19.2310    23.2280   -11.4900     2.2610 
  164.8750    68.2780    21.9880    19.5040    19.0190    23.2040   -11.6200     2.2620 
  165.0000    71.6010    23.0060    20.3370    19.3110    23.2000   -11.7220     2.2570 
  165.1250    72.8400    24.5590    21.6530    20.3180    23.2180   -11.8000     2.2530 
  165.2500    72.3670    26.3580    23.3340    22.3460    23.2320   -11.9020     2.2550 
  165.3750    72.5240    27.6600    24.8050    25.5430    23.2440   -12.0100     2.2590 
  165.5000    72.7160    27.8220    25.4600    28.7870    23.2560   -12.0870     2.2620 
  165.6250    73.2280    26.6620    24.9800    29.3860    23.2390   -12.1050     2.2630 
  165.7500    75.9840    24.7060    23.6280    25.2140    23.1970   -12.0790     2.2640 
  165.8750    79.0560    23.1160    22.3570    19.8480    23.1460   -12.0900     2.2650 
  166.0000    78.0980    22.6090    21.7900    17.7370    23.1260   -12.1420     2.2640 
  166.1250    74.0350    23.4910    22.2850    19.2750    23.1360   -12.1780     2.2580 
  166.2500    72.6960    25.7740    24.1130    23.5110    23.1340   -12.1770     2.2520 
  166.3750    74.4550    28.5410    26.7400    27.5320    23.1300   -12.1780     2.2500 
