~V
VERS. 2.00: Ver 2.00
~W
STRT.M 50.0000:
STOP.M 222.0000:
STEP.M 0.1250:
NULL. -999.2500:
UWI. F10145:
~C
DEPT.M :
DEN.GM/CC :
GR.API :
RML.OHMM :
RI. :
RXO.OHMM :
CALI.CM :
SP.MV :
~A
# ...
   61.2500     2.1350    96.4510     6.3600     5.8720     8.8130    19.9350     1.0490 
   61.3750     2.1350    94.1400     6.5880     6.0630     8.9430    19.7690    -1.0570 
   61.5000     2.1370    90.4590     6.8970     6.3010     8.9320    19.9260    -2.6620 
   61.6250     2.1480    90.3150     7.5960     6.8250     9.0310    20.3870    -3.9020 
   61.7500     2.1710    94.7800     8.9320     7.8780     9.1290    21.1670    -4.9940 
   61.8750     2.2000    98.9160    11.1300     9.6730    10.0760    22.1750    -6.0080 
   62.0000     2.2310    98.0850    14.1550    12.1840    13.8520    23.1720    -6.9970 
   62.1250     2.2540    91.8030    17.1410    14.7320    25.3400    23.7380    -8.0060 
   62.2500     2.2640    84.9190    18.5810    16.1470    31.9890    23.8490    -9.0730 
   62.3750     2.2580    79.6590    17.6900    15.7460    24.7040    23.4180   -10.2330 
   62.5000     2.2350    77.9310    14.9840    13.7590    14.2700    22.4390   -11.4740 
   62.6250     2.2040    80.8320    11.9870    11.1900     8.9910    21.3900   -12.7510 
   62.7500     2.1750    83.7450     9.8460     9.0820     7.3710    20.7380   -13.9580 
   62.8750     2.1560    83.1950     8.6920     7.7210     7.0260    20.3970   -15.0530 
   63.0000     2.1460    80.3570     8.2890     7.0460     7.0380    20.2410   -16.0410 
   63.1250     2.1430    77.1830     8.3950     6.9220     7.0190    20.2070   -16.8630 
   63.2500     2.1420    76.1720     8.6650     7.0430     6.8900    20.2290   -17.5030 
   63.3750     2.1430    78.0080     8.9080     7.2240     6.7100    20.2130   -17.9500 
   63.5000     2.1500    80.4980     8.9940     7.3270     6.5960    20.1330   -18.2340 
   63.6250     2.1620    80.5790     8.8530     7.2610     6.5480    20.0600   -18.3530 
   63.7500     2.1710    80.0750     8.5800     7.0780     6.5960    20.0860   -18.4320 
   63.8750     2.1710    80.9150     8.2730     6.8480     6.7780    20.1930   -18.5550 
   64.0000     2.1610    82.2270     8.0210     6.6400     7.0100    20.3030   -18.7390 
   64.1250     2.1420    84.5270     7.8860     6.5020     7.1440    20.3450   -18.9830 
   64.2500     2.1220    87.8870     7.8390     6.4250     7.1990    20.3600   -19.2660 
   64.3750     2.1030    88.4120     7.8440     6.3870     7.1560    20.3920   -19.5690 
   64.5000     2.0880    84.0730     7.8740     6.3700     6.8750    20.4990   -19.9360 
   64.6250     2.0780    80.9210     7.9230     6.3700     6.6020    20.6280   -20.3110 
   64.7500     2.0720    82.5650     7.9910     6.3910     6.5340    20.7060   -20.6540 
   64.8750     2.0690    84.3220     8.0700     6.4350     6.6800    20.6860   -20.9440 
   65.0000     2.0690    82.3360     8.1400     6.4940     6.8760    20.5520   -21.1520 
   65.1250     2.0680    81.0310     8.1620     6.5420     7.0150    20.4140   -21.2740 
   65.2500     2.0640    82.0760     8.1230     6.5550     7.2810    20.3640   -21.3750 
   65.3750     2.0570    82.8850     8.0250     6.5180     7.5620    20.3730   -21.5020 
   65.5000     2.0510    81.9940     7.8890     6.4350     7.6690    20.4300   -21.6250 
   65.6250     2.0470    80.7420     7.7490     6.3220     7.6400    20.5220   -21.8040 
   65.7500     2.0450    81.2860     7.6370     6.2140     7.7090    20.6190   -22.0350 
   65.8750     2.0440    83.4210     7.5620     6.1300     7.7140    20.6750   -22.3010 
   66.0000     2.0420    83.6840     7.5190     6.0770     7.5990    20.6740   -22.5630 
   66.1250     2.0450    80.0140     7.4910     6.0510     7.7180    20.6690   -22.7210 
   66.2500     2.0530    77.4780     7.4590     6.0340     7.7240    20.6480   -22.7630 
   66.3750     2.0660    79.5240     7.4190     6.0200     7.5890    20.6330   -22.6990 
   66.5000     2.0810    81.7030     7.3810     6.0130     7.5840    20.6250   -22.5560 
   66.6250     2.0910    81.1480     7.3790     6.0300     7.7380    20.6240   -22.3430 
   66.7500     2.0950    83.6250     7.4330     6.0850     7.3030    20.6170   -22.0520 
   66.8750     2.0970    88.6940     7.5470     6.1830     6.6890    20.5450   -21.6590 
   67.0000     2.0970    89.1270     7.6860     6.3080     6.4140    20.4700   -21.1910 
   67.1250     2.0970    83.6090     7.7640     6.4040     6.5390    20.4710   -20.7290 
   67.2500     2.1000    80.5190     7.7070     6.4090     6.5630    20.5360   -20.3080 
   67.3750     2.1070    82.8680     7.4850     6.2850     6.5900    20.6190   -19.9210 
   67.5000     2.1230    87.1740     7.1280     6.0320     6.5620    20.7170   -19.5220 
   67.6250     2.1470    94.1430     6.7230     5.6930     6.1920    20.8070   -19.1140 
   67.7500     2.1710   105.3610     6.3840     5.3640     5.6700    20.8350   -18.7520 
   67.8750     2.1870   117.0750     6.1770     5.1130     5.5160    20.7690   -18.4770 
   68.0000     2.1920   121.0610     6.1210     4.9780     5.5950    20.7920   -18.2990 
   68.1250     2.1880   114.9570     6.2100     4.9820     5.7040    20.8390   -18.2540 
   68.2500     2.1830   107.7850     6.3710     5.0750     5.9240    20.7590   -18.3220 
   68.3750     2.1810   103.0920     6.5580     5.2190     6.3620    20.6290   -18.5060 
   68.5000     2.1840    98.2390     6.7440     5.3780     6.5700    20.6140   -18.8360 
   68.6250     2.1880    91.8160     6.9410     5.5400     6.4670    20.6200   -19.3020 
   68.7500     2.1890    87.1320     7.1750     5.7140     6.3570    20.5070   -19.8390 
   68.8750     2.1890    84.4280     7.4560     5.9110     6.4600    20.2100   -20.4150 
   69.0000     2.1890    82.8340     7.7640     6.1320     6.4990    19.8780   -20.9910 
   69.1250     2.1900    82.2220     8.0320     6.3460     6.4520    19.6860   -21.5340 
   69.2500     2.1880    82.9080     8.1940     6.5070     6.4380    19.6040   -22.0420 
   69.3750     2.1820    83.7380     8.2130     6.5770     6.4740    19.5670   -22.5060 
   69.5000     2.1700    82.6570     8.0950     6.5410     6.6160    19.5490   -22.8730 
   69.6250     2.1580    79.2070     7.8760     6.4070     6.8200    19.6410   -23.1080 
   69.7500     2.1490    75.6960     7.6400     6.2380     6.9300    19.7370   -23.2550 
   69.8750     2.1430    74.5400     7.4360     6.0730     6.9140    19.7890   -23.3540 
   70.0000     2.1370    74.2990     7.2890     5.9400     6.8770    19.8310   -23.4040 
   70.1250     2.1300    73.9810     7.2100     5.8530     6.8630    19.9170   -23.3390 
   70.2500     2.1250    75.4890     7.1700     5.7990     6.7960    19.9980   -23.1090 
   70.3750     2.1270    80.1230     7.1530     5.7620     6.6780    19.9940   -22.6810 
   70.5000     2.1360    85.4870     7.1460     5.7330     6.4830    19.9400   -22.0710 
   70.6250     2.1450    88.7590     7.1510     5.7060     6.5960    19.9680   -21.2830 
   70.7500     2.1470    90.3350     7.1780     5.6870     6.9740    20.0980   -20.3890 
   70.8750     2.1430    89.7140     7.2370     5.6840     7.1090    20.1430   -19.4120 
   71.0000     2.1370    87.5980     7.3260     5.7040     6.7170    20.0040   -18.3900 
   71.1250     2.1370    86.6720     7.4280     5.7450     6.5870    19.7710   -17.3950 
   71.2500     2.1450    87.6340     7.5040     5.7870     6.5280    19.5120   -16.5230 
   71.3750     2.1600    88.2990     7.5210     5.8070     6.5670    19.2520   -15.8500 
   71.5000     2.1810    87.5930     7.4740     5.7940     6.6310    19.1150   -15.4460 
   71.6250     2.2030    84.9800     7.4310     5.7710     6.6260    19.1440   -15.3780 
   71.7500     2.2190    80.8270     7.5200     5.8150     6.6540    19.2210   -15.5560 
   71.8750     2.2250    77.1390     7.8580     6.0050     6.7300    19.3340   -15.8990 
   72.0000     2.2240    76.6930     8.4820     6.3970     6.9150    19.6000   -16.3520 
   72.1250     2.2230    79.0860     9.3020     6.9890     7.8160    20.2380   -16.8430 
   72.2500     2.2270    78.4880    10.0140     7.5980    10.9880    21.1220   -17.3250 
   72.3750     2.2330    74.0510    10.3530     8.0230    18.2690    21.7930   -17.7930 
