~V
VERS. 2.00: Ver 2.00
~W
STRT.M 63.0000:
STOP.M 800.0000:
STEP.M 0.1250:
NULL. -999.2500:
UWI. F10168:
~C
DEPT.M :
SP.MV :
GR.API :
RML.OHMM :
RI. :
RXO.OHMM :
CALI.CM :
DEN.GM/CC :
~A
# ...
  310.5000   -31.5400    81.9760    11.6380    10.7350    13.2730    22.7040     2.2250 
  310.6250   -31.7380    81.6650    11.6210    10.7340    13.1780    22.7270     2.2340 
  310.7500   -31.9910    78.3880    11.4890    10.6270    13.0400    22.7330     2.2390 
  310.8750   -32.2510    78.2630    11.3130    10.4270    13.0270    22.7210     2.2380 
  311.0000   -32.4920    82.2500    11.2070    10.2280    13.0330    22.6990     2.2360 
  311.1250   -32.6660    83.3360    11.3480    10.2400    12.9340    22.6840     2.2470 
  311.2500   -32.7670    81.0930    11.8170    10.5880    13.0640    22.6890     2.2790 
  311.3750   -32.7820    80.2880    12.6550    11.3140    13.9320    22.7270     2.3310 
  311.5000   -32.6950    81.1500    13.8000    12.3320    16.1870    22.7970     2.3900 
  311.6250   -32.5470    79.6830    15.0130    13.4350    19.4180    22.8660     2.4250 
  311.7500   -32.3580    76.6270    15.9300    14.3490    21.0090    22.9110     2.4240 
  311.8750   -32.1650    74.2410    16.3390    14.9260    20.5700    22.9580     2.3860 
  312.0000   -32.0200    74.0810    16.2840    15.1630    20.4330    23.0350     2.3300 
  312.1250   -31.9120    76.8010    16.0680    15.2180    19.9580    23.0930     2.2890 
  312.2500   -31.8270    77.9240    16.0990    15.3880    19.5240    23.0530     2.2850 
  312.3750   -31.7810    74.9530    16.5890    15.8770    18.6200    22.9400     2.3150 
  312.5000   -31.7750    71.7710    17.5720    16.7650    19.4430    22.8580     2.3580 
  312.6250   -31.7780    73.3930    18.8320    17.9290    24.0200    22.8660     2.3750 
  312.7500   -31.7900    77.2070    19.8120    18.9070    29.9230    22.8710     2.3490 
  312.8750   -31.7930    78.7930    20.0470    19.2710    30.5090    22.8260     2.2900 
  313.0000   -31.7550    76.6580    19.3770    18.8140    23.4710    22.7550     2.2250 
  313.1250   -31.7260    72.6380    18.0490    17.6660    17.5960    22.7540     2.1900 
  313.2500   -31.7110    69.2480    16.7610    16.4550    13.2830    22.8180     2.1930 
  313.3750   -31.6770    66.5190    15.9750    15.6460    11.6210    22.8620     2.2280 
  313.5000   -31.5860    65.4310    15.9830    15.5540    12.0190    22.7970     2.2820 
  313.6250   -31.4450    68.5220    17.0900    16.4790    13.8820    22.6550     2.3430 
  313.7500   -31.2500    73.3420    19.1100    18.2590    17.0520    22.5880     2.4000 
  313.8750   -31.0060    76.4880    21.7910    20.7080    21.7140    22.6900     2.4450 
  314.0000   -30.7270    77.4210    24.6070    23.4290    29.2010    22.9260     2.4720 
  314.1250   -30.4200    76.7300    26.6420    25.6520    32.0660    23.1680     2.4750 
  314.2500   -30.0990    74.6310    27.4190    26.7940    29.3380    23.3290     2.4610 
  314.3750   -29.8030    72.4710    26.9330    26.6750    26.3590    23.3980     2.4350 
  314.5000   -29.6050    71.4960    25.5970    25.5760    27.7300    23.4010     2.4050 
  314.6250   -29.4950    71.3680    24.0340    24.1000    29.0670    23.3510     2.3800 
  314.7500   -29.4630    70.0650    22.8180    22.9080    26.9130    23.2660     2.3640 
  314.8750   -29.4920    69.2170    22.2170    22.2890    23.2390    23.1810     2.3630 
  315.0000   -29.5530    69.7190    22.3120    22.3150    20.9640    23.1330     2.3750 
  315.1250   -29.6110    70.3490    23.0560    22.9680    23.6920    23.1370     2.3940 
  315.2500   -29.6550    71.3500    24.0270    23.9340    28.2640    23.1780     2.4120 
  315.3750   -29.6810    72.1270    24.8610    24.9430    30.9750    23.2480     2.4220 
  315.5000   -29.6890    73.3420    25.2890    25.7150    31.8280    23.3300     2.4230 
  315.6250   -29.7000    73.6170    25.2260    26.0120    31.5380    23.3680     2.4190 
  315.7500   -29.7100    72.2470    24.9770    25.9760    31.3180    23.3460     2.4140 
  315.8750   -29.7060    70.8510    24.7720    25.8270    32.3270    23.2900     2.4130 
  316.0000   -29.6870    70.2480    24.7170    25.7650    35.5180    23.2420     2.4190 
  316.1250   -29.7060    70.9710    24.7640    25.8650    34.4560    23.1970     2.4310 
  316.2500   -29.7790    70.4990    24.7500    25.9710    33.4960    23.1060     2.4450 
  316.3750   -29.8950    69.0870    24.5690    25.9180    31.6750    22.9670     2.4530 
  316.5000   -30.0230    70.4270    24.2180    25.6290    31.3320    22.8300     2.4480 
  316.6250   -30.1390    73.5660    23.8120    25.1850    31.0650    22.7620     2.4260 
  316.7500   -30.2370    73.3980    23.5250    24.8050    30.6070    22.7470     2.3950 
  316.8750   -30.3220    69.6720    23.4520    24.6060    28.9590    22.7370     2.3610 
  317.0000   -30.4350    67.3010    23.6030    24.6040    28.9380    22.7110     2.3290 
  317.1250   -30.5750    69.2510    23.9200    24.7530    31.0310    22.6900     2.3020 
  317.2500   -30.7160    69.5070    24.2610    24.9690    34.0700    22.6840     2.2820 
  317.3750   -30.8530    66.6900    24.5410    25.2200    34.0350    22.6780     2.2730 
  317.5000   -30.9690    64.4470    24.7130    25.4630    33.3200    22.6670     2.2800 
  317.6250   -31.0450    65.8930    24.7260    25.5970    32.5390    22.6440     2.3080 
  317.7500   -31.0900    69.1070    24.5760    25.5500    33.1000    22.6130     2.3470 
  317.8750   -31.1280    70.9930    24.2610    25.3150    32.6620    22.5840     2.3850 
  318.0000   -31.1640    71.4490    23.8300    24.9780    31.8880    22.5830     2.4140 
  318.1250   -31.1920    71.6130    23.4220    24.7070    31.6510    22.6220     2.4270 
  318.2500   -31.2150    70.6200    23.2030    24.6250    30.9490    22.6710     2.4270 
  318.3750   -31.2260    68.6110    23.2650    24.7680    30.8560    22.6990     2.4170 
  318.5000   -31.2100    66.4590    23.5970    25.1000    33.4320    22.6960     2.4020 
  318.6250   -31.1580    66.9260    24.0390    25.5210    33.6430    22.6840     2.3870 
  318.7500   -31.1110    69.7860    24.3120    25.8490    32.7770    22.6790     2.3750 
  318.8750   -31.0790    73.0690    24.2110    25.8950    32.0890    22.6830     2.3680 
  319.0000   -31.0410    74.2410    23.6440    25.4800    32.4950    22.6900     2.3620 
  319.1250   -31.0090    71.5570    22.6130    24.4470    32.2270    22.6930     2.3550 
  319.2500   -30.9860    69.3190    21.3870    23.0440    28.5270    22.6990     2.3440 
  319.3750   -30.9510    69.7130    20.1960    21.5760    26.1110    22.7170     2.3290 
  319.5000   -30.9100    70.8820    19.2550    20.3600    26.2690    22.7370     2.3120 
  319.6250   -30.8930    70.2890    18.8180    19.7080    28.5820    22.7300     2.2970 
  319.7500   -30.8760    69.5150    18.8910    19.6020    31.6890    22.7050     2.2890 
  319.8750   -30.8470    70.5140    19.4230    19.9860    34.3210    22.7220     2.2920 
  320.0000   -30.8040    71.7980    20.2480    20.7320    34.7050    22.8060     2.3040 
  320.1250   -30.7310    71.2450    21.0810    21.6320    32.2710    22.8990     2.3210 
  320.2500   -30.6300    70.2510    21.6400    22.3610    30.8060    22.9370     2.3340 
  320.3750   -30.5300    70.1210    21.7870    22.6750    30.9210    22.9290     2.3380 
  320.5000   -30.4600    69.4950    21.5250    22.4700    29.9900    22.9010     2.3370 
  320.6250   -30.4230    67.4220    20.9510    21.8090    27.4200    22.8670     2.3370 
  320.7500   -30.4140    66.1420    20.2880    21.0340    25.2180    22.8290     2.3430 
  320.8750   -30.4380    66.2290    19.6650    20.3570    24.9990    22.7890     2.3560 
  321.0000   -30.5050    67.0680    19.1770    19.8770    25.2290    22.7460     2.3680 
  321.1250   -30.6120    67.7010    18.9310    19.6390    25.9210    22.7190     2.3750 
  321.2500   -30.7600    67.1340    18.9150    19.5900    25.8290    22.7070     2.3740 
  321.3750   -30.9330    65.5950    19.0950    19.7210    24.9430    22.6820     2.3720 
  321.5000   -31.1140    64.5910    19.3920    20.0030    25.0680    22.6180     2.3700 
  321.6250   -31.2870    66.4310    19.6600    20.3330    26.3150    22.5620     2.3700 
