~V
VERS. 2.00: Ver 2.00
~W
STRT.M 60.0000:
STOP.M 220.0000:
STEP.M 0.1250:
NULL. -999.2500:
UWI. F10154:
~C
DEPT.M :
GR.API :
RML.OHMM :
RI. :
RXO.OHMM :
CALI.CM :
DEN.GM/CC :
SP.MV :
~A
# ...
  116.2500    62.5850    10.7220     8.9570     9.2260    23.9460     2.2240   -25.1120 
  116.3750    61.6930     9.7740     8.1700     8.3550    23.9030     2.1960   -25.5150 
  116.5000    59.1590     9.1620     7.6330     7.9780    23.8920     2.1740   -25.9020 
  116.6250    58.5000     8.9340     7.3960     7.7950    23.9060     2.1600   -26.1860 
  116.7500    59.8810     8.9320     7.3520     8.0270    23.9270     2.1580   -26.3850 
  116.8750    62.7850     9.0430     7.4200     8.5830    23.9440     2.1660   -26.5500 
  117.0000    66.5890     9.1680     7.5200     9.1350    23.9460     2.1830   -26.6530 
  117.1250    69.8610     9.2140     7.5720     9.1510    23.9450     2.2050   -26.6420 
  117.2500    71.5610     9.1560     7.5470     8.8180    23.9400     2.2240   -26.5220 
  117.3750    72.7450     9.0020     7.4410     8.2390    23.9430     2.2380   -26.3690 
  117.5000    73.9660     8.7920     7.2780     7.9050    23.9520     2.2440   -26.2680 
  117.6250    75.6450     8.5870     7.0990     7.6940    23.9570     2.2410   -26.2330 
  117.7500    76.3220     8.4360     6.9480     7.5730    23.9440     2.2310   -26.2280 
  117.8750    75.0000     8.3570     6.8470     7.5100    23.9100     2.2190   -26.2240 
  118.0000    73.0010     8.3450     6.8080     7.5040    23.9090     2.2060   -26.1960 
  118.1250    71.5780     8.4000     6.8370     7.8020    23.9970     2.2010   -26.1760 
  118.2500    71.0360     8.5060     6.9190     7.9390    24.0940     2.2070   -26.2220 
  118.3750    70.4890     8.6610     7.0490     8.0560    24.1320     2.2230   -26.2430 
  118.5000    70.0370     8.8570     7.2140     7.8950    24.1190     2.2440   -26.1700 
  118.6250    69.9010     9.0660     7.3930     7.7400    24.0720     2.2570   -26.0240 
  118.7500    69.2340     9.2450     7.5510     7.8110    24.0190     2.2580   -25.8530 
  118.8750    69.3710     9.3580     7.6530     8.1290    23.9710     2.2470   -25.6770 
  119.0000    71.0690     9.3930     7.6790     8.2290    23.9310     2.2310   -25.4840 
  119.1250    71.1090     9.3620     7.6270     8.0730    23.8700     2.2220   -25.3160 
  119.2500    69.2240     9.3190     7.5450     7.7980    23.7500     2.2220   -25.1570 
  119.3750    69.0930     9.2950     7.4730     7.6300    23.6480     2.2280   -25.0090 
  119.5000    71.3920     9.2840     7.4310     7.6700    23.5610     2.2340   -24.9090 
  119.6250    74.1410     9.2430     7.4110     7.9110    23.5480     2.2280   -24.8670 
  119.7500    76.4720     9.1580     7.3840     8.1380    23.5680     2.2070   -24.7880 
  119.8750    76.3270     9.1110     7.3700     8.2460    23.6430     2.1790   -24.6370 
  120.0000    71.8000     9.3050     7.4740     8.2170    23.7940     2.1630   -24.4460 
  120.1250    66.8450    10.1260     7.9600     8.3130    23.8850     2.1980   -24.1320 
  120.2500    66.5890    11.6130     8.9580     8.7350    23.8410     2.2870   -23.6650 
  120.3750    69.7160    13.4930    10.4380    10.1040    23.7910     2.4110   -23.1100 
  120.5000    73.0060    15.0800    11.9990    13.3640    23.8340     2.5240   -22.5190 
  120.6250    73.6470    15.2810    12.5820    20.1760    23.8220     2.5680   -21.8900 
  120.7500    73.1860    13.9780    11.7450    21.4540    23.7520     2.5360   -21.2810 
  120.8750    74.3150    11.6840     9.9370    13.0640    23.7150     2.4530   -20.7650 
  121.0000    78.1950     9.2660     8.0050     6.0870    23.6880     2.3580   -20.3830 
  121.1250    82.3650     7.5450     6.6030     4.8590    23.4570     2.2910   -20.0860 
  121.2500    83.3690     6.5770     5.7440     5.5330    23.1130     2.2570   -19.8380 
  121.3750    81.9380     6.1570     5.3080     6.5340    22.8240     2.2480   -19.6680 
  121.5000    80.7670     6.0100     5.1330     6.9490    22.8200     2.2550   -19.5210 
  121.6250    82.3320     5.9100     5.0560     6.6280    23.1420     2.2680   -19.4020 
  121.7500    84.7260     5.7560     4.9590     6.0450    23.5620     2.2820   -19.3450 
  121.8750    86.1600     5.5850     4.8460     5.0980    24.0120     2.2930   -19.2980 
  122.0000    89.2790     5.4770     4.7820     4.5150    24.4380     2.3010   -19.2080 
  122.1250    94.5520     5.5240     4.8470     4.6090    24.7170     2.3020   -19.1640 
  122.2500    95.0610     5.7090     5.0280     4.9760    24.8110     2.2960   -19.2370 
  122.3750    90.3090     5.9990     5.2910     5.3110    24.8020     2.2810   -19.3740 
  122.5000    84.6090     6.3450     5.5870     5.6740    24.7400     2.2610   -19.5210 
  122.6250    84.6550     6.6780     5.8470     6.0130    24.6100     2.2410   -19.6130 
  122.7500    87.1980     6.9350     6.0200     6.0170    24.4190     2.2280   -19.6230 
  122.8750    88.1770     7.0650     6.0730     5.8540    24.2760     2.2240   -19.5690 
  123.0000    87.0740     7.0320     5.9900     5.8300    24.2030     2.2320   -19.4500 
  123.1250    86.8880     6.7980     5.7530     6.0390    24.2090     2.2560   -19.2260 
  123.2500    91.5010     6.4410     5.4220     5.9950    24.3130     2.2910   -18.8810 
  123.3750    98.5300     6.0660     5.0780     5.3960    24.4970     2.3270   -18.4540 
  123.5000   101.9190     5.8290     4.8370     4.6530    24.6950     2.3530   -18.0390 
  123.6250    98.3740     5.9920     4.8770     4.3690    24.8320     2.3500   -17.7010 
  123.7500    93.3560     6.6920     5.2840     4.6460    24.8840     2.3220   -17.4380 
  123.8750    89.2110     8.0280     6.1660     5.9550    24.7190     2.2760   -17.2630 
  124.0000    83.6910     9.9410     7.5900     8.8220    24.3160     2.2230   -17.2030 
  124.1250    75.5610    12.0470     9.4830    13.1050    24.0520     2.1720   -17.2270 
  124.2500    70.1080    13.6020    11.2260    14.0680    24.2170     2.1270   -17.3040 
  124.3750    69.7860    14.0200    12.0790    14.5070    24.7560     2.0970   -17.4250 
  124.5000    71.7300    13.1310    11.6210    14.8230    25.4170     2.0950   -17.5620 
  124.6250    74.5090    11.2400    10.0980    12.7260    25.8250     2.1310   -17.6490 
  124.7500    80.1330     9.2320     8.4330     9.3220    25.7120     2.1920   -17.6140 
  124.8750    87.8400     7.5850     7.0530     6.6210    25.2910     2.2550   -17.4630 
  125.0000    93.6330     6.4830     6.0890     5.5640    24.9320     2.3000   -17.2490 
  125.1250    94.9340     5.9520     5.5690     4.9850    24.8080     2.3120   -17.0690 
  125.2500    94.0530     5.7620     5.3430     4.9380    24.7550     2.3050   -16.9190 
  125.3750    92.6840     5.7670     5.3080     5.0540    24.7270     2.2960   -16.7390 
  125.5000    92.1480     5.8470     5.3620     5.1350    24.7490     2.2960   -16.5370 
  125.6250    94.7860     5.9190     5.4200     4.9640    24.7980     2.3100   -16.3800 
  125.7500    98.0220     5.9720     5.4580     4.8230    24.8280     2.3280   -16.3180 
  125.8750   100.6530     6.0270     5.4910     4.8000    24.8370     2.3390   -16.3390 
  126.0000   101.8930     6.1000     5.5270     4.8050    24.8520     2.3370   -16.3740 
  126.1250   100.4520     6.1890     5.5540     5.0480    24.8460     2.3210   -16.3570 
  126.2500    95.1630     6.2910     5.5740     5.4400    24.8150     2.3020   -16.3050 
  126.3750    87.5960     6.4550     5.6260     5.7930    24.7770     2.2860   -16.2720 
  126.5000    83.0430     6.8020     5.7940     5.7180    24.7690     2.2760   -16.2890 
  126.6250    85.4390     7.6470     6.2600     5.5390    24.6500     2.2660   -16.3650 
  126.7500    89.5960     9.1290     7.1350     6.2860    24.4800     2.2500   -16.4910 
  126.8750    89.7350    11.2760     8.5350     9.2580    24.4530     2.2290   -16.5970 
  127.0000    84.1930    13.9360    10.4980    14.5640    24.7190     2.2060   -16.6740 
  127.1250    77.5320    16.7760    12.9280    18.1860    24.9960     2.1870   -16.8090 
  127.2500    73.6740    19.3040    15.3160    19.5640    25.1550     2.1730   -17.0200 
  127.3750    74.5440    21.1740    17.1990    20.1880    25.2350     2.1630   -17.2750 
