~V
VERS. 2.00: Ver 2.00
~W
STRT.M 55.0000:
STOP.M 228.0000:
STEP.M 0.1250:
NULL. -999.2500:
UWI. F10142:
~C
DEPT.M :
DEN.GM/CC :
GR.API :
RML.OHMM :
RI. :
RXO.OHMM :
CALI.CM :
SP.MV :
~A
# ...
  156.2500     2.3690    60.4130   174.4940   170.4010   176.1490    24.7450   -14.6760 
  156.3750     2.4490    56.7760   222.5100   215.5690   291.2710    24.7680   -14.6960 
  156.5000     2.5050    56.8040   276.8900   265.0180   401.1190    24.7920   -14.7400 
  156.6250     2.5020    57.9080   321.6800   305.6680   361.0380    24.7580   -14.7870 
  156.7500     2.4470    58.6560   343.8830   327.4210   221.6520    24.6600   -14.8410 
  156.8750     2.3670    57.9380   341.4630   327.8690   146.7150    24.6200   -14.8800 
  157.0000     2.2910    55.6880   323.2010   313.0250   152.1730    24.6920   -14.8990 
  157.1250     2.2430    54.7100   302.2330   293.4410   189.0140    24.8730   -14.9110 
  157.2500     2.2190    55.6270   286.6380   277.9490   232.7560    25.0690   -14.8930 
  157.3750     2.2090    57.3300   277.2160   268.6690   269.1650    25.2200   -14.8330 
  157.5000     2.2080    57.9930   273.4850   264.3410   297.0220    25.2630   -14.7700 
  157.6250     2.2080    58.9320   273.3460   261.6090   305.3990    25.2450   -14.6800 
  157.7500     2.2070    59.2980   270.6070   256.4790   285.4960    25.2210   -14.5720 
  157.8750     2.2040    57.5590   260.7690   246.8910   243.7140    25.1970   -14.4870 
  158.0000     2.1980    55.7480   243.2450   232.3200   189.5120    25.1660   -14.3920 
  158.1250     2.1910    56.6900   220.2000   212.8840   183.8810    25.1050   -14.2900 
  158.2500     2.1900    59.2180   195.1050   190.9220   168.1480    25.0400   -14.2120 
  158.3750     2.1950    61.0510   170.2670   168.3830   192.6260    25.0220   -14.1390 
  158.5000     2.2080    63.1580   148.3240   147.4480   180.0390    24.9570   -14.0440 
  158.6250     2.2250    67.3850   132.1950   131.0520   133.1810    24.9170   -13.9650 
  158.7500     2.2400    71.4270   122.0600   120.1670   111.4950    24.8920   -13.8980 
  158.8750     2.2490    72.5150   118.0280   115.3390   114.8020    24.8980   -13.8170 
  159.0000     2.2510    69.7440   119.5570   116.1710   119.3780    24.9010   -13.7450 
  159.1250     2.2460    67.1180   125.6750   121.6600   136.3850    24.8930   -13.6670 
  159.2500     2.2410    66.5270   133.0720   128.5100   177.5340    24.8940   -13.5860 
  159.3750     2.2380    66.8640   139.1470   134.2420   195.3610    24.8970   -13.5010 
  159.5000     2.2380    67.0200   142.2580   137.2260   167.1490    24.8820   -13.3970 
  159.6250     2.2380    66.4370   142.3220   137.1250   136.0670    24.8650   -13.3070 
  159.7500     2.2340    64.2600   141.4100   135.7450   130.0730    24.8560   -13.2170 
  159.8750     2.2240    61.2870   140.0220   133.6600   140.9810    24.8760   -13.1130 
  160.0000     2.2130    59.5970   136.6530   129.8080   153.5460    24.9410   -13.0000 
  160.1250     2.2110    58.8980   127.6660   121.1940   157.4570    25.0920   -12.8800 
  160.2500     2.2210    59.6100   113.0210   107.5610   143.0700    25.1900   -12.7690 
  160.3750     2.2410    64.3260    95.2110    90.6720    90.3980    25.2790   -12.6710 
  160.5000     2.2620    71.5370    78.0670    73.8410    45.4080    25.3960   -12.5850 
  160.6250     2.2750    74.4000    64.6860    60.9000    38.6390    25.4630   -12.4940 
  160.7500     2.2790    72.9970    55.2800    52.5550    37.7650    25.4660   -12.4050 
  160.8750     2.2760    71.2540    50.1190    48.3660    45.3900    25.4510   -12.3210 
  161.0000     2.2710    71.1390    48.9770    47.3110    52.3770    25.4640   -12.2500 
  161.1250     2.2680    72.9120    50.6750    48.4300    59.4860    25.4640   -12.2120 
  161.2500     2.2680    75.1120    52.8610    50.2830    58.3720    25.4550   -12.1640 
  161.3750     2.2680    76.2710    54.7400    52.1180    58.2180    25.4610   -12.0940 
  161.5000     2.2660    75.7490    55.9370    53.4450    57.5490    25.4710   -12.0360 
  161.6250     2.2630    74.1320    55.9770    53.7660    60.6920    25.4780   -11.9860 
  161.7500     2.2640    73.0210    54.7250    52.8770    66.2830    25.4820   -11.9170 
  161.8750     2.2730    72.8500    51.9300    50.4810    73.6320    25.4750   -11.8620 
  162.0000     2.2880    74.2980    47.5770    46.5080    63.6160    25.4400   -11.8220 
  162.1250     2.3060    75.4600    41.9810    41.2060    47.8430    25.4050   -11.7680 
  162.2500     2.3220    74.3410    36.1710    35.6010    34.3650    25.3930   -11.7160 
  162.3750     2.3340    72.1050    30.8530    30.4100    28.8990    25.4160   -11.6910 
  162.5000     2.3430    72.1100    26.4530    26.0700    26.2730    25.4340   -11.6700 
  162.6250     2.3520    78.7730    23.2330    22.8460    23.9060    25.4310   -11.6520 
  162.7500     2.3630    86.9410    20.8650    20.4480    21.6530    25.4080   -11.6550 
  162.8750     2.3740    90.0350    19.1320    18.6970    19.1840    25.3930   -11.6580 
  163.0000     2.3840    86.8280    17.8500    17.4290    17.4010    25.3850   -11.6640 
  163.1250     2.3900    82.5470    16.9470    16.5750    16.1110    25.3600   -11.6790 
  163.2500     2.3920    82.7570    16.3130    15.9890    15.3070    25.3380   -11.6970 
  163.3750     2.3900    87.0870    15.9040    15.6120    14.3990    25.3180   -11.7250 
  163.5000     2.3880    91.9640    15.6570    15.3770    14.0750    25.2720   -11.7550 
  163.6250     2.3890    91.4530    15.5080    15.2180    14.4390    25.1940   -11.7710 
  163.7500     2.3930    87.7520    15.3860    15.0700    14.4290    25.1270   -11.7950 
  163.8750     2.3960    86.0870    15.2750    14.9180    14.1440    25.0800   -11.8240 
  164.0000     2.3970    86.8950    15.1890    14.7780    13.8650    24.9950   -11.8220 
  164.1250     2.3940    85.8790    15.1710    14.6930    14.0270    24.8450   -11.8330 
  164.2500     2.3890    83.0920    15.2690    14.7090    14.4420    24.6360   -11.8440 
  164.3750     2.3880    82.0770    15.5590    14.8940    15.0880    24.5420   -11.8270 
  164.5000     2.3910    84.1270    16.1050    15.3060    15.3470    24.6990   -11.8160 
  164.6250     2.3980    86.4300    16.9090    15.9650    15.8430    24.9840   -11.8210 
  164.7500     2.4020    85.9140    17.7410    16.6840    19.5060    25.2410   -11.8040 
  164.8750     2.4020    83.1360    18.3230    17.2350    29.3080    25.3350   -11.7920 
  165.0000     2.3990    82.1590    18.3940    17.3920    28.7110    25.3620   -11.8100 
  165.1250     2.3950    86.8530    17.7650    16.9710    19.7200    25.4040   -11.8100 
  165.2500     2.3910    91.3090    16.7440    16.1890    15.5710    25.4270   -11.8220 
  165.3750     2.3870    89.6660    15.6700    15.3050    15.5770    25.4360   -11.8620 
  165.5000     2.3820    85.4220    14.8470    14.5650    15.6190    25.4430   -11.9020 
  165.6250     2.3770    85.9510    14.4970    14.1710    15.7560    25.4420   -11.9410 
  165.7500     2.3740    90.0280    14.4960    14.0680    16.0350    25.4430   -11.9900 
  165.8750     2.3760    92.8110    14.6950    14.1640    16.1370    25.4500   -12.0440 
  166.0000     2.3790    91.5830    14.9550    14.3520    15.5570    25.4500   -12.0970 
  166.1250     2.3830    86.3360    15.2390    14.5890    15.2850    25.4460   -12.1750 
  166.2500     2.3840    81.9190    15.6170    14.9110    16.0670    25.4500   -12.2500 
  166.3750     2.3820    82.3390    16.1860    15.3890    17.6220    25.4560   -12.3060 
  166.5000     2.3780    85.3030    17.0000    16.0660    19.6880    25.4510   -12.3660 
  166.6250     2.3720    84.8720    18.0620    16.9440    21.1480    25.4430   -12.4190 
  166.7500     2.3680    82.9460    19.2150    17.8910    22.8910    25.4440   -12.4730 
  166.8750     2.3650    82.4710    20.3470    18.8080    24.0180    25.4450   -12.5260 
  167.0000     2.3640    82.4320    21.4280    19.6550    24.3170    25.4460   -12.5850 
  167.1250     2.3630    80.7530    22.6070    20.5270    24.5560    25.4500   -12.6220 
  167.2500     2.3590    79.4230    24.1400    21.6380    26.1500    25.4380   -12.6650 
  167.3750     2.3500    79.7360    26.3370    23.2270    29.1970    25.4150   -12.7260 
