~V
VERS. 2.00: Ver 2.00
~W
STRT.M 55.0000:
STOP.M 242.0000:
STEP.M 0.1250:
NULL. -999.2500:
UWI. F10187:
~C
DEPT.M :
GR.API :
RML.OHMM :
RI. :
RXO.OHMM :
CALI.CM :
DEN.GM/CC :
SP.MV :
~A
# ...
   66.2500    70.3340     8.2500     7.3540     8.6630    25.0790     2.1140   -27.8350 
   66.3750    68.7680     8.4770     7.4700     8.8520    25.4560     2.0930   -28.5000 
   66.5000    71.5120     8.6190     7.5720     9.3080    25.1900     2.0900   -29.0640 
   66.6250    73.5110     8.5560     7.6000    10.2490    24.6270     2.1030   -29.4750 
   66.7500    71.3320     8.2850     7.5340    10.6850    24.2490     2.1240   -29.7490 
   66.8750    68.8400     7.8730     7.3780     9.8540    24.0710     2.1500   -29.9170 
   67.0000    68.0450     7.4860     7.1950     8.9980    24.0080     2.1760   -29.9500 
   67.1250    67.6080     7.4090     7.1530     8.7710    23.9970     2.1930   -29.8310 
   67.2500    67.1150     7.7760     7.3770     8.7320    24.0140     2.1960   -29.6980 
   67.3750    65.8680     8.5890     7.9140     8.6900    24.0740     2.1930   -29.4850 
   67.5000    61.5620     9.6540     8.6880     9.6630    24.1670     2.1960   -29.1980 
   67.6250    56.1890    10.5040     9.4190    14.2140    24.2130     2.2120   -29.0070 
   67.7500    55.2930    10.7260     9.7260    20.3780    24.1120     2.2300   -28.8220 
   67.8750    59.3500    10.2140     9.4160    16.7900    23.9110     2.2370   -28.5270 
   68.0000    65.5590     9.1970     8.6150    10.8460    23.7200     2.2260   -28.2180 
   68.1250    68.9800     8.1310     7.6800     9.4010    23.7300     2.2020   -28.0430 
   68.2500    68.4780     7.3690     6.9320     9.2790    23.8320     2.1830   -27.8920 
   68.3750    66.6350     7.0050     6.4860     8.6700    23.8580     2.1740   -27.8820 
   68.5000    67.2380     6.9940     6.3450     8.4260    23.7610     2.1740   -28.0170 
   68.6250    70.5790     7.2350     6.4480     8.5860    23.6980     2.1780   -28.1270 
   68.7500    72.4910     7.5330     6.6320     9.0410    23.6700     2.1840   -28.2780 
   68.8750    71.8990     7.7810     6.8150     9.4480    23.6430     2.1880   -28.5250 
   69.0000    70.0040     7.9200     6.9520     9.6780    23.6280     2.1870   -28.7820 
   69.1250    68.1420     7.9310     7.0140     9.6500    23.7310     2.1770   -28.9450 
   69.2500    66.5040     7.8650     7.0120     9.5300    23.8920     2.1630   -29.1180 
   69.3750    65.8170     7.7540     6.9540     9.3740    24.0050     2.1520   -29.1850 
   69.5000    66.6950     7.6160     6.8460     9.1900    24.0300     2.1460   -29.0910 
   69.6250    66.8160     7.4460     6.6870     9.0880    23.9830     2.1440   -28.9480 
   69.7500    65.1070     7.2530     6.4930     8.9680    23.9340     2.1400   -28.7350 
   69.8750    63.5350     7.0610     6.2840     8.8540    23.9120     2.1360   -28.4160 
   70.0000    63.6940     6.9190     6.0930     8.7360    23.8900     2.1350   -28.0030 
   70.1250    65.0170     6.9220     5.9940     8.6450    23.8810     2.1460   -27.5210 
   70.2500    66.8980     7.1100     6.0350     8.4790    23.8750     2.1680   -27.0130 
   70.3750    68.6670     7.4900     6.2420     8.2860    23.8640     2.1940   -26.4740 
   70.5000    69.7680     8.0030     6.5980     8.5350    23.8690     2.2110   -25.9890 
   70.6250    69.7640     8.5000     7.0270     9.6930    23.9090     2.2050   -25.5880 
   70.7500    70.2010     8.8130     7.3810    10.5590    23.9220     2.1820   -25.2070 
   70.8750    71.6440     8.8420     7.5470     9.7640    23.7130     2.1540   -24.8910 
   71.0000    74.0110     8.5900     7.4860     8.5430    23.4480     2.1340   -24.7270 
   71.1250    76.5950     8.1580     7.2280     8.7050    23.3550     2.1330   -24.7250 
   71.2500    76.6630     7.7430     6.9130     8.9220    23.3770     2.1450   -24.7270 
   71.3750    74.0000     7.4430     6.6230     8.9390    23.3900     2.1610   -24.8090 
   71.5000    72.9360     7.2800     6.3980     8.7970    23.3950     2.1760   -24.9150 
   71.6250    75.5890     7.2240     6.2530     8.3020    23.3970     2.1860   -24.9840 
   71.7500    79.2510     7.2060     6.1590     7.9270    23.3690     2.1910   -25.1770 
   71.8750    81.8590     7.2040     6.1060     8.1690    23.2970     2.1890   -25.4600 
   72.0000    83.0620     7.2150     6.0860     8.4630    23.2350     2.1790   -25.7000 
   72.1250    82.4760     7.2310     6.0900     8.4860    23.1930     2.1590   -25.9490 
   72.2500    78.9790     7.2280     6.1000     8.3350    23.1520     2.1370   -26.2980 
   72.3750    76.1210     7.1920     6.0990     8.1810    23.1830     2.1190   -26.6170 
   72.5000    76.0660     7.1310     6.0850     8.1050    23.4410     2.1090   -26.8750 
   72.6250    77.4130     7.0980     6.0830     8.0420    23.9240     2.1130   -27.1920 
   72.7500    78.1210     7.1460     6.1370     7.9930    24.2710     2.1310   -27.5200 
   72.8750    78.0000     7.2970     6.2750     7.9770    24.2790     2.1600   -27.8020 
   73.0000    77.0490     7.5230     6.4920     8.1050    24.0820     2.1940   -28.0370 
   73.1250    73.3550     7.7270     6.7310     8.7430    23.9890     2.2180   -28.1440 
   73.2500    69.5560     7.7930     6.8820     9.8320    24.0430     2.2240   -28.0670 
   73.3750    71.1370     7.6520     6.8480    10.2520    24.1840     2.2140   -27.7530 
   73.5000    78.0740     7.3150     6.5980     9.0550    24.3560     2.2010   -27.2240 
   73.6250    84.0930     6.8790     6.1920     7.5650    24.4730     2.1980   -26.4420 
   73.7500    87.5760     6.4920     5.7900     6.8010    24.5700     2.2050   -25.4320 
   73.8750    89.8130     6.2200     5.4800     6.2830    24.7290     2.2210   -24.3610 
   74.0000    89.6150     6.0720     5.2870     6.1740    24.8720     2.2410   -23.3840 
   74.1250    86.7510     6.0640     5.2130     6.8790    24.8440     2.2570   -22.4760 
   74.2500    85.2890     6.2450     5.2540     7.5530    24.7670     2.2660   -21.6010 
   74.3750    84.9370     6.7480     5.4930     7.3330    24.7920     2.2690   -20.9130 
   74.5000    82.8860     7.7120     6.0590     6.6890    24.9430     2.2790   -20.3830 
   74.6250    80.8830     9.2190     7.1460     7.5110    24.9920     2.3190   -19.8630 
   74.7500    79.2660    10.8780     8.6240    11.2030    24.9000     2.3900   -19.3890 
   74.8750    77.0840    12.1190    10.1230    18.5430    24.7770     2.4690   -18.8710 
   75.0000    77.5520    12.3390    10.9410    21.9760    24.5840     2.5210   -18.2080 
   75.1250    85.3070    11.1380    10.2820    16.1070    24.4240     2.5120   -17.5550 
   75.2500    95.1920     9.2180     8.7190     9.5380    24.3810     2.4600   -16.9860 
   75.3750   102.3540     7.3000     7.0190     6.3680    24.4620     2.3970   -16.4420 
   75.5000   106.0740     5.8960     5.6810     5.1580    24.5870     2.3550   -16.0320 
   75.6250   108.0740     5.2370     4.9170     4.9850    24.5940     2.3500   -15.8860 
   75.7500   107.6890     5.0490     4.5620     5.0650    24.4510     2.3640   -15.8540 
   75.8750   106.9560     5.1360     4.4870     5.1120    24.3110     2.3770   -15.9280 
   76.0000   108.1380     5.3480     4.5760     5.1300    24.2630     2.3780   -16.1670 
   76.1250   111.2050     5.6210     4.7620     5.0890    24.2140     2.3640   -16.5710 
   76.2500   109.8140     5.9500     5.0130     5.1730    23.9360     2.3440   -17.0860 
   76.3750   102.9190     6.3640     5.3500     5.5850    23.7010     2.3220   -17.7230 
   76.5000    94.4210     6.8770     5.7850     6.0240    23.6210     2.2980   -18.5100 
   76.6250    86.3930     7.4710     6.3150     6.3660    23.6600     2.2680   -19.4950 
   76.7500    78.7320     8.0540     6.8600     6.8120    23.7170     2.2300   -20.6350 
   76.8750    73.0410     8.5390     7.3350     7.2970    23.7370     2.1880   -21.8900 
   77.0000    70.0500     8.8510     7.6560     7.4610    23.7180     2.1490   -23.2230 
   77.1250    67.6800     8.9270     7.7410     7.5770    23.7860     2.1250   -24.4670 
   77.2500    65.7440     8.8520     7.6500     7.8960    24.0420     2.1130   -25.6030 
   77.3750    66.6590     8.7400     7.4630     8.2340    24.5120     2.1060   -26.7040 
