~V
VERS. 2.00: Ver 2.00
~W
STRT.M 56.0000:
STOP.M 214.0000:
STEP.M 0.1250:
NULL. -999.2500:
UWI. F10128:
~C
DEPT.M :
SP.MV :
GR.API :
RML.OHMM :
RI. :
RXO.OHMM :
CALI.CM :
DEN.GM/CC :
~A
# ...
  157.2500   -38.3740    61.5030   270.5230   247.5250   196.2250    25.1850     2.2470 
  157.3750   -37.7660    60.0730   269.0280   251.5090   320.6500    25.2780     2.2410 
  157.5000   -36.9310    58.0190   275.9600   266.4800   382.5890    25.3810     2.2380 
  157.6250   -35.9010    59.1120   280.1550   282.1440   349.0700    25.4710     2.2340 
  157.7500   -34.6220    64.4830   268.6370   284.1810   313.6250    25.4860     2.2290 
  157.8750   -33.1140    70.3590   230.0300   253.2810   328.6490    25.3940     2.2230 
  158.0000   -31.4050    71.9240   175.6970   196.8020   278.6940    25.2480     2.2170 
  158.1250   -29.4430    68.5380   120.9600   134.7220   175.4280    25.1360     2.2140 
  158.2500   -27.2840    64.2690    78.1230    85.2410   101.6090    24.9900     2.2180 
  158.3750   -25.0900    65.9360    53.1080    56.2560    53.6570    24.6670     2.2330 
  158.5000   -22.8500    73.3450    40.1520    40.9410    26.7790    24.2470     2.2460 
  158.6250   -20.6840    80.7010    36.1160    35.4360    17.3350    23.8770     2.2490 
  158.7500   -18.7090    80.9920    39.4990    37.7810    21.8970    23.6660     2.2380 
  158.8750   -16.9760    73.4470    51.8870    49.6150    55.1880    23.7000     2.2320 
  159.0000   -15.6050    65.1940    73.5310    71.4630   102.5640    23.9150     2.2590 
  159.1250   -14.5240    61.1650   104.9840   104.0950   128.2990    24.2300     2.3310 
  159.2500   -13.7260    60.9930   143.5480   144.1300   150.1400    24.6100     2.4380 
  159.3750   -13.1070    61.7090   181.5520   180.9820   181.9360    24.8620     2.5480 
  159.5000   -12.5910    61.3710   210.5900   206.7190   202.4370    24.9100     2.6330 
  159.6250   -12.2000    61.1480   224.6320   220.0490   196.6050    24.8790     2.6860 
  159.7500   -11.9160    62.4550   218.9140   218.4260   196.8510    24.8570     2.7120 
  159.8750   -11.6720    63.3450   189.4280   192.9310   239.1850    24.8480     2.7240 
  160.0000   -11.4300    62.0000   147.7730   151.4630   247.3770    24.8330     2.7330 
  160.1250   -11.2240    59.9140   105.7870   107.1680   221.4060    24.7630     2.7380 
  160.2500   -11.0110    60.7930    72.0320    70.6000   145.8370    24.7070     2.7380 
  160.3750   -10.8380    66.6190    49.9260    46.7470    66.7320    24.6760     2.7330 
  160.5000   -10.6490    72.9010    35.1530    31.5590    34.3890    24.6030     2.7260 
  160.6250   -10.3740    77.2330    24.9770    21.9370    26.0420    24.5160     2.7180 
  160.7500    -9.9730    78.9400    17.5700    15.5990    21.3310    24.4810     2.7010 
  160.8750    -9.4590    77.8600    12.5120    11.6330    12.3750    24.5960     2.6600 
  161.0000    -8.9020    74.7270     9.3150     9.0580     8.2810    24.8940     2.5970 
  161.1250    -8.3050    69.7340     7.6080     7.4750     6.5020    25.3780     2.5230 
  161.2500    -7.7110    64.4620     6.7760     6.5920     6.1660    26.0870     2.4550 
  161.3750    -7.0980    60.8730     6.4420     6.2470     6.1400    26.7440     2.4110 
  161.5000    -6.5610    59.7080     6.3560     6.1650     6.0060    27.0890     2.3900 
  161.6250    -6.0980    59.9900     6.3720     6.1990     5.7300    26.9710     2.3830 
  161.7500    -5.7490    59.6830     6.4110     6.2610     5.4310    26.3200     2.3830 
  161.8750    -5.5540    57.9880     6.4570     6.3330     5.2380    25.7270     2.3870 
  162.0000    -5.4130    55.2310     6.5240     6.4310     5.2270    25.5580     2.3960 
  162.1250    -5.3910    53.0040     6.6160     6.5540     5.4470    25.7250     2.4060 
  162.2500    -5.4230    53.0190     6.7210     6.6710     5.9620    25.6980     2.4140 
  162.3750    -5.5190    53.2260     6.8060     6.7180     6.5260    25.5980     2.4130 
  162.5000    -5.6720    51.7950     6.8500     6.6690     6.6700    25.7250     2.4030 
  162.6250    -5.8350    51.2240     6.8500     6.5370     6.3010    25.8180     2.3890 
  162.7500    -6.0080    53.2810     6.8230     6.3620     5.8720    25.4930     2.3750 
  162.8750    -6.2200    55.8600     6.7980     6.2050     5.8510    25.0050     2.3640 
  163.0000    -6.4370    54.8560     6.7960     6.0940     5.8410    24.7210     2.3550 
  163.1250    -6.6550    51.8680     6.8200     6.0290     5.6540    24.6190     2.3510 
  163.2500    -6.9000    49.5050     6.8550     5.9940     5.5410    24.5140     2.3570 
  163.3750    -7.0840    48.0280     6.8800     5.9610     5.6720    24.2860     2.3760 
  163.5000    -7.1990    46.4370     6.8850     5.9110     5.6250    24.0760     2.4000 
  163.6250    -7.2840    46.1740     6.8760     5.8460     5.4510    23.9270     2.4200 
  163.7500    -7.3390    49.2790     6.8710     5.7830     5.4510    23.8440     2.4340 
  163.8750    -7.4020    52.7860     6.9040     5.7510     5.4990    23.8350     2.4410 
  164.0000    -7.4950    54.4370     6.9850     5.7660     5.6520    23.8810     2.4460 
  164.1250    -7.6080    56.9570     7.1040     5.8220     5.8720    23.9830     2.4450 
  164.2500    -7.7250    63.0740     7.2310     5.8910     6.1050    24.1160     2.4330 
  164.3750    -7.8710    68.7410     7.3230     5.9320     6.3100    24.2950     2.4090 
  164.5000    -8.0010    69.3740     7.3720     5.9420     6.3380    24.5740     2.3840 
  164.6250    -8.1850    66.5530     7.3950     5.9410     6.4670    24.8980     2.3680 
  164.7500    -8.4230    62.3470     7.4260     5.9600     6.6370    25.1220     2.3640 
  164.8750    -8.6000    57.4780     7.4980     6.0210     6.7310    25.1890     2.3710 
  165.0000    -8.7760    52.7850     7.5970     6.1060     6.9210    25.1840     2.3790 
  165.1250    -8.8920    49.6370     7.6910     6.1840     7.2450    25.1520     2.3850 
  165.2500    -8.9890    48.3320     7.7510     6.2340     7.2720    25.1050     2.3890 
  165.3750    -9.1650    49.2170     7.7810     6.2580     6.7930    25.1180     2.3930 
  165.5000    -9.3950    51.5150     7.8370     6.2960     6.6300    25.1610     2.3930 
  165.6250    -9.6540    53.5390     7.9780     6.3910     6.8490    25.1810     2.3910 
  165.7500    -9.9600    54.2240     8.2360     6.5670     7.1810    25.1670     2.3850 
  165.8750   -10.2980    53.4780     8.5800     6.8150     7.6530    25.1210     2.3760 
  166.0000   -10.6350    52.3890     8.8940     7.0510     7.8770    25.0730     2.3660 
  166.1250   -11.0080    52.5810     9.0840     7.1970     7.8970    25.0530     2.3560 
  166.2500   -11.3310    55.1990     9.1060     7.2080     7.8880    25.0510     2.3490 
  166.3750   -11.5780    56.9800     8.9860     7.0900     7.7060    25.0510     2.3460 
  166.5000   -11.8030    53.8490     8.8490     6.9460     7.4610    25.0500     2.3490 
  166.6250   -11.9680    48.8320     8.7830     6.8520     7.3620    25.0350     2.3550 
  166.7500   -12.0690    47.1890     8.8320     6.8530     7.4060    24.9820     2.3620 
  166.8750   -12.1140    50.1530     8.9980     6.9600     7.5780    24.8470     2.3680 
  167.0000   -12.1020    53.6140     9.2010     7.1080     7.5800    24.6920     2.3710 
  167.1250   -12.0160    55.6950     9.3690     7.2390     7.3260    24.5100     2.3750 
  167.2500   -11.9630    57.7710     9.4490     7.3040     7.0540    24.3540     2.3770 
  167.3750   -11.9260    61.8470     9.4100     7.2750     6.8920    24.1820     2.3790 
  167.5000   -11.9230    68.4130     9.3100     7.1980     6.9180    24.2940     2.3780 
  167.6250   -11.9440    77.1840     9.2170     7.1240     7.0810    24.6810     2.3700 
  167.7500   -12.0090    85.9760     9.1920     7.0970     6.9780    25.1690     2.3560 
  167.8750   -12.1260    90.2550     9.2870     7.1520     6.5160    25.5700     2.3440 
  168.0000   -12.2850    90.8460     9.4630     7.2610     6.6510    25.7540     2.3400 
  168.1250   -12.5650    91.6590     9.6600     7.3860     7.2480    25.6120     2.3500 
  168.2500   -12.8810    94.7120     9.8040     7.4740     7.7810    25.4780     2.3710 
  168.3750   -13.2430    96.3900     9.8200     7.4680     8.0040    25.4720     2.3940 
