~V
VERS. 2.00: Ver 2.00
~W
STRT.M 53.0000:
STOP.M 242.0000:
STEP.M 0.1250:
NULL. -999.2500:
UWI. F10177:
~C
DEPT.M :
SP.MV :
GR.API :
RML.OHMM :
RI. :
RXO.OHMM :
CALI.CM :
DEN.GM/CC :
~A
# ...
  154.2500   -12.4280    87.9460    22.1200    22.8600    31.5490    24.5920     2.3520 
  154.3750   -12.6320    78.0700    24.2570    24.9950    31.5220    24.5660     2.3520 
  154.5000   -12.8690    76.0260    26.4150    26.8930    26.3910    24.5280     2.3530 
  154.6250   -13.1740    79.3190    29.0130    28.9050    24.0590    24.4980     2.3470 
  154.7500   -13.4470    81.5350    32.6740    31.6900    27.0330    24.5080     2.3310 
  154.8750   -13.6850    81.1380    38.2050    36.2360    38.6580    24.5170     2.3060 
  155.0000   -13.9790    79.3560    45.2510    42.5070    56.2900    24.5040     2.2830 
  155.1250   -14.2490    74.5750    52.9890    49.8190    66.9990    24.4870     2.2700 
  155.2500   -14.4270    69.2400    60.1480    56.7240    69.1460    24.5090     2.2670 
  155.3750   -14.5720    68.7450    65.1700    61.2850    67.6070    24.6330     2.2700 
  155.5000   -14.6420    72.5670    67.9970    63.4080    66.8260    24.8060     2.2690 
  155.6250   -14.6540    76.7860    69.1450    63.7880    67.9200    24.9350     2.2610 
  155.7500   -14.6810    79.2120    69.4300    63.4140    69.3070    24.9070     2.2480 
  155.8750   -14.6600    79.3550    69.5490    63.0700    68.2880    24.8380     2.2380 
  156.0000   -14.5510    78.5510    69.8550    63.0270    66.2820    24.8280     2.2350 
  156.1250   -14.3530    77.3140    70.3890    63.2950    65.1150    24.8640     2.2400 
  156.2500   -14.1130    76.6810    71.0690    63.8040    68.1530    24.9340     2.2480 
  156.3750   -13.8860    76.7960    71.6310    64.3740    72.5590    25.0660     2.2560 
  156.5000   -13.7150    77.2620    71.7400    64.6820    72.6950    25.1400     2.2620 
  156.6250   -13.5730    77.0680    71.1410    64.4730    69.9800    25.1690     2.2670 
  156.7500   -13.4600    76.5750    69.7840    63.6600    72.0680    25.1820     2.2700 
  156.8750   -13.4130    77.9040    67.8360    62.3630    67.8090    25.1930     2.2710 
  157.0000   -13.3880    78.6070    65.8010    60.9990    63.1120    25.1940     2.2700 
  157.1250   -13.4470    77.3110    64.0100    59.8470    59.0860    25.1840     2.2690 
  157.2500   -13.5970    74.9720    62.6530    59.0610    59.7710    25.1790     2.2670 
  157.3750   -13.7290    73.9380    61.8570    58.7190    61.8870    25.1860     2.2680 
  157.5000   -13.7830    73.3160    61.4930    58.7020    60.7800    25.1950     2.2690 
  157.6250   -13.7780    72.8560    61.4250    58.9380    58.0110    25.2210     2.2710 
  157.7500   -13.6950    72.9690    61.3350    59.2210    55.5100    25.2910     2.2720 
  157.8750   -13.5820    72.2100    60.4400    58.8140    56.6360    25.3860     2.2680 
  158.0000   -13.5120    70.1750    58.1520    56.9400    56.4910    25.4270     2.2600 
  158.1250   -13.3980    69.9130    54.2920    53.2530    56.0900    25.4230     2.2510 
  158.2500   -13.2050    73.4180    49.3720    48.2490    49.5660    25.3720     2.2460 
  158.3750   -13.0370    78.3880    44.6930    43.3110    38.4120    25.2800     2.2500 
  158.5000   -12.9310    79.9770    41.5990    39.8340    29.7770    25.2080     2.2580 
  158.6250   -12.8790    78.4730    40.9170    38.6020    28.7400    25.1880     2.2660 
  158.7500   -12.8920    77.5810    42.9640    39.9560    35.6300    25.2030     2.2680 
  158.8750   -12.9290    78.7190    47.8900    44.2450    48.8130    25.2420     2.2640 
  159.0000   -12.9700    79.6840    54.4790    50.5270    59.3190    25.2710     2.2580 
  159.1250   -13.0850    79.7460    61.6810    57.8250    68.7760    25.2660     2.2530 
  159.2500   -13.2380    80.2620    68.3990    64.8310    72.1460    25.2110     2.2510 
  159.3750   -13.3540    79.2690    73.5610    70.1560    70.1470    25.1580     2.2510 
  159.5000   -13.4890    77.0140    77.1160    73.7660    70.7010    25.1510     2.2540 
  159.6250   -13.6490    76.0830    79.1060    75.8420    72.2550    25.1630     2.2560 
  159.7500   -13.8060    77.0030    79.5520    76.4460    67.7450    25.1470     2.2540 
  159.8750   -13.9600    78.1490    78.1640    75.2620    63.8930    25.0790     2.2490 
  160.0000   -14.0870    77.7100    75.3530    72.6520    63.5440    24.9810     2.2450 
  160.1250   -14.1750    75.7710    71.5860    69.0000    63.6560    24.8560     2.2460 
  160.2500   -14.3160    72.9960    67.6050    65.0120    57.3230    24.6680     2.2540 
  160.3750   -14.5150    71.0190    64.4900    61.7990    48.3880    24.4590     2.2630 
  160.5000   -14.6980    70.8340    62.8690    60.0420    44.3980    24.3160     2.2670 
  160.6250   -14.9150    71.1800    63.0660    60.0730    44.3400    24.1930     2.2610 
  160.7500   -15.1580    70.7410    65.0810    61.9490    48.5970    24.0140     2.2480 
  160.8750   -15.3750    70.3300    68.7570    65.6220    55.1770    23.8460     2.2340 
  161.0000   -15.6510    70.0350    73.0980    70.1190    53.9860    23.8110     2.2250 
  161.1250   -16.0100    69.2680    77.2160    74.5360    46.1080    23.9550     2.2200 
  161.2500   -16.3200    67.3110    80.2030    77.9100    39.7780    24.2550     2.2180 
  161.3750   -16.5950    64.5200    81.0430    79.0730    38.3250    24.5600     2.2160 
  161.5000   -16.9150    63.6300    80.0530    78.1810    38.2020    24.8090     2.2120 
  161.6250   -17.2010    63.9990    78.0140    75.9650    41.0560    25.0870     2.2070 
  161.7500   -17.4960    65.1970    76.2420    73.7430    42.9460    25.4600     2.2000 
  161.8750   -17.8060    69.4650    76.8090    73.5190    39.5170    25.6620     2.1910 
  162.0000   -17.9990    74.9130    80.9030    76.6180    34.9330    25.6230     2.1820 
  162.1250   -18.0980    77.0340    89.3250    84.1020    33.5520    25.4670     2.1730 
  162.2500   -18.2140    72.9270   102.0160    96.3090    37.9340    25.3150     2.1680 
  162.3750   -18.3090    68.8660   117.6680   112.5370    49.8390    25.2100     2.1670 
  162.5000   -18.4100    68.5760   132.3820   128.8010    70.7180    25.1110     2.1670 
  162.6250   -18.5700    70.7730   142.6120   140.9450    89.1450    25.0580     2.1670 
  162.7500   -18.7300    72.7090   146.0760   145.8310   105.1320    25.0800     2.1690 
  162.8750   -18.8690    71.8030   142.1530   142.3510   119.7850    25.1020     2.1750 
  163.0000   -19.1090    69.2770   135.6690   134.7940   124.4700    25.1060     2.1860 
  163.1250   -19.3830    67.8020   128.1280   126.2410   119.8950    25.1020     2.2000 
  163.2500   -19.5730    67.7300   120.6960   118.9120   111.7420    25.1130     2.2150 
  163.3750   -19.7150    66.2390   116.3670   114.6430   110.8980    25.1290     2.2280 
  163.5000   -19.7920    64.6700   115.2360   113.5280   114.0990    25.1390     2.2360 
  163.6250   -19.7260    65.9620   117.2360   115.5000   119.7460    25.1540     2.2360 
  163.7500   -19.6050    68.4410   121.9800   120.1780   125.9680    25.1680     2.2310 
  163.8750   -19.5120    68.0510   129.0120   127.1130   138.6880    25.1730     2.2220 
  164.0000   -19.3150    66.1400   136.9500   134.9420   151.7100    25.1680     2.2150 
  164.1250   -18.9800    65.4340   144.8340   142.7170   159.4790    25.1650     2.2100 
  164.2500   -18.6780    66.3650   151.9630   149.7480   165.1340    25.1700     2.2050 
  164.3750   -18.4760    68.1180   157.9260   155.6280   177.1260    25.1610     2.2010 
  164.5000   -18.2930    70.0140   163.2000   160.8290   185.5340    25.1300     2.1970 
  164.6250   -18.1390    71.9530   168.3790   165.9360   188.6050    25.0980     2.1980 
  164.7500   -17.9470    71.5420   174.1130   171.5920   190.3680    25.0970     2.2030 
  164.8750   -17.7070    66.4440   181.0450   178.4280   202.4140    25.1010     2.2130 
  165.0000   -17.5810    62.0120   188.4080   185.6900   218.9630    25.0820     2.2240 
  165.1250   -17.5920    61.1910   193.9340   191.1390   233.2840    25.0300     2.2340 
  165.2500   -17.6070    62.3530   194.0870   191.2900   242.8970    24.9920     2.2400 
  165.3750   -17.6180    63.2910   184.4530   181.7890   251.2380    24.9790     2.2440 
