~V
VERS. 2.00: Ver 2.00
~W
STRT.M 50.0000:
STOP.M 205.0000:
STEP.M 0.1250:
NULL. -999.2500:
UWI. F10148:
~C
DEPT.M :
GR.API :
RML.OHMM :
RI. :
RXO.OHMM :
CALI.CM :
SP.MV :
DEN.GM/CC :
~A
# ...
  151.2500    69.7850    11.6680     9.5920    10.7840    22.0340   -16.0500     2.2140 
  151.3750    74.0030    11.7220     9.5690    10.8400    22.0740   -16.1170     2.2140 
  151.5000    80.3560    11.8060     9.5910    10.8630    21.9570   -16.1900     2.2150 
  151.6250    82.3800    11.8370     9.6260    10.9520    21.8830   -16.3000     2.2190 
  151.7500    81.8580    11.8250     9.6480    10.8240    21.8870   -16.4070     2.2280 
  151.8750    82.0420    11.8760     9.7020    10.6880    21.9710   -16.5180     2.2410 
  152.0000    83.9220    12.1560     9.8940    10.6500    22.0400   -16.6360     2.2560 
  152.1250    85.0030    12.9320    10.4150    10.9830    22.0590   -16.7320     2.2630 
  152.2500    82.3930    14.2200    11.3340    11.9460    22.0160   -16.8220     2.2580 
  152.3750    77.0130    15.9330    12.6620    14.4170    22.0080   -16.8850     2.2420 
  152.5000    72.4430    17.7960    14.2620    17.7080    22.0040   -16.9290     2.2230 
  152.6250    69.4780    19.2080    15.7210    18.4430    21.9910   -16.9720     2.2090 
  152.7500    68.1370    19.6550    16.5170    17.7920    22.0130   -17.0240     2.2030 
  152.8750    68.4690    18.8810    16.3040    17.1600    22.1440   -17.0850     2.2020 
  153.0000    68.9820    17.0750    15.1130    16.8360    22.3130   -17.1370     2.2030 
  153.1250    69.0030    14.8730    13.4040    15.7770    22.6690   -17.1750     2.2050 
  153.2500    72.3250    13.1160    11.8940    14.2490    23.0390   -17.2130     2.2100 
  153.3750    79.3980    12.3150    10.9750    12.5900    23.3750   -17.2600     2.2200 
  153.5000    83.4860    12.8160    10.9000    11.7060    23.4900   -17.3020     2.2330 
  153.6250    79.9380    15.0520    12.0830    14.6050    23.5430   -17.3220     2.2410 
  153.7500    73.6860    18.5900    14.4630    21.8870    23.5920   -17.3510     2.2400 
  153.8750    68.6740    22.6630    17.7680    29.6500    23.7280   -17.3800     2.2310 
  154.0000    65.5690    25.7480    20.9750    33.6970    23.7950   -17.4180     2.2170 
  154.1250    64.0230    25.5360    21.9090    33.8890    23.7720   -17.4680     2.2050 
  154.2500    65.3350    22.5300    20.2570    29.2910    23.7100   -17.5190     2.2000 
  154.3750    67.9880    18.5570    17.2830    20.2780    23.5780   -17.5600     2.2030 
  154.5000    70.1700    15.2810    14.4720    12.1090    23.1120   -17.5770     2.2090 
  154.6250    71.8030    13.4580    12.6590    10.7150    22.7600   -17.5870     2.2130 
  154.7500    74.5720    12.6260    11.6610    11.2330    22.5850   -17.5610     2.2130 
  154.8750    78.1770    12.4560    11.2790    11.6870    22.5160   -17.5220     2.2120 
  155.0000    82.0040    12.6640    11.3140    11.2290    22.4470   -17.4730     2.2100 
  155.1250    83.3000    12.9740    11.5520    10.6690    22.5590   -17.3950     2.2080 
  155.2500    80.2760    13.1060    11.7160    10.8710    22.6580   -17.2930     2.2060 
  155.3750    73.7160    12.9190    11.6600    11.5250    22.7840   -17.1720     2.2050 
  155.5000    68.7490    12.4030    11.3510    11.5900    22.9410   -17.0700     2.2040 
  155.6250    70.6330    11.6620    10.8490    10.7890    23.0210   -16.9630     2.2060 
  155.7500    75.7580    10.9450    10.3310     9.4920    23.1130   -16.8750     2.2090 
  155.8750    80.6250    10.4270     9.9350     8.5640    23.2380   -16.7770     2.2120 
  156.0000    82.0530    10.1950     9.7450     8.7560    23.5650   -16.6920     2.2150 
  156.1250    79.2620    10.2400     9.8050    10.7160    23.6750   -16.6600     2.2190 
  156.2500    76.8040    10.3910    10.0080    11.5230    23.6150   -16.6400     2.2260 
  156.3750    77.3920    10.5280    10.2570    11.4530    23.4610   -16.6290     2.2340 
  156.5000    79.6970    10.5700    10.4510    11.1200    23.3780   -16.6430     2.2390 
  156.6250    78.9830    10.4620    10.4810    10.4510    23.4570   -16.6550     2.2370 
  156.7500    76.7770    10.2140    10.3220     9.9580    23.5940   -16.6830     2.2300 
  156.8750    77.7990     9.7900     9.9540    10.1160    23.6830   -16.7420     2.2200 
  157.0000    81.9280     9.1290     9.3520    10.2980    23.6680   -16.8080     2.2110 
  157.1250    84.0620     8.2190     8.5160     9.5140    23.6630   -16.8680     2.2090 
  157.2500    82.5340     7.3020     7.6240     8.1630    23.6580   -16.9450     2.2150 
  157.3750    80.6010     6.6590     6.8750     7.0310    23.6390   -17.0550     2.2270 
  157.5000    80.6160     6.5430     6.4670     6.3190    23.5630   -17.1680     2.2420 
  157.6250    81.0950     7.2640     6.6720     6.3120    23.5440   -17.3130     2.2520 
  157.7500    79.2930     8.8480     7.5680     7.7600    23.6390   -17.4770     2.2540 
  157.8750    78.1570    11.4200     9.3160    11.4280    23.7570   -17.6490     2.2480 
  158.0000    78.9530    15.1140    12.1190    17.2180    23.7980   -17.8280     2.2380 
  158.1250    77.4890    20.3290    16.4560    23.7310    23.8040   -18.0000     2.2280 
  158.2500    73.3170    27.0870    22.3330    29.5700    23.8040   -18.1850     2.2180 
  158.3750    70.4400    35.7440    30.0050    37.1470    23.8020   -18.3740     2.2080 
  158.5000    70.9080    46.8190    39.9550    50.1970    23.8040   -18.5600     2.1950 
  158.6250    70.1980    61.3730    53.3130    71.3960    23.8150   -18.7280     2.1830 
  158.7500    65.5930    78.7630    69.5460    91.7510    23.8790   -18.8810     2.1730 
  158.8750    59.5870    97.1930    87.0330   103.2600    23.8890   -19.0290     2.1670 
  159.0000    55.7280   112.8050   102.3970   110.9910    23.8900   -19.1710     2.1660 
  159.1250    58.2680   119.5610   110.4020   113.4170    23.8780   -19.2930     2.1650 
  159.2500    64.7440   117.8420   110.8710   110.6800    23.8430   -19.4000     2.1640 
  159.3750    67.5890   110.6230   105.8380   105.1500    23.7870   -19.5060     2.1620 
  159.5000    64.7400   101.1970    98.0280   102.4540    23.7300   -19.6220     2.1640 
  159.6250    63.9890    93.8980    89.6680    97.5990    23.6890   -19.7460     2.1710 
  159.7500    67.4460    88.8040    82.2190    85.5650    23.6610   -19.8730     2.1830 
  159.8750    70.2640    82.6370    76.1130    72.2840    23.6570   -20.0040     2.1930 
  160.0000    68.5350    77.9290    71.2690    64.2400    23.6510   -20.1470     2.1980 
  160.1250    66.3120    74.5850    67.4590    63.1350    23.6510   -20.3030     2.1980 
  160.2500    65.7440    70.3370    64.1680    63.2680    23.6550   -20.4560     2.1970 
  160.3750    64.6780    66.6060    61.2960    57.8230    23.6530   -20.5900     2.2000 
  160.5000    63.8780    63.5870    58.9450    50.7540    23.6510   -20.7030     2.2090 
  160.6250    66.0310    61.5850    57.3310    48.2690    23.6510   -20.8190     2.2200 
  160.7500    69.8620    60.4530    56.3250    47.4840    23.6360   -20.9170     2.2270 
  160.8750    71.5750    60.1730    55.8930    47.7400    23.7260   -20.9960     2.2280 
  161.0000    68.2550    60.7390    56.0260    49.8720    23.7710   -21.0570     2.2250 
  161.1250    65.4530    62.2850    56.8330    49.0810    23.7070   -21.1240     2.2240 
  161.2500    67.7610    64.7920    58.3660    46.0170    23.5610   -21.1730     2.2260 
  161.3750    72.4520    68.5120    60.9430    47.0620    23.4830   -21.2080     2.2310 
  161.5000    74.2650    73.6900    64.8920    53.3390    23.6520   -21.2400     2.2360 
  161.6250    71.7430    80.8610    70.7640    53.2990    23.8440   -21.2460     2.2400 
  161.7500    69.6370    90.1450    78.6110    52.4770    23.8350   -21.2430     2.2440 
  161.8750    67.4200   102.0370    88.8660    59.4900    23.7660   -21.2450     2.2470 
  162.0000    63.8340   116.9990   101.9690    79.9420    23.7590   -21.2160     2.2460 
  162.1250    60.1620   135.7210   118.5520   111.7560    23.5580   -21.1760     2.2410 
  162.2500    57.3910   156.8940   137.4240   136.8670    23.0050   -21.1430     2.2330 
  162.3750    55.6070   178.1540   156.6740   140.6620    22.6330   -21.1140     2.2230 
