~V
VERS. 2.00: Ver 2.00
~W
STRT.M 52.0000:
STOP.M 216.0000:
STEP.M 0.1250:
NULL. -999.2500:
UWI. F10126:
~C
DEPT.M :
DEN.GM/CC :
GR.API :
RML.OHMM :
RI. :
RXO.OHMM :
CALI.CM :
SP.MV :
~A
# ...
   97.0000     2.1970    81.2360    10.6290     8.8980    10.2260    24.2340   -16.5690 
   97.1250     2.2200    83.2240    10.8290     9.0950     9.6650    24.2330   -16.9020 
   97.2500     2.2350    81.8990    10.9070     9.1820    10.0060    24.1750   -17.1740 
   97.3750     2.2390    79.4620    10.8130     9.1170    10.3340    24.0880   -17.4750 
   97.5000     2.2390    78.8340    10.5700     8.9170    10.5010    24.0770   -17.8630 
   97.6250     2.2430    79.6780    10.2530     8.6410    10.6020    24.2130   -18.3180 
   97.7500     2.2480    79.1830     9.9730     8.3800    10.4660    24.3140   -18.8430 
   97.8750     2.2460    77.4640     9.7970     8.1970    10.7080    24.4260   -19.4660 
   98.0000     2.2300    75.5110     9.7530     8.1250    10.9930    24.6660   -20.1600 
   98.1250     2.2030    74.2580     9.8270     8.1630    11.3430    24.9150   -20.8280 
   98.2500     2.1810    72.4920     9.9310     8.2380    11.5050    25.2290   -21.4310 
   98.3750     2.1760    70.4910     9.9890     8.2860    11.6230    25.5480   -21.9810 
   98.5000     2.1900    69.2050     9.9500     8.2550    11.6300    25.4990   -22.5150 
   98.6250     2.2130    69.8510     9.7890     8.1190    11.4980    25.1750   -23.0600 
   98.7500     2.2290    71.3300     9.5770     7.9310    11.6820    25.0110   -23.5530 
   98.8750     2.2250    72.3690     9.3890     7.7500    11.8540    25.0740   -23.9160 
   99.0000     2.2000    72.9800     9.2950     7.6360    12.0530    25.3230   -24.1130 
   99.1250     2.1610    72.4230     9.3530     7.6560    12.2630    25.5790   -24.1920 
   99.2500     2.1330    70.9360     9.5100     7.7850    12.3340    25.5510   -24.2030 
   99.3750     2.1300    69.1740     9.6920     7.9660    12.5600    25.2840   -24.0980 
   99.5000     2.1580    68.0960     9.8110     8.1130    14.2720    24.8050   -23.8480 
   99.6250     2.2020    68.3600     9.7770     8.1260    17.0160    24.2320   -23.4820 
   99.7500     2.2410    68.8190     9.6060     8.0000    15.5700    23.7780   -23.0780 
   99.8750     2.2660    70.1450     9.3480     7.7740    12.6040    23.4940   -22.7070 
  100.0000     2.2790    71.3490     9.0790     7.5180    11.1390    23.3880   -22.4240 
  100.1250     2.2840    72.0160     8.8890     7.3140    11.1390    23.4140   -22.3220 
  100.2500     2.2780    72.8690     8.8050     7.2030    11.2610    23.5630   -22.4370 
  100.3750     2.2580    73.2430     8.8230     7.1940    11.3490    23.9130   -22.7660 
  100.5000     2.2230    71.8400     8.9160     7.2690    11.0930    24.4790   -23.2390 
  100.6250     2.1840    67.0800     9.0480     7.3950    10.8720    24.9970   -23.7840 
  100.7500     2.1520    63.2810     9.1770     7.5300    11.4550    25.3530   -24.3330 
  100.8750     2.1310    62.7070     9.2790     7.6510    11.9680    25.6700   -24.8670 
  101.0000     2.1190    63.9380     9.3350     7.7380    12.3160    26.0760   -25.3870 
  101.1250     2.1160    63.5020     9.3290     7.7720    12.1760    26.4480   -25.7560 
  101.2500     2.1210    60.3600     9.2780     7.7660    11.8800    26.5760   -25.9180 
  101.3750     2.1340    57.9520     9.2010     7.7370    11.7490    26.3420   -25.9240 
  101.5000     2.1520    59.3780     9.1170     7.6990    11.6770    25.7430   -25.8530 
  101.6250     2.1710    64.1450     9.0400     7.6610    11.5790    25.1800   -25.7110 
  101.7500     2.1830    68.1930     8.9720     7.6200    11.5910    24.6820   -25.4840 
  101.8750     2.1890    69.4130     8.9080     7.5710    11.4620    24.3150   -25.1320 
  102.0000     2.1880    68.0870     8.8450     7.5130    10.9430    24.0900   -24.6370 
  102.1250     2.1860    68.5580     8.7860     7.4560    10.5420    24.0110   -24.0710 
  102.2500     2.1840    71.3910     8.7410     7.4140    10.1960    23.9310   -23.5110 
  102.3750     2.1830    74.3280     8.7200     7.3970     9.9590    23.8110   -22.9760 
  102.5000     2.1850    75.2130     8.7280     7.4060     9.8980    23.6550   -22.5020 
  102.6250     2.1870    74.7530     8.7600     7.4410    10.2390    23.4970   -22.1480 
  102.7500     2.1900    75.4050     8.7960     7.4860    10.4680    23.3840   -21.9070 
  102.8750     2.1910    76.8440     8.8180     7.5230    10.4220    23.3190   -21.8020 
  103.0000     2.1900    77.2590     8.8130     7.5350    10.1670    23.2780   -21.8230 
  103.1250     2.1870    75.5250     8.7660     7.5080    10.1020    23.2280   -21.9410 
  103.2500     2.1840    74.1600     8.6850     7.4550    10.0520    23.2280   -22.0650 
  103.3750     2.1840    74.8990     8.5810     7.3900     9.8870    23.2370   -22.1360 
  103.5000     2.1860    75.2320     8.4740     7.3350     9.7860    23.2780   -22.1400 
  103.6250     2.1870    72.8320     8.4080     7.3250     9.9310    23.3910   -22.0760 
  103.7500     2.1840    71.1910     8.4320     7.3900    10.3080    23.5310   -21.9620 
  103.8750     2.1820    71.6350     8.6050     7.5650    10.4840    23.6630   -21.7590 
  104.0000     2.1890    71.7510     8.9780     7.8830    10.7260    23.9070   -21.4860 
  104.1250     2.2180    70.3050     9.5980     8.4050    11.3580    24.3400   -21.1090 
  104.2500     2.2640    69.5110    10.3440     9.0780    12.5520    24.5500   -20.5930 
  104.3750     2.3150    69.8550    11.0430     9.7810    13.9580    24.6090   -19.8980 
  104.5000     2.3560    70.2530    11.4700    10.2890    15.4480    24.5800   -18.9950 
  104.6250     2.3700    71.0430    11.3440    10.2720    16.6020    24.3810   -17.8870 
  104.7500     2.3550    72.4740    10.7210     9.7400    15.8480    24.1910   -16.7180 
  104.8750     2.3170    73.3590     9.7760     8.8740    12.9400    24.2400   -15.6070 
  105.0000     2.2620    73.5510     8.8140     7.9790     9.1540    24.5000   -14.5760 
  105.1250     2.2120    72.9030     8.3260     7.4330     8.6490    24.6890   -13.5300 
  105.2500     2.1920    71.1790     8.7250     7.4480     9.3190    24.7790   -12.4190 
  105.3750     2.2210    69.1220    10.4450     8.2810    10.0420    24.8100   -11.2690 
  105.5000     2.3090    67.8560    13.7180    10.2930    10.9350    24.7050   -10.1060 
  105.6250     2.4440    66.3250    18.1730    14.0320    14.7640    24.5220    -8.9270 
  105.7500     2.5790    63.9820    22.0840    18.6220    26.0920    24.3930    -7.7060 
  105.8750     2.6720    62.3070    23.7830    21.7530    42.2070    24.3180    -6.4360 
  106.0000     2.6960    61.6410    22.3750    20.8040    49.4920    24.3350    -5.1760 
  106.1250     2.6450    65.3890    18.1710    16.1260    32.5490    24.3810    -4.1080 
  106.2500     2.5600    75.8180    13.4090    11.4300    16.0590    24.3630    -3.3610 
  106.3750     2.4720    88.6590     9.5220     8.0740     7.9210    24.1960    -2.9780 
  106.5000     2.4060    95.2410     7.1260     6.1100     5.7230    23.9970    -2.9180 
  106.6250     2.3700    91.3680     6.3040     5.3280     5.9430    23.8820    -3.1960 
  106.7500     2.3500    86.2530     6.4010     5.2600     6.2670    23.8640    -3.7850 
  106.8750     2.3340    85.8330     7.0710     5.7470     6.3250    23.9040    -4.6310 
  107.0000     2.3150    88.2460     8.0280     6.6190     6.7640    23.9410    -5.6030 
  107.1250     2.2900    86.6100     8.9850     7.6360     8.2540    23.9250    -6.6530 
  107.2500     2.2620    80.2710     9.7150     8.4950     9.6600    23.8860    -7.7120 
  107.3750     2.2360    73.8160    10.1120     9.0200    10.3960    23.9320    -8.7040 
  107.5000     2.2190    72.0690    10.1840     9.1660    10.2940    24.1190    -9.5950 
  107.6250     2.2210    74.4340    10.0190     9.0080     9.6940    24.2560   -10.3340 
  107.7500     2.2370    76.8880     9.8180     8.7750     9.1880    24.2290   -10.8820 
  107.8750     2.2590    77.5770     9.6910     8.5850     8.9530    24.1730   -11.2360 
  108.0000     2.2750    78.1260     9.6720     8.4730     8.9350    24.2820   -11.4970 
  108.1250     2.2750    80.2960     9.7250     8.4050     9.3340    24.7220   -11.6960 
