~V
VERS. 2.00: Ver 2.00
~W
STRT.M 63.0000:
STOP.M 308.0000:
STEP.M 0.1250:
NULL. -999.2500:
UWI. F10102:
~C
DEPT.M :
DEN.GM/CC :
SP.MV :
GR.API :
RML.OHMM :
RI. :
RXO.OHMM :
CALI.CM :
~A
# ...
  108.0000     2.3120   -15.8230    91.6050     6.9750     5.6240     5.6800    23.4170 
  108.1250     2.3420   -15.5020    90.4900     7.3570     5.8540     5.9580    23.5110 
  108.2500     2.3600   -16.0910    84.8080     7.8530     6.2510     7.1270    23.6740 
  108.3750     2.3490   -17.5670    79.2870     8.2500     6.6820     9.3800    23.8560 
  108.5000     2.3100   -19.6260    75.5710     8.4070     6.9760    10.8190    23.9570 
  108.6250     2.2530   -21.9860    71.3460     8.3090     7.0610     9.4930    24.0050 
  108.7500     2.1980   -24.2160    65.4570     8.0520     6.9710     7.9610    24.0210 
  108.8750     2.1620   -25.9140    62.8050     7.8030     6.8140     7.1250    24.0240 
  109.0000     2.1480   -26.8420    65.6270     7.6690     6.7050     6.7240    24.0380 
  109.1250     2.1510   -26.6740    70.3250     7.6510     6.6700     6.7850    24.0690 
  109.2500     2.1690   -25.3310    73.0560     7.6810     6.6710     7.0990    24.1150 
  109.3750     2.2000   -22.9720    76.0010     7.6380     6.6110     7.2160    24.2220 
  109.5000     2.2370   -20.0020    81.5740     7.4500     6.4330     7.1350    24.4240 
  109.6250     2.2780   -16.8060    88.0240     7.1020     6.1220     6.6320    24.7070 
  109.7500     2.3200   -13.7420    94.0060     6.6390     5.7100     6.1280    24.9330 
  109.8750     2.3570   -11.0640    97.4780     6.1990     5.2840     5.8110    25.0310 
  110.0000     2.3820    -8.8910    98.4580     5.9790     4.9700     5.3860    25.0270 
  110.1250     2.3920    -7.4300    98.4240     6.1710     4.9010     5.1260    24.9570 
  110.2500     2.3910    -6.6160    97.5680     6.9330     5.2010     5.3960    24.8590 
  110.3750     2.3980    -6.3970    93.5410     8.4410     6.0730     6.7260    24.8200 
  110.5000     2.4230    -6.7300    87.2740    10.4440     7.4950     9.9720    24.7910 
  110.6250     2.4580    -7.4650    83.0620    12.5310     9.3420    18.5670    24.7070 
  110.7500     2.4780    -8.5020    81.0340    14.0800    11.1580    29.3060    24.5930 
  110.8750     2.4500    -9.7780    78.6720    14.3060    11.9850    29.4980    24.4790 
  111.0000     2.3790   -11.1010    76.9660    13.3720    11.6060    24.7620    24.2600 
  111.1250     2.2930   -12.4000    78.3850    11.7900    10.4450    19.5820    23.9080 
  111.2500     2.2260   -13.6870    81.2750    10.1970     9.1230    13.5600    23.6430 
  111.3750     2.2090   -14.8960    81.2640     9.0930     8.0960     9.1250    23.5250 
  111.5000     2.2260   -16.0040    79.4330     8.4570     7.4170     7.5270    23.4000 
  111.6250     2.2510   -17.0760    78.3900     8.1540     7.0170     7.1410    23.2350 
  111.7500     2.2630   -18.0140    78.1790     8.0280     6.8010     7.1520    23.1800 
  111.8750     2.2500   -18.9110    77.9410     7.9730     6.7030     7.3910    23.1120 
  112.0000     2.2250   -19.9400    78.3940     7.9290     6.6570     7.5750    23.0730 
  112.1250     2.1990   -21.0210    78.0610     7.8890     6.6430     7.7860    23.0810 
  112.2500     2.1790   -22.1870    73.9960     7.8550     6.6480     8.0420    23.1730 
  112.3750     2.1690   -23.4700    69.0560     7.8080     6.6560     8.5220    23.3700 
  112.5000     2.1660   -24.6590    68.0600     7.7250     6.6380     8.9490    23.7120 
  112.6250     2.1690   -25.6550    68.7270     7.5910     6.5720     9.1270    24.2470 
  112.7500     2.1730   -26.5210    67.9930     7.4290     6.4600     9.1880    24.8040 
  112.8750     2.1720   -27.1380    66.9580     7.3120     6.3470     9.1850    24.9920 
  113.0000     2.1650   -27.4180    67.8070     7.3060     6.3060     9.0550    24.8930 
  113.1250     2.1600   -27.2960    68.9900     7.4280     6.3730     8.8740    24.6920 
  113.2500     2.1660   -26.6140    69.2490     7.6320     6.5360     8.8050    24.5070 
  113.3750     2.1960   -25.2170    69.0930     7.7990     6.7170     9.1920    24.2160 
  113.5000     2.2450   -23.3190    70.6050     7.8260     6.8030     9.8700    23.7360 
  113.6250     2.3030   -20.9810    75.9240     7.6900     6.7380     9.9570    23.2540 
  113.7500     2.3600   -18.4210    84.6680     7.4560     6.5510     8.5380    23.0320 
  113.8750     2.3970   -15.8920    90.7470     7.2670     6.3570     7.0050    23.2260 
  114.0000     2.4100   -13.4860    92.5150     7.2230     6.2640     6.7840    23.6710 
  114.1250     2.4010   -11.3210    90.1920     7.3300     6.3070     7.0960    24.0500 
  114.2500     2.3770    -9.4580    85.1780     7.5070     6.4580     7.4280    24.1580 
  114.3750     2.3550    -8.0150    82.4670     7.5870     6.6140     7.5990    24.0680 
  114.5000     2.3460    -6.9890    84.7610     7.4610     6.6400     7.1290    23.9810 
  114.6250     2.3550    -6.3280    88.2600     7.1220     6.4740     6.7840    23.9430 
  114.7500     2.3770    -5.8210    90.4710     6.6690     6.1560     6.5420    23.9380 
  114.8750     2.4060    -5.3570    94.7030     6.2950     5.8250     5.9790    23.9470 
  115.0000     2.4310    -4.9670    99.5990     6.1390     5.6220     5.3680    23.9520 
  115.1250     2.4450    -4.6740    99.8580     6.2490     5.6140     5.0640    23.9490 
  115.2500     2.4440    -4.6190    94.5960     6.5840     5.8070     5.6230    23.9450 
  115.3750     2.4270    -4.7080    89.6690     7.0130     6.1450     7.2090    23.9570 
  115.5000     2.4010    -4.7480    87.7450     7.3440     6.4640     8.3960    24.0490 
  115.6250     2.3740    -4.8480    86.3940     7.4600     6.6310     7.8360    24.2440 
  115.7500     2.3510    -5.1120    84.5310     7.3390     6.5810     6.8970    24.5450 
  115.8750     2.3380    -5.4830    82.5410     7.0660     6.3390     6.3490    24.7090 
  116.0000     2.3320    -5.9350    82.4540     6.8610     6.0840     6.3650    24.7020 
  116.1250     2.3290    -6.4370    82.8580     6.9070     5.9700     6.7570    24.5780 
  116.2500     2.3260    -6.7580    81.2310     7.3690     6.1380     7.3560    24.4440 
  116.3750     2.3260    -6.9870    76.6610     8.4690     6.7870     8.2730    24.3980 
  116.5000     2.3340    -7.3310    71.5740    10.1710     7.9530    11.2300    24.4740 
  116.6250     2.3520    -7.7300    67.3860    12.4090     9.6860    19.3150    24.6470 
  116.7500     2.3750    -8.1570    64.6870    14.9670    11.9300    31.0130    24.7600 
  116.8750     2.3930    -8.5900    64.1180    17.3840    14.3980    40.5720    24.7520 
  117.0000     2.4000    -8.9180    65.4020    19.1750    16.5090    49.1640    24.6670 
  117.1250     2.4030    -9.1770    67.9850    20.0310    17.8020    57.7000    24.5860 
  117.2500     2.4130    -9.5260    70.5640    19.8790    18.0900    56.3430    24.5250 
  117.3750     2.4370   -10.0220    71.1780    18.7630    17.3650    42.1510    24.3470 
  117.5000     2.4600   -10.6660    71.5170    17.1240    16.0490    27.0790    23.9250 
  117.6250     2.4650   -11.3840    73.0190    15.2390    14.3990    15.4370    23.3410 
  117.7500     2.4400   -12.0710    74.9250    13.3670    12.6710    10.1000    22.8360 
  117.8750     2.3880   -12.7400    74.4970    11.8000    11.1510     8.9860    22.6060 
  118.0000     2.3310   -13.4460    72.3950    10.6470     9.9700     9.1270    22.5410 
  118.1250     2.2860   -14.2070    71.5420     9.9290     9.1680     9.5330    22.5330 
  118.2500     2.2600   -15.0980    71.5740     9.5820     8.7100     9.5450    22.5330 
  118.3750     2.2520   -16.0320    70.0720     9.5130     8.5490     9.1970    22.5330 
  118.5000     2.2500   -16.9350    69.2500     9.5530     8.5380     8.8700    22.5330 
  118.6250     2.2460   -17.9350    70.4460     9.6180     8.5990     8.8660    22.5420 
  118.7500     2.2340   -18.9700    72.6130     9.6610     8.6730     8.9660    22.5970 
  118.8750     2.2160   -19.9080    72.3270     9.6520     8.7140     9.3950    22.7920 
  119.0000     2.2000   -20.7970    69.5150     9.5930     8.7080     9.9410    23.1000 
  119.1250     2.1890   -21.5570    65.6420     9.4900     8.6560    10.4060    23.4500 
