~V
VERS. 2.00: Ver 2.00
~W
STRT.M 50.0000:
STOP.M 251.0000:
STEP.M 0.1250:
NULL. -999.2500:
UWI. F10193:
~C
DEPT.M :
DEN.GM/CC :
GR.API :
RML.OHMM :
RI. :
RXO.OHMM :
CALI.CM :
SP.MV :
~A
# ...
   83.7500     2.3680    64.9170    15.4750    13.2520    16.7130    26.1890   -13.6950 
   83.8750     2.2740    65.1160    12.6520    10.8800    12.5970    26.2890   -15.2540 
   84.0000     2.2150    63.1620    11.0770     9.3390    11.4900    26.3780   -16.6630 
   84.1250     2.1890    61.2730    10.5370     8.5850    11.5110    26.4050   -17.8400 
   84.2500     2.1720    62.4820    10.4940     8.2910    11.3620    26.4020   -18.8150 
   84.3750     2.1540    64.6480    10.6540     8.2570    11.2000    26.4020   -19.6080 
   84.5000     2.1400    64.8610    10.8200     8.3230    11.0700    26.3890   -20.2340 
   84.6250     2.1370    64.3610    10.8950     8.3800    11.1050    26.3460   -20.6740 
   84.7500     2.1410    64.3750    10.8880     8.3890    11.2790    26.2930   -20.9660 
   84.8750     2.1420    62.8710    10.8100     8.3440    11.3320    26.2260   -21.1420 
   85.0000     2.1360    58.8590    10.6760     8.2450    11.1440    26.1220   -21.2430 
   85.1250     2.1240    55.9130    10.5070     8.1000    11.0450    25.9900   -21.3090 
   85.2500     2.1160    55.0080    10.3460     7.9400    11.1180    25.8640   -21.3470 
   85.3750     2.1170    55.4820    10.2250     7.7890    11.0220    25.7510   -21.3210 
   85.5000     2.1270    56.8810    10.1650     7.6660    10.8060    25.6540   -21.1830 
   85.6250     2.1400    58.1270    10.1740     7.5870    10.8540    25.6050   -20.8770 
   85.7500     2.1530    57.6340    10.2110     7.5430    10.8030    25.5990   -20.4430 
   85.8750     2.1620    57.1350    10.2330     7.5200    10.7540    25.5920   -19.9370 
   86.0000     2.1670    59.0750    10.2040     7.5090    10.7680    25.5570   -19.4260 
   86.1250     2.1660    62.5130    10.1110     7.5000    10.6470    25.5020   -18.9690 
   86.2500     2.1620    64.7000     9.9970     7.4890    10.6260    25.4440   -18.5380 
   86.3750     2.1600    64.9680     9.8980     7.4740    10.7510    25.3890   -18.0720 
   86.5000     2.1610    64.3280     9.8460     7.4610    10.7550    25.3340   -17.5070 
   86.6250     2.1700    64.2870     9.8780     7.4610    10.7260    25.2750   -16.7780 
   86.7500     2.1820    66.1760     9.9720     7.4700    10.3220    25.1990   -15.9140 
   86.8750     2.1930    67.9240    10.0700     7.4630     9.6900    25.1580   -14.9470 
   87.0000     2.2000    69.4120    10.0750     7.3940     9.4900    25.1590   -13.9090 
   87.1250     2.2060    72.3970     9.8530     7.1850     9.4810    25.1600   -12.8230 
   87.2500     2.2170    77.2160     9.4100     6.8360     9.0890    25.1640   -11.7240 
   87.3750     2.2350    81.7050     8.8130     6.3840     7.9320    25.1540   -10.6480 
   87.5000     2.2590    84.9850     8.1910     5.9070     6.7110    25.1270    -9.6430 
   87.6250     2.2820    87.6680     7.7210     5.5220     6.2670    25.0960    -8.8200 
   87.7500     2.2930    89.7100     7.4920     5.3010     6.2810    25.0810    -8.2480 
   87.8750     2.2860    90.6640     7.5460     5.2820     6.3750    25.0810    -7.9800 
   88.0000     2.2610    87.3660     7.8640     5.4650     6.5790    25.0810    -8.0130 
   88.1250     2.2290    79.8050     8.3880     5.8280     7.2820    25.0730    -8.3080 
   88.2500     2.2060    73.4740     8.9630     6.2660     7.9850    25.0770    -8.7190 
   88.3750     2.1950    70.5560     9.4990     6.7100     8.3890    25.0980    -9.1590 
   88.5000     2.1940    69.5410     9.9620     7.1170     8.5740    25.1360    -9.5730 
   88.6250     2.1940    67.5660    10.3510     7.4630     8.9640    25.1840    -9.9310 
   88.7500     2.1890    64.9400    10.6920     7.7520     9.3580    25.2120   -10.2330 
   88.8750     2.1790    62.7650    10.9610     7.9670     9.6980    25.2130   -10.4750 
   89.0000     2.1690    62.8570    11.0890     8.0730     9.9340    25.1830   -10.6490 
   89.1250     2.1630    65.9570    10.9510     7.9930    10.0370    25.1160   -10.7110 
   89.2500     2.1610    68.5230    10.5870     7.7520     9.9840    25.0580   -10.6630 
   89.3750     2.1620    68.5700    10.1120     7.4080     9.9120    25.0170   -10.5300 
   89.5000     2.1630    66.2980     9.6840     7.0570     9.7900    24.9910   -10.3670 
   89.6250     2.1640    65.1740     9.4570     6.8060     9.6680    24.9900   -10.2580 
   89.7500     2.1660    66.6470     9.4300     6.6880     9.5680    24.9950   -10.2490 
   89.8750     2.1720    69.8180     9.5510     6.6970     9.4570    24.9960   -10.3520 
   90.0000     2.1780    72.8590     9.7480     6.7960     9.5560    24.9980   -10.5620 
   90.1250     2.1810    74.3330     9.9670     6.9520     9.9880    25.0010   -10.8600 
   90.2500     2.1790    72.3460    10.1840     7.1300    10.4960    25.0200   -11.1900 
   90.3750     2.1720    67.3750    10.4100     7.3250    10.7500    25.0580   -11.5060 
   90.5000     2.1670    64.3840    10.6850     7.5530    10.7820    25.1090   -11.7690 
   90.6250     2.1680    67.1360    11.0890     7.8590    10.7290    25.1750   -11.9520 
   90.7500     2.1760    69.8470    11.6430     8.2620    10.7060    25.2130   -12.0860 
   90.8750     2.1860    69.6590    12.3160     8.7530    10.6680    25.1870   -12.2050 
   91.0000     2.1920    68.3630    12.9910     9.2750    10.5710    25.1770   -12.3450 
   91.1250     2.1880    67.5390    13.4260     9.6840    10.5550    25.1970   -12.5310 
   91.2500     2.1770    66.1860    13.4730     9.8580    10.6450    25.2320   -12.7530 
   91.3750     2.1650    65.0790    13.1020     9.7420    10.7760    25.3010   -12.9840 
   91.5000     2.1570    66.2470    12.4290     9.3810    10.8950    25.3760   -13.1880 
   91.6250     2.1580    67.1630    11.6740     8.8840    10.9530    25.4000   -13.3310 
   91.7500     2.1660    65.7470    11.0490     8.4090    10.9660    25.4070   -13.4170 
   91.8750     2.1760    63.8420    10.6310     8.0280    10.8840    25.4150   -13.4520 
   92.0000     2.1840    64.6620    10.4150     7.7660    10.8030    25.4200   -13.4460 
   92.1250     2.1880    68.2000    10.3610     7.6230    10.8370    25.4240   -13.3970 
   92.2500     2.1900    69.8310    10.3700     7.5430    10.9270    25.4340   -13.3280 
   92.3750     2.1910    68.6900    10.3930     7.4910    10.9430    25.4440   -13.2650 
   92.5000     2.1890    66.8960    10.4000     7.4440    10.8790    25.4480   -13.2310 
   92.6250     2.1820    66.3000    10.3850     7.3900    10.8220    25.4460   -13.2450 
   92.7500     2.1700    65.6800    10.3650     7.3390    10.8470    25.4460   -13.2960 
   92.8750     2.1570    64.7290    10.3510     7.2990    10.8770    25.4460   -13.3730 
   93.0000     2.1500    64.9990    10.3460     7.2790    10.8880    25.4460   -13.4620 
   93.1250     2.1510    66.7990    10.3390     7.2800    11.0600    25.4730   -13.5530 
   93.2500     2.1600    68.8350    10.3220     7.2930    11.2120    25.6300   -13.6310 
   93.3750     2.1760    69.7550    10.2970     7.3140    11.2800    25.8950   -13.6820 
   93.5000     2.1930    69.2770    10.2800     7.3460    11.3240    25.7480   -13.7010 
   93.6250     2.2010    67.7890    10.2950     7.3950    11.3880    25.6430   -13.6850 
   93.7500     2.1920    65.8030    10.3400     7.4610    11.4280    25.5890   -13.6330 
   93.8750     2.1670    64.0300    10.3970     7.5350    11.3860    25.6030   -13.5220 
   94.0000     2.1330    63.8750    10.4350     7.6010    11.2460    25.6030   -13.3160 
   94.1250     2.1060    64.1980    10.3950     7.6260    11.0220    25.5940   -12.9550 
   94.2500     2.0950    62.8540    10.2510     7.5850    10.7350    25.5690   -12.4220 
   94.3750     2.1050    61.9890     9.9900     7.4610    10.5760    25.5290   -11.7010 
   94.5000     2.1290    65.2930     9.6360     7.2520    10.3550    25.4940   -10.7900 
   94.6250     2.1600    70.4470     9.2420     6.9720     9.8220    25.4810    -9.6880 
   94.7500     2.1890    75.0070     8.8730     6.6740     9.2730    25.4780    -8.4670 
   94.8750     2.2130    80.0590     8.5700     6.3950     8.7620    25.4780    -7.1750 
