~V
VERS. 2.00: Ver 2.00
~W
STRT.M 60.0000:
STOP.M 220.0000:
STEP.M 0.1250:
NULL. -999.2500:
UWI. F10154:
~C
DEPT.M :
GR.API :
RML.OHMM :
RI. :
RXO.OHMM :
CALI.CM :
DEN.GM/CC :
SP.MV :
~A
# ...
  161.2500    63.1990   190.9470   158.8850    45.2940    23.4990     2.2230   -14.9340 
  161.3750    62.3800   184.3100   153.7760    56.3390    23.5000     2.2270   -14.9630 
  161.5000    60.7920   181.0310   151.9870    69.1840    23.5440     2.2250   -14.9820 
  161.6250    59.5590   181.2560   153.8140    81.8400    23.6750     2.2200   -14.9910 
  161.7500    61.7040   182.5800   157.1690   100.5600    23.8460     2.2140   -14.9960 
  161.8750    64.8020   182.6320   159.9480   114.0290    23.9690     2.2090   -15.0150 
  162.0000    65.5790   179.1520   159.8200   102.5740    24.0340     2.2030   -15.0940 
  162.1250    62.8250   170.0770   154.1200    72.2090    24.1430     2.1950   -15.1960 
  162.2500    59.7730   156.9560   143.8170    69.8980    24.3850     2.1880   -15.2080 
  162.3750    58.6860   141.8780   130.8350   121.7370    24.7520     2.1870   -15.1210 
  162.5000    60.3130   127.2270   117.6260   160.8930    25.1280     2.1950   -15.0670 
  162.6250    64.2850   115.4840   106.7420   172.0200    25.2790     2.2110   -15.1150 
  162.7500    67.3290   107.3880    99.0890   115.3200    25.2010     2.2260   -15.1750 
  162.8750    69.5490   103.4400    95.1700    95.8730    25.0130     2.2360   -15.1820 
  163.0000    71.0500   104.0000    95.3530    94.1380    24.8750     2.2360   -15.1590 
  163.1250    70.8990   110.2890   100.8990    90.0820    24.8460     2.2250   -15.1440 
  163.2500    68.7930   121.7900   111.4940    92.5810    24.8860     2.2100   -15.1360 
  163.3750    65.9580   138.3430   127.2040   100.8150    24.9240     2.1960   -15.1180 
  163.5000    64.6740   158.8090   147.2560   140.6530    24.8910     2.1900   -15.0540 
  163.6250    65.4090   179.6810   168.8650   169.9290    24.8190     2.1950   -14.9560 
  163.7500    67.0010   194.9520   186.0560   160.1230    24.7080     2.2030   -14.9110 
  163.8750    68.6740   199.4030   192.5960   138.6740    24.5540     2.2100   -14.8850 
  164.0000    68.1510   191.1270   185.0940   118.2320    24.3590     2.2130   -14.7800 
  164.1250    64.9480   172.6820   165.8850    93.5200    24.0970     2.2150   -14.5920 
  164.2500    60.6250   152.9590   145.1860    73.0850    23.9000     2.2150   -14.4400 
  164.3750    57.7220   137.4240   128.8070    57.9380    23.8270     2.2130   -14.4060 
  164.5000    57.3550   128.7870   119.3420    50.7470    23.8960     2.2080   -14.4210 
  164.6250    57.6440   128.4840   118.3250    66.2570    24.1760     2.2020   -14.4110 
  164.7500    57.7460   133.9280   123.2850   111.0800    24.5540     2.2000   -14.3980 
  164.8750    58.4830   143.0900   132.1940   161.8840    24.9820     2.2070   -14.3900 
  165.0000    59.8790   153.6130   142.7040   155.8500    25.3040     2.2200   -14.3750 
  165.1250    60.5750   162.9750   152.0800   147.8430    25.5210     2.2340   -14.3460 
  165.2500    60.1030   170.2140   158.9880   138.4140    25.6610     2.2400   -14.3000 
  165.3750    59.5400   175.6720   163.9290   147.8580    25.6560     2.2370   -14.2790 
  165.5000    58.3650   180.1260   168.3270   189.3780    25.6020     2.2260   -14.2770 
  165.6250    57.2660   183.3720   172.5150   209.9470    25.5490     2.2120   -14.2430 
  165.7500    59.5430   184.2910   174.8720   166.1590    25.4460     2.2010   -14.1530 
  165.8750    63.9210   181.6690   173.6770   128.5010    25.2340     2.1970   -14.0680 
  166.0000    65.6230   175.4130   168.4470   133.5920    25.0020     2.2030   -14.1010 
  166.1250    62.6990   166.8640   160.3410   141.6630    24.8460     2.2120   -14.1630 
  166.2500    60.6180   158.6620   152.5300   123.2870    24.7180     2.2090   -14.2050 
  166.3750    61.3410   151.8310   146.5350   100.5950    24.5260     2.1860   -14.1840 
  166.5000    62.6060   145.6950   141.7630   100.5690    24.2340     2.1480   -14.1010 
  166.6250    62.6980   137.7890   135.2980   115.7330    24.0470     2.1250   -14.0420 
  166.7500    63.6930   126.6560   125.0590   126.6430    23.9740     2.1460   -13.9570 
  166.8750    64.6240   112.6930   111.1700   119.3400    23.8760     2.2130   -13.8090 
  167.0000    65.0940    98.0700    95.9810    84.3150    23.7160     2.3040   -13.5780 
  167.1250    66.1000    86.5020    83.6070    50.9530    23.7660     2.3720   -13.3780 
  167.2500    67.5210    80.0640    76.3480    39.2640    23.9410     2.3900   -13.2220 
  167.3750    67.5190    79.7730    75.1630    38.5480    23.9970     2.3580   -13.0770 
  167.5000    64.6910    85.7410    80.2210    42.1560    23.8390     2.3000   -12.9840 
  167.6250    60.2720    97.4030    91.6170    61.0500    23.6240     2.2420   -12.9470 
  167.7500    56.7480   109.9640   105.1250    99.3470    23.5090     2.2030   -12.9380 
  167.8750    55.3880   117.8960   114.5880   143.2320    23.4560     2.1890   -12.9550 
  168.0000    56.5690   116.7310   113.7440   160.7950    23.4130     2.1960   -12.9510 
  168.1250    57.8380   105.5960   100.9720   151.2780    23.5740     2.2190   -12.9530 
  168.2500    57.5580    91.8140    85.3210   122.6430    23.7920     2.2390   -13.0000 
  168.3750    55.3430    81.2040    73.1950    77.3600    23.9540     2.2420   -13.0330 
  168.5000    52.0840    77.4200    67.9320    46.1800    24.0170     2.2230   -12.9640 
  168.6250    49.2860    82.3850    71.7420    54.6390    24.2170     2.1860   -12.7440 
  168.7500    48.0010    92.8870    82.6330   108.9440    24.7120     2.1510   -12.4940 
  168.8750    49.2040   106.9650    98.7960   188.2780    25.2860     2.1260   -12.2640 
  169.0000    52.8030   122.8950   116.9400   210.7500    25.5670     2.1130   -12.0240 
  169.1250    55.1930   137.5150   131.6760   187.2590    25.5650     2.1100   -11.6890 
  169.2500    53.9780   147.2020   140.2820   165.6090    25.4020     2.1220   -11.2830 
  169.3750    50.6990   149.3070   142.4400   152.6550    25.0990     2.1580   -10.9060 
  169.5000    48.0560   142.2310   137.5080   158.9950    24.7120     2.2200   -10.6400 
  169.6250    48.8240   123.7510   121.2490   154.0960    24.1930     2.3000   -10.4830 
  169.7500    51.2520    98.5970    96.2880   128.0400    23.6620     2.3720   -10.2900 
  169.8750    53.3020    72.6380    69.5210    99.0570    23.2030     2.4200   -10.0340 
  170.0000    53.9920    51.3340    47.8820    56.2250    23.1540     2.4410    -9.7970 
  170.1250    54.2390    38.3360    35.1160    30.6450    23.4550     2.4370    -9.6420 
  170.2500    54.6730    31.8170    28.6290    18.6710    23.7170     2.4230    -9.5160 
  170.3750    53.2810    30.5180    26.7330    16.9370    23.6460     2.4110    -9.3610 
  170.5000    49.7650    33.4780    28.4800    20.9760    23.5940     2.4090    -9.1700 
  170.6250    47.3610    40.0150    33.9680    32.6510    23.6690     2.4250    -8.9710 
  170.7500    47.2860    47.2200    41.2950    56.5280    23.7590     2.4520    -8.8140 
  170.8750    47.4540    51.8410    47.0070    79.6210    23.9860     2.4780    -8.6970 
  171.0000    46.5610    51.2260    46.9730    88.5530    24.2910     2.4880    -8.5820 
  171.1250    46.7800    44.7900    40.2280    84.1670    24.4940     2.4800    -8.5060 
  171.2500    50.1090    36.5790    32.1340    49.7400    24.5880     2.4720    -8.4450 
  171.3750    54.5370    29.4970    25.6690    22.1900    24.6960     2.4820    -8.3650 
  171.5000    57.3630    24.7450    21.5460    12.8860    24.8150     2.5150    -8.2690 
  171.6250    58.4790    22.0810    19.2370    15.4760    24.8180     2.5550    -8.1760 
  171.7500    59.6370    20.0420    17.3490    21.4310    24.7640     2.5780    -8.1060 
  171.8750    60.7470    17.8630    15.2330    20.3960    24.6670     2.5760    -8.0160 
  172.0000    60.9440    15.1520    12.7610    14.8560    24.5680     2.5540    -7.8640 
  172.1250    60.5900    12.0400    10.2800    10.0720    24.5680     2.5270    -7.6370 
  172.2500    61.1800     9.2680     8.2090     6.7260    24.5550     2.5010    -7.3940 
  172.3750    60.9130     7.3510     6.7190     5.0800    24.4560     2.4730    -7.2040 
