~V
VERS. 2.00: Ver 2.00
~W
STRT.M 64.0000:
STOP.M 215.0000:
STEP.M 0.1250:
NULL. -999.2500:
UWI. F10146:
~C
DEPT.M :
DEN.GM/CC :
GR.API :
RML.OHMM :
RI. :
RXO.OHMM :
CALI.CM :
SP.MV :
~A
# ...
  165.2500     2.1360    59.3250   106.6100    99.8940    67.4310    29.6960   -23.6500 
  165.3750     2.1190    61.2030    77.3610    70.1080    65.1500    29.1120   -23.3320 
  165.5000     2.1200    64.6950    49.0920    44.6290    47.6170    28.6360   -23.0290 
  165.6250     2.1530    70.5120    31.3020    28.4560    26.7990    28.1200   -22.7780 
  165.7500     2.2090    78.5950    20.8740    18.9760    15.0320    27.5050   -22.5510 
  165.8750     2.2730    88.5920    15.2040    13.8220    10.3550    27.1860   -22.3660 
  166.0000     2.3270    97.3520    12.2730    11.1570     8.6910    26.9830   -22.2690 
  166.1250     2.3580   101.0270    11.0700    10.0630     8.3370    26.8370   -22.2100 
  166.2500     2.3720    99.5840    10.7220     9.7480     8.3030    26.7180   -22.2920 
  166.3750     2.3800    95.3900    10.9120     9.9200     8.7470    26.6750   -22.4520 
  166.5000     2.3870    91.1060    11.4370    10.3980     9.3290    26.6690   -22.7060 
  166.6250     2.3910    90.5400    12.3100    11.1910    10.0260    26.6690   -23.0740 
  166.7500     2.3900    89.6720    13.6740    12.4310    11.0410    26.6690   -23.5530 
  166.8750     2.3810    86.3150    15.9350    14.4870    12.6580    26.6690   -24.0950 
  167.0000     2.3630    82.6180    19.7800    17.9820    15.6320    26.6730   -24.6500 
  167.1250     2.3350    80.2740    26.8760    24.4320    21.6680    26.7140   -25.2640 
  167.2500     2.3000    75.2850    38.0610    34.6540    33.9670    26.8700   -25.8540 
  167.3750     2.2620    67.7670    54.0000    49.1030    49.1340    27.0830   -26.4340 
  167.5000     2.2280    62.4900    73.2500    66.4870    60.1710    27.4860   -26.9850 
  167.6250     2.2030    61.2580    91.1150    82.1620    66.4370    27.6970   -27.4960 
  167.7500     2.1880    61.5910   102.6530    91.6400    71.6730    27.8290   -27.9140 
  167.8750     2.1810    63.4490   106.4180    94.0250    74.9970    27.8850   -28.2760 
  168.0000     2.1810    65.1170   104.4290    91.3350    72.1200    28.0470   -28.5810 
  168.1250     2.1840    62.0470    99.3300    85.9980    65.6890    28.3510   -28.7980 
  168.2500     2.1900    57.0200    93.3260    80.0530    62.0640    28.5530   -28.9640 
  168.3750     2.1970    55.5900    87.2740    74.2520    60.3620    28.6720   -29.0610 
  168.5000     2.2050    59.5490    82.0620    69.2750    53.3950    28.6940   -29.1150 
  168.6250     2.2110    65.1250    78.8620    66.1080    48.6440    28.7030   -29.0640 
  168.7500     2.2140    67.4600    77.5230    64.7140    47.6010    28.7030   -28.9700 
  168.8750     2.2120    67.1500    77.3660    64.6070    49.9620    28.6980   -28.8030 
  169.0000     2.2070    66.3520    77.3880    64.9480    52.4840    28.7010   -28.5870 
  169.1250     2.2020    67.5810    76.4490    64.7380    54.4170    28.6830   -28.3030 
  169.2500     2.2010    68.7820    74.1870    63.4890    51.7520    28.6220   -27.9910 
  169.3750     2.2050    68.5710    70.8770    61.2560    47.5130    28.5620   -27.6880 
  169.5000     2.2130    68.0830    67.3510    58.6070    43.7370    28.5500   -27.3570 
  169.6250     2.2200    68.6460    64.6710    56.4000    44.9230    28.5380   -27.0330 
  169.7500     2.2210    70.8990    63.0670    54.9710    44.7130    28.4780   -26.7060 
  169.8750     2.2130    74.0430    62.3820    54.2720    41.4490    28.4050   -26.4240 
  170.0000     2.1970    75.4620    62.2730    54.0790    38.8690    28.3780   -26.1400 
  170.1250     2.1790    73.1500    62.3380    54.0660    41.2740    28.3180   -25.9040 
  170.2500     2.1690    69.0680    62.2790    53.9340    42.3150    28.2290   -25.6810 
  170.3750     2.1700    66.4630    62.0580    53.6040    40.7450    28.0170   -25.4480 
  170.5000     2.1820    66.7690    61.7760    53.1290    39.6150    27.8360   -25.2400 
  170.6250     2.2000    71.3870    61.7820    52.7400    40.7390    27.6740   -25.0360 
  170.7500     2.2140    77.5680    62.5860    52.8640    41.5910    27.4420   -24.8660 
  170.8750     2.2240    80.8700    64.7350    53.9990    41.5730    27.2390   -24.7050 
  171.0000     2.2290    79.2570    68.6160    56.5440    42.1660    27.0990   -24.6140 
  171.1250     2.2330    74.8390    74.7260    61.0650    44.8210    26.9020   -24.5240 
  171.2500     2.2340    71.0740    82.6970    67.4470    54.5810    26.7460   -24.4480 
  171.3750     2.2340    69.1440    92.2020    75.6460    67.5670    26.5670   -24.3730 
  171.5000     2.2300    68.1780   102.5220    85.2320    73.0270    26.4230   -24.2940 
  171.6250     2.2220    67.2490   112.3800    95.2930    69.7260    26.3030   -24.2490 
  171.7500     2.2130    67.9230   120.5370   104.5550    78.6220    26.1620   -24.1700 
  171.8750     2.2050    68.5310   125.8050   111.8950    95.6570    25.9810   -24.0870 
  172.0000     2.2010    67.5800   126.3740   115.7250   103.8280    25.8200   -23.9610 
  172.1250     2.2010    65.3920   117.8900   111.9670    90.2420    25.6810   -23.8510 
  172.2500     2.2010    64.1760   100.2660    99.2170    79.2950    25.5550   -23.7370 
  172.3750     2.2040    65.3380    76.9260    79.1450    74.6150    25.4190   -23.6370 
  172.5000     2.2130    68.0510    58.2750    57.1350    59.7290    25.2700   -23.5740 
  172.6250     2.2380    72.3340    39.9550    39.6250    36.2380    25.1340   -23.5230 
  172.7500     2.2780    77.1530    28.0680    27.8800    21.1950    25.0160   -23.5480 
  172.8750     2.3250    82.3160    21.3610    21.0020    14.7270    24.9490   -23.5960 
  173.0000     2.3640    86.8600    18.4690    17.6230    12.4750    24.9050   -23.7050 
  173.1250     2.3780    86.0870    19.0310    17.1760    12.3260    24.8580   -23.8530 
  173.2500     2.3660    81.1850    22.3610    19.0210    14.2700    24.8410   -24.0640 
  173.3750     2.3360    76.2560    28.5750    23.4170    19.7140    24.7980   -24.3170 
  173.5000     2.3010    75.1090    37.6080    30.6600    28.6840    24.7450   -24.6120 
  173.6250     2.2710    75.5650    45.1320    40.6900    45.6940    24.6960   -24.9270 
  173.7500     2.2520    73.6670    54.8730    51.0340    56.1690    24.6370   -25.2360 
  173.8750     2.2430    72.1210    61.7360    58.9770    55.3230    24.5700   -25.5590 
  174.0000     2.2430    74.2320    65.0290    63.1420    47.6030    24.5390   -25.8600 
  174.1250     2.2460    77.8860    66.6780    64.7060    46.1400    24.4850   -26.1780 
  174.2500     2.2470    78.2160    69.9120    66.9210    48.2770    24.4330   -26.4480 
  174.3750     2.2440    74.5510    76.1600    71.5440    51.8890    24.3920   -26.7220 
  174.5000     2.2360    68.9620    85.2000    78.9080    58.4550    24.3560   -26.9740 
  174.6250     2.2250    64.9950    94.4030    87.2140    72.6250    24.3110   -27.2270 
  174.7500     2.2140    65.8240    99.2480    92.3870    85.3770    24.2920   -27.4610 
  174.8750     2.2090    68.5490    96.8140    91.3960    87.0080    24.2390   -27.6910 
  175.0000     2.2110    69.4430    87.9580    84.2020    75.8180    24.1580   -27.9230 
  175.1250     2.2210    69.8770    76.9870    73.9110    56.5490    24.0980   -28.1010 
  175.2500     2.2340    72.0960    68.4640    64.9680    41.8260    24.0420   -28.3250 
  175.3750     2.2480    74.3640    64.2750    59.5010    37.5350    24.0120   -28.5480 
  175.5000     2.2590    73.4120    65.1500    58.4160    44.1210    23.9990   -28.7630 
  175.6250     2.2630    69.6900    72.7270    63.1070    48.1030    23.9860   -28.9480 
  175.7500     2.2590    66.7420    87.4150    73.9230    48.0630    23.9460   -29.1490 
  175.8750     2.2490    66.6250   111.1920    92.9060    50.7500    23.9160   -29.3270 
  176.0000     2.2330    68.2300   146.4890   122.5720    58.8840    23.9110   -29.4740 
  176.1250     2.2150    67.6050   197.7400   166.6160    74.4420    23.9100   -29.6210 
  176.2500     2.2000    65.5520   260.7490   220.2580    77.9170    23.9040   -29.7050 
  176.3750     2.1910    64.0560   325.0700   274.1930    72.2630    23.8710   -29.7600 
