~V
VERS. 2.00: Ver 2.00
~W
STRT.M 47.0000:
STOP.M 242.0000:
STEP.M 0.1250:
NULL. -999.2500:
UWI. F10188:
~C
DEPT.M :
SP.MV :
DEN.GM/CC :
GR.API :
RML.OHMM :
RI. :
RXO.OHMM :
CALI.CM :
~A
# ...
  193.2500   -36.1210     2.3200    60.6120    78.1920    71.3220    70.5080    26.2990 
  193.3750   -35.9590     2.3520    59.0300    72.2880    67.4840    68.9680    26.0720 
  193.5000   -35.7960     2.3900    62.0320    64.7170    61.6950    68.7780    25.8080 
  193.6250   -35.6150     2.4250    64.1820    57.4040    55.2620    66.4230    25.7160 
  193.7500   -35.4380     2.4350    62.9590    52.0110    49.8040    59.5040    25.8420 
  193.8750   -35.2760     2.4170    61.7960    49.4520    46.7190    50.5400    26.0670 
  194.0000   -35.1460     2.4020    64.4370    49.7560    46.7560    50.1570    26.1680 
  194.1250   -35.0320     2.4230    65.4250    50.5150    47.9430    56.6980    26.0530 
  194.2500   -34.9720     2.4800    62.6180    48.7430    47.5020    64.6380    25.8820 
  194.3750   -34.9340     2.5490    61.2790    42.1930    42.8120    69.4410    25.7850 
  194.5000   -34.9070     2.5850    67.6280    32.0830    33.7770    63.4230    25.7570 
  194.6250   -34.9250     2.5690    76.1550    22.9730    24.6590    43.6600    25.7510 
  194.7500   -34.9160     2.5180    81.0260    16.6450    17.8210    21.7590    25.8240 
  194.8750   -34.8850     2.4660    85.5200    13.0430    13.6750    13.4700    25.9520 
  195.0000   -34.7860     2.4420    93.5150    11.7990    11.9480    14.0240    26.0380 
  195.1250   -34.6380     2.4450    98.8880    12.0040    11.7180    16.1690    26.0280 
  195.2500   -34.4030     2.4670    97.5310    13.2290    12.6400    18.4250    25.9660 
  195.3750   -34.1100     2.5050    90.6380    14.8700    14.2110    20.7620    25.8710 
  195.5000   -33.7620     2.5450    81.7320    15.6710    15.2390    22.4200    25.7860 
  195.6250   -33.3470     2.5650    72.2450    14.7050    14.6180    22.4530    25.6940 
  195.7500   -32.8680     2.5530    65.9540    12.2070    12.4040    19.6120    25.6380 
  195.8750   -32.3830     2.5120    64.3970     9.3690     9.6730    12.9180    25.5910 
  196.0000   -31.9690     2.4560    62.8400     7.3500     7.5610     6.7280    25.4770 
  196.1250   -31.6010     2.4110    61.0830     6.2280     6.2640     4.5630    25.3530 
  196.2500   -31.3120     2.3910    64.5570     5.8150     5.6650     4.6290    25.2960 
  196.3750   -31.1310     2.3970    73.1520     5.9010     5.5950     5.2010    25.2370 
  196.5000   -31.0720     2.4140    79.0160     6.3590     5.9410     5.7190    25.1880 
  196.6250   -31.1250     2.4250    79.7180     6.9980     6.4940     6.0900    25.0820 
  196.7500   -31.3210     2.4270    78.5300     7.7330     7.1460     6.0120    24.7340 
  196.8750   -31.5950     2.4240    74.7490     8.4990     7.8150     5.8690    24.0050 
  197.0000   -31.9100     2.4200    64.8410     9.2060     8.4150     6.4070    23.3250 
  197.1250   -32.2670     2.4140    54.5110     9.7370     8.8690     7.3590    23.3500 
  197.2500   -32.6600     2.3980    49.4440     9.9930     9.0960     8.2480    24.0250 
  197.3750   -33.0780     2.3710    49.6450     9.9430     9.0620     8.6520    24.8000 
  197.5000   -33.5210     2.3410    52.3360     9.6300     8.7740     7.9150    25.1960 
  197.6250   -33.9570     2.3170    53.8470     9.2530     8.3800     6.9480    25.2800 
  197.7500   -34.4170     2.2990    53.2000     8.9550     8.0020     6.5590    25.3060 
  197.8750   -34.9280     2.2850    50.3110     8.8310     7.7350     6.6870    25.3810 
  198.0000   -35.4740     2.2850    48.3440     8.9420     7.6560     7.1420    25.4100 
  198.1250   -36.0420     2.3000    48.2850     9.2280     7.7480     7.4480    25.3710 
  198.2500   -36.5910     2.3230    48.0760     9.6340     7.9870     7.4450    25.3400 
  198.3750   -37.1070     2.3390    48.0730    10.0740     8.3160     7.3600    25.3800 
  198.5000   -37.5660     2.3420    48.6130    10.4420     8.6440     7.3290    25.4030 
  198.6250   -37.9980     2.3400    48.2940    10.6840     8.8930     7.4490    25.3900 
  198.7500   -38.3750     2.3400    47.4650    10.7800     9.0270     7.5800    25.3900 
  198.8750   -38.6750     2.3440    46.3310    10.7340     9.0410     7.6870    25.3790 
  199.0000   -38.8710     2.3560    45.7630    10.5580     8.9330     7.5980    25.3630 
  199.1250   -38.9810     2.3720    46.6540    10.3060     8.7410     7.2730    25.3280 
  199.2500   -39.0450     2.3920    48.7680    10.0000     8.4860     6.9930    25.2920 
  199.3750   -39.0600     2.4130    52.4140     9.6540     8.1860     6.7090    25.2880 
  199.5000   -39.0260     2.4270    54.6520     9.0520     7.8530     6.3220    25.2610 
  199.6250   -38.9380     2.4320    54.6820     7.9170     7.5020     6.1120    25.2430 
  199.7500   -38.8130     2.4290    53.3720     7.2910     7.1370     5.8350    25.2360 
  199.8750   -38.6390     2.4200    52.9110     6.7620     6.7670     5.3250    25.2440 
  200.0000   -38.4500     2.4130    55.5320     6.3980     6.4050     5.0180    25.2550 
  200.1250   -38.2570     2.4130    57.0990     6.1660     6.0750     4.9870    25.2530 
  200.2500   -38.0510     2.4200    56.3430     5.9360     5.8100     5.1630    25.2230 
  200.3750   -37.8450     2.4330    54.5090     5.8090     5.6380     5.2300    25.1940 
  200.5000   -37.6710     2.4430    54.4870     5.8160     5.5880     4.9360    25.1940 
  200.6250   -37.5280     2.4420    54.1690     5.8910     5.6250     4.5040    25.2010 
  200.7500   -37.3890     2.4340    51.5020     5.9820     5.7090     4.1900    25.2090 
  200.8750   -37.2720     2.4280    49.3930     6.0420     5.7910     4.0900    25.1970 
  201.0000   -37.1890     2.4330    50.0340     6.0320     5.8180     4.1230    25.1250 
  201.1250   -37.1530     2.4380    50.3780     5.9690     5.7800     4.2150    24.9890 
  201.2500   -37.1530     2.4400    49.4360     5.8780     5.6890     4.3700    24.7910 
  201.3750   -37.1800     2.4390    50.0950     5.7840     5.5680     4.3140    24.6090 
  201.5000   -37.2080     2.4350    53.3600     5.7140     5.4480     4.2000    24.4420 
  201.6250   -37.2650     2.4270    55.1760     5.6800     5.3470     4.3000    24.5570 
  201.7500   -37.3420     2.4160    55.0400     5.6920     5.2750     4.6000    24.7850 
  201.8750   -37.4670     2.4060    53.9830     5.7610     5.2450     4.9990    24.8970 
  202.0000   -37.6530     2.3990    53.9800     5.9040     5.2790     5.4330    24.6900 
  202.1250   -37.8820     2.3930    55.0090     6.1070     5.3800     5.6140    24.2250 
  202.2500   -38.1980     2.3840    58.9490     6.3560     5.5460     5.6410    23.5180 
  202.3750   -38.6080     2.3750    67.4060     6.6240     5.7570     5.7110    22.6610 
  202.5000   -39.1030     2.3740    79.6670     6.8740     5.9690     5.8430    22.3880 
  202.6250   -39.6490     2.3810    90.1950     7.0810     6.1400     5.8230    22.7080 
  202.7500   -40.2680     2.3880    96.6840     7.2390     6.2560     5.7430    23.1980 
  202.8750   -40.9090     2.3870   101.1180     7.3570     6.3240     5.6770    23.4780 
  203.0000   -41.5380     2.3780   105.2230     7.4410     6.3580     5.5230    23.5120 
  203.1250   -42.1150     2.3690   105.6090     7.4980     6.3820     5.4760    23.3960 
  203.2500   -42.5860     2.3610   101.4220     7.5340     6.4040     5.6690    23.1870 
  203.3750   -42.9360     2.3510    94.5910     7.5590     6.4250     6.1200    22.9430 
  203.5000   -43.2010     2.3370    89.2860     7.5830     6.4430     6.5900    22.6800 
  203.6250   -43.3600     2.3250    89.2740     7.6080     6.4580     6.8830    22.4000 
  203.7500   -43.4360     2.3140    92.3410     7.6320     6.4720     6.7940    22.1830 
  203.8750   -43.4540     2.3060    92.8340     7.6580     6.4870     6.6400    22.1400 
  204.0000   -43.4440     2.3020    87.8490     7.7030     6.5210     6.6560    22.3690 
  204.1250   -43.3930     2.3000    84.9530     7.7760     6.5830     7.0000    22.8060 
  204.2500   -43.3570     2.2990    85.8890     7.8870     6.6810     7.4950    23.2670 
  204.3750   -43.3200     2.2930    84.4740     8.0380     6.8200     7.9100    23.5810 
