~V
VERS. 2.00: Ver 2.00
~W
STRT.M 64.0000:
STOP.M 235.0000:
STEP.M 0.1250:
NULL. -999.2500:
UWI. F10178:
~C
DEPT.M :
GR.API :
RML.OHMM :
RI. :
RXO.OHMM :
CALI.CM :
DEN.GM/CC :
SP.MV :
~A
# ...
  142.7500    59.4210    16.5460    15.3670    15.3420    23.8040     2.5550   -13.9800 
  142.8750    61.3260    16.7050    15.5090    14.8150    23.8880     2.5530   -13.9030 
  143.0000    62.8940    16.8240    15.6120    15.1310    24.0420     2.5440   -13.8360 
  143.1250    61.6340    16.8930    15.6600    15.6310    24.2260     2.5330   -13.8180 
  143.2500    57.6470    16.9080    15.6600    15.5380    24.2960     2.5270   -13.8520 
  143.3750    53.4070    16.8460    15.5970    15.8560    24.2640     2.5260   -13.9820 
  143.5000    51.2800    16.6830    15.4460    16.4060    24.2330     2.5270   -14.1820 
  143.6250    51.6250    16.4060    15.1850    16.1320    24.2070     2.5300   -14.3420 
  143.7500    53.0000    16.0980    14.8830    15.5250    24.1830     2.5340   -14.4190 
  143.8750    54.0340    15.8600    14.6300    14.4300    24.1500     2.5390   -14.4770 
  144.0000    53.0080    15.7890    14.5190    13.7780    24.1230     2.5400   -14.5470 
  144.1250    51.7220    15.9660    14.6440    14.0040    24.1730     2.5360   -14.5700 
  144.2500    54.2700    16.2920    14.9480    14.3770    24.2900     2.5320   -14.5310 
  144.3750    58.8450    16.6220    15.3140    14.8950    24.3870     2.5320   -14.4300 
  144.5000    61.6130    16.7660    15.5640    16.0350    24.4280     2.5420   -14.2910 
  144.6250    61.6460    16.4980    15.4410    16.2630    24.3890     2.5600   -14.1390 
  144.7500    60.7270    15.8400    14.9190    15.2230    24.3250     2.5770   -14.0470 
  144.8750    59.1160    14.8940    14.0830    13.5210    24.2490     2.5840   -14.0180 
  145.0000    55.7760    13.8390    13.1060    12.1410    24.1450     2.5800   -13.9580 
  145.1250    51.3630    12.8950    12.2030    10.6600    24.0970     2.5660   -13.8530 
  145.2500    48.3410    12.1730    11.4940     9.6760    24.0890     2.5510   -13.8040 
  145.3750    48.6510    11.7000    11.0120     9.3980    24.1370     2.5420   -13.7880 
  145.5000    52.2090    11.4370    10.7300     9.5340    24.2200     2.5350   -13.7270 
  145.6250    55.4340    11.3300    10.6040     9.5830    24.3200     2.5230   -13.6230 
  145.7500    56.4100    11.2870    10.5370     9.3000    24.3790     2.5030   -13.5220 
  145.8750    55.6700    11.2800    10.4940     9.1580    24.3450     2.4790   -13.4300 
  146.0000    56.1530    11.3210    10.4840     9.2810    24.2150     2.4600   -13.4060 
  146.1250    58.7240    11.4640    10.5650     9.5540    24.1070     2.4590   -13.4980 
  146.2500    59.8130    11.7240    10.7590     9.9900    24.0240     2.4720   -13.5890 
  146.3750    59.1740    12.0940    11.0630    10.4870    24.0020     2.4890   -13.6560 
  146.5000    58.1700    12.5400    11.4410    11.8720    24.1040     2.4980   -13.7330 
  146.6250    57.7430    13.0270    11.8450    12.4780    24.2510     2.4860   -13.8090 
  146.7500    57.9090    13.5540    12.2610    12.0400    24.2440     2.4620   -13.8490 
  146.8750    58.6090    14.1780    12.7330    11.6580    24.2000     2.4400   -13.8550 
  147.0000    59.0750    14.9690    13.3290    12.2010    24.1940     2.4300   -13.8550 
  147.1250    56.7100    15.9790    14.1260    13.1920    24.2570     2.4400   -13.8920 
  147.2500    53.3720    17.0630    15.0390    15.0550    24.3460     2.4580   -13.9990 
  147.3750    52.9550    18.0080    15.9010    17.2630    24.3510     2.4720   -14.1350 
  147.5000    55.4860    18.5900    16.4810    19.2370    24.2940     2.4780   -14.2520 
  147.6250    57.3050    18.6120    16.5350    18.7190    24.2340     2.4780   -14.3080 
  147.7500    56.8390    18.2590    16.2050    16.9140    24.1660     2.4780   -14.3360 
  147.8750    55.2760    17.7640    15.7060    15.5250    24.1420     2.4810   -14.3730 
  148.0000    54.5330    17.3620    15.2590    14.4380    24.1340     2.4840   -14.4060 
  148.1250    52.9290    17.2510    15.0530    14.3410    24.0820     2.4850   -14.3710 
  148.2500    50.5220    17.3920    15.0870    14.1990    23.9730     2.4830   -14.2460 
  148.3750    50.1040    17.6810    15.2930    13.9800    23.8870     2.4800   -14.1400 
  148.5000    52.8030    17.9810    15.5550    13.9120    23.8590     2.4780   -14.1430 
  148.6250    56.5230    18.1440    15.7380    15.0280    23.8320     2.4780   -14.2320 
  148.7500    57.8610    18.1420    15.7910    16.5250    23.8770     2.4780   -14.2970 
  148.8750    57.7820    18.0100    15.7250    16.3800    23.9340     2.4750   -14.2760 
  149.0000    58.6890    17.8220    15.6030    14.9810    24.0020     2.4730   -14.1690 
  149.1250    59.5400    17.6650    15.5040    14.8530    24.1240     2.4750   -14.0700 
  149.2500    59.2830    17.5670    15.4590    15.9320    24.3300     2.4850   -14.0440 
  149.3750    57.0030    17.5040    15.4490    16.3860    24.4550     2.5030   -14.0470 
  149.5000    53.7010    17.4180    15.4220    15.7480    24.4660     2.5220   -14.0090 
  149.6250    52.0970    17.2270    15.2960    15.3050    24.4230     2.5340   -14.0090 
  149.7500    53.2480    16.9060    15.0400    16.0090    24.4500     2.5330   -14.1020 
  149.8750    56.1550    16.4610    14.6620    16.0130    24.4340     2.5170   -14.2760 
  150.0000    58.5490    15.9260    14.2040    14.6180    24.3170     2.4930   -14.5020 
  150.1250    59.7270    15.3570    13.7190    13.7290    24.1080     2.4720   -14.6990 
  150.2500    60.5450    14.8360    13.2750    13.3790    23.9340     2.4620   -14.8160 
  150.3750    60.3260    14.4320    12.9330    12.7210    23.8200     2.4670   -14.8370 
  150.5000    58.9480    14.2010    12.7410    12.7130    23.8470     2.4800   -14.8160 
  150.6250    56.3330    14.1980    12.7420    13.0520    23.9960     2.4900   -14.7620 
  150.7500    54.3610    14.3600    12.8860    13.5780    24.1890     2.4910   -14.6590 
  150.8750    54.9340    14.6150    13.1220    13.8410    24.2820     2.4840   -14.4940 
  151.0000    58.5240    14.8680    13.3660    13.7060    24.3020     2.4740   -14.3100 
  151.1250    61.5340    14.9940    13.5050    13.0880    24.2580     2.4680   -14.1870 
  151.2500    61.8840    14.9450    13.4900    13.1020    24.2570     2.4680   -14.1340 
  151.3750    60.8300    14.7150    13.3050    13.9750    24.2650     2.4750   -14.1100 
  151.5000    60.4740    14.3380    12.9790    13.5440    24.2370     2.4840   -14.0470 
  151.6250    60.5680    13.8860    12.5770    12.3880    24.2070     2.4950   -13.9240 
  151.7500    60.6310    13.4740    12.2030    11.7460    24.1680     2.5070   -13.8070 
  151.8750    60.6400    13.2020    11.9390    11.4770    24.1180     2.5200   -13.7670 
  152.0000    59.0610    13.1610    11.8690    10.9910    24.0710     2.5280   -13.7970 
  152.1250    55.7320    13.4520    12.1120    11.3380    23.9460     2.5270   -13.8040 
  152.2500    54.4180    13.9870    12.6160    11.6120    23.8410     2.5220   -13.7690 
  152.3750    56.1630    14.6360    13.2870    12.1400    23.8570     2.5190   -13.7480 
  152.5000    58.8920    15.2110    13.9560    13.2880    23.8930     2.5280   -13.7850 
  152.6250    60.6220    15.4480    14.3420    14.9250    23.8150     2.5490   -13.8940 
  152.7500    59.9030    15.2850    14.3100    14.0430    23.7110     2.5720   -14.0250 
  152.8750    56.3730    14.7690    13.8750    12.6020    23.6930     2.5880   -14.1750 
  153.0000    52.0750    14.0550    13.1920    11.4970    23.7240     2.5920   -14.3420 
  153.1250    51.0450    13.3600    12.4730    10.7510    23.7230     2.5830   -14.4650 
  153.2500    53.6590    12.8180    11.8710     9.9200    23.6940     2.5700   -14.5150 
  153.3750    56.2690    12.4430    11.4200     9.4340    23.6650     2.5570   -14.5310 
  153.5000    55.6860    12.1740    11.0800     9.3270    23.6250     2.5460   -14.5730 
  153.6250    53.2880    11.9430    10.7860     9.1940    23.5920     2.5400   -14.6160 
  153.7500    52.1420    11.7580    10.5250     9.0410    23.5760     2.5350   -14.6180 
  153.8750    52.1910    11.7390    10.3890     9.1700    23.5770     2.5280   -14.5520 
