~V
VERS. 2.00: Ver 2.00
~W
STRT.M 45.0000:
STOP.M 252.0000:
STEP.M 0.1250:
NULL. -999.2500:
UWI. F10190:
~C
DEPT.M :
GR.API :
RML.OHMM :
RI. :
RXO.OHMM :
CALI.CM :
SP.MV :
DEN.GM/CC :
~A
# ...
   56.2500    35.3660     0.0000     1.0960     0.0950    25.6100    71.9680     1.9070 
   56.3750    34.9520     0.0000     1.0960     0.0970    25.6100    70.5140     1.9210 
   56.5000    36.6450     0.0000     1.0970     0.1050    25.6100    69.0230     1.9190 
   56.6250    39.5350     0.0000     1.0950     0.1170    25.6100    67.5320     1.9140 
   56.7500    40.7760     0.0000     1.0910     0.1270    25.6100    66.0600     1.9210 
   56.8750    39.6960     0.0000     1.0880     0.1360    25.6100    64.5870     1.9350 
   57.0000    38.7140     0.0000     1.0910     0.1340    25.6100    63.1580     1.9420 
   57.1250    38.6770     0.0000     1.0980     0.1350    25.6090    61.7490     1.9390 
   57.2500    38.2440     0.0000     1.1060     0.1410    25.6000    60.3590     1.9310 
   57.3750    37.2710     0.0000     1.1110     0.1400    25.5780    59.0090     1.9220 
   57.5000    37.0110     0.0000     1.1070     0.1550    25.5530    57.6630     1.9210 
   57.6250    37.3330     0.0000     1.0970     0.1960    25.5420    56.2350     1.9320 
   57.7500    37.0710     0.0000     1.0790     0.2670    25.5380    54.6920     1.9510 
   57.8750    36.0520     0.0000     1.0470     0.3500    25.5360    52.9850     1.9770 
   58.0000    35.5700     0.0000     0.9720     0.4410    25.5350    50.8900     2.0120 
   58.1250    37.0690     0.0000     0.8310     0.5350    25.5350    48.3190     2.0570 
   58.2500    38.9030     0.0000     0.6240     0.6930    25.5340    45.1250     2.1200 
   58.3750    38.8320     0.0000     0.4010     0.8800    25.5320    41.1200     2.2040 
   58.5000    37.1830     0.0000     0.2320     1.0870    25.5220    36.0410     2.3000 
   58.6250    36.3630     0.0000     0.1280     1.0490    25.4760    30.0230     2.3960 
   58.7500    37.4750     0.0000     0.0820     1.2090    25.3310    23.1360     2.4850 
   58.8750    40.3360     0.0000     0.0920     1.7310    25.1030    15.6130     2.5230 
   59.0000    44.3170     0.0030     0.2020     3.1580    25.1290     7.8400     2.4290 
   59.1250    47.2050     0.0330     0.4660     4.3570    25.7090     0.2600     2.2520 
   59.2500    47.4180     0.1730     0.9680     4.9100    26.6660    -6.8220     2.0660 
   59.3750    46.4430     0.6090     1.7640     5.0980    27.4630   -13.1100     1.9050 
   59.5000    46.6480     1.5320     2.8040     5.2580    27.9650   -18.2030     1.7680 
   59.6250    48.2170     2.4820     3.8160     5.4000    28.5220   -22.1710     1.6630 
   59.7500    50.0040     3.1400     4.6450     5.5360    28.8660   -25.0260     1.6320 
   59.8750    52.2780     3.5570     5.2850     5.8390    28.2710   -26.9040     1.6950 
   60.0000    55.0210     3.8450     5.7720     6.6500    26.4540   -27.9980     1.8370 
   60.1250    56.2340     4.0920     6.1460     8.1290    25.0870   -28.6920     1.9820 
   60.2500    55.3390     4.3380     6.4060     9.2420    24.5350   -29.1070     2.0800 
   60.3750    53.8610     4.6000     6.5700     9.5220    24.4410   -29.3390     2.1270 
   60.5000    53.2910     4.8600     6.6770     9.5560    24.4310   -29.4480     2.1390 
   60.6250    54.0290     5.0990     6.7840     9.7470    24.4100   -29.4700     2.1350 
   60.7500    56.4580     5.3210     6.9110    10.0450    24.4070   -29.4060     2.1210 
   60.8750    59.3620     5.5300     7.0550    10.3210    24.4540   -29.2540     2.1050 
   61.0000    59.4030     5.7120     7.1760    10.4000    24.5420   -28.8880     2.0930 
   61.1250    57.3560     5.8470     7.2400    10.4130    24.6450   -28.2590     2.0880 
   61.2500    56.9720     5.9140     7.2250    10.1170    24.7620   -27.4200     2.0950 
   61.3750    60.2430     5.9060     7.1240     9.6620    24.8830   -26.4030     2.1170 
   61.5000    65.6860     5.8230     6.9310     9.0360    24.9460   -25.2180     2.1540 
   61.6250    72.3780     5.6940     6.6820     9.0240    25.0020   -23.9350     2.1940 
   61.7500    79.0710     5.5350     6.3990     8.7890    25.0790   -22.6150     2.2290 
   61.8750    83.9160     5.3710     6.1190     7.5060    25.1630   -21.3500     2.2590 
   62.0000    86.2680     5.2580     5.9070     6.4740    25.2190   -20.2770     2.2800 
   62.1250    89.2390     5.2270     5.7980     5.8500    25.2380   -19.4520     2.2900 
   62.2500    94.8190     5.2910     5.7930     5.6840    25.2420   -18.8640     2.2880 
   62.3750    99.4370     5.4300     5.8680     5.8750    25.2420   -18.5060     2.2770 
   62.5000    99.9450     5.5830     5.9640     6.2090    25.2420   -18.3700     2.2630 
   62.6250   100.1620     5.6720     6.0050     6.1410    25.2420   -18.3740     2.2550 
   62.7500   102.4530     5.6700     5.9590     5.5570    25.2420   -18.4750     2.2560 
   62.8750   105.0220     5.6060     5.8480     5.2780    25.2420   -18.6090     2.2630 
   63.0000   105.4740     5.5540     5.7420     5.4200    25.2420   -18.7740     2.2720 
   63.1250   106.0110     5.5890     5.7200     5.5220    25.2410   -18.9720     2.2710 
   63.2500   106.5020     5.7550     5.8310     5.5760    25.2350   -19.2350     2.2580 
   63.3750   104.1520     6.0570     6.0810     5.7750    25.2190   -19.5800     2.2390 
   63.5000    98.0720     6.4840     6.4590     6.6370    25.1710   -19.9670     2.2190 
   63.6250    91.5590     6.9680     6.8960     7.4760    25.0930   -20.3430     2.1980 
   63.7500    85.5350     7.4600     7.3400     7.8140    24.9760   -20.7090     2.1740 
   63.8750    80.7360     7.9010     7.7370     7.3180    24.8800   -21.0570     2.1570 
   64.0000    77.2550     8.2090     7.9980     7.1290    24.7880   -21.3530     2.1530 
   64.1250    76.4080     8.3360     8.0780     7.8270    24.7030   -21.5790     2.1560 
   64.2500    77.7740     8.2330     7.9410     8.2870    24.7330   -21.6630     2.1590 
   64.3750    81.7690     7.9150     7.6020     7.9160    24.9020   -21.5820     2.1590 
   64.5000    86.9820     7.4770     7.1380     7.1350    25.0990   -21.4860     2.1580 
   64.6250    88.8630     7.1010     6.7050     6.1460    25.2020   -21.5050     2.1580 
   64.7500    86.0470     6.9190     6.4200     5.7440    25.2050   -21.6630     2.1570 
   64.8750    82.6540     7.0180     6.3690     5.9340    25.1290   -21.9910     2.1580 
   65.0000    84.9270     7.4590     6.6280     6.5250    25.0370   -22.4790     2.1620 
   65.1250    87.6790     8.1160     7.1080     7.1350    24.9900   -23.0680     2.1700 
   65.2500    84.9680     8.8710     7.7130     7.7150    24.9950   -23.8080     2.1750 
   65.3750    78.1150     9.5860     8.3150     8.1730    24.9800   -24.7010     2.1690 
   65.5000    72.2690    10.0960     8.7490     9.4320    24.8590   -25.6160     2.1510 
   65.6250    68.3260    10.3560     8.9480     9.2910    24.6890   -26.4280     2.1260 
   65.7500    65.1560    10.3510     8.8870     9.0490    24.6040   -27.0930     2.0990 
   65.8750    62.0400    10.0730     8.5730     8.9400    24.6760   -27.5570     2.0770 
   66.0000    61.5370     9.5100     8.0170     8.9130    24.8620   -27.8090     2.0650 
   66.1250    63.2370     8.8410     7.3710     8.7990    25.0400   -27.9170     2.0620 
   66.2500    65.9690     8.3260     6.8220     8.3240    25.1690   -27.8790     2.0730 
   66.3750    69.2440     8.3150     6.6020     7.6010    25.2210   -27.7400     2.1050 
   66.5000    71.7050     9.3520     7.0680     7.4130    25.2150   -27.5690     2.1710 
   66.6250    71.2940    11.5400     8.3380     9.6310    25.1940   -27.4170     2.2630 
   66.7500    67.5940    14.7830    10.4670    16.3270    25.1840   -27.2690     2.3660 
   66.8750    64.2530    18.3460    13.1210    38.3430    25.1500   -27.1790     2.4540 
   67.0000    63.5580    20.1570    14.9340    50.4380    25.0730   -27.2050     2.4780 
   67.1250    62.8970    19.0790    14.7640    32.8500    24.9410   -27.3430     2.4300 
   67.2500    62.7620    15.9570    12.9340    15.2520    24.7550   -27.5880     2.3350 
   67.3750    64.4480    12.6550    10.6740     9.5500    24.5640   -27.8930     2.2330 
