~V
VERS. 2.00: Ver 2.00
~W
STRT.M 56.0000:
STOP.M 352.0000:
STEP.M 0.1250:
NULL. -999.2500:
UWI. F10109:
~C
DEPT.M :
DEN.GM/CC :
SP.MV :
GR.API :
RML.OHMM :
RI. :
RXO.OHMM :
CALI.CM :
~A
# ...
  258.5000     2.3980   -19.7980    70.6160    11.5670    10.5520     9.7400    24.3620 
  258.6250     2.3990   -19.7100    66.8280    11.4140    10.1440     9.8110    24.3620 
  258.7500     2.4070   -19.6370    67.1100    11.6100    10.1510     9.9860    24.3820 
  258.8750     2.4180   -19.5690    70.8370    11.8590    10.3300    10.2970    24.4330 
  259.0000     2.4290   -19.4970    74.6430    11.9740    10.4960    10.5800    24.4980 
  259.1250     2.4380   -19.4420    78.2000    11.8870    10.5360    10.3050    24.5340 
  259.2500     2.4440   -19.4020    79.9850    11.7070    10.4810     9.8400    24.5090 
  259.3750     2.4470   -19.3740    78.1010    11.5310    10.3900     9.6220    24.3970 
  259.5000     2.4490   -19.3510    74.5420    11.4320    10.3200     9.7280    24.2080 
  259.6250     2.4470   -19.3140    74.1960    11.4610    10.3130     9.8600    24.0800 
  259.7500     2.4440   -19.2890    77.1610    11.5820    10.3540    10.0020    24.0390 
  259.8750     2.4420   -19.2880    80.0190    11.7410    10.4060    10.1430    24.0670 
  260.0000     2.4420   -19.3370    81.7650    11.8700    10.4210    10.3840    24.0860 
  260.1250     2.4440   -19.4470    82.8400    11.8520    10.3340    10.6190    23.9910 
  260.2500     2.4450   -19.5910    80.9850    11.5970    10.1400    10.6440    23.8690 
  260.3750     2.4440   -19.7480    76.7490    11.1540     9.8610    10.1650    23.8140 
  260.5000     2.4400   -19.9070    73.6580    10.6120     9.5440     9.5130    23.8240 
  260.6250     2.4370   -20.0960    75.1750     9.9550     9.2520     8.9810    23.8320 
  260.7500     2.4340   -20.2970    77.8010     9.7860     9.0270     8.6240    23.8450 
  260.8750     2.4320   -20.5220    77.8310     9.6950     8.8810     8.3940    23.8760 
  261.0000     2.4290   -20.7600    76.8560     9.6660     8.8080     8.3320    23.9090 
  261.1250     2.4240   -20.9340    78.3230     9.6750     8.7970     8.4090    23.9440 
  261.2500     2.4210   -21.0590    80.5350     9.6980     8.8160     8.5480    24.0270 
  261.3750     2.4210   -21.1620    81.3270     9.7240     8.8490     8.6980    24.1500 
  261.5000     2.4250   -21.2720    80.6780     9.7560     8.8900     8.8360    24.2720 
  261.6250     2.4300   -21.4240    80.4090     9.8040     8.9440     8.9520    24.3570 
  261.7500     2.4360   -21.6320    81.3340     9.8810     9.0180     9.0640    24.4060 
  261.8750     2.4390   -21.9190    83.0360    10.0010     9.1240     9.1290    24.3970 
  262.0000     2.4400   -22.2690    83.7560    10.1780     9.2700     9.2140    24.3710 
  262.1250     2.4380   -22.7390    81.5390    10.4180     9.4620     9.5310    24.3580 
  262.2500     2.4360   -23.3180    77.8640    10.6930     9.6770     9.9800    24.3230 
  262.3750     2.4380   -23.9970    74.2960    10.9710     9.8910    10.5230    24.2560 
  262.5000     2.4420   -24.7490    71.8890    11.2180    10.0730    11.1900    24.1680 
  262.6250     2.4420   -25.5520    72.2370    11.3890    10.1790    12.0390    24.0710 
  262.7500     2.4350   -26.3600    72.2570    11.4700    10.1940    12.8550    23.9800 
  262.8750     2.4180   -27.1320    69.3840    11.4510    10.1120    13.4300    23.9410 
  263.0000     2.3960   -27.8280    65.0790    11.3420     9.9440    13.7690    23.9280 
  263.1250     2.3750   -28.3820    64.4940    11.1990     9.7340    13.8910    23.9090 
  263.2500     2.3620   -28.8090    66.9450    11.1560     9.5830    14.0460    23.9030 
  263.3750     2.3550   -29.1220    69.8810    11.3790     9.6150    14.3360    23.8700 
  263.5000     2.3530   -29.3440    72.4820    12.0450     9.9630    14.7200    23.7810 
  263.6250     2.3510   -29.4570    73.4670    13.3900    10.8280    15.6920    23.6660 
  263.7500     2.3460   -29.4910    72.6660    15.3320    12.2070    17.8880    23.5410 
  263.8750     2.3380   -29.4340    70.0960    17.7400    14.0740    21.9130    23.4110 
  264.0000     2.3300   -29.3120    66.9320    20.3630    16.3040    27.3730    23.3150 
  264.1250     2.3240   -29.1670    64.2420    22.8240    18.6590    32.1050    23.3500 
  264.2500     2.3190   -29.0150    61.6180    24.8580    20.8290    34.6720    23.4910 
  264.3750     2.3130   -28.8530    60.5080    26.3880    22.6380    35.6910    23.6770 
  264.5000     2.3060   -28.6870    60.6370    27.5050    24.0540    36.0540    23.8430 
  264.6250     2.2980   -28.5290    57.8480    28.3580    25.1260    35.6630    23.9080 
  264.7500     2.2900   -28.3640    52.6350    29.0590    25.9790    35.1570    23.9270 
  264.8750     2.2830   -28.1980    50.3240    29.4580    26.5610    35.2610    23.9360 
  265.0000     2.2790   -28.0550    54.1330    29.4480    26.7290    35.8260    23.9250 
  265.1250     2.2800   -27.9660    59.8200    28.7870    26.2440    36.0840    23.9070 
  265.2500     2.2870   -27.9270    62.8350    27.6900    25.2120    35.8120    23.8910 
  265.3750     2.3010   -27.9200    63.6150    26.6000    23.8310    34.6050    23.8390 
  265.5000     2.3200   -27.9190    62.3230    25.5940    22.4160    31.7800    23.7730 
  265.6250     2.3400   -27.9080    60.7830    24.7480    21.3640    28.2150    23.7530 
  265.7500     2.3520   -27.9130    62.9070    24.2420    20.8250    25.7920    23.7530 
  265.8750     2.3530   -27.9350    66.6840    24.4130    20.8140    24.8110    23.7610 
  266.0000     2.3450   -27.9730    67.9460    25.0350    21.2160    25.6270    23.7810 
  266.1250     2.3290   -28.0170    65.5170    25.7060    21.7790    27.3840    23.7700 
  266.2500     2.3120   -28.0680    62.9390    25.9760    22.1320    29.0850    23.7270 
  266.3750     2.2980   -28.1160    62.6440    25.5860    22.0200    29.5330    23.6810 
  266.5000     2.2920   -28.1510    63.5300    24.5370    21.3660    29.3010    23.6440 
  266.6250     2.2970   -28.1700    63.9400    23.1680    20.3440    28.7910    23.5880 
  266.7500     2.3100   -28.1530    63.9580    22.1440    19.4630    27.3120    23.5410 
  266.8750     2.3270   -28.1390    64.5510    21.9620    19.1320    23.7400    23.5220 
  267.0000     2.3380   -28.1280    66.8760    22.8590    19.6000    20.9210    23.5180 
  267.1250     2.3370   -28.0870    69.9340    24.8070    20.9920    22.7090    23.5580 
  267.2500     2.3270   -27.9930    70.0280    27.0960    22.8740    26.2830    23.6580 
  267.3750     2.3180   -27.8670    65.4420    29.0780    24.7900    30.9990    23.8050 
  267.5000     2.3160   -27.7360    59.9840    30.1990    26.2480    36.4170    23.9730 
  267.6250     2.3270   -27.6340    61.3820    30.1070    26.7900    35.3030    24.1070 
  267.7500     2.3430   -27.5920    66.3900    29.3910    26.7040    31.8740    24.1810 
  267.8750     2.3550   -27.6040    68.5600    28.6970    26.4650    31.5160    24.2200 
  268.0000     2.3540   -27.6410    66.4740    28.5270    26.5160    33.6170    24.2320 
  268.1250     2.3360   -27.7130    62.4120    29.1110    27.1290    35.2670    24.2060 
  268.2500     2.3120   -27.8100    59.9820    30.0740    28.0990    37.6070    24.1620 
  268.3750     2.2920   -27.9200    60.1080    31.0460    29.1520    40.5160    24.1260 
  268.5000     2.2810   -28.0320    60.6800    31.7240    30.0030    43.4450    24.1040 
  268.6250     2.2790   -28.1170    59.9010    31.9240    30.4190    43.8750    24.0570 
  268.7500     2.2820   -28.1620    59.0050    31.8030    30.4830    42.0400    24.0190 
  268.8750     2.2850   -28.1730    59.7600    31.4870    30.2990    39.3640    23.9950 
  269.0000     2.2860   -28.1500    61.2210    31.0410    29.9460    38.5620    23.9680 
  269.1250     2.2830   -28.0790    62.1910    30.4420    29.4270    39.4240    23.9620 
  269.2500     2.2800   -27.9810    63.7280    29.7360    28.7960    40.5020    23.9660 
  269.3750     2.2800   -27.8500    64.3440    29.0690    28.1640    39.7240    23.9460 
  269.5000     2.2850   -27.6940    63.6450    28.6890    27.7410    37.4650    23.9110 
  269.6250     2.2950   -27.5000    63.6450    29.0020    27.8820    34.6490    23.8920 
