~V
VERS. 2.00: Ver 2.00
~W
STRT.M 53.0000:
STOP.M 242.0000:
STEP.M 0.1250:
NULL. -999.2500:
UWI. F10177:
~C
DEPT.M :
SP.MV :
GR.API :
RML.OHMM :
RI. :
RXO.OHMM :
CALI.CM :
DEN.GM/CC :
~A
# ...
   86.7500   -22.8250    70.4720     9.8290     8.0810    12.2380    24.7370     2.1160 
   86.8750   -22.6630    70.4570     9.7130     8.0350    12.0090    24.7370     2.1100 
   87.0000   -22.4070    72.2700     9.6090     7.9890    11.7330    24.7370     2.1230 
   87.1250   -22.0630    73.5720     9.5580     7.9740    11.7490    24.7370     2.1470 
   87.2500   -21.6560    74.3870     9.5830     8.0040    11.8250    24.7370     2.1740 
   87.3750   -21.2280    73.9180     9.6780     8.0750    11.9700    24.7370     2.1920 
   87.5000   -20.8690    72.0580     9.7890     8.1490    11.9370    24.7370     2.2020 
   87.6250   -20.6860    71.7920     9.8590     8.1920    11.7710    24.7370     2.2110 
   87.7500   -20.6630    75.3110     9.8310     8.1650    11.5060    24.7370     2.2230 
   87.8750   -20.7610    79.5980     9.6440     8.0210    11.4430    24.7370     2.2410 
   88.0000   -20.8950    80.0230     9.3330     7.7830    11.6480    24.6700     2.2550 
   88.1250   -21.0340    78.5610     8.9580     7.4960    11.5230    24.6030     2.2550 
   88.2500   -21.1860    77.4110     8.6130     7.2320    10.5350    24.6030     2.2330 
   88.3750   -21.4190    75.2280     8.4280     7.0950     9.5930    24.6030     2.1910 
   88.5000   -21.6920    71.9100     8.4360     7.1250     9.7610    24.6030     2.1530 
   88.6250   -21.8670    69.1690     8.6170     7.3260    10.8170    24.6030     2.1410 
   88.7500   -21.8910    68.6320     8.8950     7.6560    11.3400    24.6030     2.1650 
   88.8750   -21.8060    68.9400     9.1600     8.0390    11.2600    24.4700     2.2180 
   89.0000   -21.7210    68.2810     9.3460     8.3740    11.4920    24.4700     2.2670 
   89.1250   -21.6810    66.8740     9.4530     8.6140    11.8860    24.4700     2.2920 
   89.2500   -21.6630    66.2280     9.5180     8.7650    11.3670    24.4530     2.2850 
   89.3750   -21.4900    68.4560     9.5460     8.8260    11.4150    24.4330     2.2460 
   89.5000   -21.0550    70.4740     9.4770     8.7620    11.5170    24.4120     2.1980 
   89.6250   -20.3520    70.8670     9.2070     8.4930    11.4700    24.3910     2.1540 
   89.7500   -19.3640    70.9420     8.6620     7.9650    11.1200    24.3700     2.1340 
   89.8750   -17.9040    73.0690     7.8190     7.1750     9.8270    24.3370     2.1560 
   90.0000   -16.0630    78.6500     6.8650     6.2990     7.8000    24.3370     2.2100 
   90.1250   -14.0000    86.7640     5.9850     5.4970     6.1220    24.3370     2.2720 
   90.2500   -11.8860    96.3420     5.3620     4.9000     5.2400    24.3370     2.3180 
   90.3750   -10.0000   105.1610     5.2370     4.6580     4.9820    24.3370     2.3290 
   90.5000    -8.4840   107.8290     5.6510     4.7890     5.0130    24.3370     2.3200 
   90.6250    -7.4470   102.4830     6.6240     5.3280     5.7860    24.3370     2.3100 
   90.7500    -7.0140    92.1370     8.0360     6.2510     8.1500    24.3370     2.3080 
   90.8750    -7.4030    82.7420     9.5240     7.4110    11.7040    24.3370     2.3120 
   91.0000    -8.3820    76.4030    10.5470     8.3830    14.9640    24.3370     2.3100 
   91.1250    -9.6800    72.6570    10.7570     8.7770    14.6380    24.3370     2.2920 
   91.2500   -11.0180    72.3780    10.1480     8.4830    11.5500    24.3370     2.2560 
   91.3750   -12.1180    74.6860     9.1240     7.8210    10.0730    24.3370     2.2110 
   91.5000   -12.9080    76.1740     8.4080     7.3520     9.9030    24.3370     2.1770 
   91.6250   -13.3410    76.3760     8.4960     7.3940    10.1270    24.3370     2.1780 
   91.7500   -13.3560    75.6430     9.7250     8.1900    11.0620    24.3370     2.2320 
   91.8750   -12.9290    72.4760    12.4130    10.1590    15.9170    24.3370     2.3440 
   92.0000   -12.2320    69.9850    15.9620    13.2020    27.9620    24.4030     2.4730 
   92.1250   -11.4130    71.5560    19.3820    16.7920    41.8310    24.4700     2.5800 
   92.2500   -10.6710    73.5550    21.3310    19.5090    51.7610    24.6030     2.6280 
   92.3750   -10.1880    70.1440    20.4690    19.2410    54.6710    24.8700     2.5930 
   92.5000   -10.0020    66.5350    17.6470    16.6910    45.4570    24.5660     2.5050 
   92.6250   -10.1490    69.1380    14.1470    13.4570    27.7480    24.1440     2.3940 
   92.7500   -10.6320    75.1560    11.1400    10.7110    15.7360    23.9090     2.2890 
   92.8750   -11.4220    76.2530     9.3320     8.9550    11.1970    23.7190     2.2140 
   93.0000   -12.3730    73.2270     8.4500     7.9400     9.9660    23.5770     2.1680 
   93.1250   -13.3770    69.6260     8.2070     7.4940     9.8450    23.4430     2.1440 
   93.2500   -14.3350    67.6230     8.3180     7.4350    10.2130    23.3450     2.1320 
   93.3750   -15.1810    68.7930     8.5560     7.5920    10.6600    23.3760     2.1310 
   93.5000   -15.9030    72.0340     8.7660     7.7820    10.6260    23.5900     2.1390 
   93.6250   -16.4770    74.2910     8.9220     7.9500    10.4850    24.0250     2.1550 
   93.7500   -16.8820    73.5780     9.0420     8.0840    10.9040    24.5920     2.1740 
   93.8750   -17.1160    71.3020     9.1410     8.1850    11.0560    25.1600     2.1900 
   94.0000   -17.2180    70.1540     9.1960     8.2460    10.8900    25.0850     2.2020 
   94.1250   -17.1450    70.4520     9.1460     8.2260    10.6110    24.7550     2.2110 
   94.2500   -16.8360    70.0900     8.9230     8.0630    10.1790    24.5210     2.2200 
   94.3750   -16.1740    68.5230     8.4800     7.6940     9.3700    24.4710     2.2310 
   94.5000   -15.2360    68.5410     7.9310     7.2080     8.7100    24.5080     2.2420 
   94.6250   -14.1620    73.3720     7.4100     6.7160     8.3250    24.4680     2.2490 
   94.7500   -13.1730    81.5720     7.0530     6.3280     7.3920    24.3550     2.2470 
   94.8750   -12.5210    84.0180     6.9880     6.1520     6.8760    24.1800     2.2320 
   95.0000   -12.2190    79.7370     7.1650     6.1630     7.5000    24.0450     2.2110 
   95.1250   -12.2360    75.4290     7.4990     6.3120     8.4460    23.9730     2.1900 
   95.2500   -12.5390    74.5800     7.8800     6.5220     8.9790    24.0120     2.1770 
   95.3750   -13.1690    75.2470     8.1700     6.6950     9.0690    24.0490     2.1740 
   95.5000   -14.0280    74.6880     8.3030     6.7590     8.9530    24.0980     2.1770 
   95.6250   -14.9950    73.3950     8.2600     6.6900     9.0110    24.1880     2.1790 
   95.7500   -15.8700    71.2470     8.0830     6.5120     9.5700    24.3670     2.1790 
   95.8750   -16.3550    66.8590     7.8750     6.2990    10.0400    24.5610     2.1760 
   96.0000   -16.4510    65.7850     7.8060     6.1690     9.2510    24.6360     2.1730 
   96.1250   -16.2780    69.6890     8.0390     6.2320     8.5070    24.5810     2.1700 
   96.2500   -15.9220    74.5310     8.7110     6.5900     8.8650    24.6670     2.1660 
   96.3750   -15.4860    75.5350     9.9300     7.3850    10.6490    24.9830     2.1550 
   96.5000   -15.0110    73.5430    11.4380     8.5440    13.8360    25.2000     2.1380 
   96.6250   -14.4430    70.5710    12.8890     9.8950    16.9160    24.9290     2.1190 
   96.7500   -13.7740    67.5000    13.8920    11.1030    18.7200    24.5710     2.1050 
   96.8750   -13.0530    66.8910    14.1020    11.7230    18.1370    24.2910     2.1060 
   97.0000   -12.3140    69.2860    13.7610    11.7990    15.9880    24.0190     2.1200 
   97.1250   -11.5400    73.3360    13.1720    11.5540    13.1790    23.7860     2.1440 
   97.2500   -10.7370    76.5110    12.5670    11.2040    11.9080    23.6050     2.1680 
   97.3750    -9.8390    77.2940    11.9340    10.7670    11.8820    23.4920     2.1910 
   97.5000    -8.8560    78.3920    11.0740    10.0990    12.0570    23.3930     2.2170 
   97.6250    -7.8340    81.2470     9.8490     9.0660    11.9380    23.3080     2.2500 
   97.7500    -6.8180    86.2290     8.3050     7.7130     9.8160    23.2960     2.2880 
   97.8750    -5.8570    94.2600     6.7130     6.2990     7.2240    23.4850     2.3210 
