~V
VERS. 2.00: Ver 2.00
~W
STRT.M 52.0000:
STOP.M 216.0000:
STEP.M 0.1250:
NULL. -999.2500:
UWI. F10126:
~C
DEPT.M :
DEN.GM/CC :
GR.API :
RML.OHMM :
RI. :
RXO.OHMM :
CALI.CM :
SP.MV :
~A
# ...
   85.7500     2.2910    74.0290     9.3660     7.1810     9.6430    24.7200   -11.7720 
   85.8750     2.2860    73.5240     9.8450     7.5960     9.6610    24.5940   -13.4090 
   86.0000     2.2700    71.0890    10.3500     8.0140     9.5130    24.4900   -15.0290 
   86.1250     2.2390    70.7890    11.0210     8.5470     9.8690    24.4740   -16.5320 
   86.2500     2.2110    71.7690    11.8610     9.2230    10.6710    24.5860   -17.8920 
   86.3750     2.2000    71.0020    12.7680     9.9920    12.3150    24.8510   -19.1360 
   86.5000     2.2110    67.3290    13.5380    10.7080    14.8210    25.0480   -20.2370 
   86.6250     2.2290    63.9420    13.8700    11.0880    16.4580    25.0600   -21.1630 
   86.7500     2.2370    63.9910    13.7220    11.0460    13.6700    25.0460   -21.9620 
   86.8750     2.2290    66.7260    13.1860    10.6560    11.8520    25.0640   -22.6100 
   87.0000     2.2140    70.4190    12.4650    10.1080    11.4340    25.0910   -23.0710 
   87.1250     2.2030    73.0590    11.8040     9.6040    11.5940    25.1110   -23.3570 
   87.2500     2.2010    72.8500    11.3270     9.2390    11.8790    25.0950   -23.5050 
   87.3750     2.2050    69.7220    11.0400     9.0220    12.0820    25.1150   -23.4820 
   87.5000     2.2120    66.5280    10.8900     8.9090    12.1930    25.1620   -23.3170 
   87.6250     2.2130    67.5930    10.8240     8.8450    12.2030    25.2240   -23.0390 
   87.7500     2.2010    70.4220    10.7950     8.7940    12.2400    25.2450   -22.6310 
   87.8750     2.1770    72.0350    10.7970     8.7510    11.7800    25.2920   -22.0780 
   88.0000     2.1530    71.5610    10.8240     8.7200    10.8300    25.4340   -21.4150 
   88.1250     2.1490    69.3280    10.8600     8.6990     9.9910    25.4860   -20.6820 
   88.2500     2.1680    67.1540    10.8680     8.6650    10.7850    25.2720   -19.9300 
   88.3750     2.2000    67.7870    10.8240     8.5960    11.6580    24.9080   -19.2070 
   88.5000     2.2310    71.4270    10.7280     8.4860    11.7780    24.5240   -18.5750 
   88.6250     2.2460    74.7750    10.6180     8.3660    11.3310    24.1750   -18.1170 
   88.7500     2.2490    75.5000    10.5580     8.2810    10.8070    23.9920   -17.9020 
   88.8750     2.2480    74.5630    10.5900     8.2660    10.6770    23.9310   -18.0070 
   89.0000     2.2450    72.5310    10.7250     8.3330    11.3740    23.9690   -18.4130 
   89.1250     2.2410    69.9880    10.9380     8.4700    12.4020    24.1380   -19.0110 
   89.2500     2.2370    68.4280    11.1580     8.6160    12.8660    24.4360   -19.6450 
   89.3750     2.2320    68.4260    11.3410     8.7370    12.8930    24.6380   -20.2750 
   89.5000     2.2280    69.7150    11.4700     8.8140    12.8130    24.7170   -20.8720 
   89.6250     2.2210    72.5340    11.5430     8.8410    12.7830    24.7350   -21.3700 
   89.7500     2.2100    75.2400    11.5850     8.8430    12.7320    24.7760   -21.6830 
   89.8750     2.1970    75.1790    11.6050     8.8320    12.8010    24.8480   -21.7550 
   90.0000     2.1860    72.4000    11.6060     8.8130    12.8000    24.9170   -21.5640 
   90.1250     2.1830    70.9770    11.5800     8.7790    12.6400    24.9070   -21.1900 
   90.2500     2.1890    73.3980    11.5360     8.7310    12.6530    24.7500   -20.8360 
   90.3750     2.2020    77.4180    11.4880     8.6760    12.7370    24.5960   -20.5740 
   90.5000     2.2150    79.1740    11.4450     8.6280    12.6220    24.5800   -20.4120 
   90.6250     2.2230    77.3040    11.4120     8.5980    12.4030    24.7050   -20.3800 
   90.7500     2.2250    74.1460    11.3760     8.5810    12.4320    24.8530   -20.4960 
   90.8750     2.2250    71.5080    11.3250     8.5650    12.5530    24.9940   -20.7490 
   91.0000     2.2300    71.3590    11.2560     8.5430    12.5680    25.1650   -21.0910 
   91.1250     2.2460    74.3160    11.1830     8.5180    13.0320    25.4410   -21.5010 
   91.2500     2.2660    76.8550    11.1340     8.5100    12.4660    25.6340   -21.9290 
   91.3750     2.2790    76.8600    11.1270     8.5380    11.5370    25.7850   -22.3390 
   91.5000     2.2750    74.6690    11.1660     8.6110    11.7640    26.0310   -22.6770 
   91.6250     2.2480    72.9880    11.2310     8.7240    12.7000    26.4050   -22.8430 
   91.7500     2.2100    72.0680    11.2650     8.8300    13.0030    26.7530   -22.7770 
   91.8750     2.1740    70.6570    11.2100     8.8750    12.4680    26.8610   -22.4440 
   92.0000     2.1540    69.0180    11.0120     8.8020    12.1670    26.5660   -21.8810 
   92.1250     2.1580    69.3870    10.6270     8.5550    12.2900    25.9730   -21.0720 
   92.2500     2.1810    71.9630    10.1210     8.1800    11.9620    25.3450   -20.0110 
   92.3750     2.2110    74.7020     9.5730     7.7460    11.0170    24.9180   -18.7170 
   92.5000     2.2370    78.2020     9.0780     7.3380     9.4190    24.7860   -17.3390 
   92.6250     2.2480    83.4000     8.7450     7.0500     8.4010    24.7020   -16.1110 
   92.7500     2.2470    87.6780     8.5830     6.9010     7.5510    24.6670   -15.1460 
   92.8750     2.2390    88.7340     8.5650     6.8900     7.7150    24.6240   -14.4470 
   93.0000     2.2300    87.0820     8.6340     6.9790     8.7520    24.6470   -13.9810 
   93.1250     2.2250    85.5100     8.7230     7.1100     9.1640    24.7270   -13.7310 
   93.2500     2.2210    84.9210     8.7940     7.2300     9.4100    24.8360   -13.6160 
   93.3750     2.2150    84.6550     8.8480     7.3310     9.5070    24.9490   -13.5790 
   93.5000     2.2070    83.9010     8.8920     7.4240     9.3790    25.0550   -13.4830 
   93.6250     2.2010    82.5410     8.9090     7.5050     9.2730    25.1100   -13.1080 
   93.7500     2.2060    82.2920     8.8610     7.5450     9.3980    25.0840   -12.4220 
   93.8750     2.2250    83.4500     8.7060     7.5000     9.7260    24.9560   -11.4550 
   94.0000     2.2540    86.6720     8.4260     7.3370     9.4290    24.7650   -10.3000 
   94.1250     2.2850    93.8320     8.0420     7.0520     7.9040    24.5950    -9.0470 
   94.2500     2.3090   102.7820     7.6450     6.7270     6.5510    24.5140    -7.8120 
   94.3750     2.3210   109.5320     7.3180     6.4290     6.0470    24.4430    -6.6410 
   94.5000     2.3220   111.0200     7.1250     6.2210     5.8710    24.3950    -5.5710 
   94.6250     2.3160   110.4300     7.1170     6.1560     5.7410    24.3920    -4.7100 
   94.7500     2.3090   111.6480     7.2320     6.1980     5.6640    24.3730    -4.0860 
   94.8750     2.3070   113.7070     7.3930     6.2960     5.9480    24.2630    -3.7040 
   95.0000     2.3100   112.0300     7.4970     6.3730     6.6670    24.0880    -3.4550 
   95.1250     2.3160   105.0050     7.4190     6.3190     7.3300    23.9310    -3.2450 
   95.2500     2.3200    99.0360     7.1680     6.1010     6.7560    23.8490    -3.1020 
   95.3750     2.3240   101.0110     6.8380     5.7710     6.3360    23.8940    -3.0810 
   95.5000     2.3330   110.2840     6.6130     5.4790     6.2460    24.0470    -3.1960 
   95.6250     2.3600   116.1410     6.7930     5.4600     5.5890    24.2080    -3.4990 
   95.7500     2.3990   114.1970     7.4790     5.8140     5.3420    24.3440    -4.0310 
   95.8750     2.4310   107.5950     8.6370     6.5890     6.6050    24.4070    -4.8540 
   96.0000     2.4350    99.1570    10.0380     7.7180    10.3450    24.4180    -6.0430 
   96.1250     2.3950    88.2800    11.2270     8.9010    17.1760    24.4030    -7.6090 
   96.2500     2.3300    79.4130    11.8600     9.6680    15.5530    24.4270    -9.3040 
   96.3750     2.2630    77.7780    11.8510     9.8040    12.1400    24.5280   -10.9940 
   96.5000     2.2100    81.1310    11.3820     9.4580    10.7510    24.6130   -12.5900 
   96.6250     2.1810    81.9420    10.8230     9.0010    10.6860    24.5060   -13.9990 
   96.7500     2.1710    79.5830    10.4920     8.7360    10.8910    24.3520   -15.1560 
   96.8750     2.1770    78.5080    10.4570     8.7260    10.8700    24.2560   -16.0110 
