~V
VERS. 2.00: Ver 2.00
~W
STRT.M 50.0000:
STOP.M 223.0000:
STEP.M 0.1250:
NULL. -999.2500:
UWI. F10135:
~C
DEPT.M :
SP.MV :
DEN.GM/CC :
GR.API :
RML.OHMM :
RI. :
RXO.OHMM :
CALI.CM :
~A
# ...
  162.5000   -22.1390     2.2590    74.5430    84.6660    78.8980    65.4760    29.1090 
  162.6250   -22.3550     2.2460    76.0770    87.2750    80.0900    63.4750    29.1120 
  162.7500   -22.4400     2.2340    75.9170    91.7800    83.0070    65.0110    29.1130 
  162.8750   -22.4880     2.2240    73.9420    98.1930    87.7260    68.8030    29.1090 
  163.0000   -22.5580     2.2170    72.0980   106.2620    94.0790    77.4390    29.1070 
  163.1250   -22.6100     2.2140    69.9020   115.4640   101.6270    87.3330    29.1070 
  163.2500   -22.6580     2.2130    66.6440   124.6370   109.2500    97.2970    29.1070 
  163.3750   -22.6700     2.2120    64.3340   132.8370   116.0290   104.1220    29.1070 
  163.5000   -22.6420     2.2120    65.0180   139.3160   121.2350   105.1090    29.1070 
  163.6250   -22.6360     2.2140    68.8900   143.4020   124.2270   101.5330    29.1070 
  163.7500   -22.6230     2.2190    71.8650   145.6580   125.5350    96.8100    29.1070 
  163.8750   -22.5280     2.2210    71.2220   146.5820   125.6490    91.5250    29.1070 
  164.0000   -22.4090     2.2170    68.2560   146.7040   125.1140    85.9440    29.1070 
  164.1250   -22.3370     2.2020    66.5730   146.4060   124.3630    82.3580    29.1070 
  164.2500   -22.1360     2.1830    67.2330   145.9680   123.6520    81.8980    29.1070 
  164.3750   -21.7850     2.1670    68.6730   145.4490   123.0060    84.1480    29.1070 
  164.5000   -21.3640     2.1580    68.9980   144.8860   122.3990    85.1260    29.1070 
  164.6250   -20.9450     2.1580    68.3780   144.4010   121.8600    78.2000    29.1070 
  164.7500   -20.5420     2.1620    67.9470   144.1790   121.4950    65.1570    29.1080 
  164.8750   -20.1570     2.1650    68.4140   144.4060   121.4510    54.3440    29.1090 
  165.0000   -19.7810     2.1670    69.3240   145.1800   121.8440    52.0850    29.1110 
  165.1250   -19.4120     2.1660    67.8150   146.4710   122.7310    61.0000    29.1100 
  165.2500   -19.1280     2.1660    65.4200   147.8960   123.8470    81.0010    29.0990 
  165.3750   -18.8980     2.1670    64.1240   149.1120   124.9280   100.8300    29.0220 
  165.5000   -18.6570     2.1690    64.6460   149.8260   125.7270   110.7130    28.8370 
  165.6250   -18.3440     2.1670    67.2580   149.6260   125.9410   106.8130    28.5880 
  165.7500   -18.0150     2.1590    70.4340   148.1540   125.3100   106.6480    28.4650 
  165.8750   -17.6960     2.1480    72.3240   144.2900   123.1460   106.8550    28.3980 
  166.0000   -17.2940     2.1400    71.7910   136.6840   118.4530   107.4470    28.2870 
  166.1250   -16.7660     2.1440    72.0180   124.4510   109.9980    96.1800    28.0070 
  166.2500   -16.2920     2.1620    74.8490   110.1280    99.0530    70.5900    27.5400 
  166.3750   -15.9980     2.1900    76.2370    96.4100    87.5890    44.6400    26.9120 
  166.5000   -15.8280     2.2220    75.0550    85.8070    78.0000    31.1390    26.3450 
  166.6250   -15.6990     2.2440    76.0570    81.0020    73.1020    28.2710    26.0700 
  166.7500   -15.5490     2.2470    80.6190    81.4550    73.1040    31.5790    25.9530 
  166.8750   -15.4220     2.2230    84.7820    85.4820    77.1330    34.8970    25.7920 
  167.0000   -15.3810     2.1700    82.2820    89.5380    82.3400    32.4300    25.4490 
  167.1250   -15.3610     2.0980    74.7730    87.7000    83.0730    32.8230    25.2590 
  167.2500   -15.2270     2.0390    70.5730    78.0690    76.3740    41.6010    25.1920 
  167.3750   -14.9890     2.0190    70.9420    62.5400    63.1250    51.7160    25.1820 
  167.5000   -14.7080     2.0520    74.3530    45.7450    47.4280    41.1210    25.1530 
  167.6250   -14.4740     2.1230    78.7700    32.7660    34.4620    27.9710    24.9660 
  167.7500   -14.2950     2.1890    82.7280    24.4720    25.7900    15.5940    24.5410 
  167.8750   -14.1390     2.2260    84.0640    20.1230    20.9280    12.7560    23.9910 
  168.0000   -14.0660     2.2300    83.1880    18.7150    18.9070    12.0640    23.5620 
  168.1250   -14.1430     2.2180    83.4710    19.9340    19.4270    11.8080    23.4280 
  168.2500   -14.2910     2.2110    85.0570    22.9890    21.9170    11.7440    23.3540 
  168.3750   -14.4020     2.2170    87.1680    27.2950    26.1140    12.9460    23.1920 
  168.5000   -14.4490     2.2330    89.0340    31.7340    31.1410    15.4760    22.8900 
  168.6250   -14.5290     2.2510    90.9280    34.2860    34.8570    16.5170    22.6030 
  168.7500   -14.7190     2.2650    93.4040    33.9490    35.5520    13.9070    22.5160 
  168.8750   -14.9010     2.2720    94.0310    30.9340    32.9620    11.3280    22.5800 
  169.0000   -14.9170     2.2700    91.7970    26.6570    28.4000    10.1270    22.7440 
  169.1250   -14.8040     2.2640    91.2810    23.2950    24.1090     9.9460    22.8870 
  169.2500   -14.7390     2.2610    92.1390    22.1860    21.5790    10.2350    22.9970 
  169.3750   -14.7890     2.2630    90.8330    24.0320    21.4060    10.4720    23.0100 
  169.5000   -14.8970     2.2640    86.5420    29.3720    24.0650    10.9710    22.8510 
  169.6250   -14.9050     2.2540    84.8300    39.4370    30.9440    11.8100    22.5020 
  169.7500   -14.8260     2.2310    84.7520    53.5820    42.0390    13.3480    22.1330 
  169.8750   -14.8080     2.2040    83.5550    70.6990    56.7860    12.6420    21.9820 
  170.0000   -14.8900     2.1840    82.5700    88.4140    73.0850    10.6660    21.9620 
  170.1250   -14.9720     2.1840    82.9280   103.0250    87.1900     9.5680    21.9560 
  170.2500   -15.0170     2.1940    82.2890   113.1340    97.1240     9.3600    21.9160 
  170.3750   -15.0440     2.2020    78.2080   119.1990   103.0170     9.5590    21.8110 
  170.5000   -15.0710     2.2000    73.0500   122.5860   106.1390     9.9730    21.6950 
  170.6250   -15.1470     2.1900    73.2190   123.7630   107.1560    10.5670    21.6370 
  170.7500   -15.2200     2.1830    79.7220   122.6250   106.2510    11.6810    21.6240 
  170.8750   -15.2750     2.1880    86.1200   118.7220   103.1210    13.1100    21.6210 
  171.0000   -15.3510     2.2050    86.7790   112.3610    98.0270    14.4380    21.5620 
  171.1250   -15.4810     2.2300    83.0960   104.5310    91.8010    15.0380    21.3580 
  171.2500   -15.5510     2.2550    81.7260    96.6760    85.6620    15.0280    21.0910 
  171.3750   -15.5160     2.2790    83.5330    89.3360    80.0920    15.1630    20.9490 
  171.5000   -15.4350     2.2990    86.9970    82.5500    75.0950    15.6460    20.9150 
  171.6250   -15.4080     2.3130    88.4710    76.2060    70.4550    15.9320    20.9140 
  171.7500   -15.4860     2.3190    86.6180    70.2180    65.9640    15.5100    20.9130 
  171.8750   -15.5360     2.3150    82.0860    64.7500    61.6960    14.7420    20.9150 
  172.0000   -15.4390     2.3060    78.5270    59.9960    57.8180    13.4120    20.9160 
  172.1250   -15.2980     2.2980    78.2770    56.1740    54.5480    11.9360    20.9160 
  172.2500   -15.2370     2.2970    78.2510    53.0560    51.7840    10.9050    20.9160 
  172.3750   -15.2210     2.3040    77.5450    50.4550    49.4000    10.5350    20.9280 
  172.5000   -15.2360     2.3150    76.1380    48.1910    47.2410    10.3070    21.0000 
  172.6250   -15.2570     2.3210    78.1050    46.2550    45.2400    10.3770    21.2690 
  172.7500   -15.2450     2.3170    82.6140    44.8120    43.4910    11.1140    21.6900 
  172.8750   -15.2690     2.3050    83.8660    44.3250    42.3380    12.5610    22.0790 
  173.0000   -15.3810     2.2880    81.3650    45.4730    42.3270    14.4010    22.2670 
  173.1250   -15.4690     2.2730    79.4520    49.6230    44.6280    16.0580    22.3010 
  173.2500   -15.5360     2.2620    79.3710    57.3160    49.9330    17.6100    22.3010 
  173.3750   -15.6440     2.2530    77.7050    69.2320    59.1290    20.3190    22.3010 
  173.5000   -15.7030     2.2420    74.5250    85.5850    72.6880    25.4710    22.3010 
  173.6250   -15.6300     2.2310    73.5700   106.0400    90.4620    30.1460    22.3030 
