~V
VERS. 2.00: Ver 2.00
~W
STRT.M 50.0000:
STOP.M 230.0000:
STEP.M 0.1250:
NULL. -999.2500:
UWI. F10167:
~C
DEPT.M :
DEN.GM/CC :
GR.API :
RML.OHMM :
RI. :
RXO.OHMM :
CALI.CM :
SP.MV :
~A
# ...
  173.7500     2.1440    55.8010   199.3820   194.3090    74.9070    24.1810    -6.3380 
  173.8750     2.1540    58.4840   177.0010   174.1380    52.3340    23.8400    -6.2090 
  174.0000     2.1670    60.8830   154.2000   152.2820    41.0230    23.6630    -6.1790 
  174.1250     2.1810    60.0750   134.5510   132.5880    35.7900    23.5510    -6.1500 
  174.2500     2.1920    56.4990   118.4310   116.1850    32.8030    23.4800    -6.2830 
  174.3750     2.2000    54.0310   106.0040   103.3040    31.6370    23.4850    -6.4490 
  174.5000     2.2090    55.9610    97.2960    94.0260    30.5200    23.5420    -6.5200 
  174.6250     2.2170    59.0380    92.9720    89.0650    30.3880    23.6420    -6.6930 
  174.7500     2.2240    59.0850    92.2030    87.7190    33.6750    23.8120    -6.8780 
  174.8750     2.2290    56.4590    94.4150    89.5520    42.3990    24.0130    -6.9400 
  175.0000     2.2340    53.9130    98.6350    93.7140    54.2620    24.1790    -7.0200 
  175.1250     2.2410    54.9800   103.5230    99.0180    65.0040    24.2150    -7.1370 
  175.2500     2.2510    56.9400   107.5780   103.9410    70.7270    24.0970    -7.0960 
  175.3750     2.2600    58.4650   109.6210   107.3610    70.5150    23.9260    -7.0020 
  175.5000     2.2640    60.1540   108.1070   107.7430    72.3480    23.8150    -6.9870 
  175.6250     2.2620    61.7740    99.9120   101.6540    76.2770    23.8320    -6.8300 
  175.7500     2.2610    61.4880    85.1390    88.4570    76.9390    23.9240    -6.6030 
  175.8750     2.2670    57.9620    65.8570    69.7630    78.0480    24.0270    -6.3990 
  176.0000     2.2860    54.8570    46.1870    49.7790    64.5600    24.0630    -6.0910 
  176.1250     2.3160    57.1180    30.9660    33.8320    32.2150    24.1490    -5.7210 
  176.2500     2.3460    64.5530    20.9910    23.2050    14.5330    24.3480    -5.4020 
  176.3750     2.3700    72.8080    15.3780    17.0960     9.4830    24.5870    -5.0540 
  176.5000     2.3820    76.6810    12.6280    13.9880     9.0370    24.7780    -4.6740 
  176.6250     2.3840    76.3570    11.5800    12.7350    10.3750    24.8970    -4.4040 
  176.7500     2.3840    76.2160    11.1210    12.2060    11.2310    24.9680    -4.1440 
  176.8750     2.3870    78.1900    10.8340    11.9570    11.0100    25.0020    -3.8830 
  177.0000     2.3930    81.7550    10.5180    11.7220     9.6880    24.8840    -3.7460 
  177.1250     2.3960    83.2110    10.1310    11.3840     8.7340    24.6320    -3.6520 
  177.2500     2.3960    82.0620     9.7750    11.0140     8.2370    24.3090    -3.6060 
  177.3750     2.3930    79.6550     9.5590    10.7230     8.1500    23.9400    -3.6600 
  177.5000     2.3930    78.8230     9.5790    10.6190     8.4140    23.7540    -3.6940 
  177.6250     2.3990    79.4640     9.9930    10.8500     8.7340    23.9960    -3.7070 
  177.7500     2.4060    78.5520    10.8450    11.4580     9.3420    24.4490    -3.8400 
  177.8750     2.4090    76.4930    12.1850    12.4980    10.5990    24.8330    -4.0060 
  178.0000     2.4030    74.1180    13.9050    13.9680    13.4800    25.0100    -4.1250 
  178.1250     2.3870    70.6020    15.7640    15.7820    18.8800    25.0540    -4.2720 
  178.2500     2.3690    68.0150    17.5090    17.6070    22.4710    25.0680    -4.3650 
  178.3750     2.3540    67.0220    19.0160    19.1680    22.8950    25.1150    -4.3870 
  178.5000     2.3440    66.9320    20.2350    20.3130    22.4020    25.1510    -4.4660 
  178.6250     2.3360    65.2280    21.2320    21.0850    21.5940    25.1460    -4.5630 
  178.7500     2.3280    64.2330    22.2880    21.8030    22.3410    25.1130    -4.5990 
  178.8750     2.3190    66.6280    23.5210    22.6410    23.7200    25.0860    -4.6690 
  179.0000     2.3120    69.1830    24.7980    23.5750    26.2920    25.1060    -4.7700 
  179.1250     2.3110    68.2190    25.7110    24.2990    28.9300    25.1630    -4.8690 
  179.2500     2.3140    66.4880    26.0050    24.5260    28.9520    25.2690    -5.0520 
  179.3750     2.3180    66.8700    25.6750    24.1680    26.7870    25.4550    -5.2530 
  179.5000     2.3210    69.7600    24.9930    23.3950    23.6540    25.6450    -5.3780 
  179.6250     2.3260    71.6270    24.5160    22.6290    21.6010    25.7430    -5.5570 
  179.7500     2.3290    70.0470    24.7720    22.3420    21.4860    25.7950    -5.7740 
  179.8750     2.3280    67.9740    26.1990    22.9160    23.4820    25.8250    -5.9720 
  180.0000     2.3190    69.1580    29.2140    24.7330    25.6850    25.8350    -6.2210 
  180.1250     2.3020    72.3680    34.6100    28.5660    29.9920    25.8490    -6.4840 
  180.2500     2.2810    72.6080    42.3620    34.5920    36.2440    25.8120    -6.6770 
  180.3750     2.2570    69.7740    52.3810    42.9570    42.0320    25.6740    -6.9040 
  180.5000     2.2350    65.7440    63.9360    53.2200    58.5000    25.5210    -7.1910 
  180.6250     2.2180    62.6900    75.1130    63.8780    72.2520    25.3330    -7.3860 
  180.7500     2.2110    62.0230    83.6000    72.6390    76.5670    25.1230    -7.6000 
  180.8750     2.2130    64.4160    87.9700    77.9380    70.7550    25.0520    -7.8470 
  181.0000     2.2230    68.4760    88.2070    79.3980    64.1560    25.2460    -8.0020 
  181.1250     2.2330    71.1670    85.4060    77.6480    59.3320    25.4710    -8.1000 
  181.2500     2.2390    69.0930    81.8400    74.7870    59.0190    25.4670    -8.2550 
  181.3750     2.2400    63.7820    78.4770    71.8670    62.0920    25.2590    -8.3730 
  181.5000     2.2430    61.8450    75.6260    69.3540    66.8290    25.0000    -8.4260 
  181.6250     2.2470    65.1910    73.3890    67.4480    66.9420    24.7220    -8.5540 
  181.7500     2.2460    66.6360    71.6960    66.1050    64.4740    24.4250    -8.6100 
  181.8750     2.2370    66.3510    70.4960    65.3230    59.8890    24.1820    -8.6080 
  182.0000     2.2180    68.5250    69.4490    64.8640    56.2730    24.0750    -8.6730 
  182.1250     2.1980    70.7530    67.7140    64.0130    61.1200    24.1300    -8.6850 
  182.2500     2.1860    68.9280    64.7660    62.1330    68.6990    24.3170    -8.6180 
  182.3750     2.1870    65.9650    60.6760    59.0810    71.5310    24.4280    -8.5800 
  182.5000     2.1970    65.3390    56.1690    55.3410    62.1450    24.3590    -8.5570 
  182.6250     2.2090    66.4150    52.5540    52.0040    46.5300    24.2770    -8.4890 
  182.7500     2.2170    67.2510    50.5710    49.9470    38.3610    24.3690    -8.4330 
  182.8750     2.2180    67.7190    50.3530    49.5110    41.5950    24.4500    -8.3240 
  183.0000     2.2180    68.0860    51.4510    50.4940    49.7020    24.4400    -8.1690 
  183.1250     2.2200    67.9140    52.9130    52.1900    53.9140    24.4160    -8.0970 
  183.2500     2.2270    68.4110    53.6540    53.4610    53.2720    24.3920    -7.9930 
  183.3750     2.2370    68.8680    53.2030    53.6530    48.9710    24.2670    -7.8760 
  183.5000     2.2480    69.3020    51.7350    52.6890    46.1720    24.0960    -7.8750 
  183.6250     2.2580    70.4930    50.0680    51.1460    45.1760    23.9670    -7.8690 
  183.7500     2.2650    71.6720    49.1880    50.0610    43.9380    23.9260    -7.8840 
  183.8750     2.2680    72.5320    49.5780    50.0530    42.5790    23.9180    -8.0330 
  184.0000     2.2640    74.4500    51.2120    51.2790    43.4690    23.9100    -8.1790 
  184.1250     2.2520    78.0510    53.5600    53.4040    46.3000    23.8790    -8.2770 
  184.2500     2.2360    79.6290    55.6030    55.4340    51.6070    23.8280    -8.4860 
  184.3750     2.2230    77.4750    56.7630    56.7010    55.9230    23.7910    -8.6760 
  184.5000     2.2170    74.1080    57.0870    57.0620    54.6930    23.7910    -8.7240 
  184.6250     2.2200    73.3040    57.5860    57.2560    48.1890    23.8500    -8.8790 
  184.7500     2.2260    74.7950    59.5910    58.7460    43.7570    23.9380    -9.0780 
  184.8750     2.2300    75.8340    65.3840    62.8960    46.9590    24.0040    -9.1880 
