~V
VERS. 2.00: Ver 2.00
~W
STRT.M 50.0000:
STOP.M 207.0000:
STEP.M 0.1250:
NULL. -999.2500:
UWI. F10134:
~C
DEPT.M :
SP.MV :
DEN.GM/CC :
GR.API :
RML.OHMM :
RI. :
RXO.OHMM :
CALI.CM :
~A
   50.0000  -999.2500  -999.2500  -999.2500  -999.2500  -999.2500  -999.2500  -999.2500 
   50.1250  -999.2500  -999.2500  -999.2500  -999.2500  -999.2500  -999.2500  -999.2500 
   50.2500  -999.2500  -999.2500  -999.2500  -999.2500  -999.2500  -999.2500  -999.2500 
   50.3750  -999.2500  -999.2500  -999.2500  -999.2500  -999.2500  -999.2500  -999.2500 
   50.5000  -999.2500  -999.2500  -999.2500  -999.2500  -999.2500  -999.2500  -999.2500 
   50.6250  -999.2500  -999.2500  -999.2500  -999.2500  -999.2500  -999.2500  -999.2500 
   50.7500  -999.2500  -999.2500  -999.2500  -999.2500  -999.2500  -999.2500  -999.2500 
   50.8750  -999.2500  -999.2500  -999.2500  -999.2500  -999.2500  -999.2500  -999.2500 
   51.0000  -999.2500  -999.2500  -999.2500  -999.2500  -999.2500  -999.2500  -999.2500 
   51.1250  -999.2500  -999.2500  -999.2500  -999.2500  -999.2500  -999.2500  -999.2500 
   51.2500  -999.2500  -999.2500  -999.2500  -999.2500  -999.2500  -999.2500  -999.2500 
   51.3750  -999.2500  -999.2500  -999.2500  -999.2500  -999.2500  -999.2500  -999.2500 
   51.5000  -999.2500  -999.2500  -999.2500  -999.2500  -999.2500  -999.2500  -999.2500 
   51.6250  -999.2500  -999.2500  -999.2500  -999.2500  -999.2500  -999.2500  -999.2500 
   51.7500  -999.2500  -999.2500  -999.2500  -999.2500  -999.2500  -999.2500  -999.2500 
   51.8750  -999.2500  -999.2500  -999.2500  -999.2500  -999.2500  -999.2500  -999.2500 
   52.0000  -999.2500  -999.2500  -999.2500  -999.2500  -999.2500  -999.2500  -999.2500 
   52.1250  -999.2500  -999.2500  -999.2500  -999.2500  -999.2500  -999.2500  -999.2500 
   52.2500  -999.2500  -999.2500  -999.2500  -999.2500  -999.2500  -999.2500  -999.2500 
   52.3750  -999.2500  -999.2500  -999.2500  -999.2500  -999.2500  -999.2500  -999.2500 
   52.5000   145.9010  -999.2500  -999.2500  -999.2500  -999.2500  -999.2500  -999.2500 
   52.6250   145.9010  -999.2500  -999.2500  -999.2500  -999.2500  -999.2500  -999.2500 
   52.7500   145.9880  -999.2500  -999.2500  -999.2500  -999.2500  -999.2500  -999.2500 
   52.8750   146.2050  -999.2500  -999.2500  -999.2500  -999.2500  -999.2500  -999.2500 
   53.0000   146.5650  -999.2500  -999.2500  -999.2500  -999.2500  -999.2500  -999.2500 
   53.1250   147.0660  -999.2500  -999.2500  -999.2500  -999.2500  -999.2500  -999.2500 
   53.2500   147.6040  -999.2500    50.5580     2.7670     0.9380     3.0120    25.5730 
   53.3750   148.0960  -999.2500    50.5580     2.7670     0.9380     3.0120    25.5730 
   53.5000   148.4760  -999.2500    51.1060     2.7800     0.9400     2.6830    25.5690 
   53.6250   148.6930  -999.2500    49.4090     2.8690     0.9470     2.4500    25.5690 
   53.7500   148.7830  -999.2500    47.9460     3.0680     0.9570     2.4840    25.5720 
   53.8750   148.7930  -999.2500    48.5840     3.3150     0.9690     2.3680    25.5720 
   54.0000   148.7900  -999.2500    50.0490     3.4670     0.9780     2.3540    25.5700 
   54.1250   148.8400  -999.2500    48.9560     3.3970     0.9810     2.6190    25.5740 
   54.2500   148.9760  -999.2500    45.9870     3.3260     0.9810     2.7930    25.5790 
   54.3750   149.1960  -999.2500    44.2430     3.4450     0.9810     2.8880    25.5790 
   54.5000   149.4750  -999.2500    44.5910     3.7510     0.9840     3.4850    25.5770 
   54.6250   149.7910  -999.2500    46.1710     4.0630     0.9930     3.2940    25.5790 
   54.7500   150.1070  -999.2500    48.1180     4.1420     0.9990     2.1730    25.5800 
   54.8750   150.3900  -999.2500    49.6470     3.8600     0.9960     1.2900    25.5760 
   55.0000   150.6310  -999.2500    49.9620     3.3430     0.9820     1.0990    25.5740 
   55.1250   150.8360  -999.2500    48.0210     2.8910     0.9600     1.0140    25.5780 
   55.2500   151.0160  -999.2500    46.4860     2.6260     0.9370     0.8210    25.5820 
   55.3750   151.1720     2.0600    46.7080     2.4910     0.9200     0.8470    25.5810 
   55.5000   151.3110     2.0600    46.1850     2.4070     0.9060     1.0430    25.5810 
   55.6250   151.4450     2.0430    43.2070     2.3400     0.8940     1.1480    25.5850 
   55.7500   151.5930     2.0320    40.6970     2.2850     0.8830     0.8770    25.5860 
   55.8750   151.7650     2.0280    40.6320     2.2670     0.8780     0.6710    25.5810 
   56.0000   151.9760     2.0290    41.9660     2.3230     0.8810     0.8330    25.5780 
   56.1250   152.2600     2.0340    43.1200     2.4850     0.8960     0.9740    25.5810 
   56.2500   152.6460     2.0390    43.5990     2.7690     0.9200     0.9730    25.5810 
   56.3750   153.1480     2.0420    42.9190     3.2030     0.9500     0.7960    25.5770 
   56.5000   153.7530     2.0370    40.9120     3.7510     0.9830     0.7760    25.5760 
   56.6250   154.4310     2.0240    39.0000     4.1040     1.0040     0.9350    25.5830 
   56.7500   155.1070     2.0080    37.7300     3.8830     1.0020     0.9450    25.5890 
   56.8750   155.7270     1.9950    37.0070     3.2250     0.9750     0.6830    25.5890 
   57.0000   156.2350     1.9870    36.3830     2.6250     0.9350     0.4520    25.5860 
   57.1250   156.5490     1.9800    37.2970     2.2800     0.8990     0.4710    25.5830 
   57.2500   156.6620     1.9740    39.0940     2.0330     0.8760     0.6130    25.5800 
   57.3750   156.5690     1.9700    39.7040     1.7940     0.8640     0.6900    25.5790 
   57.5000   156.2890     1.9700    37.6290     1.5750     0.8570     0.6460    25.5820 
   57.6250   155.8340     1.9790    34.8350     1.4770     0.8530     0.5720    25.5890 
   57.7500   155.2740     1.9930    34.7550     1.5380     0.8610     0.5300    25.5930 
   57.8750   154.6320     2.0060    36.6550     1.7330     0.8830     0.5790    25.5920 
   58.0000   153.9220     2.0110    38.1810     1.9970     0.9120     0.7820    25.5890 
   58.1250   153.1650     2.0060    38.7020     2.2400     0.9330     0.8000    25.5900 
   58.2500   152.4070     1.9930    38.8650     2.4170     0.9390     0.8040    25.5930 
   58.3750   151.6670     1.9770    38.8550     2.5130     0.9340     0.8620    25.5940 
   58.5000   150.9640     1.9640    39.1140     2.4840     0.9250     1.0790    25.5900 
   58.6250   150.3190     1.9610    39.5180     2.2260     0.9160     0.9600    25.5860 
   58.7500   149.7220     1.9650    38.7950     1.8030     0.9070     0.8190    25.5840 
   58.8750   149.1790     1.9730    37.7540     1.3680     0.8960     0.8490    25.5850 
   59.0000   148.6800     1.9810    37.7190     1.0850     0.8880     1.0530    25.5880 
   59.1250   148.2250     1.9900    38.0610     1.0400     0.8880     1.5540    25.5890 
   59.2500   147.7980     2.0010    37.9320     1.1320     0.8980     1.9180    25.5930 
   59.3750   147.4000     2.0150    39.2940     1.2770     0.9120     1.5550    25.5970 
   59.5000   147.0380     2.0310    42.2120     1.3970     0.9260     0.9900    25.5970 
   59.6250   146.7320     2.0460    44.0530     1.4340     0.9460     0.8470    25.5910 
   59.7500   146.4870     2.0540    43.2260     1.4060     0.9740     0.9300    25.5870 
   59.8750   146.3060     2.0520    41.3050     1.3550     1.0110     0.8220    25.5900 
   60.0000   146.1820     2.0450    40.2310     1.3570     1.0460     0.6900    25.5920 
   60.1250   146.1200     2.0380    40.7720     1.5310     1.0670     0.6950    25.5900 
   60.2500   146.0840     2.0370    42.0160     1.8640     1.0670     0.8170    25.5910 
   60.3750   146.0750     2.0420    42.1880     2.2400     1.0510     0.8030    25.5980 
   60.5000   146.0680     2.0480    40.2320     2.4780     1.0340     0.8020    25.6050 
   60.6250   146.0240     2.0530    36.6260     2.4640     1.0300     0.8900    25.6060 
   60.7500   145.9350     2.0570    34.7310     2.3150     1.0410     0.7760    25.6030 
   60.8750   145.7870     2.0610    36.8430     2.1060     1.0630     0.6530    25.6000 
   61.0000   145.5820     2.0620    40.2170     1.9090     1.0890     0.5400    25.5990 
   61.1250   145.3270     2.0530    42.1010     1.8290     1.1170     0.4410    25.5980 
