~V
VERS. 2.00: Ver 2.00
~W
STRT.M 40.0000:
STOP.M 206.0000:
STEP.M 0.1250:
NULL. -999.2500:
UWI. F10149:
~C
DEPT.M :
SP.MV :
DEN.GM/CC :
GR.API :
RML.OHMM :
RI. :
RXO.OHMM :
CALI.CM :
~A
# ...
  152.5000   -15.7780     2.2290    67.1610    24.7920    22.2270    32.7700    24.9930 
  152.6250   -15.9320     2.2390    65.3330    24.3550    21.5750    29.8560    24.9930 
  152.7500   -16.0640     2.2490    62.2240    23.9160    20.9820    26.6540    24.9930 
  152.8750   -16.2380     2.2540    61.9640    23.5670    20.5680    25.8640    24.9930 
  153.0000   -16.4250     2.2520    65.2490    23.6190    20.5600    25.8580    24.9890 
  153.1250   -16.5970     2.2480    67.7460    24.8410    21.4520    26.3310    24.9770 
  153.2500   -16.8370     2.2470    65.8130    27.7400    23.5620    26.8470    24.9600 
  153.3750   -17.0940     2.2540    60.6200    32.7400    27.2990    29.0830    24.9530 
  153.5000   -17.3400     2.2630    57.6590    39.9650    32.9970    37.2750    24.9530 
  153.6250   -17.6090     2.2670    60.6630    49.3220    40.9750    48.6080    24.9540 
  153.7500   -17.8830     2.2600    64.5630    59.3440    50.1660    61.1040    24.9550 
  153.8750   -18.1260     2.2460    65.6060    68.4030    59.1890    69.6600    24.9550 
  154.0000   -18.3290     2.2280    62.8210    74.9610    66.4410    75.7530    24.9530 
  154.1250   -18.5440     2.2120    60.2510    77.9060    70.3820    77.6910    24.9530 
  154.2500   -18.6830     2.2010    60.6870    78.3850    71.6140    75.2030    24.9520 
  154.3750   -18.7940     2.1930    60.7800    77.2900    70.8860    72.0660    24.9520 
  154.5000   -18.8840     2.1890    58.5000    75.3650    69.0420    67.3600    24.9520 
  154.6250   -18.9640     2.1900    56.1070    73.2730    66.9260    66.1940    24.9490 
  154.7500   -19.0490     2.1970    57.6120    71.7170    65.2820    63.5390    24.9100 
  154.8750   -19.1160     2.2100    60.8450    71.2550    64.5590    58.8170    24.7770 
  155.0000   -19.1890     2.2280    61.2570    72.1790    65.0700    50.8690    24.5080 
  155.1250   -19.2570     2.2460    60.0750    74.5690    67.1580    44.1160    24.1820 
  155.2500   -19.3180     2.2570    59.3720    77.7330    70.3550    39.3230    23.9530 
  155.3750   -19.3740     2.2590    59.9750    81.0750    74.1050    40.5040    23.9170 
  155.5000   -19.4520     2.2540    61.5360    83.8550    77.5920    47.8030    24.0410 
  155.6250   -19.5080     2.2460    61.8810    84.8670    79.5060    57.6530    24.2340 
  155.7500   -19.5590     2.2420    61.4130    83.7570    79.3150    63.6640    24.4020 
  155.8750   -19.6410     2.2410    60.7430    80.7740    77.1220    58.9670    24.3740 
  156.0000   -19.7140     2.2430    60.4400    76.9360    73.7540    48.0710    24.1810 
  156.1250   -19.7620     2.2430    62.0630    73.8350    70.5800    40.5360    24.0300 
  156.2500   -19.8610     2.2400    64.4460    72.4120    68.7250    38.1280    23.9770 
  156.3750   -19.9600     2.2340    64.7250    72.8020    68.6610    38.4480    23.9640 
  156.5000   -20.0190     2.2290    60.5010    74.4320    70.2050    40.4900    23.9480 
  156.6250   -20.1250     2.2270    55.8050    75.9550    72.3810    45.1520    23.9360 
  156.7500   -20.2390     2.2280    56.1450    75.9410    73.5640    48.9270    23.9200 
  156.8750   -20.3120     2.2300    59.8240    73.6920    72.6670    47.4340    23.8940 
  157.0000   -20.4040     2.2320    62.0560    69.4520    69.4890    41.1900    23.8660 
  157.1250   -20.5150     2.2320    61.5210    64.3320    64.7850    34.5970    23.8590 
  157.2500   -20.5630     2.2320    61.2860    59.7800    60.1720    30.5630    23.8740 
  157.3750   -20.6050     2.2320    62.6370    56.4130    56.4750    29.0080    23.8900 
  157.5000   -20.6970     2.2330    64.4320    54.3110    53.9570    29.1960    23.8960 
  157.6250   -20.7320     2.2340    64.7590    53.3590    52.6610    30.1270    23.8960 
  157.7500   -20.7340     2.2380    64.2760    53.0610    52.1660    30.4910    23.9020 
  157.8750   -20.7850     2.2460    64.2150    53.2040    52.2890    31.0180    23.9210 
  158.0000   -20.8430     2.2560    64.6050    53.7750    52.9480    31.9570    23.9610 
  158.1250   -20.8800     2.2650    65.4200    54.9640    54.2350    34.6930    23.9910 
  158.2500   -20.9470     2.2690    66.1560    56.6400    56.0180    37.7060    24.0040 
  158.3750   -21.0190     2.2650    66.2870    58.5560    58.1150    39.4050    24.0120 
  158.5000   -21.0880     2.2550    65.6240    60.3780    60.2160    39.0590    24.0290 
  158.6250   -21.2070     2.2420    65.1480    61.6700    61.7940    38.2440    24.0380 
  158.7500   -21.3260     2.2310    64.9820    62.2500    62.5450    37.9960    24.0420 
  158.8750   -21.4030     2.2260    66.3820    62.0990    62.3980    38.4410    24.0410 
  159.0000   -21.5090     2.2290    69.5960    61.3910    61.5670    39.1900    24.0400 
  159.1250   -21.6540     2.2370    71.3130    60.3990    60.4500    38.6620    24.0390 
  159.2500   -21.8080     2.2460    70.0640    59.5470    59.5480    37.4920    24.0340 
  159.3750   -21.9760     2.2500    68.9020    59.1150    59.1310    36.8810    24.0140 
  159.5000   -22.1500     2.2490    69.0940    59.1540    59.2370    38.3980    23.9680 
  159.6250   -22.3800     2.2460    67.8440    59.4990    59.6730    39.4560    23.9450 
  159.7500   -22.6680     2.2460    65.1980    59.8850    60.0780    39.0600    23.9370 
  159.8750   -22.9930     2.2520    63.5570    60.3200    60.3530    37.8520    23.9390 
  160.0000   -23.2850     2.2620    63.2600    61.0750    60.6780    36.5980    23.9480 
  160.1250   -23.5560     2.2740    63.0830    62.9100    61.7030    36.7960    23.9770 
  160.2500   -23.8620     2.2830    62.1520    66.3840    64.0640    39.2520    24.0450 
  160.3750   -24.2030     2.2860    60.6790    72.0640    68.4410    43.9700    24.1900 
  160.5000   -24.5420     2.2830    59.6210    80.3950    75.4070    52.5080    24.4270 
  160.6250   -24.8530     2.2760    59.5800    91.9850    85.6690    67.3990    24.7280 
  160.7500   -25.1460     2.2710    58.5870   105.7820    98.2440    83.9720    25.0060 
  160.8750   -25.4030     2.2680    56.1810   120.2790   111.7340   109.7340    25.1990 
  161.0000   -25.6350     2.2660    53.3290   132.9610   123.8800   151.4360    25.3090 
  161.1250   -25.8530     2.2630    52.8230   139.9790   131.2400   184.8170    25.3960 
  161.2500   -26.0440     2.2570    57.2750   141.1180   133.3160   154.5800    25.5130 
  161.3750   -26.2070     2.2490    64.2380   138.1600   131.3330   122.2970    25.5950 
  161.5000   -26.3790     2.2410    69.1250   134.0050   127.7320   113.1330    25.6360 
  161.6250   -26.5330     2.2350    69.1630   131.3250   125.0460   112.7730    25.6380 
  161.7500   -26.6630     2.2300    67.2290   130.5970   124.0100   112.4050    25.6180 
  161.8750   -26.7930     2.2260    63.7580   131.1350   124.0390   114.0550    25.5730 
  162.0000   -26.8980     2.2250    58.3820   131.8790   124.0950   115.8770    25.5330 
  162.1250   -26.9580     2.2240    57.0670   132.0890   123.4530   109.2690    25.5000 
  162.2500   -27.0170     2.2260    63.2300   132.0030   122.5180    99.7540    25.4690 
  162.3750   -27.0810     2.2340    70.4760   131.9670   121.7960    98.7150    25.4340 
  162.5000   -27.1000     2.2550    71.7610   132.0190   121.4380   106.9740    25.4020 
  162.6250   -27.0460     2.2980    65.7920   131.7690   121.1160   122.5770    25.4160 
  162.7500   -26.9530     2.3470    61.8560   130.8920   120.3660   133.4070    25.4740 
  162.8750   -26.8600     2.3790    61.8570   129.2900   119.0270   130.8820    25.5330 
  163.0000   -26.8250     2.3740    62.3650   127.0080   117.1880   114.9050    25.5120 
  163.1250   -26.8290     2.3290    62.3740   123.8040   114.8130   102.1530    25.3640 
  163.2500   -26.8070     2.2740    62.3210   119.4640   111.6850    99.3960    25.2180 
  163.3750   -26.7380     2.2320    63.1240   113.7550   107.4620   106.1340    25.1470 
  163.5000   -26.6540     2.2140    63.6190   106.7960   102.0400   119.0450    25.1240 
  163.6250   -26.5810     2.2160    64.7250    99.0970    95.5530   107.2200    25.0970 
