~V
VERS. 2.00: Ver 2.00
~W
STRT.M 50.0000:
STOP.M 246.0000:
STEP.M 0.1250:
NULL. -999.2500:
UWI. F10164:
~C
DEPT.M :
GR.API :
RML.OHMM :
RI. :
RXO.OHMM :
CALI.CM :
SP.MV :
DEN.GM/CC :
~A
# ...
  230.0000    78.3870     5.8110     4.6960     4.6840    25.0060    -1.2570     2.3620 
  230.1250    76.9510     5.9080     4.7630     4.9160    25.0250    -1.2890     2.3600 
  230.2500    73.2940     6.0530     4.8790     5.0310    25.1020    -1.3610     2.3670 
  230.3750    70.4350     6.2290     5.0330     4.9940    25.1740    -1.4330     2.3810 
  230.5000    71.9500     6.4090     5.2050     5.0400    25.1780    -1.4950     2.3970 
  230.6250    75.7870     6.5440     5.3540     5.3390    25.1260    -1.5330     2.4030 
  230.7500    78.2750     6.6060     5.4460     5.5770    25.1910    -1.5710     2.3990 
  230.8750    79.9700     6.5920     5.4670     5.5520    25.3210    -1.5960     2.3860 
  231.0000    80.5680     6.5310     5.4290     5.3740    25.4310    -1.6230     2.3720 
  231.1250    77.8420     6.4840     5.3760     5.2680    25.4350    -1.6420     2.3630 
  231.2500    73.2660     6.5080     5.3630     5.2790    25.4050    -1.7120     2.3660 
  231.3750    70.3560     6.6260     5.4200     5.5760    25.3900    -1.8920     2.3850 
  231.5000    70.1970     6.8240     5.5530     6.4350    25.3400    -2.0870     2.4140 
  231.6250    71.5780     7.0560     5.7440     7.8190    25.2240    -2.2060     2.4370 
  231.7500    73.5540     7.2610     5.9370     8.9200    25.1490    -2.3070     2.4410 
  231.8750    76.3340     7.4020     6.0940     9.3810    24.9720    -2.3660     2.4250 
  232.0000    78.8830     7.4720     6.1940     9.5270    24.6900    -2.3620     2.4010 
  232.1250    78.3440     7.4860     6.2370     9.6050    24.7110    -2.3240     2.3860 
  232.2500    76.8170     7.4930     6.2670     9.4570    24.9520    -2.2340     2.3840 
  232.3750    76.4430     7.5280     6.3170     9.3610    25.1770    -2.0750     2.3910 
  232.5000    77.3390     7.6080     6.4100     9.8790    25.2510    -1.8610     2.4010 
  232.6250    78.9140     7.7250     6.5480    10.9610    25.1720    -1.7210     2.4060 
  232.7500    78.8790     7.8300     6.6920    11.4880    24.9310    -1.6320     2.4110 
  232.8750    78.4280     7.8780     6.8000    11.1480    24.3450    -1.5710     2.4180 
  233.0000    84.1840     7.8370     6.8340    10.9000    23.1290    -1.5320     2.4290 
  233.1250    93.9230     7.6960     6.7680    11.2920    21.3070    -1.5130     2.4360 
  233.2500    96.4510     7.5160     6.6400    11.3330    19.4740    -1.4920     2.4310 
  233.3750    89.9140     7.3530     6.4980    10.4270    18.4950    -1.4340     2.4110 
  233.5000    84.6780     7.2550     6.3930     9.0660    18.5020    -1.4100     2.3790 
  233.6250    85.6980     7.2620     6.3760     8.2660    19.4960    -1.3520     2.3460 
  233.7500    85.0110     7.3520     6.4420     8.1610    20.9780    -1.2390     2.3240 
  233.8750    81.5840     7.4930     6.5720     8.6970    22.2900    -1.1210     2.3160 
  234.0000    79.3190     7.6480     6.7330     9.9930    22.9030    -1.0430     2.3220 
  234.1250    80.7270     7.7710     6.8850    11.7900    22.9910    -0.9990     2.3390 
  234.2500    82.9400     7.8370     6.9950    12.9970    22.9340    -0.9340     2.3600 
  234.3750    83.3870     7.8380     7.0490    12.2940    22.9160    -0.9090     2.3840 
  234.5000    83.3230     7.7900     7.0530     9.9450    22.8930    -0.9270     2.4070 
  234.6250    83.3230     7.7400     7.0340     7.7280    22.8930    -0.9560     2.4230 
  234.7500    83.3230     7.7500     7.0480     6.4750    22.8920    -1.0010     2.4300 
  234.8750    83.3230     7.8690     7.1440     6.1580    23.0180    -0.9810     2.4320 
  235.0000    83.3230     8.1170     7.3550     6.4640    23.0550    -0.8790     2.4370 
  235.1250    83.3230     8.4820     7.6970     7.2800    23.0160    -0.6880     2.4570 
  235.2500    83.3230     8.8750     8.1030     8.2990    23.0620    -0.4700     2.4880 
  235.3750    83.3230     9.2050     8.4960     9.2580    23.0950    -0.2420     2.5250 
  235.5000    83.3230     9.3940     8.7890     9.8550    22.9510     0.0310     2.5520 
  235.6250    83.3230     9.3730     8.8860     9.9360    22.8540     0.3220     2.5580 
  235.7500    83.3230     9.2000     8.8100     9.7280    22.8430     0.6170     2.5450 
  235.8750    83.3230     8.9440     8.6120     9.3500    22.8820     0.8520     2.5200 
  236.0000    83.3230     8.6850     8.3710     8.8630    22.9340     0.9890     2.4950 
  236.1250    83.3230     8.5030     8.1730     8.5090    22.9820     1.0090     2.4790 
  236.2500    83.3230     8.4130     8.0580     8.5520    23.0560     0.9550     2.4750 
  236.3750    83.3230     8.4040     8.0330     8.8880    23.0820     0.9250     2.4790 
  236.5000    83.3230     8.4420     8.0730     9.2350    22.8920     0.8910     2.4860 
  236.6250    83.3230     8.4830     8.1400     9.1940    22.9930     0.8230     2.4910 
  236.7500    83.3230     8.4980     8.1880     8.7970    23.8340     0.7540     2.4910 
  236.8750    83.3230     8.4900     8.2070     8.3770    24.8410     0.6810     2.4870 
  237.0000    83.3230     8.4810     8.2100     8.0460    25.3480     0.6110     2.4830 
  237.1250    83.3230     8.4990     8.2240     7.7250    25.4360     0.6520     2.4800 
  237.2500    83.3230     8.5520     8.2670     7.4480    25.4580     0.7660     2.4770 
  237.3750    83.3230     8.6690     8.3740     7.5900    25.4650     0.8350     2.4730 
  237.5000    83.3230     8.8150     8.5240     8.3560    25.4730     0.8430     2.4660 
  237.6250    83.3230     8.9550     8.6880     9.3080    25.4530     0.8550     2.4580 
  237.7500    83.3230     9.0560     8.8290     9.7750    25.4380     0.8490     2.4500 
  237.8750    83.3230     9.0920     8.9130     9.5380    25.3960     0.8430     2.4410 
  238.0000    83.3230     9.0870     8.9520     9.2090    25.3470     0.8960     2.4280 
  238.1250    83.3230     9.0710     8.9720     9.0380    25.2900     0.9220     2.4130 
  238.2500    83.3230     9.0750     9.0080     9.1130    25.3710     0.9010     2.4000 
  238.3750    83.3230     9.1110     9.0800     9.2360    25.4850     0.8640     2.3950 
  238.5000    83.3230     9.1480     9.1620     9.2610    25.5160     0.8550     2.4010 
  238.6250    83.3230     9.1410     9.2090     9.0500    25.4500     0.8670     2.4190 
  238.7500    83.3230     9.0400     9.1660     8.4470    25.4250     0.9330     2.4430 
  238.8750    83.3230     8.8000     8.9760     7.5690    25.4200     1.0130     2.4670 
  239.0000    83.3230     8.4590     8.6680     6.8410    25.3160     1.0670     2.4820 
  239.1250    83.3230     8.0680     8.2870     6.4690    25.1360     1.1050     2.4810 
  239.2500    83.3230     7.6910     7.8960     6.2690    25.0360     1.1930     2.4710 
  239.3750    83.3230     7.3920     7.5650     6.0070    25.1690     1.3430     2.4610 
  239.5000    83.3230     7.1790     7.3190     5.8420    25.4260     1.5380     2.4580 
  239.6250    83.3230     7.0440     7.1590     5.7520    25.5850     1.7760     2.4640 
  239.7500    83.3230     6.9690     7.0700     5.6600    25.5810     2.0080     2.4730 
  239.8750    83.3230     6.9380     7.0340     5.7080    25.5630     2.2400     2.4830 
  240.0000    83.3230     6.9280     7.0200     6.0080    25.5240     2.4450     2.4940 
  240.1250    83.3230     6.9290     7.0150     6.4210    25.4880     2.6190     2.5080 
  240.2500    83.3230     6.9330     7.0140     6.7000    25.4430     2.7480     2.5220 
  240.3750    83.3230     6.9360     7.0130     6.8430    25.4050     2.8750     2.5310 
  240.5000    83.3230     6.9370     7.0130     7.0070    25.4100     2.9600     2.5290 
  240.6250    83.3230     6.9370     7.0130     7.2010    25.4070     2.9790     2.5140 
  240.7500    83.3230     6.9370     7.0130     7.3280    25.3910     2.9450     2.4890 
  240.8750    83.3230     6.9370     7.0130     7.3610    25.3920     2.8990     2.4610 
  241.0000    83.3230     6.9370     7.0130     7.5040    25.3970     2.8490     2.4360 
  241.1250    83.3230     6.9370     7.0130     7.7540    25.3850     2.8510     2.4220 
