~V
VERS. 2.00: Ver 2.00
~W
STRT.M 63.0000:
STOP.M 207.0000:
STEP.M 0.1250:
NULL. -999.2500:
UWI. F10132:
~C
DEPT.M :
SP.MV :
DEN.GM/CC :
GR.API :
RML.OHMM :
RI. :
RXO.OHMM :
CALI.CM :
~A
# ...
   74.2500   -44.9570     2.1220    66.3620     9.4840     7.0400     5.8640    23.0500 
   74.3750   -44.9400     2.1140    67.1940     9.4350     6.9500     5.8250    22.9450 
   74.5000   -44.8100     2.1160    66.5790     9.1990     6.8110     5.7620    22.9150 
   74.6250   -44.5990     2.1220    63.1300     8.8160     6.5710     5.7640    22.9480 
   74.7500   -44.3610     2.1320    61.6310     8.4910     6.3000     5.7920    22.9960 
   74.8750   -44.1390     2.1490    64.9160     8.3670     6.0880     5.8870    23.0870 
   75.0000   -43.9630     2.1770    69.7770     8.5090     5.9950     6.0690    23.2360 
   75.1250   -43.8610     2.2130    68.9260     8.8980     6.0460     6.2520    23.3660 
   75.2500   -43.8160     2.2380    64.9160     9.3290     6.1940     6.5330    23.3690 
   75.3750   -43.8050     2.2410    63.8850     9.6340     6.4210     6.7840    23.2600 
   75.5000   -43.7960     2.2190    66.2240     9.7180     6.7040     6.8900    23.1310 
   75.6250   -43.7480     2.1880    67.0410     9.5910     7.0150     6.5120    22.9810 
   75.7500   -43.6590     2.1660    66.5920     9.4190     7.2920     5.9480    22.7720 
   75.8750   -43.5280     2.1590    68.5510     9.3080     7.4890     5.7390    22.5910 
   76.0000   -43.3510     2.1620    71.6400     9.2640     7.5750     5.6740    22.6180 
   76.1250   -43.1540     2.1640    70.7450     9.1750     7.4760     5.6710    22.9720 
   76.2500   -42.9760     2.1630    67.7280     8.9530     7.1980     5.6090    23.4570 
   76.3750   -42.8330     2.1560    66.6110     8.6200     6.8030     5.5260    23.8730 
   76.5000   -42.7370     2.1470    67.3340     8.2920     6.4110     5.4400    24.1000 
   76.6250   -42.6790     2.1370    67.8260     8.1330     6.1640     5.3170    24.0430 
   76.7500   -42.6320     2.1310    69.4910     8.1690     6.0800     5.2260    23.7250 
   76.8750   -42.5800     2.1330    73.0210     8.3130     6.1070     5.1600    23.2420 
   77.0000   -42.5100     2.1430    74.7280     8.3700     6.1490     5.1980    22.7760 
   77.1250   -42.3780     2.1600    73.9010     8.0830     6.0750     5.2950    22.6410 
   77.2500   -42.1620     2.1790    77.6950     7.5150     5.8660     5.3510    22.9050 
   77.3750   -41.8790     2.2020    85.6810     6.9220     5.6000     5.3820    23.5000 
   77.5000   -41.5600     2.2370    91.0590     6.6130     5.4100     5.3940    24.2020 
   77.6250   -41.2820     2.2890    90.1760     6.8820     5.4510     5.5250    24.6420 
   77.7500   -41.0950     2.3390    88.1260     7.6400     5.7310     5.7270    24.7450 
   77.8750   -41.0380     2.3610    85.9460     8.6820     6.2060     5.9950    24.5760 
   78.0000   -41.1280     2.3430    80.2360     9.6600     6.7510     6.2860    24.2170 
   78.1250   -41.3830     2.2880    72.3870    10.1310     7.1220     6.4780    23.7920 
   78.2500   -41.7210     2.2290    67.7090    10.0880     7.2050     6.3910    23.4870 
   78.3750   -42.0690     2.1840    68.0810     9.7490     7.0480     5.9450    23.3860 
   78.5000   -42.3600     2.1580    70.5270     9.4060     6.8090     5.6340    23.4080 
   78.6250   -42.5120     2.1500    69.8700     9.2840     6.6560     5.6090    23.4270 
   78.7500   -42.5320     2.1490    66.8940     9.3460     6.6400     5.6710    23.4430 
   78.8750   -42.4340     2.1530    65.4790     9.5050     6.7620     5.8060    23.4850 
   79.0000   -42.2490     2.1670    68.3980     9.6880     6.9680     5.9230    23.5610 
   79.1250   -42.0050     2.1950    71.9210     9.8340     7.1470     6.0800    23.6700 
   79.2500   -41.7520     2.2250    71.2120     9.8890     7.2530     6.1960    23.7940 
   79.3750   -41.5160     2.2400    68.9560     9.8120     7.2920     6.2510    23.9110 
   79.5000   -41.3210     2.2310    69.6590     9.6040     7.2830     6.2350    23.9980 
   79.6250   -41.2000     2.2010    72.6500     9.3000     7.2420     6.1090    23.9730 
   79.7500   -41.1320     2.1690    73.1720     8.9620     7.2000     5.9470    23.7570 
   79.8750   -41.1060     2.1530    72.0470     8.5900     7.1370     5.7480    23.4280 
   80.0000   -41.1170     2.1640    72.0870     8.1510     6.9620     5.6040    23.2380 
   80.1250   -41.1700     2.2030    72.8250     7.6310     6.5980     5.4610    23.4750 
   80.2500   -41.2560     2.2430    74.8840     7.1200     6.1500     5.3340    24.0080 
   80.3750   -41.3660     2.2630    79.3080     6.7420     5.7330     5.2300    24.6160 
   80.5000   -41.5010     2.2550    83.8290     6.6150     5.4600     5.1090    25.0290 
   80.6250   -41.6830     2.2260    83.0710     6.8660     5.4410     5.0730    24.7740 
   80.7500   -41.9370     2.1970    78.7410     7.4260     5.6320     5.1060    23.9870 
   80.8750   -42.2610     2.1790    74.6430     8.2030     5.9690     5.2510    23.1690 
   81.0000   -42.6250     2.1750    72.9420     9.0660     6.3690     5.4310    22.7470 
   81.1250   -42.9980     2.1820    73.7140     9.8490     6.7470     5.6760    22.7560 
   81.2500   -43.3540     2.1910    73.6290    10.4650     7.0690     5.9030    22.8790 
   81.3750   -43.6770     2.1970    70.9110    10.8860     7.3550     6.1170    23.0340 
   81.5000   -43.9500     2.1960    67.2240    11.0990     7.6260     6.3660    23.1580 
   81.6250   -44.1450     2.1850    65.1560    11.0540     7.8220     6.5330    23.1860 
   81.7500   -44.2720     2.1720    64.5150    10.7860     7.8310     6.6320    23.1690 
   81.8750   -44.3590     2.1610    64.5410    10.3470     7.5960     6.4980    23.1520 
   82.0000   -44.4300     2.1540    66.7070     9.8460     7.1880     6.1530    23.1320 
   82.1250   -44.4850     2.1500    70.2780     9.4470     6.7890     5.9180    23.1040 
   82.2500   -44.5160     2.1450    71.2770     9.2440     6.5500     5.7670    23.0800 
   82.3750   -44.5320     2.1410    69.2460     9.2590     6.5230     5.7320    23.0710 
   82.5000   -44.5570     2.1390    67.8770     9.4440     6.6850     5.7340    23.0710 
   82.6250   -44.6080     2.1430    69.5330     9.7140     6.9320     5.8330    23.0480 
   82.7500   -44.6780     2.1480    69.4420     9.9520     7.0990     5.9170    22.9930 
   82.8750   -44.7530     2.1500    66.5370    10.0990     7.1210     5.9750    22.9200 
   83.0000   -44.8330     2.1460    64.6990    10.1460     7.0360     5.9940    22.8490 
   83.1250   -44.9200     2.1370    66.6880    10.1140     6.9500     5.9670    22.7640 
   83.2500   -44.9970     2.1290    68.0230    10.0610     6.9270     5.9650    22.6370 
   83.3750   -45.0460     2.1230    66.3550    10.0180     6.9490     5.9490    22.4870 
   83.5000   -45.0490     2.1200    64.4570     9.9880     6.9900     5.9960    22.3620 
   83.6250   -44.9850     2.1200    63.3250     9.9560     7.0530     6.0390    22.3070 
   83.7500   -44.8670     2.1210    60.7180     9.8970     7.1370     6.0890    22.3010 
   83.8750   -44.7010     2.1220    56.4820     9.8110     7.2190     6.1470    22.3170 
   84.0000   -44.4970     2.1220    53.9510     9.7140     7.2680     6.1390    22.3370 
   84.1250   -44.2660     2.1200    55.7900     9.6360     7.2620     6.1080    22.3870 
   84.2500   -44.0470     2.1210    59.1660     9.5910     7.2260     6.0170    22.4980 
   84.3750   -43.8580     2.1260    62.1450     9.5830     7.1530     6.0020    22.6450 
   84.5000   -43.7010     2.1360    63.3250     9.6180     7.0130     6.0160    22.7780 
   84.6250   -43.5500     2.1480    62.6420     9.7110     6.8320     6.0860    22.8950 
   84.7500   -43.3710     2.1570    62.2380     9.8650     6.7570     6.1610    23.0250 
   84.8750   -43.1350     2.1630    62.8410    10.0610     6.8870     6.2020    23.1490 
   85.0000   -42.8240     2.1730    62.8470    10.2250     7.1640     6.2700    23.2180 
   85.1250   -42.4240     2.1930    61.3010    10.2230     7.3670     6.2550    23.2270 
   85.2500   -41.9450     2.2140    61.1190    10.0020     7.3440     6.2550    23.2260 
   85.3750   -41.4180     2.2250    63.7140     9.5810     7.0960     6.2120    23.2280 
