~V
VERS. 2.00: Ver 2.00
~W
STRT.M 49.0000:
STOP.M 245.0000:
STEP.M 0.1250:
NULL. -999.2500:
UWI. F10179:
~C
DEPT.M :
DEN.GM/CC :
GR.API :
RML.OHMM :
RI. :
RXO.OHMM :
CALI.CM :
SP.MV :
~A
   49.0000  -999.2500  -999.2500  -999.2500  -999.2500  -999.2500  -999.2500    51.6890 
   49.1250  -999.2500  -999.2500  -999.2500  -999.2500  -999.2500  -999.2500    51.1120 
   49.2500  -999.2500  -999.2500  -999.2500  -999.2500  -999.2500  -999.2500    50.5530 
   49.3750  -999.2500  -999.2500  -999.2500  -999.2500  -999.2500  -999.2500    50.0240 
   49.5000  -999.2500  -999.2500  -999.2500  -999.2500  -999.2500  -999.2500    49.5570 
   49.6250  -999.2500  -999.2500  -999.2500  -999.2500  -999.2500  -999.2500    49.1670 
   49.7500  -999.2500  -999.2500  -999.2500  -999.2500  -999.2500  -999.2500    48.9150 
   49.8750  -999.2500    41.1120     5.0730     0.3630     1.0340    24.1690    48.8210 
   50.0000  -999.2500    41.1120     5.0730     0.3630     1.0340    24.1690    48.8890 
   50.1250  -999.2500    42.1710     5.0670     0.3710     1.1590    24.0000    49.1220 
   50.2500  -999.2500    44.9190     5.0680     0.3890     1.2080    23.7070    49.4920 
   50.3750  -999.2500    48.2070     5.1050     0.4020     1.0340    23.4860    50.0290 
   50.5000  -999.2500    47.4940     5.1650     0.3990     0.9250    23.4150    50.6960 
   50.6250  -999.2500    45.3420     5.1870     0.3840     0.8740    23.4160    51.4560 
   50.7500  -999.2500    47.2600     5.0960     0.3660     0.8290    23.4300    52.1930 
   50.8750  -999.2500    52.2910     4.8500     0.3600     0.8020    23.4530    52.8230 
   51.0000  -999.2500    54.1900     4.5320     0.3680     0.7660    23.5170    53.3340 
   51.1250  -999.2500    52.1630     4.2260     0.3820     0.7610    23.6830    53.7570 
   51.2500  -999.2500    48.3940     3.9730     0.3890     0.8160    24.0270    54.1320 
   51.3750  -999.2500    44.5730     3.7770     0.3790     0.9550    24.5180    54.4680 
   51.5000  -999.2500    43.7020     3.6100     0.3590     1.0770    24.9250    54.7500 
   51.6250  -999.2500    46.5870     3.4790     0.3400     1.0660    25.1270    54.9810 
   51.7500  -999.2500    48.8830     3.3950     0.3300     0.9400    25.1800    55.2220 
   51.8750  -999.2500    48.2810     3.3400     0.3320     0.8130    25.1800    55.5100 
   52.0000  -999.2500    46.2100     3.2780     0.3360     0.7490    25.1750    55.8130 
   52.1250  -999.2500    44.9720     3.2020     0.3320     0.7440    25.1690    56.0970 
   52.2500  -999.2500    46.4000     3.1350     0.3220     0.7790    25.1630    56.2870 
   52.3750  -999.2500    50.3320     3.1420     0.3180     0.8120    25.1640    56.3020 
   52.5000  -999.2500    52.7490     3.2260     0.3280     0.7980    25.1500    56.1610 
   52.6250  -999.2500    52.2780     3.3350     0.3490     0.7180    25.1190    55.8740 
   52.7500     1.9340    51.0370     3.3920     0.3730     0.6010    25.0920    55.4610 
   52.8750     1.9340    51.1820     3.3460     0.3870     0.5070    25.1130    54.9610 
   53.0000     1.9340    51.7380     3.2450     0.3870     0.4600    25.1710    54.4280 
   53.1250     1.9310    52.4620     3.1350     0.3740     0.4620    25.2250    53.9230 
   53.2500     1.9280    52.1640     3.0490     0.3580     0.5390    25.2510    53.4990 
   53.3750     1.9290    51.2590     2.9980     0.3530     0.7320    25.2590    53.1890 
   53.5000     1.9330    52.8230     2.9670     0.3630     0.9110    25.2630    53.0040 
   53.6250     1.9360    54.8980     2.9420     0.3850     0.9720    25.2740    52.9190 
   53.7500     1.9380    54.3620     2.9060     0.4080     0.9230    25.2840    52.9050 
   53.8750     1.9430    51.7220     2.8290     0.4180     0.8040    25.3000    52.9070 
   54.0000     1.9510    52.1000     2.7100     0.4140     0.7110    25.2940    52.8880 
   54.1250     1.9550    54.2490     2.5750     0.4060     0.6540    25.2790    52.7910 
   54.2500     1.9490    54.5930     2.4660     0.4070     0.5910    25.2620    52.6150 
   54.3750     1.9380    53.9330     2.4110     0.4190     0.5180    25.2550    52.3740 
   54.5000     1.9320    53.9970     2.3850     0.4310     0.4670    25.2540    52.0980 
   54.6250     1.9320    53.4140     2.3660     0.4330     0.4600    25.2540    51.8410 
   54.7500     1.9400    50.8520     2.3260     0.4230     0.5000    25.2540    51.6180 
   54.8750     1.9540    48.6460     2.2270     0.4060     0.5400    25.2540    51.4430 
   55.0000     1.9680    49.5730     2.0880     0.3960     0.5210    25.2560    51.3080 
   55.1250     1.9820    51.7370     1.9470     0.3980     0.5020    25.2610    51.2190 
   55.2500     1.9990    52.2570     1.8290     0.4060     0.5030    25.2670    51.1940 
   55.3750     2.0220    49.2860     1.7380     0.4090     0.5100    25.2680    51.2790 
   55.5000     2.0500    45.2720     1.6440     0.4010     0.4880    25.2680    51.3820 
   55.6250     2.0810    41.8590     1.5320     0.3860     0.4690    25.2460    51.4300 
   55.7500     2.1070    40.0190     1.4120     0.3710     0.4580    25.1750    51.3630 
   55.8750     2.1140    39.3910     1.3160     0.3670     0.4370    24.9990    51.1290 
   56.0000     2.0970    40.7270     1.2480     0.3780     0.4310    24.7840    50.7790 
   56.1250     2.0660    45.0670     1.1930     0.3960     0.4550    24.5710    50.3370 
   56.2500     2.0390    49.6300     1.1370     0.4090     0.4870    24.4030    49.7370 
   56.3750     2.0290    49.3840     1.0800     0.4070     0.4610    24.2580    48.8800 
   56.5000     2.0300    47.5830     1.0320     0.3970     0.4310    24.1480    47.8710 
   56.6250     2.0340    48.6700     1.0050     0.3860     0.4190    24.1010    46.6920 
   56.7500     2.0420    51.0640     1.0070     0.3840     0.4470    24.1590    45.3400 
   56.8750     2.0560    51.4960     1.0490     0.3960     0.5230    24.1200    43.7980 
   57.0000     2.0730    50.9070     1.1180     0.4100     0.6290    23.8920    42.0000 
   57.1250     2.0950    48.9970     1.1430     0.4040     0.7330    23.5240    39.9270 
   57.2500     2.1230    46.9100     0.9810     0.3640     0.7950    23.1410    37.5370 
   57.3750     2.1660    48.0140     0.5420     0.2910     0.8230    22.8860    34.6310 
   57.5000     2.2260    49.7090     0.0960     0.2130     0.8490    22.9440    31.1700 
   57.6250     2.3020    47.5220    -0.1910     0.1520     0.8760    23.2510    27.0130 
   57.7500     2.3930    42.9790    -0.3160     0.1210     0.9220    23.6920    22.0740 
   57.8750     2.4800    42.1840    -0.2940     0.1320     1.0190    24.1140    16.0490 
   58.0000     2.4920    43.2260    -0.1260     0.2010     1.3980    25.0170     9.0850 
   58.1250     2.3910    43.5050     0.2700     0.3710     2.5590    27.3390     1.3460 
   58.2500     2.2340    43.5370     1.0150     0.7210     4.3540    31.2530    -6.7370 
   58.3750     2.1110    44.5840     2.2320     1.4060     6.3560    35.4710   -14.6400 
   58.5000     2.0510    47.4670     3.6020     2.3960     7.7950    38.0560   -22.0460 
   58.6250     2.0290    51.1650     4.6280     3.4960     8.5320    38.9980   -28.6550 
   58.7500     2.0120    53.7700     5.0190     4.4170     8.6100    39.1800   -34.3090 
   58.8750     1.9810    52.8670     5.0010     4.9880     8.4230    39.2530   -38.5640 
   59.0000     1.9550    51.3700     5.0090     5.3560     8.1630    39.3480   -41.5060 
   59.1250     1.9560    52.3030     5.1320     5.6180     7.6140    39.3580   -43.2540 
   59.2500     1.9980    55.5630     5.3080     5.8070     6.6780    38.8890   -44.1140 
   59.3750     2.0770    60.8610     5.4260     5.8930     5.3970    36.7280   -44.3870 
   59.5000     2.1620    66.3120     5.4240     5.8550     4.3380    32.7780   -44.3830 
   59.6250     2.2360    72.1790     5.2910     5.6760     3.9950    28.8410   -44.2190 
   59.7500     2.2910    78.6020     5.0650     5.3740     4.1340    26.2500   -43.9640 
   59.8750     2.3210    85.6960     4.8170     5.0050     4.3620    25.0600   -43.6640 
   60.0000     2.3310    92.9890     4.6170     4.6680     4.4170    24.4320   -43.4250 
   60.1250     2.3260    97.9940     4.5060     4.4380     4.5030    24.0360   -43.3050 
