~V
VERS. 2.00: Ver 2.00
~W
STRT.M 50.0000:
STOP.M 268.0000:
STEP.M 0.1250:
NULL. -999.2500:
UWI. F10199:
~C
DEPT.M :
GR.API :
RML.OHMM :
RI. :
RXO.OHMM :
CALI.CM :
DEN.GM/CC :
SP.MV :
~A
   50.0000    38.5220     2.3280     0.3970     1.7690    25.5590  -999.2500  -999.2500 
   50.1250    36.6320     2.2510     0.4010     1.7920    25.5640  -999.2500  -999.2500 
   50.2500    33.9040     2.1970     0.4020     1.8120    25.5560  -999.2500  -999.2500 
   50.3750    33.9020     2.1600     0.4020     1.8320    25.5390  -999.2500    61.7670 
   50.5000    36.6530     2.1250     0.4030     1.8570    25.5230  -999.2500    61.7670 
   50.6250    38.0040     2.0720     0.4080     1.8900    25.5200  -999.2500    61.5540 
   50.7500    37.8190     2.0030     0.4160     1.9270    25.5260  -999.2500    61.1940 
   50.8750    38.4610     1.9290     0.4250     1.9420    25.5320  -999.2500    60.7240 
   51.0000    38.9030     1.8670     0.4310     1.9250    25.5270  -999.2500    60.2600 
   51.1250    36.9770     1.8290     0.4320     1.8910    25.5070  -999.2500    59.7790 
   51.2500    34.8040     1.8060     0.4300     1.8710    25.4800  -999.2500    59.2860 
   51.3750    35.1710     1.7910     0.4270     1.8920    25.4490  -999.2500    58.8940 
   51.5000    38.3720     1.7770     0.4260     1.9780    25.4210  -999.2500    58.5940 
   51.6250    40.8360     1.7650     0.4240     2.1400    25.4070  -999.2500    58.3200 
   51.7500    40.1590     1.7540     0.4220     2.2890    25.4050  -999.2500    58.1270 
   51.8750    37.9840     1.7460     0.4190     2.3920    25.4100  -999.2500    57.8730 
   52.0000    37.7970     1.7430     0.4160     2.4630    25.4230  -999.2500    57.4580 
   52.1250    39.5330     1.7600     0.4130     2.5270    25.4400  -999.2500    56.9290 
   52.2500    38.5610     1.8020     0.4100     2.6090    25.4510  -999.2500    56.2470 
   52.3750    35.7050     1.8660     0.4070     2.6970    25.4490  -999.2500    55.2900 
   52.5000    33.8980     1.9360     0.4020     2.7820    25.4350  -999.2500    54.0590 
   52.6250    33.4460     1.9780     0.3970     2.8620    25.4200  -999.2500    52.5950 
   52.7500    32.8720     1.9770     0.3910     2.9380    25.4160  -999.2500    50.9280 
   52.8750    33.7750     1.9330     0.3870     3.0170    25.4240  -999.2500    49.1820 
   53.0000    37.5700     1.8630     0.3830     3.0900    25.4320  -999.2500    47.5040 
   53.1250    40.9140     1.7890     0.3820     3.1420    25.4210     2.0930    45.9410 
   53.2500    40.7760     1.7220     0.3840     3.1560    25.3900     2.0930    44.5620 
   53.3750    39.4600     1.6680     0.3900     3.0820    25.3470     2.0980    43.4840 
   53.5000    38.7870     1.6260     0.4000     2.8670    25.3010     2.1070    42.8040 
   53.6250    38.1090     1.5960     0.4100     2.4930    25.2640     2.1160    42.5050 
   53.7500    36.8210     1.5680     0.4190     2.0030    25.2460     2.1230    42.3310 
   53.8750    36.5390     1.5380     0.4270     1.5570    25.2500     2.1260    42.0610 
   54.0000    38.4040     1.4980     0.4320     1.3620    25.2770     2.1260    41.5220 
   54.1250    40.4500     1.4470     0.4380     1.4030    25.3360     2.1210    40.7820 
   54.2500    40.4820     1.3900     0.4430     1.5050    25.4050     2.1150    39.9380 
   54.3750    38.4980     1.3330     0.4490     1.5780    25.4580     2.1090    38.9660 
   54.5000    36.6380     1.2820     0.4530     1.5150    25.4790     2.1030    37.8720 
   54.6250    36.9100     1.2470     0.4540     1.3330    25.4720     2.1000    36.7060 
   54.7500    37.7230     1.2290     0.4540     1.2360    25.4600     2.0980    35.6510 
   54.8750    38.5430     1.2260     0.4520     1.2410    25.4640     2.0960    34.8970 
   55.0000    39.7140     1.2310     0.4510     1.2740    25.5000     2.0940    34.5090 
   55.1250    39.4200     1.2290     0.4510     1.3170    25.5830     2.0910    34.3870 
   55.2500    37.8200     1.2130     0.4530     1.3580    25.6960     2.0870    34.4080 
   55.3750    38.0770     1.1860     0.4560     1.4040    25.8250     2.0830    34.5990 
   55.5000    40.7250     1.1580     0.4590     1.4780    25.9580     2.0820    34.9490 
   55.6250    42.6520     1.1440     0.4620     1.6440    26.0720     2.0840    35.4280 
   55.7500    41.8400     1.1450     0.4660     1.9710    26.1510     2.0860    35.9370 
   55.8750    40.7820     1.1590     0.4690     2.5060    26.1810     2.0880    36.2360 
   56.0000    40.3090     1.1810     0.4710     3.2380    26.1550     2.0880    36.1510 
   56.1250    40.9610     1.2050     0.4700     3.6540    26.0900     2.0880    35.6220 
   56.2500    42.4000     1.2190     0.4630     3.6940    26.0210     2.0890    34.7380 
   56.3750    42.0810     1.2020     0.4480     3.0570    25.9600     2.0890    33.5430 
   56.5000    40.3470     1.1270     0.4220     1.3540    25.9060     2.0890    31.9580 
   56.6250    40.2670     0.9610     0.3780     0.9510    25.8510     2.0920    29.8660 
   56.7500    42.6450     0.7260     0.3200     0.7200    25.7850     2.1090    27.4020 
   56.8750    43.2060     0.4670     0.2550     0.5430    25.7040     2.1530    24.7310 
   57.0000    40.2540     0.2400     0.1970     0.3530    25.5900     2.2330    21.8510 
   57.1250    38.9010     0.1050     0.1650     0.2820    25.4300     2.3480    18.4390 
   57.2500    40.5090     0.0690     0.1700     0.3490    25.2510     2.4600    14.3550 
   57.3750    42.7420     0.1400     0.2280     0.5620    25.0940     2.5130     9.5950 
   57.5000    44.0930     0.3380     0.3670     1.2740    24.9770     2.4760     4.3330 
   57.6250    46.4730     0.7210     0.6530     2.3530    24.8830     2.3760    -1.0890 
   57.7500    49.6100     1.2810     1.1130     3.8280    24.7760     2.2730    -6.4210 
   57.8750    52.0810     1.9940     1.7660     5.6160    24.6440     2.1950   -11.5190 
   58.0000    55.5080     2.7830     2.5840     6.4730    24.5080     2.1560   -16.1860 
   58.1250    58.8310     3.4810     3.4720     7.2500    24.4310     2.1590   -20.0450 
   58.2500    58.0950     3.9560     4.2660     7.7940    24.4120     2.1820   -22.9770 
   58.3750    54.3720     4.1770     4.8640     7.9960    24.4140     2.2050   -25.0200 
   58.5000    53.7290     4.2080     5.2380     8.0700    24.4130     2.2190   -26.2760 
   58.6250    58.1260     4.1350     5.3910     7.9870    24.4010     2.2220   -26.9160 
   58.7500    60.3260     4.0310     5.4060     7.7710    24.3960     2.2180   -27.2250 
   58.8750    58.2470     3.9210     5.3310     7.5600    24.4010     2.2110   -27.2720 
   59.0000    55.4730     3.8360     5.2310     7.4200    24.4160     2.2070   -27.0020 
   59.1250    57.1030     3.8540     5.2170     7.3440    24.4500     2.2130   -26.3270 
   59.2500    62.1350     4.0350     5.3670     7.4310    24.4960     2.2360   -25.4240 
   59.3750    67.2640     4.3920     5.6960     8.0610    24.5620     2.2830   -24.3150 
   59.5000    68.9230     4.8640     6.1370     9.9940    24.6510     2.3490   -23.1020 
   59.6250    69.5950     5.2990     6.5320    12.3970    24.7460     2.4150   -21.9420 
   59.7500    73.2420     5.5380     6.7200    14.7810    24.8290     2.4510   -20.8560 
   59.8750    77.9760     5.5000     6.6240    16.0640    24.8840     2.4420   -19.9390 
   60.0000    80.5500     5.2240     6.2850    12.4380    24.9100     2.3960   -19.2750 
   60.1250    83.5310     4.8840     5.8670     7.7580    24.9160     2.3390   -18.9730 
   60.2500    87.6370     4.6650     5.5620     6.3960    24.9050     2.2980   -18.8990 
   60.3750    89.5320     4.6190     5.4410     6.2800    24.8820     2.2810   -19.0600 
   60.5000    88.4170     4.7120     5.4880     6.4070    24.8430     2.2850   -19.3910 
   60.6250    87.4150     4.8660     5.6370     6.6150    24.7840     2.3000   -19.7370 
   60.7500    86.1110     4.9940     5.7820     6.7770    24.7370     2.3120   -20.0740 
   60.8750    84.7010     5.0680     5.8790     6.7710    24.7190     2.3140   -20.3570 
   61.0000    85.0560     5.0900     5.9170     6.5440    24.7200     2.3040   -20.5990 
   61.1250    86.6660     5.0680     5.8970     6.3920    24.7250     2.2870   -20.6820 
