~V
VERS. 2.00: Ver 2.00
~W
STRT.M 58.0000:
STOP.M 228.0000:
STEP.M 0.1250:
NULL. -999.2500:
UWI. F10151:
~C
DEPT.M :
SP.MV :
GR.API :
RML.OHMM :
RI. :
RXO.OHMM :
CALI.CM :
DEN.GM/CC :
~A
# ...
   69.2500   -12.6470    93.1370     8.5910     7.0750     7.2650    24.3210     2.2830 
   69.3750   -11.8650    94.5960     8.3880     6.8290     6.5780    24.4100     2.2980 
   69.5000   -11.1050    98.0760     8.2960     6.6660     6.2570    24.4650     2.3040 
   69.6250   -10.4150    98.6710     8.2270     6.5610     6.5360    24.3970     2.2990 
   69.7500    -9.8360    98.8630     8.0690     6.4220     7.3280    24.1970     2.2920 
   69.8750    -9.4360    99.2240     7.7800     6.1860     7.5570    23.9510     2.2950 
   70.0000    -9.3170   100.2350     7.4230     5.8770     6.8710    23.7520     2.3130 
   70.1250    -9.6830   103.6390     7.1870     5.6280     5.8190    23.6230     2.3410 
   70.2500   -10.5540   108.8170     7.2510     5.5730     5.4170    23.4770     2.3580 
   70.3750   -11.9110   110.3690     7.7210     5.7980     5.8070    23.3550     2.3540 
   70.5000   -13.7200   100.8140     8.5830     6.3350     7.0920    23.4060     2.3250 
   70.6250   -15.9280    82.0460     9.6840     7.1500     9.5610    23.8910     2.2820 
   70.7500   -18.3790    67.0920    10.6900     8.0080    11.3390    24.5320     2.2450 
   70.8750   -20.9700    62.4390    11.3560     8.6890    12.2950    25.1750     2.2220 
   71.0000   -23.5250    65.2440    11.5670     9.0410    13.0100    25.5760     2.2130 
   71.1250   -25.7510    67.5410    11.3340     9.0020    13.4550    25.6640     2.2120 
   71.2500   -27.4890    67.4780    10.9180     8.7610    13.3740    25.6430     2.2080 
   71.3750   -28.6650    68.4430    10.4840     8.4460    13.0660    25.6130     2.2010 
   71.5000   -29.3440    69.6720    10.1250     8.1300    12.4930    25.5690     2.1890 
   71.6250   -29.6860    69.9880     9.8840     7.8540    11.6260    25.4810     2.1760 
   71.7500   -29.9440    71.7090     9.7350     7.6370    11.3030    25.4080     2.1650 
   71.8750   -30.2160    75.6270     9.6750     7.5000    11.3180    25.3970     2.1590 
   72.0000   -30.5490    78.6580     9.7030     7.4580    11.3650    25.3790     2.1570 
   72.1250   -31.0030    77.3950     9.8270     7.5260    11.4400    25.2840     2.1620 
   72.2500   -31.5360    73.5440    10.0080     7.6640    11.7950    25.2230     2.1690 
   72.3750   -32.0890    69.5150    10.2160     7.8340    12.4350    25.2090     2.1780 
   72.5000   -32.5230    68.2520    10.4180     8.0130    12.9560    25.1430     2.1870 
   72.6250   -32.5900    69.9710    10.5680     8.1880    13.1640    25.0660     2.1940 
   72.7500   -32.1800    70.6520    10.6190     8.3190    12.9220    25.0530     2.1990 
   72.8750   -31.2030    70.6290    10.5090     8.3380    12.7040    25.1230     2.1980 
   73.0000   -29.5810    73.8740    10.1870     8.1700    12.7930    25.1080     2.1920 
   73.1250   -27.2200    80.4690     9.6170     7.7480    12.6480    24.9890     2.1900 
   73.2500   -24.4160    86.8980     8.9190     7.1770    10.8390    24.9460     2.2040 
   73.3750   -21.4490    94.7810     8.2280     6.5950     8.5800    24.9410     2.2400 
   73.5000   -18.5710   105.5870     7.6910     6.1390     7.1920    24.8410     2.2910 
   73.6250   -16.0220   110.8000     7.4550     5.9280     6.5990    24.7750     2.3330 
   73.7500   -13.8450   106.2050     7.4760     5.9250     6.5230    24.8320     2.3470 
   73.8750   -12.0330    98.4760     7.6460     6.0690     7.0480    25.0050     2.3290 
   74.0000   -10.5670    97.0500     7.8110     6.2450     8.1340    25.2180     2.2930 
   74.1250    -9.5030   103.7960     7.8050     6.3010     7.8610    25.1240     2.2670 
   74.2500    -8.7470   110.8170     7.6420     6.2080     6.8420    24.9710     2.2650 
   74.3750    -8.1970   116.6840     7.4260     6.0370     6.1350    24.8540     2.2820 
   74.5000    -7.7730   121.4000     7.2940     5.8970     5.6160    24.7730     2.3030 
   74.6250    -7.4520   122.9280     7.3570     5.8910     5.5770    24.7010     2.3120 
   74.7500    -7.1900   120.2960     7.5360     5.9930     6.0250    24.5670     2.3090 
   74.8750    -7.0330   114.2290     7.6970     6.1150     6.6620    24.3790     2.3030 
   75.0000    -7.0490   108.4430     7.7110     6.1420     7.1250    24.1120     2.3040 
   75.1250    -7.4120   106.4740     7.5210     6.0040     6.9110    23.9790     2.3170 
   75.2500    -8.1570   107.7420     7.2770     5.8050     6.1230    23.9640     2.3350 
   75.3750    -9.3300   108.2800     7.1480     5.6660     5.5630    23.8800     2.3500 
   75.5000   -10.9770   103.9260     7.2640     5.6810     5.4280    23.7430     2.3540 
   75.6250   -13.1500    96.4900     7.6940     5.9310     6.7560    23.5230     2.3400 
   75.7500   -15.6680    90.3860     8.2810     6.3600     9.7040    23.4640     2.3130 
   75.8750   -18.3650    85.5970     8.8560     6.8800    11.7500    23.6180     2.2800 
   76.0000   -21.0840    80.1030     9.2660     7.3570    12.0730    24.0120     2.2430 
   76.1250   -23.5110    74.2250     9.4130     7.6450    11.7830    24.4370     2.2140 
   76.2500   -25.3810    71.6850     9.4220     7.7680    12.1470    24.6680     2.1990 
   76.3750   -26.4960    73.6050     9.4440     7.8250    12.0290    24.7050     2.2010 
   76.5000   -26.7810    76.8140     9.6120     7.9250    10.8670    24.5470     2.2150 
   76.6250   -26.1080    76.3570     9.9690     8.1260    10.3510    24.3860     2.2250 
   76.7500   -24.6950    74.1140    10.3240     8.3250    10.7590    24.2070     2.2160 
   76.8750   -22.6670    72.3350    10.4240     8.3480    11.5010    24.1400     2.1910 
   77.0000   -20.1740    73.2930    10.0440     8.0140    11.3860    24.2970     2.1660 
   77.1250   -17.3920    81.1570     9.0880     7.2220     9.7280    24.4980     2.1600 
   77.2500   -14.6780    94.9780     7.9340     6.2750     7.4390    24.6500     2.1750 
   77.3750   -12.2620   107.6020     6.9920     5.4820     5.7810    24.7350     2.2020 
   77.5000   -10.2210   111.4620     6.6090     5.0620     4.8990    24.7750     2.2360 
   77.6250    -8.6970   104.1300     7.0590     5.1810     4.9880    24.7350     2.2830 
   77.7500    -7.7370    94.1040     8.0840     5.7450     7.0150    24.6480     2.3410 
   77.8750    -7.4600    87.3320     9.3210     6.6170    12.3830    24.4940     2.3970 
   78.0000    -7.9330    84.4460    10.3000     7.5010    16.4010    24.2890     2.4290 
   78.1250    -9.2180    82.2450    10.5580     7.9410    12.3120    24.0910     2.4140 
   78.2500   -11.0060    81.4020    10.2770     7.9270     9.6640    24.0860     2.3660 
   78.3750   -13.1160    82.3530     9.8760     7.7460     8.9940    24.2010     2.3060 
   78.5000   -15.3930    81.6000     9.8240     7.7440     9.3810    24.3730     2.2530 
   78.6250   -17.6390    75.4690    10.4690     8.2120    10.6210    24.4990     2.2200 
   78.7500   -19.7830    68.6850    11.5460     9.0620    13.6840    24.4410     2.2020 
   78.8750   -21.7770    65.5870    12.6320    10.0390    22.2930    24.3770     2.1960 
   79.0000   -23.6090    65.2650    13.2630    10.7440    35.4840    24.4230     2.2010 
   79.1250   -25.2360    65.8560    13.0430    10.7430    28.5270    24.1470     2.2080 
   79.2500   -26.6490    65.6660    12.2120    10.1860    17.1530    23.9430     2.2060 
   79.3750   -27.7690    65.1950    11.1090     9.3600    13.2410    23.9200     2.1940 
   79.5000   -28.5620    65.6130    10.0790     8.5460    12.4370    24.0240     2.1770 
   79.6250   -29.0930    65.9010     9.4120     7.9600    12.2020    24.2180     2.1630 
   79.7500   -29.4660    67.4530     9.1250     7.6370    11.5820    24.4050     2.1570 
   79.8750   -29.7290    71.0750     9.1880     7.5710    10.6050    24.6260     2.1610 
   80.0000   -29.8570    75.0750     9.5280     7.7220    10.1340    24.7410     2.1700 
   80.1250   -29.7640    75.4740    10.0260     8.0270    11.0910    24.7750     2.1730 
   80.2500   -29.3320    72.7870    10.4500     8.3230    12.0000    24.8200     2.1650 
   80.3750   -28.4810    69.7870    10.5910     8.4330    12.3960    24.9510     2.1520 
