~V
VERS. 2.00: Ver 2.00
~W
STRT.M 55.0000:
STOP.M 224.0000:
STEP.M 0.1250:
NULL. -999.2500:
UWI. F10137:
~C
DEPT.M :
DEN.GM/CC :
SP.MV :
GR.API :
RML.OHMM :
RI. :
RXO.OHMM :
CALI.CM :
~A
# ...
   77.5000     2.0850   -27.7140    51.5410     9.1540     8.1400     9.7310    24.7900 
   77.6250     2.0700   -27.3800    52.6860     9.1470     8.1710     9.1840    24.7810 
   77.7500     2.0630   -27.0590    56.8430     9.2100     8.2890     8.8650    24.6980 
   77.8750     2.0660   -26.7470    60.3400     9.3410     8.4750     8.5390    24.5990 
   78.0000     2.0730   -26.4390    60.2830     9.4970     8.6780     8.2330    24.5530 
   78.1250     2.0800   -26.1230    57.8380     9.5710     8.8010     8.1200    24.6080 
   78.2500     2.0880   -25.7740    56.4280     9.4210     8.7200     8.3330    24.7780 
   78.3750     2.1030   -25.3690    59.0160     8.9100     8.3090     8.7670    25.0670 
   78.5000     2.1280   -24.9170    65.1560     8.0850     7.6040     8.6470    25.4780 
   78.6250     2.1640   -24.4500    73.2630     7.1350     6.7600     7.3460    26.0140 
   78.7500     2.2030   -24.0060    81.7690     6.2560     5.9390     5.7830    26.5700 
   78.8750     2.2370   -23.6140    87.5240     5.6100     5.2800     4.9570    26.9630 
   79.0000     2.2630   -23.2890    89.2020     5.2140     4.8220     4.7070    27.1450 
   79.1250     2.2890   -23.0420    89.1800     4.9910     4.5290     4.6330    27.2020 
   79.2500     2.3130   -22.9130    89.7680     4.8600     4.3530     4.5930    27.2230 
   79.3750     2.3300   -22.9610    89.4630     4.8140     4.2870     4.6130    27.2370 
   79.5000     2.3330   -23.1770    86.1760     4.9570     4.3850     4.7210    27.2290 
   79.6250     2.3290   -23.5160    80.8370     5.4730     4.7580     4.9370    27.1650 
   79.7500     2.3270   -23.9490    75.1570     6.5470     5.5320     5.5960    26.9960 
   79.8750     2.3370   -24.4640    69.4290     8.3150     6.8460     8.4470    26.6720 
   80.0000     2.3560   -25.0490    63.3940    10.5270     8.5920    15.5530    26.2390 
   80.1250     2.3640   -25.6780    58.0710    12.5260    10.3460    21.1520    25.8000 
   80.2500     2.3340   -26.3170    55.1150    13.5330    11.5020    17.8070    25.4200 
   80.3750     2.2580   -26.9170    54.5790    13.0890    11.5780    12.0040    25.1830 
   80.5000     2.1700   -27.4540    55.1850    11.7430    10.8530     9.5330    25.1000 
   80.6250     2.1080   -27.9100    56.3330    10.3710     9.9400     9.1470    25.0920 
   80.7500     2.0840   -28.2690    58.1770     9.4640     9.2450     9.5580    25.1230 
   80.8750     2.0930   -28.5080    60.4100     9.1770     8.9580    10.2100    25.2260 
   81.0000     2.1130   -28.6310    61.9050     9.3480     9.0250    10.6840    25.3700 
   81.1250     2.1270   -28.6620    61.5060     9.7420     9.3000    10.8930    25.4880 
   81.2500     2.1300   -28.6210    59.5730    10.1820     9.6400    11.0260    25.5530 
   81.3750     2.1290   -28.4960    58.7680    10.4660     9.8730    11.1010    25.5890 
   81.5000     2.1330   -28.2910    60.8260    10.4400     9.8470    11.0420    25.6630 
   81.6250     2.1440   -28.0310    65.0240    10.0290     9.4800    10.5550    25.8340 
   81.7500     2.1570   -27.7540    69.1760     9.2480     8.7750     9.4760    26.1310 
   81.8750     2.1690   -27.4870    71.3220     8.2180     7.8360     8.0280    26.4990 
   82.0000     2.1800   -27.2420    72.3170     7.1550     6.8490     7.0360    26.8060 
   82.1250     2.1970   -27.0320    75.1990     6.2600     5.9850     6.4320    26.9620 
   82.2500     2.2220   -26.8840    80.8160     5.6860     5.3730     5.8160    26.9850 
   82.3750     2.2540   -26.8520    85.4370     5.6330     5.1650     5.4140    26.9090 
   82.5000     2.2820   -26.9480    85.4950     6.2300     5.4550     5.5470    26.7640 
   82.6250     2.2970   -27.1580    81.0520     7.5500     6.3050     6.5490    26.5580 
   82.7500     2.3040   -27.4460    74.3710     9.5700     7.7430     9.5860    26.3380 
   82.8750     2.3140   -27.7920    68.1190    11.9470     9.6210    14.9990    26.1540 
   83.0000     2.3180   -28.2000    63.4980    13.8870    11.3840    17.2440    25.9330 
   83.1250     2.2910   -28.6630    60.1110    14.6260    12.3630    14.0850    25.6540 
   83.2500     2.2290   -29.1440    58.1850    14.0260    12.2890    10.4670    25.4160 
   83.3750     2.1620   -29.5950    59.2770    12.6710    11.4640     9.1240    25.2830 
   83.5000     2.1180   -29.9940    62.7290    11.3760    10.4920     9.0760    25.2240 
   83.6250     2.1010   -30.3270    65.5670    10.5620     9.7550     9.2670    25.2120 
   83.7500     2.0960   -30.6060    66.1800    10.2460     9.3380     9.3730    25.2720 
   83.8750     2.0950   -30.8380    66.7320    10.2970     9.2040     9.4650    25.4370 
   84.0000     2.0950   -31.0060    67.5880    10.5100     9.2350     9.7220    25.6800 
   84.1250     2.0970   -31.0970    66.3930    10.7330     9.3230    10.0980    25.9060 
   84.2500     2.1030   -31.1240    63.0350    10.8980     9.4080    10.3400    26.0390 
   84.3750     2.1100   -31.1100    60.8820    10.9590     9.4490    10.4230    26.0720 
   84.5000     2.1150   -31.0800    61.1440    10.9060     9.4210    10.4320    26.0370 
   84.6250     2.1160   -31.0550    61.5830    10.7560     9.3250    10.2870    25.9450 
   84.7500     2.1100   -31.0330    61.8820    10.5510     9.1810     9.8620    25.8210 
   84.8750     2.1020   -30.9970    63.5450    10.3630     9.0350     9.3960    25.7280 
   85.0000     2.0990   -30.9450    65.7260    10.2580     8.9320     9.2380    25.6860 
   85.1250     2.1090   -30.8890    66.3410    10.2550     8.8960     9.4500    25.6900 
   85.2500     2.1300   -30.8410    64.6310    10.3230     8.9110     9.8090    25.7310 
   85.3750     2.1480   -30.7990    63.2050    10.3720     8.9210    10.0920    25.8010 
   85.5000     2.1570   -30.7360    64.3400    10.3090     8.8590    10.2130    25.8820 
   85.6250     2.1580   -30.6290    66.9700    10.0850     8.6830    10.0730    25.9510 
   85.7500     2.1550   -30.4840    68.2050     9.7210     8.3950     9.5280    26.0250 
   85.8750     2.1510   -30.3260    67.6990     9.3030     8.0450     8.9490    26.1540 
   86.0000     2.1470   -30.1830    67.5130     8.9350     7.7070     8.7690    26.3380 
   86.1250     2.1410   -30.0690    67.3880     8.6750     7.4320     8.8940    26.5160 
   86.2500     2.1340   -29.9720    65.9610     8.5300     7.2360     8.8950    26.5940 
   86.3750     2.1300   -29.8660    64.0700     8.4630     7.1110     8.6590    26.4850 
   86.5000     2.1320   -29.7440    63.3720     8.4150     7.0210     8.4390    26.2610 
   86.6250     2.1360   -29.6250    64.7530     8.3490     6.9380     8.2770    26.0520 
   86.7500     2.1360   -29.5360    68.3280     8.2720     6.8610     8.0030    25.8920 
   86.8750     2.1290   -29.4900    72.5940     8.2400     6.8180     7.7740    25.7520 
   87.0000     2.1180   -29.4740    74.3170     8.3100     6.8460     7.7140    25.6260 
   87.1250     2.1100   -29.4610    72.7650     8.5030     6.9650     7.8240    25.5790 
   87.2500     2.1050   -29.4290    70.6710     8.7980     7.1700     8.2250    25.6310 
   87.3750     2.1050   -29.3890    68.9530     9.1200     7.4260     8.9670    25.7280 
   87.5000     2.1080   -29.3670    66.0010     9.3790     7.6700     9.4840    25.8100 
   87.6250     2.1110   -29.3490    62.5500     9.5320     7.8580     9.4440    25.8700 
   87.7500     2.1140   -29.2990    60.9240     9.6020     7.9870     9.1040    25.8960 
   87.8750     2.1150   -29.2090    60.5240     9.6670     8.0950     8.8690    25.8740 
   88.0000     2.1180   -29.1020    59.9720     9.8020     8.2300     8.9610    25.8210 
   88.1250     2.1220   -29.0000    60.6740    10.0350     8.4220     9.3920    25.7680 
   88.2500     2.1250   -28.9180    63.1480    10.3240     8.6550     9.9110    25.7340 
   88.3750     2.1230   -28.8450    64.3250    10.5630     8.8650    10.1470    25.7290 
   88.5000     2.1230   -28.7910    62.8240    10.6550     8.9800    10.3390    25.7650 
   88.6250     2.1280   -28.7020    60.9470    10.5670     8.9620    10.5500    25.8440 
