~V
VERS. 2.00: Ver 2.00
~W
STRT.M 57.0000:
STOP.M 281.0000:
STEP.M 0.1250:
NULL. -999.2500:
UWI. F10139:
~C
DEPT.M :
SP.MV :
GR.API :
RML.OHMM :
RI. :
RXO.OHMM :
CALI.CM :
DEN.GM/CC :
~A
# ...
  147.0000   -11.3810    81.7480     6.3810     6.0750     7.0930    23.1960     2.3330 
  147.1250   -11.2670    83.4730     6.5860     6.3350     7.1010    23.1760     2.3480 
  147.2500   -11.2190    87.5740     6.7660     6.5580     7.1760    23.1500     2.3590 
  147.3750   -11.2600    91.3810     6.8880     6.7000     7.3400    23.1030     2.3660 
  147.5000   -11.3870    92.5390     6.9190     6.7320     7.6470    23.0500     2.3680 
  147.6250   -11.5400    90.4110     6.8260     6.6190     7.8380    22.9960     2.3670 
  147.7500   -11.6800    88.5280     6.6470     6.4050     7.5810    22.9570     2.3650 
  147.8750   -11.8260    88.0370     6.4270     6.1440     7.0750    22.9200     2.3660 
  148.0000   -11.9870    87.0630     6.2180     5.8900     6.7760    22.8920     2.3690 
  148.1250   -12.1780    84.2840     6.0720     5.6850     6.6840    22.9000     2.3700 
  148.2500   -12.3760    82.4260     5.9910     5.5260     6.6210    22.8970     2.3680 
  148.3750   -12.5640    81.6270     5.9580     5.4040     6.5710    22.8920     2.3630 
  148.5000   -12.7190    79.5250     5.9460     5.3100     6.5270    22.8720     2.3590 
  148.6250   -12.8720    78.6290     5.9580     5.2540     6.5020    22.8600     2.3570 
  148.7500   -13.0480    80.6600     6.0100     5.2410     6.5070    22.8500     2.3560 
  148.8750   -13.2440    83.4770     6.1090     5.2750     6.5880    22.8510     2.3540 
  149.0000   -13.5030    86.6100     6.2500     5.3440     6.8110    22.8380     2.3480 
  149.1250   -13.8790    91.8670     6.4130     5.4360     7.1620    22.8010     2.3400 
  149.2500   -14.3140    95.3530     6.5790     5.5430     7.2700    22.7570     2.3310 
  149.3750   -14.7740    93.8760     6.7580     5.6750     7.2080    22.7520     2.3250 
  149.5000   -15.3030    90.9760     6.9670     5.8440     7.1390    22.7570     2.3200 
  149.6250   -15.9400    92.6140     7.2150     6.0610     7.3230    22.7610     2.3150 
  149.7500   -16.6340    93.5680     7.4760     6.3050     7.8390    22.7560     2.3080 
  149.8750   -17.3480    91.1410     7.7250     6.5470     8.5480    22.7360     2.3000 
  150.0000   -18.0650    87.3120     7.9430     6.7530     8.8740    22.7210     2.2940 
  150.1250   -18.7570    83.9230     8.1150     6.8950     8.9790    22.7160     2.2880 
  150.2500   -19.4520    80.8140     8.2620     6.9840     8.9080    22.7180     2.2790 
  150.3750   -20.1180    78.4500     8.3930     7.0340     8.8800    22.7210     2.2670 
  150.5000   -20.6220    77.2810     8.5000     7.0590     8.9330    22.7270     2.2560 
  150.6250   -20.8040    76.4660     8.5630     7.0690     8.9420    22.7350     2.2530 
  150.7500   -20.7770    77.0690     8.5720     7.0640     8.7570    22.7330     2.2620 
  150.8750   -20.6420    79.7790     8.5140     7.0350     8.6020    22.7300     2.2770 
  151.0000   -20.3850    80.7390     8.3810     6.9640     8.5710    22.7390     2.2910 
  151.1250   -19.9240    80.0390     8.1770     6.8280     8.6520    22.7570     2.2970 
  151.2500   -19.2780    82.3260     7.9430     6.6420     8.6680    22.7890     2.2970 
  151.3750   -18.5180    87.2440     7.7090     6.4360     8.3880    22.8330     2.2950 
  151.5000   -17.7940    89.0510     7.5110     6.2540     7.8320    22.8770     2.2930 
  151.6250   -17.2560    86.2000     7.4100     6.1590     7.5820    22.9150     2.2970 
  151.7500   -16.8220    84.3320     7.4110     6.1510     7.7530    22.9240     2.3050 
  151.8750   -16.4280    84.6110     7.4940     6.2140     7.9250    22.9250     2.3170 
  152.0000   -16.0670    83.9830     7.6080     6.3100     7.8330    22.9680     2.3310 
  152.1250   -15.8350    81.4450     7.6620     6.3890     7.9000    23.0200     2.3430 
  152.2500   -15.7510    78.9010     7.6180     6.4170     7.9490    23.0190     2.3510 
  152.3750   -15.8550    77.3360     7.5190     6.3990     7.8240    22.9990     2.3550 
  152.5000   -16.1070    78.2470     7.4600     6.3710     7.7640    22.9800     2.3530 
  152.6250   -16.5020    80.9290     7.5550     6.3940     7.8440    22.9720     2.3450 
  152.7500   -17.1090    81.8960     7.8010     6.4930     7.8920    22.9670     2.3300 
  152.8750   -17.9480    80.0170     8.1410     6.6560     7.9590    22.9370     2.3100 
  153.0000   -18.9550    77.4130     8.4630     6.8330     8.3150    22.8650     2.2870 
  153.1250   -19.9750    77.1380     8.6320     6.9410     8.9000    22.8150     2.2650 
  153.2500   -20.9090    77.0690     8.6570     6.9560     9.0540    22.8180     2.2470 
  153.3750   -21.6900    76.1540     8.6060     6.9090     8.7190    22.8490     2.2360 
  153.5000   -22.3820    75.9880     8.5720     6.8650     8.2940    22.8780     2.2280 
  153.6250   -23.0000    77.1950     8.6460     6.9090     8.6170    22.9060     2.2170 
  153.7500   -23.3870    78.1110     8.8200     7.0650     9.0960    22.8850     2.2020 
  153.8750   -23.4880    77.5770     9.0550     7.3270     9.3690    22.7820     2.1830 
  154.0000   -23.3710    75.9250     9.3040     7.6550     9.5210    22.5750     2.1640 
  154.1250   -23.0840    75.0830     9.4910     7.9460     9.7530    22.4390     2.1510 
  154.2500   -22.6660    74.9490     9.5310     8.0860     9.9950    22.3640     2.1450 
  154.3750   -22.0990    75.3530     9.3390     7.9970    10.1380    22.3560     2.1480 
  154.5000   -21.2680    75.7190     8.8870     7.6690     9.7750    22.5250     2.1620 
  154.6250   -20.0820    76.9610     8.2230     7.1460     8.9930    22.9120     2.1920 
  154.7500   -18.7270    79.9260     7.5430     6.5800     7.8230    23.1780     2.2320 
  154.8750   -17.2930    82.4340     7.0000     6.0800     6.9750    23.3030     2.2750 
  155.0000   -15.8500    82.9540     6.6810     5.7110     6.4970    23.3650     2.3120 
  155.1250   -14.4870    83.8950     6.5990     5.5180     6.3450    23.3980     2.3360 
  155.2500   -13.2690    85.0710     6.6230     5.4480     6.2060    23.4210     2.3480 
  155.3750   -12.2790    84.9190     6.6620     5.4490     6.1240    23.4250     2.3510 
  155.5000   -11.5920    84.2240     6.6540     5.4650     6.1040    23.4210     2.3450 
  155.6250   -11.2320    85.5220     6.5890     5.4580     6.1260    23.4060     2.3320 
  155.7500   -11.0740    87.6970     6.5190     5.4350     6.1140    23.3920     2.3150 
  155.8750   -11.0540    89.0650     6.4850     5.4110     6.0790    23.3830     2.2970 
  156.0000   -11.1040    90.8360     6.4910     5.4000     6.1070    23.3810     2.2810 
  156.1250   -11.1940    91.8520     6.5120     5.4150     6.1560    23.3870     2.2690 
  156.2500   -11.3210    89.3940     6.5280     5.4490     6.2220    23.3990     2.2620 
  156.3750   -11.4040    85.9930     6.5450     5.4910     6.2720    23.4110     2.2580 
  156.5000   -11.3870    84.1540     6.5710     5.5280     6.3020    23.4110     2.2590 
  156.6250   -11.2900    83.3780     6.5880     5.5400     6.3760    23.3820     2.2680 
  156.7500   -11.1600    82.9450     6.5680     5.5190     6.4100    23.3400     2.2820 
  156.8750   -11.0250    85.1230     6.4980     5.4660     6.3840    23.3070     2.2990 
  157.0000   -10.8860    90.1140     6.3900     5.3920     6.2860    23.3050     2.3110 
  157.1250   -10.7050    91.9780     6.2790     5.3080     6.1480    23.3630     2.3100 
  157.2500   -10.4840    90.2800     6.1980     5.2320     6.0620    23.4900     2.2980 
  157.3750   -10.2530    88.3670     6.1450     5.1730     6.0370    23.6400     2.2820 
  157.5000   -10.0230    87.5160     6.1000     5.1370     6.0430    23.7000     2.2690 
  157.6250    -9.8330    85.6520     6.0460     5.1230     6.0430    23.6300     2.2700 
  157.7500    -9.6830    82.0540     5.9850     5.1210     5.9980    23.4910     2.2830 
  157.8750    -9.5380    78.6060     5.9230     5.1210     5.9420    23.3840     2.3050 
  158.0000    -9.3900    76.9470     5.8670     5.1120     5.8910    23.3030     2.3260 
  158.1250    -9.2420    78.1440     5.8230     5.0890     5.8160    23.2450     2.3380 
