~V
VERS. 2.00: Ver 2.00
~W
STRT.M 50.0000:
STOP.M 252.0000:
STEP.M 0.1250:
NULL. -999.2500:
UWI. F10101:
~C
DEPT.M :
DEN.GM/CC :
SP.MV :
GR.API :
RML.OHMM :
RI. :
RXO.OHMM :
CALI.CM :
~A
# ...
  185.0000     2.2580   -18.7150    64.3030   121.7850   112.0350   104.2660    24.2910 
  185.1250     2.2640   -18.8120    65.0680   126.6460   115.4860   103.1400    24.2980 
  185.2500     2.2690   -18.8860    66.5250   133.8680   121.0490   110.2900    24.3210 
  185.3750     2.2690   -18.9770    67.1980   142.5870   128.1840   127.2970    24.3300 
  185.5000     2.2640   -19.0630    66.1740   150.8390   135.3280   148.9550    24.3310 
  185.6250     2.2560   -19.0800    66.3370   155.0690   139.5510   162.8120    24.3340 
  185.7500     2.2510   -19.1630    68.9650   153.9660   139.5100   156.4080    24.3350 
  185.8750     2.2500   -19.1790    71.5520   148.3630   135.5570   143.7430    24.3390 
  186.0000     2.2540   -19.1910    70.7920   141.1010   129.8200   128.0080    24.3480 
  186.1250     2.2590   -19.2150    67.6470   135.8750   125.5520   119.3810    24.3790 
  186.2500     2.2600   -19.1660    66.0230   133.7800   124.2810   122.9410    24.4180 
  186.3750     2.2590   -19.1450    65.9380   133.5530   125.4790   128.5990    24.4230 
  186.5000     2.2600   -19.0750    66.7820   132.2310   126.8830   134.7460    24.4200 
  186.6250     2.2650   -18.9760    67.6540   125.4670   124.4160   164.7000    24.4170 
  186.7500     2.2710   -18.8670    68.4690   112.9720   116.4880   172.7880    24.4230 
  186.8750     2.2750   -18.7410    68.9620    97.0250   104.0620   137.6220    24.4290 
  187.0000     2.2750   -18.6050    70.5070    81.1660    90.0730    93.3750    24.4180 
  187.1250     2.2750   -18.4460    73.2250    71.2050    78.0680    69.9920    24.4280 
  187.2500     2.2780   -18.3090    74.5700    69.5520    69.3470    60.2150    24.4410 
  187.3750     2.2850   -18.1720    72.8730    63.3070    63.6400    53.0840    24.4230 
  187.5000     2.2940   -18.0010    69.4300    58.8170    59.4830    47.6590    24.4090 
  187.6250     2.3080   -17.9430    68.1210    53.4870    54.4350    44.8960    24.4230 
  187.7500     2.3260   -17.8600    70.6720    46.1580    47.2700    42.5060    24.4410 
  187.8750     2.3470   -17.7730    75.5760    37.6500    38.7830    37.5190    24.4250 
  188.0000     2.3720   -17.7690    81.6050    29.8540    30.9180    28.0320    24.3920 
  188.1250     2.4000   -17.7090    87.6440    24.8890    25.7030    17.5340    24.3470 
  188.2500     2.4230   -17.7260    91.0880    22.9330    23.1800    14.1340    24.2910 
  188.3750     2.4260   -17.7150    87.6600    24.0490    23.3030    15.3550    24.2770 
  188.5000     2.4010   -17.7320    79.2150    28.4030    26.2570    21.7330    24.2950 
  188.6250     2.3540   -17.7990    73.4190    36.8990    33.2110    38.3870    24.3230 
  188.7500     2.3140   -17.8630    72.2310    49.1910    44.2400    50.3280    24.3750 
  188.8750     2.2900   -17.9270    71.5700    65.4680    59.6990    53.8080    24.3980 
  189.0000     2.2780   -18.0070    68.7610    86.0050    79.7290    65.7580    24.4100 
  189.1250     2.2670   -18.0980    64.7470   111.6470   104.7740   101.9520    24.4360 
  189.2500     2.2550   -18.1690    61.5740   140.2280   132.4660   149.0390    24.4640 
  189.3750     2.2450   -18.2620    60.9610   166.7950   158.2740   197.5950    24.4740 
  189.5000     2.2400   -18.3430    62.5160   181.6830   173.6940   243.8460    24.4750 
  189.6250     2.2410   -18.4110    63.6860   172.2550   166.9650   244.2290    24.4710 
  189.7500     2.2490   -18.4680    63.6640   147.1890   144.3010   191.5530    24.4470 
  189.8750     2.2630   -18.5740    64.9880   119.5700   116.9100   116.1350    24.3890 
  190.0000     2.2770   -18.6230    69.7210    98.4840    94.0920    66.9400    24.3460 
  190.1250     2.2840   -18.7240    74.5570    88.2460    81.1680    50.2040    24.3290 
  190.2500     2.2820   -18.8120    76.6110    86.3590    76.4590    53.3680    24.3480 
  190.3750     2.2700   -18.9380    74.7890    91.2280    78.5250    74.8830    24.4050 
  190.5000     2.2540   -19.0870    70.2080   101.5010    86.0260   106.2980    24.4470 
  190.6250     2.2400   -19.1820    66.0580   117.0120    98.6830   121.7180    24.4550 
  190.7500     2.2360   -19.3470    65.4430   137.1810   115.5610   112.7830    24.4550 
  190.8750     2.2400   -19.4700    66.5750   163.8210   138.0280   102.3020    24.4450 
  191.0000     2.2430   -19.6550    63.8620   182.3110   169.3000   130.3930    24.4440 
  191.1250     2.2370   -19.8230    57.8650   231.8320   215.8700   204.9290    24.4570 
  191.2500     2.2250   -20.0060    54.8350   297.4270   276.5340   285.7700    24.4510 
  191.3750     2.2160   -20.1520    55.0690   373.6590   345.0100   313.1320    24.4430 
  191.5000     2.2130   -20.3260    55.8730   444.7670   407.3690   314.4660    24.4520 
  191.6250     2.2160   -20.5660    54.8600   486.5940   444.2660   322.9360    24.4490 
  191.7500     2.2200   -20.6980    54.9190   502.4100   458.6570   338.1350    24.4400 
  191.8750     2.2230   -20.8950    56.4510   506.1310   462.1220   349.6140    24.4430 
  192.0000     2.2230   -21.0400    58.8480   507.0850   464.0860   334.8140    24.4390 
  192.1250     2.2200   -21.1550    59.7160   499.1460   462.2270   321.7330    24.4410 
  192.2500     2.2160   -21.3000    58.8880   470.2130   446.2460   333.2680    24.4440 
  192.3750     2.2120   -21.3710    57.7990   415.1900   408.4990   362.5600    24.4600 
  192.5000     2.2080   -21.4370    56.1260   344.0120   351.8790   362.9520    24.5080 
  192.6250     2.2040   -21.4770    54.6280   280.3590   290.2260   297.4100    24.5810 
  192.7500     2.2030   -21.4770    55.3670   237.7930   237.8180   213.9040    24.6130 
  192.8750     2.2040   -21.4450    58.8310   198.8720   199.1240   156.5850    24.6220 
  193.0000     2.2080   -21.4060    62.1650   173.0120   172.9510   130.4320    24.6260 
  193.1250     2.2160   -21.3210    61.0600   156.6200   156.5770   126.8900    24.6160 
  193.2500     2.2290   -21.1900    57.8150   144.6100   144.8540   136.9800    24.6130 
  193.3750     2.2430   -21.0590    55.8910   135.2060   135.8810   131.2740    24.6690 
  193.5000     2.2540   -20.9360    56.3850   127.7380   128.9290   114.7500    24.7400 
  193.6250     2.2620   -20.6950    57.8280   122.2260   124.0380   104.3020    24.7980 
  193.7500     2.2700   -20.4630    58.9710   117.7050   120.2890   101.5370    24.7720 
  193.8750     2.2760   -20.2180    60.8940   113.0460   116.5430   106.0930    24.6800 
  194.0000     2.2830   -19.8740    63.6980   107.3740   111.7680   106.7700    24.6580 
  194.1250     2.2950   -19.5630    66.2810   102.6650   105.9170    94.6070    24.6440 
  194.2500     2.3070   -19.1730    68.4010   102.2320   100.6200    74.4900    24.5300 
  194.3750     2.3080   -18.7870    69.3070    99.2430    97.5890    66.6770    24.4080 
  194.5000     2.2940   -18.4160    67.4100   100.1990    98.0810    70.3300    24.4530 
  194.6250     2.2670   -18.0390    63.7290   105.6770   102.8250    92.3830    24.6320 
  194.7500     2.2480   -17.6860    62.1550   113.3810   109.7590   117.7570    24.6780 
  194.8750     2.2470   -17.3980    64.3000   120.5100   116.3690   125.0000    24.5670 
  195.0000     2.2620   -17.1890    67.5320   123.6210   119.5520   116.8030    24.4330 
  195.1250     2.2830   -16.9830    68.3660   119.3640   116.0530   102.8630    24.4550 
  195.2500     2.2990   -16.9140    68.6390   110.3130   107.7940    91.1300    24.6040 
  195.3750     2.3060   -16.8870    69.1180   100.1360    97.9100    78.7010    24.7460 
  195.5000     2.3080   -16.8720    71.2560    92.1150    89.5030    63.9630    24.8130 
  195.6250     2.3080   -16.9880    75.3490    88.8910    85.2400    55.5610    24.8270 
  195.7500     2.3040   -17.1430    76.7890    89.9790    84.9920    59.7630    24.8440 
  195.8750     2.2960   -17.2990    72.8960    94.0800    87.7780    71.7820    24.8370 
  196.0000     2.2880   -17.4580    66.9950    98.9720    91.7560    88.5750    24.8210 
  196.1250     2.2870   -17.6740    64.4020   101.7750    94.5450   109.6070    24.7320 
