~V
VERS. 2.00: Ver 2.00
~W
STRT.M 58.0000:
STOP.M 228.0000:
STEP.M 0.1250:
NULL. -999.2500:
UWI. F10151:
~C
DEPT.M :
SP.MV :
GR.API :
RML.OHMM :
RI. :
RXO.OHMM :
CALI.CM :
DEN.GM/CC :
~A
# ...
   80.5000   -27.1910    68.7310    10.2920     8.2050    11.8180    25.0650     2.1500 
   80.6250   -25.4320    71.0050     9.4920     7.5670    10.6670    25.1300     2.1740 
   80.7500   -23.4130    76.0690     8.4780     6.7530     8.8150    25.0020     2.2150 
   80.8750   -21.3080    82.8590     7.5420     5.9910     7.0970    24.8320     2.2520 
   81.0000   -19.2700    89.8400     6.9720     5.4720     6.6100    24.7050     2.2630 
   81.1250   -17.4900    92.5540     7.1230     5.4050     6.3430    24.7730     2.2370 
   81.2500   -16.1780    90.3780     8.0550     5.8390     6.5570    24.8710     2.2000 
   81.3750   -15.4380    86.3320     9.7890     6.8580     7.5210    24.9280     2.1880 
   81.5000   -15.2710    82.0980    12.1410     8.4820    11.3340    24.9240     2.2290 
   81.6250   -15.6750    77.3940    14.5350    10.5170    22.4090    24.8070     2.3270 
   81.7500   -16.4150    73.7210    16.1590    12.2410    37.8180    24.6260     2.4360 
   81.8750   -17.2990    73.2110    16.5050    12.9800    43.2460    24.4820     2.5120 
   82.0000   -18.2120    73.5260    15.5790    12.5410    35.4140    24.4110     2.5310 
   82.1250   -19.0740    72.0850    13.8700    11.3060    23.0460    24.3230     2.4900 
   82.2500   -19.8760    72.7920    12.2180    10.0170    15.2820    24.1500     2.4250 
   82.3750   -20.6720    75.6190    11.0060     8.9780    11.6230    23.9440     2.3570 
   82.5000   -21.5320    76.8240    10.3240     8.2800    10.7940    23.8810     2.2990 
   82.6250   -22.4820    74.8160    10.1190     7.9300    11.1580    24.0510     2.2540 
   82.7500   -23.4390    72.6660    10.1300     7.7880    11.4070    24.3590     2.2220 
   82.8750   -24.3470    70.3260    10.2110     7.7610    11.5900    24.7300     2.2020 
   83.0000   -25.1660    66.7080    10.2710     7.7790    11.6850    25.0610     2.1960 
   83.1250   -25.8640    64.1300    10.2770     7.8010    11.8370    25.2930     2.2030 
   83.2500   -26.4440    63.8030    10.2570     7.8210    12.0570    25.4380     2.2150 
   83.3750   -26.9230    64.2490    10.2370     7.8370    12.2360    25.5150     2.2240 
   83.5000   -27.3060    65.3990    10.2230     7.8460    12.2730    25.5680     2.2260 
   83.6250   -27.5980    69.1680    10.2110     7.8370    12.1980    25.5960     2.2170 
   83.7500   -27.8250    71.9320    10.1910     7.8090    12.0240    25.4990     2.2070 
   83.8750   -28.0190    70.7810    10.1580     7.7660    11.9810    25.2420     2.2010 
   84.0000   -28.2100    66.9180    10.1050     7.7080    12.0980    25.0310     2.2030 
   84.1250   -28.3730    64.3310    10.0180     7.6300    11.9230    24.9150     2.2090 
   84.2500   -28.5270    65.0430     9.8930     7.5310    11.7110    24.9310     2.2130 
   84.3750   -28.6330    68.4790     9.7340     7.4150    11.5900    24.9330     2.2130 
   84.5000   -28.6970    71.3130     9.5640     7.3010    11.4940    24.8130     2.2120 
   84.6250   -28.7000    70.8240     9.4390     7.2260    11.2960    24.7690     2.2120 
   84.7500   -28.6710    68.8090     9.4220     7.2290    10.9060    24.7720     2.2150 
   84.8750   -28.5700    68.1170     9.5650     7.3490    11.1250    24.7720     2.2210 
   85.0000   -28.3000    69.5790     9.8730     7.6010    11.6990    24.8140     2.2270 
   85.1250   -27.7580    71.8700    10.2540     7.9510    11.9870    24.8500     2.2320 
   85.2500   -26.8830    70.8860    10.4960     8.2450    11.9310    24.7820     2.2370 
   85.3750   -25.5900    66.5330    10.4050     8.3070    11.8540    24.5150     2.2400 
   85.5000   -23.8460    64.9430     9.8770     8.0050    11.7720    24.1960     2.2400 
   85.6250   -21.5790    71.6140     8.9450     7.3270    10.8890    24.2420     2.2340 
   85.7500   -18.9750    82.2260     7.9180     6.5330     9.0120    24.4680     2.2230 
   85.8750   -16.2470    90.9850     7.0530     5.8260     6.7410    24.6110     2.2110 
   86.0000   -13.6560    95.1140     6.5410     5.3480     5.4370    24.6790     2.2030 
   86.1250   -11.4030    95.0030     6.5230     5.2170     5.2530    24.6990     2.2070 
   86.2500    -9.5960    94.8430     6.8410     5.3590     5.3530    24.7830     2.2220 
   86.3750    -8.2980    95.1150     7.3000     5.6710     5.6840    24.8030     2.2480 
   86.5000    -7.4460    92.9370     7.6640     5.9810     6.3610    24.7280     2.2780 
   86.6250    -6.9750    90.5210     7.6670     6.0500     7.3720    24.6630     2.3050 
   86.7500    -6.7440    91.6190     7.3160     5.8210     7.6130    24.7450     2.3260 
   86.8750    -6.7350    94.2380     6.7470     5.3870     6.1210    24.8130     2.3390 
   87.0000    -6.9270    96.7140     6.1880     4.9330     4.9400    24.8360     2.3480 
   87.1250    -7.5230    99.6580     5.9400     4.6760     4.8630    24.8530     2.3500 
   87.2500    -8.4940   100.5360     6.1220     4.6930     5.2650    24.9000     2.3380 
   87.3750    -9.9120    95.9330     6.7600     5.0150     5.5260    24.9320     2.3070 
   87.5000   -11.8100    87.2920     7.7610     5.6230     6.2280    24.9380     2.2580 
   87.6250   -14.1970    79.0730     8.8990     6.4380     8.2530    24.9410     2.2100 
   87.7500   -16.8090    72.7940     9.8520     7.2390    10.0780    25.0710     2.1780 
   87.8750   -19.4250    68.6810    10.4180     7.8440    11.0390    25.1590     2.1690 
   88.0000   -21.8650    68.1850    10.5340     8.1370    11.3940    25.1640     2.1760 
   88.1250   -23.8360    70.9680    10.2490     8.0880    11.4250    25.1420     2.1880 
   88.2500   -25.3160    73.4020     9.8230     7.8770    11.4780    25.1310     2.1980 
   88.3750   -26.2830    74.1460     9.4250     7.6310    11.6240    25.1550     2.2050 
   88.5000   -26.8000    73.1260     9.1730     7.4360    11.0460    25.1850     2.2110 
   88.6250   -27.0440    70.6850     9.1690     7.3570    10.1570    25.1700     2.2170 
   88.7500   -27.1620    68.9470     9.3700     7.4000    10.0220    25.1650     2.2220 
   88.8750   -27.1320    69.4230     9.6780     7.5270    11.0620    25.2340     2.2200 
   89.0000   -26.9030    72.6710     9.9190     7.6330    11.6890    25.2080     2.2110 
   89.1250   -26.4010    75.2330     9.8470     7.5450    11.6670    25.2500     2.2000 
   89.2500   -25.6750    75.1580     9.4430     7.2290    11.8570    25.2500     2.1960 
   89.3750   -24.8100    75.1780     8.8390     6.7690    11.0980    25.1950     2.2040 
   89.5000   -24.0250    77.8040     8.2830     6.3300     8.9190    24.9760     2.2210 
   89.6250   -23.4950    82.6170     8.0910     6.1150     7.3860    24.7190     2.2410 
   89.7500   -23.2500    83.9830     8.3170     6.1670     8.0720    24.6970     2.2520 
   89.8750   -23.3170    81.5580     8.8750     6.4710     9.8400    24.8540     2.2520 
   90.0000   -23.7620    78.3450     9.5580     6.9400    11.5660    24.9600     2.2390 
   90.1250   -24.6740    75.5000    10.0650     7.3950    12.2840    24.9920     2.2190 
   90.2500   -25.9120    71.3810    10.2420     7.6540    12.3530    25.0550     2.1990 
   90.3750   -27.3530    66.9250    10.0970     7.6580    12.0850    25.1840     2.1840 
   90.5000   -28.7160    64.8360     9.7610     7.4740    11.7360    25.3490     2.1760 
   90.6250   -29.7350    65.1860     9.4090     7.2250    11.5040    25.5420     2.1710 
   90.7500   -30.3470    65.0890     9.1480     7.0170    11.4040    25.6670     2.1660 
   90.8750   -30.5840    66.4540     8.9870     6.8730    11.3420    25.6990     2.1570 
   91.0000   -30.4080    70.1200     8.8950     6.7790    11.2790    25.6480     2.1490 
   91.1250   -29.7350    74.9260     8.8280     6.6920    11.1770    25.5130     2.1480 
   91.2500   -28.6970    78.9550     8.7450     6.5790    11.1210    25.3530     2.1580 
   91.3750   -27.4230    81.4460     8.6340     6.4370    10.8540    25.1430     2.1780 
   91.5000   -26.1020    81.5060     8.5110     6.2880    10.0970    24.8910     2.2020 
   91.6250   -24.9510    78.1340     8.4310     6.1820     8.9710    24.7070     2.2220 
