~V
VERS. 2.00: Ver 2.00
~W
STRT.M 55.0000:
STOP.M 224.0000:
STEP.M 0.1250:
NULL. -999.2500:
UWI. F10137:
~C
DEPT.M :
DEN.GM/CC :
SP.MV :
GR.API :
RML.OHMM :
RI. :
RXO.OHMM :
CALI.CM :
~A
# ...
  156.2500     2.2400   -27.9700    56.9790    63.2280    55.6240    95.3570    28.2540 
  156.3750     2.2290   -28.0660    57.6820    78.1460    68.3260   104.0180    28.3410 
  156.5000     2.2210   -28.1120    57.3450    96.9200    84.5390   122.9300    28.4070 
  156.6250     2.2130   -28.1210    55.0160   117.3610   102.3220   155.8360    28.4500 
  156.7500     2.2030   -28.1120    52.4470   135.3260   118.3220   190.3200    28.4910 
  156.8750     2.1950   -28.1090    51.5350   144.6400   127.8220   204.4350    28.5400 
  157.0000     2.1900   -28.1210    51.6970   143.4750   129.1220   187.6260    28.6010 
  157.1250     2.1890   -28.1210    51.4080   135.2120   124.1520   151.6770    28.6720 
  157.2500     2.1960   -28.0890    50.5220   124.6610   116.2730   116.5600    28.7350 
  157.3750     2.2100   -28.0200    50.1880   115.9100   108.9590   101.2850    28.7950 
  157.5000     2.2270   -27.9370    50.7830   110.4880   104.0700    98.8030    28.8470 
  157.6250     2.2390   -27.8680    51.5180   108.1200   101.8530    96.3670    28.8910 
  157.7500     2.2440   -27.8290    52.5250   107.9280   101.7580    93.1300    28.9390 
  157.8750     2.2410   -27.8000    54.1710   108.6940   102.8040    95.1490    28.9830 
  158.0000     2.2340   -27.7300    55.8910   109.2690   103.9010   101.0540    28.9970 
  158.1250     2.2260   -27.6100    56.9920   109.2420   104.5130   100.6060    28.9920 
  158.2500     2.2190   -27.4730    56.9320   109.1580   104.9440    96.3930    28.9960 
  158.3750     2.2150   -27.3560    56.0280   110.4090   106.3320    94.3980    29.0030 
  158.5000     2.2120   -27.2740    55.7580   113.9570   109.6190    93.4910    29.0020 
  158.6250     2.2110   -27.2010    56.6900   119.5710   114.7300    94.8970    28.9920 
  158.7500     2.2100   -27.1030    56.9300   125.7170   120.3990   104.5520    28.9740 
  158.8750     2.2040   -26.9720    54.8910   129.2880   124.0190   129.9420    28.9740 
  159.0000     2.1950   -26.8250    52.7630   128.1950   123.7400   148.7780    29.0310 
  159.1250     2.1870   -26.6810    52.9890   122.9440   119.7460   132.7510    29.1550 
  159.2500     2.1860   -26.5510    55.2830   115.7770   113.7460   102.8670    29.2690 
  159.3750     2.1930   -26.4270    57.6930   109.2190   107.9320    92.5100    29.2910 
  159.5000     2.1990   -26.2980    58.9350   104.2410   103.3640    98.4120    29.2260 
  159.6250     2.2000   -26.1650    58.9120   100.3630    99.7910   106.5520    29.0890 
  159.7500     2.2000   -26.0380    58.1750    96.7230    96.4710   105.5470    28.8850 
  159.8750     2.2070   -25.9160    57.3970    92.8950    92.8940    95.4300    28.7280 
  160.0000     2.2210   -25.7940    56.0750    89.4530    89.4390    81.7210    28.6650 
  160.1250     2.2350   -25.6770    54.1440    87.5490    87.1340    71.1070    28.6420 
  160.2500     2.2460   -25.5790    53.0250    88.1960    87.0020    69.6190    28.6140 
  160.3750     2.2480   -25.5010    54.1710    92.1460    89.8280    79.3440    28.5440 
  160.5000     2.2400   -25.4200    55.9890    98.9420    95.2090    96.3930    28.4590 
  160.6250     2.2290   -25.3070    55.7210   107.3680   101.9880   114.5440    28.4000 
  160.7500     2.2220   -25.1570    53.3270   116.1020   108.9180   124.8280    28.3720 
  160.8750     2.2190   -25.0070    51.5200   123.8370   114.7930   125.9020    28.3460 
  161.0000     2.2180   -24.9090    52.2100   130.1930   119.3030   127.9350    28.2910 
  161.1250     2.2170   -24.8500    54.2450   135.6770   122.9300   136.0490    28.2110 
  161.2500     2.2140   -24.7670    55.6340   141.0000   126.3240   146.2900    28.1280 
  161.3750     2.2120   -24.6210    56.4350   146.6140   129.9160   152.0670    28.0580 
  161.5000     2.2120   -24.4340    57.0730   152.3380   133.6330   155.6570    27.9890 
  161.6250     2.2140   -24.2550    56.6890   157.5550   137.0650   161.4450    27.9130 
  161.7500     2.2160   -24.1180    54.7530   161.5970   139.7820   166.8530    27.8410 
  161.8750     2.2130   -24.0140    53.7440   163.8920   141.4570   169.2130    27.7890 
  162.0000     2.2040   -23.8980    55.9610   164.5930   142.2270   168.5850    27.7410 
  162.1250     2.1940   -23.7490    59.7030   164.3400   142.5100   165.8490    27.6770 
  162.2500     2.1850   -23.5810    60.8660   163.8710   142.7750   163.7780    27.6040 
  162.3750     2.1760   -23.4190    57.8460   163.7960   143.5040   162.7600    27.5360 
  162.5000     2.1680   -23.2900    54.4320   163.0580   144.0920   163.0260    27.4830 
  162.6250     2.1660   -23.1890    54.3470   157.5850   141.6380   162.4720    27.4290 
  162.7500     2.1760   -23.0890    55.9720   141.9380   131.4020   160.9600    27.3410 
  162.8750     2.2010   -22.9600    55.5360   114.7410   110.0550   161.5670    27.1800 
  163.0000     2.2450   -22.7950    54.5000    83.8690    82.7240   157.4570    26.9520 
  163.1250     2.3130   -22.6160    56.4590    57.9460    57.8210   123.7070    26.7330 
  163.2500     2.3940   -22.4510    61.4700    38.8280    39.7130    69.2500    26.6110 
  163.3750     2.4430   -22.3210    66.0820    27.7870    28.9790    32.4840    26.6240 
  163.5000     2.4290   -22.2200    68.6620    22.5100    23.2920    20.7030    26.7300 
  163.6250     2.3800   -22.1270    70.5840    19.8740    20.3390    19.7240    26.8350 
  163.7500     2.3410   -22.0160    71.9430    18.7560    18.9490    20.6890    26.8740 
  163.8750     2.3320   -21.8940    71.0460    18.3920    18.4260    20.3990    26.8600 
  164.0000     2.3400   -21.8100    68.9780    18.2400    18.2560    19.0330    26.8190 
  164.1250     2.3520   -21.7920    68.7610    18.0680    18.1570    17.7040    26.7410 
  164.2500     2.3590   -21.8250    70.8850    17.9100    18.0880    17.1380    26.6500 
  164.3750     2.3580   -21.8580    72.5180    17.9070    18.1310    17.4370    26.5960 
  164.5000     2.3540   -21.8550    72.7690    18.1370    18.3540    18.3320    26.5730 
  164.6250     2.3540   -21.8300    73.8350    18.5860    18.7600    19.3320    26.5450 
  164.7500     2.3600   -21.8260    75.9870    19.2010    19.3120    19.6080    26.4790 
  164.8750     2.3650   -21.8760    77.0210    19.8730    19.9170    19.4110    26.3570 
  165.0000     2.3640   -21.9570    76.2840    20.4270    20.4170    20.0140    26.1710 
  165.1250     2.3580   -22.0310    74.4500    20.6730    20.6410    21.9190    25.9020 
  165.2500     2.3530   -22.0910    71.9840    20.4740    20.4590    24.8770    25.6020 
  165.3750     2.3500   -22.1410    70.0190    19.7840    19.8080    23.5470    25.4880 
  165.5000     2.3510   -22.1870    70.6210    18.7960    18.8370    19.6910    25.5860 
  165.6250     2.3590   -22.2320    73.2780    17.7950    17.7970    16.9040    25.7160 
  165.7500     2.3710   -22.2780    75.0460    16.9870    16.8830    15.5020    25.7520 
  165.8750     2.3760   -22.3240    75.7370    16.4660    16.2090    14.9760    25.6960 
  166.0000     2.3690   -22.3680    76.9220    16.1370    15.7260    14.8110    25.6040 
  166.1250     2.3550   -22.3990    78.4280    15.8280    15.3070    14.8690    25.5160 
  166.2500     2.3440   -22.4140    78.9500    15.3960    14.8370    14.6720    25.4670 
  166.3750     2.3410   -22.4230    78.1050    14.7800    14.2530    13.8840    25.4560 
  166.5000     2.3500   -22.4420    76.2190    14.1110    13.6410    12.9700    25.4610 
  166.6250     2.3650   -22.4830    74.2870    13.6640    13.2040    12.8920    25.4800 
  166.7500     2.3770   -22.5480    73.7310    13.7340    13.1680    13.1850    25.5220 
  166.8750     2.3830   -22.6090    73.7980    14.6630    13.8130    13.2960    25.5240 
  167.0000     2.3870   -22.6370    72.0760    16.5370    15.2580    14.1740    25.3850 
  167.1250     2.3920   -22.6360    69.3190    19.1380    17.4310    18.7860    25.1310 
  167.2500     2.4000   -22.6360    68.8390    21.9580    20.0150    29.2540    24.9650 
  167.3750     2.4060   -22.6720    70.7940    24.0780    22.2440    34.3910    24.9930 
