~V
VERS. 2.00: Ver 2.00
~W
STRT.M 52.0000:
STOP.M 326.0000:
STEP.M 0.1250:
NULL. -999.2500:
UWI. F10108:
~C
DEPT.M :
DEN.GM/CC :
SP.MV :
GR.API :
RML.OHMM :
RI. :
RXO.OHMM :
CALI.CM :
~A
# ...
  153.2500     2.4530   -10.3100    62.4950    20.1960    19.8000    24.3710    25.1900 
  153.3750     2.4600   -10.2030    62.3120    19.7860    19.4250    28.3850    25.3360 
  153.5000     2.4650   -10.0940    61.4970    19.1000    18.7960    26.6380    25.4150 
  153.6250     2.4540   -10.0100    59.7440    18.3040    18.0530    19.8680    25.4210 
  153.7500     2.4240    -9.9330    59.4720    17.6150    17.3850    17.2690    25.3950 
  153.8750     2.3840    -9.8430    62.0600    17.1530    16.9070    16.9300    25.3420 
  154.0000     2.3520    -9.7340    65.3900    16.9730    16.6800    17.1530    25.2510 
  154.1250     2.3480    -9.6300    67.0350    17.0960    16.7490    16.8870    25.0900 
  154.2500     2.3710    -9.5470    66.9260    17.3970    17.0130    16.6170    24.8750 
  154.3750     2.4060    -9.4830    65.4440    17.7760    17.3790    16.8250    24.6460 
  154.5000     2.4350    -9.4120    64.3590    18.1320    17.7460    17.3600    24.4750 
  154.6250     2.4440    -9.3060    65.2160    18.3480    17.9940    18.0510    24.4120 
  154.7500     2.4440    -9.1590    66.7040    18.3920    18.0770    17.9850    24.3740 
  154.8750     2.4430    -8.9960    66.5090    18.2790    17.9980    17.3880    24.3000 
  155.0000     2.4460    -8.8500    64.2880    18.0800    17.8160    16.4300    24.1770 
  155.1250     2.4520    -8.7250    62.3060    17.8990    17.6240    15.8790    24.0780 
  155.2500     2.4560    -8.6040    61.8410    17.8050    17.4940    15.9810    24.0420 
  155.3750     2.4580    -8.4760    62.4090    17.8140    17.4490    16.0290    24.0490 
  155.5000     2.4600    -8.3540    64.4040    17.9080    17.4840    16.0690    24.0600 
  155.6250     2.4640    -8.2600    67.1860    18.0580    17.5830    16.4790    24.0460 
  155.7500     2.4690    -8.2030    67.5510    18.2200    17.7080    16.9820    24.0240 
  155.8750     2.4730    -8.1720    65.2590    18.3580    17.8260    17.0550    24.0240 
  156.0000     2.4730    -8.1440    62.7750    18.4340    17.9000    17.1490    24.0550 
  156.1250     2.4700    -8.1270    62.7960    18.3960    17.8750    18.1960    24.0920 
  156.2500     2.4650    -8.1370    64.3030    18.2470    17.7470    19.1090    24.1010 
  156.3750     2.4620    -8.1790    65.8450    18.0130    17.5330    19.1620    24.1000 
  156.5000     2.4610    -8.2380    66.5430    17.7400    17.2760    18.6920    24.1210 
  156.6250     2.4630    -8.2810    66.1840    17.5020    17.0390    17.8360    24.1670 
  156.7500     2.4640    -8.2990    66.8140    17.3480    16.8690    17.4440    24.2120 
  156.8750     2.4620    -8.2960    69.0310    17.2870    16.7860    17.1650    24.2370 
  157.0000     2.4550    -8.2790    70.7880    17.3000    16.7790    17.0150    24.2520 
  157.1250     2.4470    -8.2430    69.3740    17.3360    16.8150    16.8660    24.2980 
  157.2500     2.4390    -8.1760    65.6060    17.3440    16.8400    17.1380    24.3580 
  157.3750     2.4350    -8.0890    61.7890    17.3080    16.8260    17.8520    24.3990 
  157.5000     2.4330    -7.9950    61.0240    17.2360    16.7650    17.4980    24.3900 
  157.6250     2.4340    -7.9000    62.6430    17.1700    16.6720    16.7140    24.3560 
  157.7500     2.4360    -7.8090    63.7180    17.1590    16.5950    15.9390    24.3500 
  157.8750     2.4410    -7.6960    63.2140    17.2310    16.5640    15.2050    24.3630 
  158.0000     2.4520    -7.5690    61.0820    17.3870    16.6000    14.6050    24.3730 
  158.1250     2.4670    -7.4510    58.3790    17.6370    16.7290    14.7920    24.3590 
  158.2500     2.4810    -7.3660    55.8260    17.9840    16.9670    16.0160    24.3140 
  158.3750     2.4900    -7.3160    55.6810    18.4490    17.3380    17.1780    24.2660 
  158.5000     2.4950    -7.2990    58.3680    19.0150    17.8400    17.6150    24.2430 
  158.6250     2.4930    -7.3090    60.3480    19.5890    18.4070    17.5900    24.2350 
  158.7500     2.4850    -7.3440    59.2000    20.0050    18.8750    19.5550    24.2130 
  158.8750     2.4710    -7.4480    56.8380    20.1020    19.0850    22.6990    24.1850 
  159.0000     2.4550    -7.6120    55.8730    19.7820    18.9140    23.5260    24.1960 
  159.1250     2.4470    -7.8140    57.0390    18.9950    18.2800    19.8300    24.2960 
  159.2500     2.4450    -8.0290    60.0970    17.9450    17.3620    17.0300    24.4640 
  159.3750     2.4460    -8.2220    63.7900    16.8080    16.3220    15.4290    24.6690 
  159.5000     2.4410    -8.3980    65.8670    15.7490    15.3260    14.3850    24.9080 
  159.6250     2.4270    -8.5870    65.1580    14.9380    14.5380    14.0740    25.2360 
  159.7500     2.4140    -8.8030    64.2780    14.3970    13.9960    13.7370    25.6610 
  159.8750     2.4110    -9.0170    64.4250    14.1290    13.7080    13.2000    26.1360 
  160.0000     2.4180    -9.2270    65.3640    14.0940    13.6450    13.0820    26.5710 
  160.1250     2.4190    -9.4430    65.9180    14.2040    13.7380    14.4170    26.8730 
  160.2500     2.3980    -9.6590    65.5560    14.2950    13.8360    15.6430    27.0900 
  160.3750     2.3500    -9.8810    64.6100    14.2660    13.8370    15.9250    27.2880 
  160.5000     2.2860   -10.0960    63.6870    14.0730    13.6900    15.2030    27.4370 
  160.6250     2.2280   -10.2640    61.7170    13.7200    13.3880    13.9760    27.3700 
  160.7500     2.1920   -10.3690    60.1050    13.3090    13.0210    12.5340    27.0420 
  160.8750     2.1850   -10.3980    59.4480    12.9070    12.6490    11.6130    26.5450 
  161.0000     2.2090   -10.3680    58.4670    12.5610    12.3110    11.5740    26.0330 
  161.1250     2.2560   -10.3010    57.9980    12.3040    12.0350    11.9840    25.6190 
  161.2500     2.3090   -10.2140    61.5190    12.1300    11.8240    12.3060    25.3280 
  161.3750     2.3540   -10.1160    67.4610    12.0430    11.6920    11.9500    25.1820 
  161.5000     2.3840   -10.0100    70.5310    12.0470    11.6530    11.6230    25.1900 
  161.6250     2.3970    -9.9140    69.6700    12.1670    11.7360    11.7720    25.3560 
  161.7500     2.3980    -9.8300    69.7420    12.3880    11.9200    11.9010    25.6150 
  161.8750     2.3880    -9.7710    71.0330    12.6890    12.1870    12.3020    25.9300 
  162.0000     2.3660    -9.7400    72.3440    13.0340    12.5050    12.8750    26.2990 
  162.1250     2.3380    -9.7110    72.4480    13.3930    12.8560    13.0680    26.7470 
  162.2500     2.3110    -9.6720    71.3530    13.7820    13.2480    13.7520    27.2190 
  162.3750     2.2940    -9.6370    68.1500    14.2610    13.7250    14.8020    27.6190 
  162.5000     2.2920    -9.6160    65.7830    14.8970    14.3350    15.4270    27.8930 
  162.6250     2.3060    -9.5770    67.5240    15.7220    15.1090    15.4250    28.0440 
  162.7500     2.3280    -9.5150    67.7540    16.5610    15.9100    16.1690    28.1460 
  162.8750     2.3540    -9.4180    63.4850    17.1500    16.5160    17.1980    28.2420 
  163.0000     2.3780    -9.2810    58.6540    17.2100    16.6700    18.5120    28.3410 
  163.1250     2.3920    -9.1110    60.9920    16.4950    16.1040    20.1560    28.4200 
  163.2500     2.3980    -8.8950    66.1270    15.2910    15.0360    20.6130    28.4770 
  163.3750     2.3980    -8.6000    66.8320    13.9790    13.8030    17.6100    28.5220 
  163.5000     2.3920    -8.2380    62.0700    12.9650    12.7840    12.1520    28.5410 
  163.6250     2.3710    -7.8760    59.2640    12.6090    12.3260     9.7110    28.5030 
  163.7500     2.3250    -7.5470    61.5930    12.8260    12.3980     9.8650    28.4490 
  163.8750     2.2600    -7.2520    65.8550    13.4570    12.9010    11.5950    28.4070 
  164.0000     2.1960    -6.9720    68.7860    14.2830    13.6640    13.8610    28.3820 
  164.1250     2.1580    -6.6820    69.4150    15.0510    14.4690    15.1150    28.3840 
  164.2500     2.1480    -6.4040    67.8910    15.6120    15.1300    15.5270    28.3870 
  164.3750     2.1560    -6.1830    66.2660    15.9430    15.5800    16.0770    28.4060 
