~V
VERS. 2.00: Ver 2.00
~W
STRT.M 57.0000:
STOP.M 214.0000:
STEP.M 0.1250:
NULL. -999.2500:
UWI. F10147:
~C
DEPT.M :
SP.MV :
GR.API :
RML.OHMM :
RI. :
RXO.OHMM :
CALI.CM :
DEN.GM/CC :
~A
   57.0000  -999.2500    40.3430     0.7850     0.5370     0.6130    25.4000  -999.2500 
   57.1250  -999.2500    41.0590     0.7880     0.5450     0.6130    25.4220  -999.2500 
   57.2500  -999.2500    42.5990     0.7890     0.5500     0.6130    25.4340  -999.2500 
   57.3750  -999.2500    41.8790     0.7820     0.5400     0.6110    25.4010  -999.2500 
   57.5000  -999.2500    41.7220     0.7690     0.5190     0.6040    25.3760  -999.2500 
   57.6250  -999.2500    42.4670     0.7530     0.4990     0.5860    25.3780  -999.2500 
   57.7500  -999.2500    42.6680     0.7340     0.4880     0.5560    25.3780  -999.2500 
   57.8750   -22.9750    43.4940     0.7140     0.4830     0.5260    25.3750  -999.2500 
   58.0000   -22.9750    45.5650     0.6970     0.4770     0.5040    25.3750  -999.2500 
   58.1250   -22.6150    47.0340     0.6870     0.4690     0.4940    25.3750  -999.2500 
   58.2500   -21.7680    45.6070     0.6860     0.4630     0.4900    25.3740     1.9550 
   58.3750   -20.7550    42.4120     0.6900     0.4600     0.4920    25.3740     1.9550 
   58.5000   -19.7480    40.5180     0.6980     0.4590     0.4980    25.3770     1.9560 
   58.6250   -18.7570    41.1420     0.7060     0.4610     0.5050    25.3780     1.9620 
   58.7500   -17.8090    43.5310     0.7070     0.4650     0.5100    25.3760     1.9700 
   58.8750   -16.9580    46.8070     0.7020     0.4690     0.5130    25.3800     1.9790 
   59.0000   -16.2400    49.7310     0.6940     0.4710     0.5120    25.3810     1.9880 
   59.1250   -15.6550    51.2980     0.6910     0.4690     0.5050    25.3780     2.0000 
   59.2500   -15.1900    52.7880     0.6950     0.4650     0.4970    25.3760     2.0160 
   59.3750   -14.8290    55.8800     0.6960     0.4610     0.4910    25.3770     2.0360 
   59.5000   -14.5560    59.5330     0.6810     0.4580     0.4880    25.3700     2.0570 
   59.6250   -14.3580    61.7170     0.6440     0.4550     0.4870    25.3570     2.0760 
   59.7500   -14.2090    62.1210     0.6040     0.4510     0.4870    25.3560     2.0950 
   59.8750   -14.0570    61.4380     0.5860     0.4460     0.4870    25.3570     2.1070 
   60.0000   -13.8560    60.0490     0.5900     0.4400     0.4870    25.3480     2.1060 
   60.1250   -13.5870    58.4490     0.5950     0.4340     0.4870    25.3350     2.0860 
   60.2500   -13.2550    57.7650     0.5900     0.4270     0.4870    25.3240     2.0460 
   60.3750   -12.8550    58.9370     0.5780     0.4130     0.4870    25.2980     2.0020 
   60.5000   -12.3730    61.2390     0.5650     0.3890     0.4870    25.2540     1.9700 
   60.6250   -11.8080    62.9340     0.5540     0.3570     0.4860    25.2310     1.9610 
   60.7500   -11.1690    62.8240     0.5400     0.3230     0.4840    25.2440     1.9720 
   60.8750   -10.4500    61.1880     0.5190     0.2930     0.4790    25.2730     1.9930 
   61.0000    -9.6390    59.3680     0.4830     0.2630     0.4750    25.2820     2.0120 
   61.1250    -8.7140    58.4550     0.4200     0.2290     0.4720    25.2490     2.0250 
   61.2500    -7.6440    58.1230     0.3350     0.1940     0.4730    25.1900     2.0430 
   61.3750    -6.4060    57.4170     0.2570     0.1700     0.4740    25.1470     2.0850 
   61.5000    -5.0380    56.7820     0.2130     0.1610     0.4760    25.1340     2.1590 
   61.6250    -3.5860    56.8620     0.1970     0.1580     0.4800    25.1220     2.2540 
   61.7500    -2.0950    57.4300     0.1920     0.1560     0.4840    25.0620     2.3520 
   61.8750    -0.6630    57.6120     0.1900     0.1540     0.4880    24.8830     2.4420 
   62.0000     0.6010    58.3220     0.2260     0.1490     0.4780    24.5540     2.5240 
   62.1250     1.5880    62.3010     0.3610     0.1660     0.4450    24.0920     2.6020 
   62.2500     2.2040    70.2920     0.6050     0.2610     0.6230    23.5620     2.6690 
   62.3750     2.3480    79.3180     0.9310     0.4730     1.5050    23.0460     2.6930 
   62.5000     2.0490    85.3260     1.3720     0.7920     3.0090    22.6650     2.6520 
   62.6250     1.3940    86.5890     2.0440     1.2480     4.4800    22.4030     2.5470 
   62.7500     0.4680    84.6370     3.0110     1.9380     5.4610    22.1230     2.4070 
   62.8750    -0.6230    81.8250     4.1510     2.9130     6.0120    21.8450     2.2720 
   63.0000    -1.7500    79.1790     5.1810     4.0240     6.3620    21.6760     2.1730 
   63.1250    -2.8120    76.9210     5.8830     5.0560     6.5740    21.6230     2.1150 
   63.2500    -3.7510    76.4390     6.2170     5.8740     6.7020    21.6560     2.0890 
   63.3750    -4.5180    78.6090     6.2590     6.4270     6.8540    21.8020     2.0840 
   63.5000    -5.1190    80.9130     6.1500     6.7680     7.0330    22.0570     2.0880 
   63.6250    -5.5890    81.7690     6.0160     6.9660     7.1210    22.4130     2.0980 
   63.7500    -5.9630    83.3200     5.9560     7.0660     7.0020    22.8920     2.1090 
   63.8750    -6.2810    86.1820     6.0270     7.1070     6.7340    23.2620     2.1170 
   64.0000    -6.5830    87.4600     6.1910     7.1270     6.5720    23.2430     2.1230 
   64.1250    -6.8910    86.1160     6.3690     7.1370     6.6790    22.8230     2.1280 
   64.2500    -7.2020    84.8410     6.5130     7.1290     6.9210    22.3070     2.1370 
   64.3750    -7.4950    87.7450     6.6010     7.0820     6.9910    22.0990     2.1560 
   64.5000    -7.7790    93.8780     6.6540     7.0060     6.7890    22.1860     2.1840 
   64.6250    -8.0670    97.5400     6.7220     6.9460     6.4520    22.2400     2.2180 
   64.7500    -8.3530    94.5620     6.8590     6.9770     6.1520    22.1260     2.2480 
   64.8750    -8.6310    86.1730     7.1340     7.1970     6.0740    21.9290     2.2630 
   65.0000    -8.8930    77.2860     7.5770     7.6350     6.5250    21.7630     2.2550 
   65.1250    -9.1310    69.8340     8.1330     8.2230     8.3240    21.8270     2.2260 
   65.2500    -9.3550    64.3610     8.6610     8.8180    12.2520    22.1420     2.1800 
   65.3750    -9.5610    62.5990     8.9210     9.1800    16.6320    22.3550     2.1280 
   65.5000    -9.7430    63.6320     8.7990     9.1610    17.9100    22.2360     2.0810 
   65.6250    -9.8980    64.8370     8.3710     8.7880    14.9860    21.9400     2.0500 
   65.7500   -10.0290    65.4660     7.8260     8.2220    10.4960    21.7610     2.0350 
   65.8750   -10.1340    66.4940     7.4170     7.7250     7.7510    21.8060     2.0340 
   66.0000   -10.2110    66.9000     7.3180     7.5090     7.0210    21.9450     2.0370 
   66.1250   -10.2630    65.2630     7.6030     7.6600     7.0920    22.0790     2.0400 
   66.2500   -10.2910    62.6310     8.2540     8.1460     7.4550    22.2710     2.0520 
   66.3750   -10.3090    61.9920     9.1060     8.7950     7.9720    22.4830     2.0830 
   66.5000   -10.3140    64.4010     9.8260     9.3220     8.3470    22.4580     2.1330 
   66.6250   -10.3080    68.3110    10.1180     9.4930     8.2870    22.1570     2.1880 
   66.7500   -10.2900    72.1220     9.9050     9.2370     7.8240    21.8660     2.2280 
   66.8750   -10.2570    74.8950     9.3440     8.6630     7.3100    21.7500     2.2350 
   67.0000   -10.2150    76.3290     8.7280     8.0200     7.0180    21.7230     2.2170 
   67.1250   -10.1680    76.5810     8.2540     7.5120     6.9280    21.7140     2.1940 
   67.2500   -10.1210    76.2220     7.9670     7.2150     6.9170    21.7230     2.1830 
   67.3750   -10.0770    75.7910     7.8290     7.1210     6.9170    21.7370     2.1870 
   67.5000   -10.0400    75.3050     7.7530     7.1410     6.9300    21.7580     2.1960 
   67.6250   -10.0030    74.6090     7.6810     7.1890     6.9660    21.7820     2.1980 
   67.7500    -9.9760    74.2250     7.6070     7.2240     7.0050    21.7770     2.1910 
   67.8750    -9.9630    74.5270     7.5630     7.2400     7.0170    21.7110     2.1780 
   68.0000    -9.9540    74.1380     7.5910     7.2610     7.0080    21.5810     2.1640 
   68.1250    -9.9530    71.7680     7.7170     7.3100     7.0080    21.4080     2.1500 
