~V
VERS. 2.00: Ver 2.00
~W
STRT.M 49.0000:
STOP.M 243.0000:
STEP.M 0.1250:
NULL. -999.2500:
UWI. F10196:
~C
DEPT.M :
SP.MV :
DEN.GM/CC :
GR.API :
RML.OHMM :
RI. :
RXO.OHMM :
CALI.CM :
~A
# ...
   82.7500   -33.0340     2.1620    64.0990     9.0070     7.0180    14.4570    22.1360 
   82.8750   -32.3440     2.1650    67.0180     8.8450     6.8620    13.9520    22.2340 
   83.0000   -31.6630     2.1650    68.9800     8.6880     6.7080    13.0300    22.3860 
   83.1250   -31.0550     2.1670    70.8480     8.6080     6.5880    11.8550    22.5040 
   83.2500   -30.5540     2.1730    73.6160     8.7190     6.5810    11.8820    22.5270 
   83.3750   -30.2090     2.1800    76.3270     9.0230     6.7120    11.9090    22.5210 
   83.5000   -30.0280     2.1880    76.0140     9.4670     6.9720    11.8780    22.4670 
   83.6250   -30.0160     2.2020    73.1720     9.9310     7.3050    12.0060    22.3670 
   83.7500   -30.2350     2.2240    71.9050    10.2210     7.5870    12.6620    22.2440 
   83.8750   -30.6470     2.2390    71.7960    10.2470     7.7170    13.2480    22.2040 
   84.0000   -31.1500     2.2270    69.0180    10.0350     7.6640    13.3710    22.2200 
   84.1250   -31.6440     2.1910    64.6270     9.7070     7.4770    13.1550    22.2870 
   84.2500   -32.1420     2.1570    63.7450     9.4060     7.2380    13.0030    22.3420 
   84.3750   -32.6320     2.1410    65.0370     9.1920     7.0270    12.9860    22.3470 
   84.5000   -33.0440     2.1380    64.2460     9.0460     6.8730    13.0160    22.3000 
   84.6250   -33.3090     2.1440    61.5740     8.9300     6.7730    13.1770    22.2440 
   84.7500   -33.4000     2.1500    61.4250     8.8560     6.7270    13.3680    22.2030 
   84.8750   -33.4120     2.1540    63.6490     8.9250     6.7600    13.5120    22.2250 
   85.0000   -33.3820     2.1570    65.2190     9.2590     6.9350    13.5670    22.3810 
   85.1250   -33.2460     2.1540    64.8910     9.9130     7.3040    13.3910    22.7220 
   85.2500   -32.9690     2.1370    62.2030    10.8080     7.8780    12.6460    23.2010 
   85.3750   -32.7020     2.1180    59.5700    11.6210     8.4950    12.4580    23.4910 
   85.5000   -32.4990     2.1170    61.4450    12.0170     8.9410    14.0390    23.4120 
   85.6250   -32.3530     2.1320    66.9000    11.7650     9.0040    16.3820    23.1750 
   85.7500   -32.2640     2.1350    69.8820    10.9010     8.5870    14.0490    22.9930 
   85.8750   -32.2370     2.1150    69.0770     9.9400     7.9750    11.9440    22.8230 
   86.0000   -32.2870     2.0940    66.3570     9.2200     7.4020    11.3480    22.6430 
   86.1250   -32.4190     2.0920    63.2530     8.8930     7.0210    11.8380    22.4680 
   86.2500   -32.5860     2.1070    61.9050     8.9890     6.9270    12.5440    22.4450 
   86.3750   -32.6930     2.1200    63.3170     9.3080     7.0470    13.1620    22.6690 
   86.5000   -32.7350     2.1240    64.9630     9.7070     7.2980    13.6630    22.9790 
   86.6250   -32.6980     2.1230    63.8940    10.0820     7.5970    14.0160    23.2240 
   86.7500   -32.5310     2.1230    62.3540    10.3720     7.8790    14.1370    23.3020 
   86.8750   -32.2240     2.1250    61.7400    10.5760     8.1180    14.3000    23.3130 
   87.0000   -31.8120     2.1240    62.3280    10.6860     8.2990    14.5100    23.3240 
   87.1250   -31.3780     2.1190    64.6660    10.6940     8.4050    14.8920    23.4640 
   87.2500   -30.9120     2.1180    66.3810    10.5860     8.4090    14.8490    23.4260 
   87.3750   -30.3830     2.1350    66.6950    10.3980     8.3270    14.5280    23.1650 
   87.5000   -29.7840     2.1630    67.1510    10.1610     8.1730    14.2860    22.8330 
   87.6250   -29.1860     2.1850    70.1420     9.9050     7.9710    14.4500    22.6650 
   87.7500   -28.6630     2.1840    73.2310     9.6580     7.7440    14.5210    22.6260 
   87.8750   -28.1930     2.1760    73.7960     9.4290     7.5190    14.3060    22.5940 
   88.0000   -27.7270     2.1740    74.6030     9.2140     7.3090    13.7050    22.5790 
   88.1250   -27.2610     2.1830    76.6150     9.0100     7.1170    12.6580    22.6620 
   88.2500   -26.9560     2.1960    76.1370     8.8510     6.9640    12.0830    22.8120 
   88.3750   -26.8580     2.2010    73.0260     8.7790     6.8710    11.8750    22.9660 
   88.5000   -26.9060     2.1920    72.5380     8.8240     6.8650    12.3230    23.0460 
   88.6250   -27.0460     2.1800    76.8930     8.9820     6.9580    12.5160    23.0190 
   88.7500   -27.2500     2.1760    78.8930     9.2160     7.1460    13.0970    22.9220 
   88.8750   -27.4730     2.1750    74.4980     9.4430     7.3710    14.3100    22.8140 
   89.0000   -27.6630     2.1700    68.2280     9.6080     7.5860    15.0710    22.6490 
   89.1250   -27.7400     2.1610    65.0900     9.6950     7.7630    14.8520    22.4460 
   89.2500   -27.5940     2.1550    66.1160     9.7170     7.8910    14.0590    22.4080 
   89.3750   -27.2540     2.1500    67.1170     9.7380     7.9950    13.3390    22.4980 
   89.5000   -26.7550     2.1430    64.7510     9.8140     8.1060    12.7380    22.6910 
   89.6250   -26.0910     2.1330    59.1050     9.9640     8.2520    12.4640    22.8570 
   89.7500   -25.1730     2.1220    56.4980    10.1090     8.4080    12.3860    22.8780 
   89.8750   -24.0820     2.1190    60.8250    10.1100     8.4820    12.2670    22.8040 
   90.0000   -22.8900     2.1250    69.8590     9.8790     8.3900    12.4220    22.7380 
   90.1250   -21.6090     2.1390    76.7450     9.4060     8.0940    12.6120    22.7100 
   90.2500   -20.2340     2.1610    80.0340     8.7710     7.6130    11.4910    22.6960 
   90.3750   -18.8710     2.1900    83.3250     8.1590     7.0930     9.5080    22.6750 
   90.5000   -17.6040     2.2200    87.0190     7.6800     6.6400     8.4160    22.6740 
   90.6250   -16.4870     2.2440    88.6820     7.3670     6.3120     8.2880    22.7750 
   90.7500   -15.6410     2.2550    88.7650     7.2240     6.1360     8.0900    23.1080 
   90.8750   -15.0640     2.2570    91.6980     7.1980     6.0760     7.5660    23.5240 
   91.0000   -14.7840     2.2530    95.8680     7.2840     6.1190     7.3700    23.8260 
   91.1250   -14.8920     2.2410    95.0700     7.5130     6.2760     7.4350    23.9720 
   91.2500   -15.3790     2.2270    89.1610     7.9530     6.5960     7.7120    23.8930 
   91.3750   -15.9750     2.2140    85.1910     8.5390     7.0550     8.5960    23.6040 
   91.5000   -16.5480     2.2000    82.7050     9.1400     7.5790    10.2710    23.1850 
   91.6250   -17.0940     2.1890    77.8220     9.5820     8.0360    12.1840    22.9260 
   91.7500   -17.6450     2.1900    75.5270     9.7180     8.2700    12.5540    23.1040 
   91.8750   -18.1890     2.2050    80.0060     9.6840     8.3240    11.2130    23.5630 
   92.0000   -18.7290     2.2270    84.6930     9.6830     8.3240     9.3260    23.9710 
   92.1250   -19.3270     2.2430    83.7780     9.9080     8.4250     8.6170    24.1430 
   92.2500   -20.0330     2.2470    77.3140    10.4770     8.7720     9.6600    23.8630 
   92.3750   -20.8120     2.2500    70.0290    11.2360     9.3250    12.2950    23.2510 
   92.5000   -21.6920     2.2550    63.8560    11.9840     9.9700    15.5530    22.6900 
   92.6250   -22.6700     2.2530    60.8470    12.5110    10.5340    16.8200    22.4550 
   92.7500   -23.6750     2.2340    62.0020    12.6360    10.8130    17.7120    22.5120 
   92.8750   -24.5980     2.2110    64.3350    12.4540    10.8020    20.0030    22.6820 
   93.0000   -25.3650     2.1930    68.1960    12.0940    10.5710    22.4510    22.8410 
   93.1250   -25.9210     2.1810    73.8830    11.6950    10.2380    19.9510    22.9040 
   93.2500   -26.2860     2.1730    78.2940    11.3780     9.9200    16.5890    22.8810 
   93.3750   -26.5460     2.1670    78.3520    11.1680     9.6740    14.9330    22.8700 
   93.5000   -26.7060     2.1610    73.4200    11.0510     9.5060    14.5760    22.8890 
   93.6250   -26.7500     2.1590    68.3350    10.9830     9.3970    14.9690    22.9370 
   93.7500   -26.7270     2.1680    69.1500    10.9020     9.3080    15.0350    22.9830 
   93.8750   -26.7640     2.1830    72.3950    10.7930     9.2100    14.6920    22.9940 
