~V
VERS. 2.00: Ver 2.00
~W
STRT.M 53.0000:
STOP.M 242.0000:
STEP.M 0.1250:
NULL. -999.2500:
UWI. F10177:
~C
DEPT.M :
SP.MV :
GR.API :
RML.OHMM :
RI. :
RXO.OHMM :
CALI.CM :
DEN.GM/CC :
~A
# ...
  188.0000    -9.6820    89.9370    13.1470    11.1200    11.4590    24.8320     2.3890 
  188.1250    -9.8830    86.7350    15.1190    12.9150    13.7130    24.8370     2.4080 
  188.2500   -10.1290    83.9790    17.1570    14.9580    15.9370    24.7660     2.4230 
  188.3750   -10.3910    81.3350    18.8710    16.8030    17.2700    24.6530     2.4200 
  188.5000   -10.6980    81.5160    20.1180    18.1700    18.2130    24.6220     2.4000 
  188.6250   -10.9800    84.4210    20.8820    19.0270    19.2100    24.7020     2.3730 
  188.7500   -11.2070    87.5070    21.1850    19.4330    20.1780    24.7810     2.3490 
  188.8750   -11.4080    90.2850    20.9830    19.3310    21.4330    24.8050     2.3370 
  189.0000   -11.5760    92.0640    20.4910    18.8920    22.5180    24.7940     2.3370 
  189.1250   -11.6800    91.7060    20.0500    18.4160    22.5420    24.7870     2.3440 
  189.2500   -11.7560    90.8420    20.1090    18.3350    21.3220    24.7500     2.3530 
  189.3750   -11.8360    89.2920    21.8170    19.4050    20.3860    24.6350     2.3550 
  189.5000   -11.9020    84.5970    26.3150    22.2080    21.2850    24.4750     2.3460 
  189.6250   -11.9840    78.6990    34.0830    27.4510    25.3030    24.3440     2.3270 
  189.7500   -12.1080    76.5830    43.9660    35.4620    33.0080    24.2460     2.3000 
  189.8750   -12.2290    78.2010    52.4440    44.8260    38.6000    24.1330     2.2720 
  190.0000   -12.3530    78.2460    56.1090    50.8860    38.7470    24.2260     2.2490 
  190.1250   -12.4720    77.2470    53.7930    50.2630    35.6110    24.4790     2.2380 
  190.2500   -12.5780    77.0190    47.1550    44.2420    34.2230    24.7480     2.2390 
  190.3750   -12.6260    77.9300    40.1690    37.4930    32.7100    24.8190     2.2500 
  190.5000   -12.6240    80.5320    35.6970    33.0450    28.4310    24.7870     2.2570 
  190.6250   -12.5930    83.7270    33.8950    31.1410    24.2680    24.7400     2.2550 
  190.7500   -12.5460    84.2700    33.5240    30.8170    25.5860    24.7310     2.2450 
  190.8750   -12.4490    79.8700    32.6870    30.2460    32.0070    24.7680     2.2390 
  191.0000   -12.3140    77.0300    30.4010    28.1850    36.2460    24.7910     2.2500 
  191.1250   -12.1690    83.7230    27.0120    24.9440    32.3170    24.7890     2.2760 
  191.2500   -12.0360    96.5070    23.7530    21.7930    20.2560    24.7710     2.3070 
  191.3750   -11.9500   100.4340    22.4600    20.2910    12.9200    24.7510     2.3240 
  191.5000   -11.9320    92.9100    23.8690    21.0010    12.2410    24.7610     2.3180 
  191.6250   -11.9970    82.3700    28.3500    24.4450    16.1020    24.7840     2.2920 
  191.7500   -12.1540    76.6240    35.9130    31.1280    28.1500    24.8030     2.2560 
  191.8750   -12.4330    75.1600    46.5690    41.5950    34.5380    24.8220     2.2250 
  192.0000   -12.7640    74.0820    58.6940    53.8220    36.4070    24.8290     2.2110 
  192.1250   -13.1350    72.3870    69.3800    65.2660    39.5800    24.8040     2.2130 
  192.2500   -13.5120    73.0690    77.2490    73.5730    49.7110    24.7380     2.2270 
  192.3750   -13.8940    77.8000    80.4230    76.8450    63.6140    24.6620     2.2410 
  192.5000   -14.2180    81.8300    79.7630    76.1600    68.9880    24.6750     2.2460 
  192.6250   -14.4770    81.4960    76.4450    72.7170    63.9960    24.7760     2.2400 
  192.7500   -14.6360    78.1030    72.0370    67.9950    56.7620    24.8430     2.2260 
  192.8750   -14.7140    76.3190    68.2580    63.6140    51.1920    24.8490     2.2100 
  193.0000   -14.7760    77.1270    66.0870    60.6810    52.4620    24.8520     2.2030 
  193.1250   -14.8280    78.6440    65.9040    59.6880    56.0220    24.8560     2.2080 
  193.2500   -14.8580    79.0950    67.7290    60.7110    54.5440    24.8580     2.2240 
  193.3750   -14.9000    79.0090    71.6160    63.9040    53.6430    24.8560     2.2440 
  193.5000   -14.9560    79.5590    76.8080    68.6280    65.9340    24.8550     2.2570 
  193.6250   -15.0400    79.5950    82.6800    74.3180    86.1060    24.8530     2.2610 
  193.7500   -15.1780    77.6380    88.4980    80.2000    91.3750    24.8580     2.2550 
  193.8750   -15.3520    74.6340    93.4580    85.3800    87.3720    24.8680     2.2420 
  194.0000   -15.5400    74.7830    97.4320    89.5520    90.8660    24.8780     2.2270 
  194.1250   -15.7330    78.6570   100.5830    92.8170   103.2890    24.8800     2.2110 
  194.2500   -15.9550    82.9700   103.1840    95.5170   112.8790    24.8710     2.1970 
  194.3750   -16.1150    82.9710   105.3050    97.7910   113.9160    24.8640     2.1880 
  194.5000   -16.2940    80.1940   106.9960    99.5960   112.4800    24.8610     2.1860 
  194.6250   -16.4740    77.0200   108.2810   100.9360   110.6490    24.8600     2.1880 
  194.7500   -16.6470    74.1540   109.2180   102.0200   108.3040    24.8600     2.1920 
  194.8750   -16.7730    72.5390   109.6130   102.7790   108.0340    24.8600     2.1970 
  195.0000   -16.8820    70.8300   109.2560   102.8490   112.8620    24.8610     2.2010 
  195.1250   -16.9820    67.9300   108.0880   102.0060   126.2120    24.8660     2.2030 
  195.2500   -17.0520    64.9270   106.4870   100.5730   129.6180    24.8850     2.2040 
  195.3750   -17.1400    67.3870   105.3610    99.4810   106.6620    24.9250     2.2010 
  195.5000   -17.1730    73.2620   105.3730    99.5100    90.3300    24.9610     2.1960 
  195.6250   -17.1710    76.5500   106.6250   100.8900    96.4220    24.9820     2.1920 
  195.7500   -17.1890    75.7350   108.5880   103.2050   120.5270    24.9880     2.1900 
  195.8750   -17.2280    75.6340   110.1090   105.3270   136.8480    24.9880     2.1940 
  196.0000   -17.2810    76.7190   110.3720   106.2340   124.4930    24.9880     2.2010 
  196.1250   -17.3130    75.6190   109.3530   105.7110   107.8080    24.9880     2.2060 
  196.2500   -17.3520    72.4950   107.7620   104.3900   103.4020    24.9880     2.2090 
  196.3750   -17.3820    70.5630   106.8280   103.5820   105.0050    24.9880     2.2070 
  196.5000   -17.4440    69.9100   107.1020   104.0680   106.4340    24.9880     2.2030 
  196.6250   -17.5210    69.6420   108.3420   105.7130   111.4400    24.9880     2.1970 
  196.7500   -17.5810    70.8210   109.7270   107.6790   117.9080    24.9880     2.1920 
  196.8750   -17.6770    72.0360   110.0090   108.6290   124.7730    24.9880     2.1890 
  197.0000   -17.7770    73.1870   108.7030   107.9070   122.9610    24.9880     2.1890 
  197.1250   -17.8860    73.0600   105.9250   105.4980   115.2550    24.9970     2.1930 
  197.2500   -17.9400    69.7960   102.3390   102.0170   106.0750    25.0250     2.2010 
  197.3750   -17.9780    66.7270    99.0310    98.5930    99.5800    25.0620     2.2100 
  197.5000   -18.0510    67.9360    96.7990    96.1750    94.6170    25.0320     2.2150 
  197.6250   -18.1690    72.1920    95.9320    95.1380    92.1620    24.9380     2.2140 
  197.7500   -18.2860    73.4210    96.3210    95.4290    95.6680    24.8080     2.2080 
  197.8750   -18.3380    69.3210    97.6870    96.8170   106.4330    24.7530     2.2000 
  198.0000   -18.3350    65.2910    99.4190    98.6770   106.2230    24.8440     2.1940 
  198.1250   -18.3370    62.4000   101.2010   100.6690   100.7670    24.9400     2.1920 
  198.2500   -18.3780    60.5360   102.8500   102.5340   101.2890    24.9810     2.1930 
  198.3750   -18.4250    59.2540   104.2670   104.0870   106.1260    24.9820     2.1950 
  198.5000   -18.4100    59.6060   105.4690   105.3430   114.0270    24.9380     2.1990 
  198.6250   -18.3270    62.2970   106.4060   106.2340   118.8190    24.8560     2.2040 
  198.7500   -18.1880    65.1270   107.0000   106.6150   116.6170    24.8120     2.2070 
  198.8750   -18.0840    66.5830   107.1690   106.3640   111.5400    24.9120     2.2070 
  199.0000   -17.9860    68.1300   107.0950   105.7940   109.2950    24.9690     2.2030 
  199.1250   -17.8780    70.9110   106.9760   105.2040   108.6320    24.9870     2.1970 
