~V
VERS. 2.00: Ver 2.00
~W
STRT.M 50.0000:
STOP.M 236.0000:
STEP.M 0.1250:
NULL. -999.2500:
UWI. F10180:
~C
DEPT.M :
SP.MV :
GR.API :
RML.OHMM :
RI. :
RXO.OHMM :
CALI.CM :
DEN.GM/CC :
~A
# ...
  162.5000   -10.3310    78.4960    38.0010    44.5230    48.8570    25.1050     2.3030 
  162.6250   -10.2780    72.9580    45.6100    50.6930    50.7880    25.0840     2.2760 
  162.7500   -10.2810    68.4980    51.9090    54.1270    36.0810    24.9340     2.2460 
  162.8750   -10.2690    67.3620    54.6370    53.9940    24.2250    24.6240     2.2150 
  163.0000   -10.2170    68.7310    54.4980    52.0770    19.6390    24.3160     2.1870 
  163.1250   -10.2110    69.4000    53.1920    50.0250    21.5770    24.1940     2.1660 
  163.2500   -10.2140    69.5140    52.4670    49.0210    28.6970    24.3900     2.1550 
  163.3750   -10.2260    71.0140    53.4320    49.6660    37.9890    24.8040     2.1560 
  163.5000   -10.3380    71.5210    55.6490    51.4230    45.0600    25.1090     2.1690 
  163.6250   -10.4910    69.2320    58.5720    53.8830    50.2640    25.2010     2.1940 
  163.7500   -10.6910    67.2160    61.7580    56.7850    53.3110    25.1810     2.2260 
  163.8750   -10.9630    69.4080    65.1480    60.1720    57.6940    25.0890     2.2540 
  164.0000   -11.2380    71.4330    69.0050    64.0790    62.3980    24.9470     2.2730 
  164.1250   -11.5030    70.9210    73.6390    68.4600    67.5040    24.8090     2.2810 
  164.2500   -11.8450    69.7350    79.1010    72.9720    70.3280    24.7370     2.2810 
  164.3750   -12.1900    69.6560    84.9120    76.7860    72.0510    24.7360     2.2770 
  164.5000   -12.4260    69.9860    89.9790    79.2610    76.6040    24.7690     2.2760 
  164.6250   -12.6830    71.7380    93.3860    80.1320    81.6360    24.8200     2.2800 
  164.7500   -12.9200    72.9330    94.7680    79.6900    81.2070    24.8700     2.2880 
  164.8750   -13.0760    71.6030    94.4480    78.8240    74.8130    24.9200     2.2930 
  165.0000   -13.2820    70.2940    93.8810    78.8070    78.3750    24.9610     2.2900 
  165.1250   -13.5440    70.7600    94.2130    80.5820    89.3260    24.9970     2.2790 
  165.2500   -13.7390    71.6890    96.4020    84.7250   103.4110    25.0560     2.2660 
  165.3750   -13.8800    70.7550   101.5070    91.5170   117.0480    25.1300     2.2590 
  165.5000   -14.0780    68.6680   108.9970    99.5800   119.9500    25.1860     2.2580 
  165.6250   -14.1900    67.4090   117.7860   107.3990   124.9760    25.2060     2.2620 
  165.7500   -14.2150    68.4990   125.9520   113.3460   133.3300    25.1840     2.2640 
  165.8750   -14.3010    70.5200   130.7560   115.7300   130.8100    25.1510     2.2610 
  166.0000   -14.3090    69.6080   131.7400   115.0770   117.9650    25.1200     2.2540 
  166.1250   -14.2320    67.4700   129.6580   112.3220   104.4530    25.1060     2.2480 
  166.2500   -14.2150    67.1310   126.0230   108.7110   100.2250    25.1040     2.2440 
  166.3750   -14.1840    66.9850   122.3990   105.5550    97.5960    25.1040     2.2460 
  166.5000   -14.1150    64.8020   119.7780   103.7030    96.0230    25.1090     2.2520 
  166.6250   -14.1310    64.3620   118.7450   103.7930    98.8400    25.1160     2.2600 
  166.7500   -14.1950    67.4630   119.9060   106.4360   107.4530    25.1100     2.2640 
  166.8750   -14.3230    70.3340   124.5240   112.7730   111.6970    25.0890     2.2580 
  167.0000   -14.5410    70.2100   132.6820   122.5010   112.6880    25.0450     2.2460 
  167.1250   -14.7490    66.6660   144.2620   135.0370   133.6490    24.9750     2.2330 
  167.2500   -14.8870    61.4960   158.1110   148.7410   187.7240    24.8890     2.2230 
  167.3750   -15.0700    59.5020   171.3350   160.3470   242.0990    24.8030     2.2220 
  167.5000   -15.2330    60.9980   180.7050   167.3150   210.7260    24.7720     2.2270 
  167.6250   -15.2690    62.8000   184.3490   168.4300   180.5670    24.6920     2.2340 
  167.7500   -15.2690    63.0590   181.8300   163.7010   168.7030    24.5110     2.2430 
  167.8750   -15.1970    65.1650   172.0560   152.6280   162.3870    24.3890     2.2550 
  168.0000   -15.0240    69.5250   155.4660   136.3250   160.3570    24.3220     2.2670 
  168.1250   -14.8720    70.6820   132.4480   115.6220   162.0380    24.3230     2.2740 
  168.2500   -14.7660    68.3530   105.9240    92.8510   118.9700    24.4110     2.2790 
  168.3750   -14.5930    68.7340    81.6390    72.2360    60.0040    24.6820     2.2850 
  168.5000   -14.3900    73.6370    63.2830    56.6450    29.4330    24.9240     2.2980 
  168.6250   -14.2720    77.5490    51.5300    47.1130    21.2610    25.0770     2.3140 
  168.7500   -14.1420    76.1470    45.4750    43.5160    23.9780    25.1500     2.3280 
  168.8750   -13.9470    73.2280    44.8310    46.4310    36.2110    25.1890     2.3280 
  169.0000   -13.8360    72.0850    48.6540    54.9610    65.8500    25.2160     2.3170 
  169.1250   -13.7000    70.4140    57.5700    69.0300   101.1450    25.2480     2.3020 
  169.2500   -13.4630    66.9140    72.2630    87.4710   117.3110    25.2990     2.2880 
  169.3750   -13.2700    63.4630    92.3770   106.6900   126.9510    25.3580     2.2760 
  169.5000   -13.0840    62.2880   112.3750   121.2550   126.4000    25.3880     2.2610 
  169.6250   -12.8420    63.2040   126.0880   127.3770   126.8580    25.4060     2.2460 
  169.7500   -12.6380    64.1180   129.2270   124.1030   138.8730    25.4120     2.2350 
  169.8750   -12.4230    65.0130   121.0410   113.0280   147.8420    25.3940     2.2370 
  170.0000   -12.2210    65.6700   108.2480    99.6820   121.7970    25.3410     2.2490 
  170.1250   -12.1410    68.7000    95.3550    87.3140    83.0480    25.2900     2.2650 
  170.2500   -12.1270    75.7540    84.9250    77.7390    67.4410    25.2480     2.2760 
  170.3750   -12.1060    83.4500    78.2100    71.9930    66.9160    25.2360     2.2810 
  170.5000   -12.1740    87.0390    74.3450    69.1500    73.5240    25.2310     2.2820 
  170.6250   -12.3090    86.9020    72.8180    68.6290    81.2070    25.2270     2.2840 
  170.7500   -12.4230    85.6540    73.1740    69.8590    83.2400    25.2130     2.2860 
  170.8750   -12.5960    83.5630    75.1710    72.5180    78.7070    25.1960     2.2850 
  171.0000   -12.7010    78.9540    78.0650    75.9370    79.1410    25.2050     2.2800 
  171.1250   -12.6760    73.8160    81.3120    79.5860    92.5710    25.2180     2.2720 
  171.2500   -12.6440    71.6380    84.2600    82.7260   107.0500    25.2060     2.2670 
  171.3750   -12.6440    73.5170    85.9810    84.2670   107.0490    25.1490     2.2710 
  171.5000   -12.5810    75.3600    86.1650    83.9910   100.8160    25.0970     2.2820 
  171.6250   -12.4870    74.2650    84.8110    82.1050    96.3890    25.1000     2.2960 
  171.7500   -12.4560    71.7360    82.2540    79.2370    90.3930    25.1560     2.3070 
  171.8750   -12.3910    70.7000    78.9590    76.1840    83.6750    25.2460     2.3090 
  172.0000   -12.2750    70.6890    75.5550    73.5350    82.2490    25.3060     2.3060 
  172.1250   -12.2200    71.5680    72.3610    71.4580    83.9500    25.3270     2.3000 
  172.2500   -12.1540    71.5850    69.5890    69.9060    76.4130    25.2960     2.2930 
  172.3750   -12.0130    70.4770    67.4710    68.7250    70.2170    25.2390     2.2860 
  172.5000   -11.8960    70.3610    65.8790    67.5560    69.4760    25.1690     2.2810 
  172.6250   -11.7730    72.2970    64.5200    66.1270    70.5310    25.0780     2.2820 
  172.7500   -11.5700    74.3790    62.9300    64.2840    74.5300    24.9490     2.2890 
  172.8750   -11.4060    73.4500    60.6660    62.0780    70.2350    24.8540     2.3020 
  173.0000   -11.2810    72.0920    58.0190    59.9450    67.7310    24.7950     2.3130 
  173.1250   -11.1470    72.9910    55.5990    58.3110    64.2230    24.7460     2.3170 
  173.2500   -11.1000    75.3140    54.0490    57.4630    57.8820    24.7180     2.3140 
  173.3750   -11.1290    74.9340    53.8350    57.4380    59.8730    24.7120     2.3070 
  173.5000   -11.1470    71.6380    54.4340    57.6840    63.5090    24.7120     2.3060 
  173.6250   -11.2260    68.8520    55.2260    57.7560    66.1170    24.7130     2.3140 
