~V
VERS. 2.00: Ver 2.00
~W
STRT.M 54.0000:
STOP.M 236.0000:
STEP.M 0.1250:
NULL. -999.2500:
UWI. F10195:
~C
DEPT.M :
GR.API :
RML.OHMM :
RI. :
RXO.OHMM :
CALI.CM :
SP.MV :
DEN.GM/CC :
~A
# ...
  200.2500    59.7840    82.9570    75.9990    65.8290    24.7150   -30.7630     2.2650 
  200.3750    59.5270    93.3000    85.1220    73.7330    24.7510   -30.7110     2.2780 
  200.5000    60.0970   102.9820    93.2660    81.8970    24.8220   -30.7600     2.2860 
  200.6250    60.9490   111.3260    99.9270    92.5940    24.8420   -30.8120     2.2850 
  200.7500    64.1550   116.4420   103.6720   104.8040    24.7790   -30.7860     2.2750 
  200.8750    67.4280   117.5300   104.0020   110.5250    24.7350   -30.7270     2.2630 
  201.0000    66.9490   115.0500   101.2300   105.7790    24.7900   -30.7180     2.2530 
  201.1250    62.9170   111.2070    97.0290    92.7430    24.8700   -30.7330     2.2480 
  201.2500    59.4690   109.5420    94.2730    80.4860    24.8960   -30.6380     2.2510 
  201.3750    59.5150   112.1310    94.9200    75.0030    24.8380   -30.4520     2.2630 
  201.5000    61.9800   119.8810    99.9500    83.4020    24.7160   -30.2340     2.2850 
  201.6250    64.1880   132.6080   109.4000   108.2360    24.5160   -30.0680     2.3230 
  201.7500    62.2450   149.0630   122.4780   154.4500    24.2650   -29.9500     2.3850 
  201.8750    57.0550   165.9580   136.5140   188.1540    24.1200   -29.7960     2.4420 
  202.0000    52.3040   181.9050   150.3370   175.2790    24.1510   -29.5690     2.4540 
  202.1250    50.5940   198.1350   164.7710   161.8260    24.2550   -29.3050     2.4330 
  202.2500    51.4890   218.9630   183.3130   169.0520    24.1630   -29.0940     2.4490 
  202.3750    53.0710   244.6230   206.3550   221.6780    24.0070   -28.9290     2.5180 
  202.5000    54.2410   264.9290   227.1750   344.6600    23.9290   -28.7640     2.6020 
  202.6250    52.8780   254.5020   228.3030   481.6090    23.9120   -28.5900     2.6500 
  202.7500    48.3410   193.4680   186.5560   447.2530    23.9030   -28.4330     2.6550 
  202.8750    46.0090   123.3310   124.5540   278.1760    23.8790   -28.2940     2.6550 
  203.0000    49.1130    71.5820    71.6630   135.9910    23.8170   -28.1880     2.6580 
  203.1250    55.8900    40.8370    38.9520    63.3820    23.7450   -28.1450     2.6510 
  203.2500    63.1980    24.8960    23.6680    28.2920    23.6820   -28.2030     2.6070 
  203.3750    72.0180    14.7950    16.0150    14.8940    23.6430   -28.3190     2.5370 
  203.5000    82.3840    11.5060    12.1800    11.9850    23.6150   -28.4670     2.4710 
  203.6250    90.4250    10.1310    10.3230    12.3270    23.5660   -28.6450     2.4270 
  203.7500    91.4110     9.9700     9.7720    13.1400    23.5040   -28.8510     2.4030 
  203.8750    87.6240    10.2940     9.8870    13.4610    23.4090   -29.0270     2.3870 
  204.0000    83.5100    10.7590    10.3510    13.2910    23.3020   -29.0830     2.3780 
  204.1250    82.1680    11.1700    10.9070    12.8110    23.2560   -28.9750     2.3750 
  204.2500    81.1990    11.5220    11.4370    13.6700    23.2830   -28.6500     2.3850 
  204.3750    79.6970    11.9640    12.0100    14.9360    23.3520   -28.1750     2.4050 
  204.5000    77.9030    12.5370    12.6800    14.4310    23.4900   -27.5770     2.4280 
  204.6250    77.8200    13.1210    13.3580    12.5040    23.5910   -26.8270     2.4480 
  204.7500    77.8860    13.3680    13.6870    13.4450    23.6320   -25.9290     2.4660 
  204.8750    76.9800    13.0600    13.3890    16.2610    23.6300   -25.0500     2.4860 
  205.0000    77.6680    12.1800    12.4370    16.2520    23.6360   -24.3180     2.5000 
  205.1250    82.6500    10.9730    11.1210    11.9060    23.6580   -23.7560     2.4960 
  205.2500    90.4990     9.8730     9.8780     8.4420    23.6700   -23.3250     2.4770 
  205.3750    94.3420     9.1410     8.9520     7.8530    23.6780   -22.9540     2.4570 
  205.5000    92.8620     8.7950     8.3860     8.7160    23.6830   -22.6380     2.4440 
  205.6250    91.8220     8.7040     8.1110     9.8580    23.7040   -22.3950     2.4360 
  205.7500    93.6720     8.6550     8.0100     9.7030    23.7780   -22.2340     2.4300 
  205.8750    93.8200     8.5400     7.9440     8.8530    23.9130   -22.0870     2.4220 
  206.0000    90.7200     8.4550     7.9290     7.9810    24.0720   -21.8540     2.4160 
  206.1250    86.6390     8.5710     8.0570     7.5510    24.2130   -21.4550     2.4140 
  206.2500    85.4670     8.9950     8.4240     7.8890    24.3060   -20.9340     2.4180 
  206.3750    87.8790     9.5200     8.9090     9.0480    24.2910   -20.3420     2.4270 
  206.5000    93.4820     9.8660     9.2830    10.7580    24.1770   -19.6670     2.4400 
  206.6250    98.3090     9.7720     9.2870    12.0300    24.0610   -18.9100     2.4540 
  206.7500    93.1990     9.1090     8.7510    10.9480    23.9940   -18.0470     2.4600 
  206.8750    81.3370     8.2090     7.9520     8.2780    23.9720   -17.1100     2.4470 
  207.0000    69.9650     7.3820     7.1620     6.5210    23.9630   -16.2190     2.4200 
  207.1250    63.5270     6.8260     6.5690     5.8800    23.9260   -15.4620     2.3900 
  207.2500    61.5990     6.6250     6.2800     5.7830    23.9350   -14.8190     2.3610 
  207.3750    63.3200     6.6130     6.2030     5.7990    23.9720   -14.2750     2.3330 
  207.5000    68.6970     6.6470     6.2330     5.8040    23.8170   -13.8720     2.3190 
  207.6250    73.6670     6.6250     6.2540     5.6740    23.5420   -13.6550     2.3310 
  207.7500    76.8880     6.5250     6.1880     5.4490    23.4540   -13.6700     2.3620 
  207.8750    83.0060     6.4330     6.0850     5.4110    23.5070   -13.8440     2.3850 
  208.0000    91.3430     6.4220     6.0220     5.5090    23.5360   -14.0870     2.3950 
  208.1250    95.0240     6.5280     6.0570     5.7210    23.5690   -14.3630     2.4030 
  208.2500    91.3370     6.7370     6.2000     6.0190    23.5820   -14.7170     2.4100 
  208.3750    87.0260     6.9590     6.3630     6.5510    23.5950   -15.1260     2.4120 
  208.5000    84.9810     7.1330     6.4740     7.0580    23.5980   -15.5490     2.4090 
  208.6250    84.5980     7.2520     6.5110     6.9420    23.5710   -15.9260     2.4040 
  208.7500    84.3120     7.3970     6.5340     6.6410    23.4890   -16.2260     2.4000 
  208.8750    84.2090     7.6980     6.6520     6.7380    23.3930   -16.4600     2.3890 
  209.0000    84.7590     8.2660     6.9530     7.5380    23.3440   -16.6520     2.3640 
  209.1250    85.9850     9.1500     7.4950     9.0230    23.3730   -16.8230     2.3290 
  209.2500    86.4390    10.3370     8.3270    10.4570    23.4660   -16.9920     2.3020 
  209.3750    84.4060    11.6310     9.3410    11.6990    23.4950   -17.1620     2.2880 
  209.5000    80.1740    12.8730    10.4230    12.7370    23.4790   -17.2990     2.2800 
  209.6250    75.1520    13.9490    11.4470    13.4870    23.4480   -17.3780     2.2740 
  209.7500    71.9060    14.8080    12.3110    14.2130    23.3210   -17.4060     2.2680 
  209.8750    70.7220    15.5190    13.0320    14.8000    23.2190   -17.4730     2.2630 
  210.0000    71.5760    16.1050    13.6220    15.2810    23.3170   -17.5860     2.2510 
  210.1250    72.3880    16.5660    14.0760    15.8810    23.4370   -17.6840     2.2320 
  210.2500    72.2130    16.9020    14.3740    16.0860    23.3270   -17.6840     2.2210 
  210.3750    73.0640    17.1920    14.5850    15.7150    23.3100   -17.6100     2.2240 
  210.5000    74.3450    17.5190    14.7910    15.3820    23.5220   -17.5320     2.2350 
  210.6250    74.3890    17.9580    15.0670    15.6730    23.6630   -17.5190     2.2520 
  210.7500    74.0140    18.5570    15.4680    16.7900    23.6630   -17.5770     2.2800 
  210.8750    74.5240    19.2330    15.9510    17.9700    23.6510   -17.5920     2.3120 
  211.0000    74.1790    19.8840    16.4540    17.8680    23.6870   -17.5340     2.3260 
  211.1250    71.9970    20.4030    16.9190    17.8380    23.7500   -17.4640     2.3140 
  211.2500    72.3130    20.6930    17.2870    18.4030    23.7880   -17.4300     2.2900 
  211.3750    74.3500    20.7940    17.5500    18.9370    23.8060   -17.4060     2.2750 
