~V
VERS. 2.00: Ver 2.00
~W
STRT.M 50.0000:
STOP.M 246.0000:
STEP.M 0.1250:
NULL. -999.2500:
UWI. F10164:
~C
DEPT.M :
GR.API :
RML.OHMM :
RI. :
RXO.OHMM :
CALI.CM :
SP.MV :
DEN.GM/CC :
~A
# ...
  207.5000    88.2450    13.3100    12.8130    16.2890    25.6060   -12.2680     2.3270 
  207.6250    89.5170    12.7060    12.2510    15.2530    25.6960   -11.9640     2.3200 
  207.7500    91.3310    12.1970    11.7350    14.0860    25.7040   -11.7670     2.3170 
  207.8750    93.0500    11.8540    11.3440    13.0120    25.6400   -11.6480     2.3170 
  208.0000    93.2000    11.7020    11.1150    12.8350    25.5640   -11.5230     2.3190 
  208.1250    91.7960    11.7610    11.0770    13.6730    25.5330   -11.4250     2.3230 
  208.2500    92.5100    11.9990    11.2010    14.2680    25.5390   -11.3710     2.3270 
  208.3750    94.1850    12.4510    11.5100    14.1890    25.5870   -11.3520     2.3290 
  208.5000    92.8570    13.1770    12.0560    14.0310    25.6620   -11.3890     2.3300 
  208.6250    89.7010    14.3090    12.9640    14.8290    25.6960   -11.4220     2.3320 
  208.7500    88.4170    15.8250    14.2490    16.8470    25.6920   -11.4190     2.3380 
  208.8750    88.0120    17.7020    15.9250    19.9830    25.6660   -11.4030     2.3460 
  209.0000    84.8040    19.8610    17.9510    23.7490    25.6440   -11.4380     2.3500 
  209.1250    80.9780    22.2050    20.2590    26.6870    25.6310   -11.4530     2.3400 
  209.2500    80.2500    24.5700    22.6650    28.5970    25.6070   -11.4830     2.3150 
  209.3750    79.9870    26.8090    25.0290    30.7490    25.5500   -11.5000     2.2810 
  209.5000    77.3580    28.7080    27.1570    33.9620    25.4870   -11.4440     2.2470 
  209.6250    74.6510    29.8030    28.6390    37.9360    25.3660   -11.4250     2.2270 
  209.7500    74.7110    29.8800    29.2090    40.9210    25.3650   -11.4350     2.2200 
  209.8750    75.8010    28.8390    28.6830    41.4300    25.5500   -11.4800     2.2240 
  210.0000    74.4140    26.8630    27.1410    38.1610    25.7110   -11.5230     2.2340 
  210.1250    74.7220    24.3650    24.8910    32.6050    25.7510   -11.5160     2.2460 
  210.2500    79.6110    21.9530    22.5620    28.1010    25.7420   -11.5080     2.2580 
  210.3750    86.2720    19.9730    20.5340    24.8740    25.7360   -11.4960     2.2680 
  210.5000    90.1150    18.6150    19.0420    22.2770    25.7110   -11.5170     2.2790 
  210.6250    88.8170    18.0690    18.3130    20.4540    25.6900   -11.5250     2.2890 
  210.7500    86.3780    18.1500    18.2550    19.5050    25.6890   -11.4440     2.2950 
  210.8750    84.9200    18.7580    18.8190    19.3640    25.6550   -11.3130     2.2930 
  211.0000    84.6140    20.3370    19.9170    20.2850    25.5430   -11.2060     2.2860 
  211.1250    84.2180    23.3970    21.4830    22.8550    25.3940   -11.1690     2.2770 
  211.2500    81.7160    26.8520    23.2940    25.9690    25.1730   -11.1780     2.2720 
  211.3750    78.0550    29.5460    25.1710    27.9440    24.8680   -11.2010     2.2710 
  211.5000    75.5430    31.1030    26.8770    29.1080    24.5110   -11.2300     2.2720 
  211.6250    76.0780    31.7550    28.0090    32.9750    24.4320   -11.2320     2.2720 
  211.7500    77.2480    31.6440    28.3840    39.9080    24.8320   -11.2820     2.2720 
  211.8750    77.8140    30.7050    27.9430    43.7050    25.3880   -11.3920     2.2730 
  212.0000    78.3120    29.1990    26.8440    38.2770    25.6920   -11.4800     2.2760 
  212.1250    79.3110    27.5470    25.4180    30.3830    25.7380   -11.6350     2.2800 
  212.2500    80.1550    26.1770    24.1140    26.7000    25.7270   -11.7490     2.2830 
  212.3750    80.3590    25.2710    23.1610    26.3100    25.7380   -11.8680     2.2840 
  212.5000    80.4240    24.8240    22.6230    26.8540    25.7540   -11.9750     2.2810 
  212.6250    81.5940    24.7150    22.4410    26.8610    25.7590   -12.0910     2.2780 
  212.7500    83.0650    24.7230    22.3970    26.7290    25.7770   -12.2130     2.2750 
  212.8750    81.6530    24.8230    22.4230    26.6790    25.8160   -12.2850     2.2750 
  213.0000    77.5600    25.1340    22.5870    26.7230    25.8390   -12.3590     2.2770 
  213.1250    77.1110    25.9280    23.1240    26.6770    25.8380   -12.3200     2.2790 
  213.2500    80.7820    27.2560    24.1260    26.6500    25.8310   -12.2740     2.2750 
  213.3750    82.3550    29.0570    25.5890    27.9460    25.8160   -12.1690     2.2650 
  213.5000    79.5370    31.1290    27.3660    31.8420    25.8310   -12.0360     2.2530 
  213.6250    77.3760    33.1680    29.1840    37.8940    25.8540   -11.9320     2.2470 
  213.7500    77.1470    34.9720    30.7920    41.4210    25.8400   -11.8440     2.2500 
  213.8750    75.9810    36.5550    32.1400    40.0400    25.7650   -11.8190     2.2580 
  214.0000    74.2820    38.1150    33.3590    37.3620    25.7880   -11.7490     2.2630 
  214.1250    73.8840    40.0140    34.7600    38.3070    25.8200   -11.7700     2.2560 
  214.2500    73.0370    42.3870    36.5360    43.0730    25.8430   -11.8370     2.2390 
  214.3750    70.2500    45.1530    38.6750    49.3970    25.8430   -11.9550     2.2170 
  214.5000    67.4690    48.0500    40.9760    53.3480    25.8430   -12.1520     2.1950 
  214.6250    68.6540    50.7100    43.1260    54.2150    25.8420   -12.3240     2.1780 
  214.7500    71.3480    52.9690    44.9710    54.8170    25.8310   -12.4570     2.1700 
  214.8750    80.1030    54.7720    46.4720    55.6740    25.8000   -12.5260     2.1790 
  215.0000    99.5970    56.0800    47.6090    56.6860    25.7650   -12.5730     2.2100 
  215.1250   111.7870    56.7540    48.2680    59.2650    25.7340   -12.5880     2.2610 
  215.2500   101.5060    56.9470    48.5390    63.4430    25.6770   -12.5820     2.3150 
  215.3750    80.1820    56.8730    48.5830    64.2050    25.4910   -12.5850     2.3600 
  215.5000    69.6630    56.7930    48.6260    57.8490    25.1980   -12.5550     2.3900 
  215.6250    77.5590    56.8270    48.8070    54.4670    25.0950   -12.5060     2.4060 
  215.7500    89.2090    56.7140    48.9400    61.2350    25.1210   -12.4480     2.4070 
  215.8750    95.1380    56.0120    48.6570    77.5980    25.1960   -12.4400     2.3830 
  216.0000    90.1330    54.3000    47.5720    88.9100    25.3060   -12.5180     2.3290 
  216.1250    81.5650    51.2260    45.2990    74.3690    25.4210   -12.6360     2.2520 
  216.2500    77.3490    47.2600    42.1470    55.8820    25.5990   -12.7650     2.1830 
  216.3750    77.0970    42.9370    38.5310    44.5980    25.7770   -12.8770     2.1420 
  216.5000    76.6420    38.8860    34.9990    38.8440    25.8620   -12.9450     2.1350 
  216.6250    78.3930    35.8520    32.2470    34.5520    25.9460   -13.0030     2.1530 
  216.7500    80.1290    33.9940    30.5100    30.2020    25.9940   -13.0460     2.1800 
  216.8750    80.6190    33.2200    29.7910    26.7310    25.9640   -13.0470     2.2230 
  217.0000    80.0790    33.0670    29.7660    25.7400    25.8950   -13.0060     2.2900 
  217.1250    78.9150    32.5410    29.6110    29.0080    25.7750   -12.9320     2.3850 
  217.2500    79.0950    30.7070    28.3610    33.6080    25.5770   -12.7960     2.4790 
  217.3750    80.8210    27.2070    25.5330    34.1470    25.1950   -12.6460     2.5410 
  217.5000    81.5520    22.5270    21.3710    29.0420    24.2730   -12.5360     2.5490 
  217.6250    78.4680    17.7860    16.7910    20.8790    22.4090   -12.4230     2.5000 
  217.7500    75.9320    13.8170    12.8120    13.6680    20.2490   -12.2680     2.4320 
  217.8750    77.3490    10.7890     9.8040     9.0700    18.4440   -12.0850     2.3730 
  218.0000    79.8880     8.6230     7.7380     6.6430    17.0660   -11.9200     2.3420 
  218.1250    78.2170     7.2920     6.4870     5.6200    16.5800   -11.8050     2.3410 
  218.2500    76.8340     6.4690     5.7050     5.5370    17.1210   -11.8070     2.3560 
  218.3750    82.2240     5.9980     5.2580     5.9260    18.6060   -11.8770     2.3750 
  218.5000    92.0860     5.7980     5.0690     5.8250    20.4460   -11.9690     2.3930 
  218.6250   100.6470     5.8530     5.1220     5.2210    21.9110   -12.0480     2.4010 
