~V
VERS. 2.00: Ver 2.00
~W
STRT.M 58.0000:
STOP.M 228.0000:
STEP.M 0.1250:
NULL. -999.2500:
UWI. F10151:
~C
DEPT.M :
SP.MV :
GR.API :
RML.OHMM :
RI. :
RXO.OHMM :
CALI.CM :
DEN.GM/CC :
~A
# ...
  136.7500    -4.6390    68.5610    15.2470    14.2590    13.7170    23.8340     2.5180 
  136.8750    -4.6580    69.8250    15.1580    14.3440    13.7280    23.7490     2.5160 
  137.0000    -4.7610    71.7050    15.0190    14.3770    14.0420    23.6850     2.5090 
  137.1250    -4.8580    73.9530    14.8750    14.3690    14.5650    23.6730     2.4970 
  137.2500    -4.9400    74.5490    14.7760    14.3590    14.3310    23.6830     2.4770 
  137.3750    -5.0270    74.3930    14.7620    14.3880    13.6290    23.6770     2.4510 
  137.5000    -5.1130    77.0870    14.8390    14.4740    13.4430    23.7130     2.4250 
  137.6250    -5.2770    83.5610    14.9570    14.5880    13.6080    23.8320     2.4140 
  137.7500    -5.4590    89.2110    14.9930    14.6240    13.9590    23.9320     2.4210 
  137.8750    -5.6610    90.6280    14.8370    14.4580    14.4630    23.8650     2.4420 
  138.0000    -5.8570    86.6990    14.4360    14.0090    14.5280    23.7020     2.4670 
  138.1250    -6.0710    81.1070    13.8270    13.3000    13.1090    23.5660     2.4830 
  138.2500    -6.3210    78.6470    13.2440    12.5680    12.3150    23.4120     2.4860 
  138.3750    -6.6100    79.0870    12.9640    12.0480    12.0760    23.3100     2.4770 
  138.5000    -6.9080    79.7220    13.3280    12.0050    11.9620    23.3420     2.4590 
  138.6250    -7.1830    80.2030    14.9460    12.9210    12.9500    23.5940     2.4260 
  138.7500    -7.4750    81.6500    18.0410    15.0390    15.0010    23.9210     2.3800 
  138.8750    -7.8100    81.2800    22.7990    18.7230    18.2930    24.2830     2.3240 
  139.0000    -8.2020    75.5570    29.0510    24.2080    24.7820    24.6130     2.2700 
  139.1250    -8.6110    67.3830    35.9910    31.2530    42.4900    24.8350     2.2350 
  139.2500    -9.0700    63.8910    42.1360    38.0920    61.8570    24.9280     2.2240 
  139.3750    -9.5540    66.4140    46.5940    43.2410    56.0070    24.8920     2.2310 
  139.5000   -10.0610    72.4920    49.4180    46.3660    44.2690    24.8170     2.2450 
  139.6250   -10.6070    75.8850    51.7320    48.4740    45.3870    24.7550     2.2540 
  139.7500   -11.1310    74.9500    55.0730    51.2560    50.9810    24.7340     2.2570 
  139.8750   -11.6260    71.5580    60.1590    55.5970    60.0900    24.7230     2.2580 
  140.0000   -12.0220    69.7810    66.8980    61.6220    67.2200    24.7230     2.2590 
  140.1250   -12.3680    71.4810    74.3750    68.6380    74.7910    24.7300     2.2580 
  140.2500   -12.6500    72.7250    80.9670    75.0870    82.1370    24.7260     2.2530 
  140.3750   -12.8600    71.0500    85.4040    79.7030    89.4160    24.7310     2.2450 
  140.5000   -13.0280    67.8530    86.9090    81.6180    92.4630    24.7810     2.2370 
  140.6250   -13.1270    68.6150    85.1200    80.3130    95.2470    24.8320     2.2320 
  140.7500   -13.1780    73.6150    81.5370    77.1420    89.8440    24.9150     2.2300 
  140.8750   -13.1720    77.0930    77.4330    73.3290    82.3010    25.0000     2.2310 
  141.0000   -13.1500    75.2380    73.9240    69.9890    74.5870    25.0370     2.2340 
  141.1250   -13.1620    70.7890    71.9230    68.0360    66.9420    24.9610     2.2390 
  141.2500   -13.2390    68.5990    71.3010    67.3870    62.9660    24.8340     2.2440 
  141.3750   -13.3500    70.0610    71.7270    67.7770    65.0360    24.8090     2.2440 
  141.5000   -13.5340    72.6060    72.6310    68.7050    69.4430    24.9380     2.2360 
  141.6250   -13.7660    72.8980    73.2120    69.3900    73.5690    25.0730     2.2180 
  141.7500   -14.0600    70.4340    72.9160    69.2210    68.9110    25.1400     2.1990 
  141.8750   -14.3910    67.1960    71.5710    67.9990    63.3630    25.1820     2.1870 
  142.0000   -14.7070    66.3660    69.3910    65.9280    73.0290    25.2120     2.1890 
  142.1250   -14.9780    68.8860    66.9030    63.5380    75.2240    25.3050     2.2030 
  142.2500   -15.1880    71.0460    64.7780    61.4890    67.2400    25.3710     2.2180 
  142.3750   -15.3350    71.0580    63.4220    60.1440    61.0720    25.3610     2.2280 
  142.5000   -15.4310    68.9230    63.0660    59.6950    61.6050    25.3420     2.2320 
  142.6250   -15.4520    66.8200    63.9840    60.3920    66.4640    25.3630     2.2340 
  142.7500   -15.4090    66.1930    65.9970    62.0820    67.3570    25.3880     2.2380 
  142.8750   -15.3170    67.6760    69.0420    64.7140    65.2110    25.3980     2.2470 
  143.0000   -15.1880    70.8260    72.9170    68.1690    66.1120    25.4260     2.2590 
  143.1250   -15.0160    72.1210    76.9960    72.0510    70.2780    25.5160     2.2690 
  143.2500   -14.7970    71.1650    80.0990    75.2270    74.1190    25.5830     2.2660 
  143.3750   -14.5680    68.6270    81.1530    76.4510    72.9220    25.6250     2.2390 
  143.5000   -14.2580    65.9670    79.6780    74.9810    74.8890    25.7040     2.1840 
  143.6250   -13.9410    63.1420    76.0930    71.0630    68.8330    25.9570     2.1090 
  143.7500   -13.6330    60.4600    72.3350    66.7710    52.6770    26.3440     2.0460 
  143.8750   -13.3640    57.8000    69.8170    63.6370    36.9650    26.5170     2.0180 
  144.0000   -13.1690    55.4810    69.3320    62.5410    33.2710    26.1020     2.0360 
  144.1250   -12.9800    56.1560    71.1880    63.8650    51.3940    25.5520     2.0880 
  144.2500   -12.8550    60.3900    74.4280    66.6830    77.6140    25.4370     2.1390 
  144.3750   -12.7490    65.9900    78.4240    70.3580    91.0910    26.0930     2.1630 
  144.5000   -12.7010    70.2390    82.7660    74.4640    90.9490    27.3720     2.1530 
  144.6250   -12.6880    71.6030    87.2200    78.9370    95.6840    28.0030     2.1210 
  144.7500   -12.6590    71.9740    91.2400    83.4720   102.7130    27.2910     2.0980 
  144.8750   -12.6310    71.7790    93.6880    87.1200   108.7840    26.2980     2.1020 
  145.0000   -12.6050    71.9350    93.0370    88.1870   112.7280    24.9180     2.1340 
  145.1250   -12.5710    72.3180    87.6070    84.3470   120.0090    24.2570     2.1810 
  145.2500   -12.5380    70.9810    78.8460    76.6340   113.4080    23.9630     2.2190 
  145.3750   -12.5090    68.2660    68.7230    67.0830    88.3840    23.9150     2.2420 
  145.5000   -12.4640    67.6860    59.2960    57.9460    59.9670    23.8630     2.2500 
  145.6250   -12.4300    70.9610    52.2280    51.0030    46.1100    23.8020     2.2490 
  145.7500   -12.3810    74.9590    47.2780    46.1300    40.3130    23.7360     2.2430 
  145.8750   -12.3070    75.7180    43.8470    42.7550    40.5970    23.7060     2.2370 
  146.0000   -12.2140    73.8220    41.2350    40.1380    38.1480    23.7060     2.2360 
  146.1250   -12.1740    71.5820    39.0900    37.8820    36.0260    23.7130     2.2520 
  146.2500   -12.1270    70.7550    37.5020    36.0870    32.5600    23.7090     2.2850 
  146.3750   -12.1190    72.5300    36.9690    35.1980    28.7620    23.6940     2.3220 
  146.5000   -12.1370    75.7870    38.0660    35.7140    25.4230    23.6600     2.3430 
  146.6250   -12.1550    78.3000    41.5990    38.4190    25.0350    23.6270     2.3270 
  146.7500   -12.1980    77.4330    47.2890    43.2060    29.8090    23.6080     2.2830 
  146.8750   -12.2120    75.6780    54.8030    49.8740    35.8020    23.6150     2.2300 
  147.0000   -12.2650    75.6650    63.5310    57.8460    45.3220    23.6640     2.1890 
  147.1250   -12.2780    74.3790    72.7480    66.2530    58.6790    23.7510     2.1710 
  147.2500   -12.2460    69.6760    81.7870    74.2800    71.8960    23.9360     2.1680 
  147.3750   -12.1710    66.3140    90.3730    81.7200    90.4480    24.0910     2.1700 
  147.5000   -12.0410    66.0810    98.2760    88.5580   113.6200    24.1760     2.1710 
  147.6250   -11.8790    66.3180   104.9060    94.3510   124.6740    24.3420     2.1720 
  147.7500   -11.6790    65.8620   110.1060    98.8240   120.1450    24.5560     2.1770 
  147.8750   -11.4830    65.8530   114.0210   102.0480   119.0190    24.8570     2.1870 
