~V
VERS. 2.00: Ver 2.00
~W
STRT.M 62.0000:
STOP.M 275.0000:
STEP.M 0.1250:
NULL. -999.2500:
UWI. F10141:
~C
DEPT.M :
GR.API :
RML.OHMM :
RI. :
RXO.OHMM :
CALI.CM :
DEN.GM/CC :
SP.MV :
~A
# ...
   84.5000    56.0330    11.2190     9.2620     9.6090    24.6520     2.1390   -10.4380 
   84.6250    56.4040    11.1910     9.1540     9.3280    24.4480     2.1380   -10.0710 
   84.7500    57.7740    11.0460     8.9840     9.3260    24.2120     2.1450    -9.6630 
   84.8750    60.6210    10.7200     8.7130     9.8200    24.0440     2.1530    -9.2060 
   85.0000    64.0690    10.2130     8.3480    10.1920    23.9860     2.1530    -8.6970 
   85.1250    66.0440     9.7050     8.0070    10.2450    24.0020     2.1410    -8.1240 
   85.2500    66.0450     9.5970     7.9170    10.0490    24.0250     2.1310    -7.5390 
   85.3750    63.9350    10.4630     8.3790     9.7880    24.0530     2.1420    -6.9600 
   85.5000    59.8740    13.0600     9.8600    10.3390    24.1100     2.1970    -6.3880 
   85.6250    57.1540    18.7400    13.4710    14.5110    24.3050     2.3170    -5.7720 
   85.7500    58.1610    27.4230    19.6040    27.5560    24.5410     2.4740    -5.0480 
   85.8750    62.2130    37.4740    27.5550    60.7810    24.6950     2.6310    -4.2650 
   86.0000    67.6840    43.6810    33.5920   120.7410    24.7280     2.7400    -3.4750 
   86.1250    72.4460    38.7420    31.2510   157.3940    24.6310     2.7540    -2.6930 
   86.2500    76.1790    27.9580    23.6350    81.4070    24.4990     2.6920    -1.9140 
   86.3750    82.2880    18.0320    16.0310    26.4300    24.4470     2.5880    -1.1770 
   86.5000    91.7760    11.5480    10.7860     9.7620    24.5710     2.4830    -0.5270 
   86.6250    97.6950     8.4180     8.0150     6.7660    24.6370     2.4090    -0.0590 
   86.7500    96.4720     7.0680     6.5710     6.0930    24.5660     2.3640     0.2800 
   86.8750    92.0250     6.8570     6.0200     6.0830    24.3580     2.3430     0.5130 
   87.0000    88.2210     7.3380     6.1050     6.4040    24.1470     2.3420     0.6380 
   87.1250    84.0980     8.1320     6.6250     7.2120    24.0830     2.3610     0.6800 
   87.2500    80.4460     8.8190     7.2250     7.8340    24.1540     2.3850     0.7190 
   87.3750    80.4110     9.1570     7.6590     9.0030    24.2280     2.4020     0.7470 
   87.5000    83.8500     9.0490     7.7730     9.4060    24.2730     2.4020     0.7710 
   87.6250    87.4570     8.5600     7.5340     7.7400    24.3850     2.3820     0.8310 
   87.7500    89.1390     8.0100     7.1680     6.6410    24.4960     2.3560     0.8730 
   87.8750    90.5010     7.5850     6.8240     6.2420    24.5680     2.3310     0.8780 
   88.0000    91.9740     7.3470     6.5660     6.4390    24.6110     2.3130     0.8480 
   88.1250    90.8830     7.2480     6.3910     6.7150    24.6010     2.3040     0.7800 
   88.2500    87.5620     7.1550     6.2270     6.6690    24.5950     2.3050     0.6730 
   88.3750    87.0390     7.0140     6.0390     6.2410    24.6180     2.3150     0.5550 
   88.5000    91.8590     6.8510     5.8440     5.8160    24.7010     2.3310     0.4410 
   88.6250    98.4780     6.7440     5.6900     5.4720    24.8160     2.3470     0.2590 
   88.7500   102.4640     6.7070     5.5920     5.6300    24.8770     2.3600    -0.0110 
   88.8750   103.8920     6.7180     5.5410     6.0670    24.8950     2.3690    -0.3550 
   89.0000   102.7790     6.7590     5.5330     6.4340    24.8890     2.3750    -0.7800 
   89.1250   101.1560     6.8550     5.5830     6.2610    24.8780     2.3650    -1.3410 
   89.2500    99.7130     7.0410     5.6990     5.9400    24.8940     2.3310    -2.0710 
   89.3750    96.2880     7.3440     5.8920     5.9160    24.9480     2.2710    -3.0010 
   89.5000    89.5320     7.7360     6.1490     6.9470    25.0290     2.2020    -4.1280 
   89.6250    81.3450     8.1110     6.4230     8.3830    25.1040     2.1530    -5.3340 
   89.7500    75.8470     8.3440     6.6360     9.0750    25.1220     2.1360    -6.4830 
   89.8750    73.5330     8.4060     6.7570     8.9000    25.1960     2.1450    -7.4850 
   90.0000    73.3280     8.4020     6.8260     8.2440    25.3580     2.1640    -8.2620 
   90.1250    72.8430     8.5540     6.9550     8.1230    25.5580     2.1800    -8.7080 
   90.2500    72.2400     8.9320     7.2000     8.0650    25.6710     2.1940    -8.8030 
   90.3750    72.1950     9.4360     7.5190     8.1720    25.5730     2.2150    -8.4920 
   90.5000    72.9620     9.8270     7.7810     8.1090    25.1240     2.2460    -7.7920 
   90.6250    76.3750     9.7550     7.7630     7.9810    24.5100     2.2800    -6.7360 
   90.7500    84.0140     9.2340     7.4480     7.1470    24.2780     2.3090    -5.4970 
   90.8750    92.3800     8.4900     6.9590     6.4530    24.3300     2.3280    -4.2320 
   91.0000    96.0520     7.8350     6.4850     6.3970    24.5130     2.3400    -3.0190 
   91.1250    93.3540     7.5390     6.2020     6.4370    24.5900     2.3510    -1.9850 
   91.2500    88.2680     7.5730     6.1280     6.3240    24.5510     2.3600    -1.1870 
   91.3750    83.4470     7.8180     6.2230     6.4270    24.4330     2.3620    -0.6680 
   91.5000    80.7590     8.0950     6.3960     6.7430    24.3480     2.3560    -0.4080 
   91.6250    81.3340     8.2360     6.5380     6.8880    24.3210     2.3450    -0.3730 
   91.7500    82.2360     8.2400     6.6080     6.8360    24.3150     2.3400    -0.4750 
   91.8750    82.6430     8.1540     6.6160     6.8140    24.3170     2.3450    -0.6660 
   92.0000    84.7480     8.0300     6.5910     6.7470    24.3240     2.3570    -0.9410 
   92.1250    89.3510     7.9230     6.5650     6.8250    24.3830     2.3700    -1.2570 
   92.2500    92.7270     7.8870     6.5750     6.7610    24.4380     2.3790    -1.5660 
   92.3750    91.3440     7.9600     6.6450     6.7380    24.4080     2.3790    -1.8490 
   92.5000    86.6870     8.1450     6.7810     7.0690    24.3240     2.3700    -2.1350 
   92.6250    81.6920     8.3960     6.9610     7.2950    24.2260     2.3520    -2.5140 
   92.7500    78.3560     8.6140     7.1230     7.9680    24.1610     2.3310    -2.9980 
   92.8750    77.8970     8.7330     7.2220     9.0270    24.1090     2.3160    -3.5240 
   93.0000    80.2030     8.7500     7.2440     8.8050    24.0240     2.3070    -4.0440 
   93.1250    81.9670     8.7410     7.2250     7.9530    23.9050     2.3020    -4.5440 
   93.2500    80.2550     8.8130     7.2340     7.4480    23.8050     2.2950    -5.0510 
   93.3750    77.8020     8.9970     7.3070     7.6720    23.8660     2.2830    -5.5630 
   93.5000    76.3910     9.2570     7.4420     7.9300    24.0420     2.2680    -6.0790 
   93.6250    74.0540     9.5050     7.6140     8.4720    24.2150     2.2530    -6.5780 
   93.7500    70.5040     9.7080     7.7990     8.9090    24.4110     2.2340    -7.0160 
   93.8750    68.5300    10.0080     8.0550     9.3560    24.7080     2.2140    -7.4230 
   94.0000    69.5380    10.7360     8.5460     9.7150    24.9440     2.2000    -7.8340 
   94.1250    71.1470    12.4550     9.6040    10.6220    24.9890     2.2180    -8.2430 
   94.2500    71.7690    15.1690    11.3260    12.4480    24.9550     2.2790    -8.5710 
   94.3750    70.6970    18.5060    13.6270    17.5140    24.9390     2.3730    -8.8200 
   94.5000    68.5150    21.4890    15.9950    29.9710    24.9310     2.4630    -9.0130 
   94.6250    65.0560    22.3380    17.1480    42.7060    24.8340     2.4960    -9.2060 
   94.7500    61.2250    20.7910    16.5610    33.3620    24.6410     2.4650    -9.4590 
   94.8750    60.1300    17.8120    14.7530    17.7180    24.4270     2.3920    -9.7700 
   95.0000    62.8500    14.8250    12.7080    11.5130    24.2880     2.3150   -10.0800 
   95.1250    67.3100    12.9110    11.2080    10.5810    24.2290     2.2690   -10.3800 
   95.2500    70.0350    12.0270    10.3420    10.6290    24.2050     2.2520   -10.7470 
   95.3750    70.3080    11.8940    10.0190    10.6950    24.2010     2.2510   -11.1820 
   95.5000    69.3180    12.1400    10.0620    10.6250    24.2370     2.2520   -11.6450 
   95.6250    67.9650    12.4260    10.2790    10.4770    24.2450     2.2460   -12.0680 
