~V
VERS. 2.00: Ver 2.00
~W
STRT.M 52.0000:
STOP.M 236.0000:
STEP.M 0.1250:
NULL. -999.2500:
UWI. F10181:
~C
DEPT.M :
GR.API :
RML.OHMM :
RI. :
RXO.OHMM :
CALI.CM :
DEN.GM/CC :
SP.MV :
~A
# ...
  175.7500    74.1410    48.0680    49.3800    39.3760    23.8560     2.2930   -12.1420 
  175.8750    75.5990    45.7630    45.6500    38.0620    23.8370     2.3060   -12.1150 
  176.0000    74.3480    44.8860    44.7990    38.8620    23.8150     2.3150   -12.1000 
  176.1250    71.3180    46.0440    46.3170    35.9020    23.8270     2.3200   -12.0920 
  176.2500    69.9600    49.2290    49.6640    33.4140    23.8710     2.3200   -12.0720 
  176.3750    70.5750    55.0290    55.0670    32.9670    23.9150     2.3170   -12.0380 
  176.5000    71.2570    63.6120    62.9830    34.0700    23.9330     2.3130   -11.9830 
  176.6250    70.2710    75.6950    74.3930    37.7580    23.9360     2.3060   -11.8840 
  176.7500    67.9400    90.8120    88.7600    52.4810    23.9410     2.2950   -11.7390 
  176.8750    65.6250   108.2520   105.2420    75.8310    23.9930     2.2760   -11.5620 
  177.0000    64.4780   126.4830   122.1930   104.8590    24.0770     2.2510   -11.3170 
  177.1250    63.3630   142.6850   136.7450   128.2500    24.1140     2.2240   -11.0000 
  177.2500    60.3090   154.6650   146.9370   136.0920    24.1310     2.2020   -10.6400 
  177.3750    56.2230   161.3350   151.8870   133.4170    24.1490     2.1900   -10.2200 
  177.5000    52.3560   163.1120   152.1320   128.5630    24.1330     2.1850    -9.7480 
  177.6250    51.0820   161.2310   148.9730   123.4970    24.0870     2.1860    -9.2650 
  177.7500    54.6600   158.1070   144.8180   118.9620    24.1210     2.1870    -8.7900 
  177.8750    60.2610   154.8510   140.8380   119.8150    24.2300     2.1850    -8.3240 
  178.0000    62.5800   151.9580   137.5990   130.2970    24.3100     2.1790    -7.9170 
  178.1250    58.5940   149.5550   135.3150   135.5520    24.3310     2.1720    -7.5840 
  178.2500    55.4000   147.3650   133.6080   135.3690    24.3430     2.1650    -7.3120 
  178.3750    58.3540   145.0990   132.1140   133.0390    24.3770     2.1580    -7.1190 
  178.5000    64.9710   142.4530   130.4530   128.8110    24.4130     2.1490    -6.9830 
  178.6250    67.5620   138.9710   128.1380   125.8620    24.4460     2.1430    -6.8600 
  178.7500    64.2490   134.4960   124.9490   123.3230    24.4240     2.1490    -6.7260 
  178.8750    58.9630   128.9870   120.7850   122.1390    24.3150     2.1770    -6.5780 
  179.0000    55.2650   122.6510   115.7760   117.5500    24.1040     2.2340    -6.4270 
  179.1250    53.9290   115.6660   110.0350   103.7820    23.8490     2.3190    -6.2390 
  179.2500    52.7620   108.0950   103.6450    94.6680    23.7040     2.4130    -6.0210 
  179.3750    51.6660    99.6640    96.3800    90.5460    23.6740     2.5030    -5.7790 
  179.5000    51.3670    90.1360    88.0420    94.6290    23.6750     2.5780    -5.5290 
  179.6250    53.2790    79.6000    78.6360   102.2570    23.6900     2.6290    -5.2850 
  179.7500    56.8460    69.0170    68.9870   102.9590    23.7010     2.6560    -5.0350 
  179.8750    60.1450    59.1600    59.7740    86.8860    23.6910     2.6580    -4.7700 
  180.0000    61.3030    50.3530    51.2860    66.9910    23.6810     2.6450    -4.4790 
  180.1250    59.7820    42.4920    43.3950    50.4450    23.6950     2.6300    -4.2250 
  180.2500    58.5090    35.0470    35.7180    40.9690    23.7000     2.6210    -3.9960 
  180.3750    58.1520    27.9110    28.2900    38.6440    23.6890     2.6150    -3.7900 
  180.5000    58.0390    21.3040    21.4640    36.6750    23.6520     2.6060    -3.6060 
  180.6250    58.2730    15.8470    15.9340    27.5760    23.6170     2.5840    -3.4640 
  180.7500    57.5330    11.6810    11.7520    15.0380    23.5990     2.5550    -3.3700 
  180.8750    54.2700     8.7860     8.8060     7.8060    23.5720     2.5270    -3.3230 
  181.0000    50.6700     6.9320     6.8300     5.0450    23.4750     2.5080    -3.3370 
  181.1250    49.8100     5.8840     5.6100     4.6110    23.4150     2.5000    -3.3820 
  181.2500    49.9660     5.2310     4.7940     4.7100    23.5360     2.4960    -3.4550 
  181.3750    49.0900     4.8230     4.2540     4.3780    23.7930     2.4890    -3.5470 
  181.5000    48.1360     4.6060     3.9330     3.4510    23.9550     2.4760    -3.6780 
  181.6250    49.6060     4.6210     3.8560     2.7150    23.9880     2.4600    -3.8350 
  181.7500    51.5430     4.8510     3.9940     2.6870    23.9640     2.4450    -4.0170 
  181.8750    51.9230     5.2730     4.3320     3.2760    23.9140     2.4330    -4.2390 
  182.0000    49.7500     5.8200     4.8230     4.3010    23.8760     2.4240    -4.4830 
  182.1250    48.1070     6.3710     5.3800     5.0480    23.8640     2.4130    -4.7290 
  182.2500    49.4610     6.8090     5.8790     5.7740    23.8640     2.3990    -4.9770 
  182.3750    53.8130     7.0850     6.2460     6.7910    23.8640     2.3840    -5.2210 
  182.5000    59.9770     7.2120     6.4550     8.2980    23.8380     2.3700    -5.4350 
  182.6250    64.8960     7.2550     6.5300     9.8770    23.7500     2.3600    -5.6410 
  182.7500    65.4080     7.2990     6.5560    10.3190    23.6310     2.3560    -5.8410 
  182.8750    61.5970     7.3770     6.5730     9.4340    23.5810     2.3570    -6.0360 
  183.0000    57.5730     7.4940     6.6000     8.1850    23.5790     2.3610    -6.2220 
  183.1250    58.2710     7.6450     6.6480     7.0900    23.5830     2.3670    -6.4170 
  183.2500    60.4740     7.7730     6.7190     6.7310    23.5830     2.3740    -6.5910 
  183.3750    60.4540     7.8630     6.8120     6.9820    23.5830     2.3790    -6.7650 
  183.5000    57.0440     7.8890     6.9140     7.6230    23.5830     2.3800    -6.9420 
  183.6250    51.8080     7.7570     6.9990     8.1580    23.5850     2.3760    -7.1080 
  183.7500    47.6060     7.7150     7.0460     7.7040    23.5880     2.3710    -7.2430 
  183.8750    45.4410     7.7010     7.0480     6.9100    23.5890     2.3650    -7.3240 
  184.0000    45.4440     7.6900     7.0130     6.8890    23.5700     2.3620    -7.3620 
  184.1250    47.5360     7.7090     6.9740     8.2840    23.3830     2.3630    -7.3560 
  184.2500    51.3860     7.7780     6.9730    11.0490    22.8890     2.3660    -7.3470 
  184.3750    56.3770     7.9300     7.0390    13.7340    22.2840     2.3740    -7.3240 
  184.5000    60.7460     8.1760     7.1850    13.3210    22.1840     2.3850    -7.2950 
  184.6250    64.2450     8.5080     7.4060    13.1480    22.7100     2.3970    -7.2670 
  184.7500    69.2250     8.8590     7.6510    15.5180    23.1860     2.4050    -7.2490 
  184.8750    76.5800     9.1600     7.8650    17.7570    23.2280     2.4030    -7.2490 
  185.0000    83.2400     9.3370     7.9860    16.3400    22.8260     2.3870    -7.2700 
  185.1250    86.5660     9.3080     7.9430    12.5870    22.2380     2.3580    -7.3020 
  185.2500    87.7660     9.1140     7.7610    10.7120    21.8080     2.3280    -7.3340 
  185.3750    87.1500     8.8240     7.4900     9.8640    21.6110     2.3080    -7.3890 
  185.5000    86.0130     8.5300     7.2000     9.4310    21.6290     2.2990    -7.4770 
  185.6250    89.6840     8.3330     6.9740     8.9970    22.0690     2.2940    -7.5610 
  185.7500    96.4520     8.2530     6.8390     8.6870    23.1300     2.2850    -7.6380 
  185.8750   100.0830     8.2630     6.7880     8.6340    24.5230     2.2680    -7.7070 
  186.0000    97.1560     8.3090     6.7940     8.7490    25.4050     2.2460    -7.7760 
  186.1250    90.6800     8.3310     6.8200     8.7910    25.2810     2.2290    -7.8580 
  186.2500    84.3630     8.2980     6.8330     8.3460    25.1250     2.2160    -7.9740 
  186.3750    80.7410     8.2200     6.8280     7.8180    25.5830     2.2080    -8.1120 
  186.5000    82.4940     8.1470     6.8280     7.4410    26.2160     2.2020    -8.2450 
  186.6250    87.0180     8.1730     6.8920     7.2950    26.4290     2.2020    -8.3810 
  186.7500    88.3270     8.3350     7.0510     7.2200    26.2600     2.2080    -8.5320 
  186.8750    86.4500     8.6320     7.3160     7.3500    26.0170     2.2210    -8.6600 
