~V
VERS. 2.00: Ver 2.00
~W
STRT.M 59.0000:
STOP.M 212.0000:
STEP.M 0.1250:
NULL. -999.2500:
UWI. F10143:
~C
DEPT.M :
GR.API :
RML.OHMM :
RI. :
RXO.OHMM :
CALI.CM :
SP.MV :
DEN.GM/CC :
~A
# ...
  126.5000    45.1870    23.4370    22.7880    21.8700    25.2280   -18.8900     2.4740 
  126.6250    47.7450    23.0820    22.7400    22.8270    25.2280   -18.8810     2.4870 
  126.7500    50.0760    22.6450    22.4930    23.2390    25.2280   -18.8540     2.4890 
  126.8750    51.5590    22.2030    21.9950    22.4460    25.2220   -18.7940     2.4850 
  127.0000    51.2860    21.7770    21.2940    19.9780    25.2070   -18.7190     2.4810 
  127.1250    49.6800    21.3410    20.5460    19.2030    25.1730   -18.6540     2.4790 
  127.2500    50.1220    20.9110    19.9320    19.5710    25.1460   -18.5970     2.4720 
  127.3750    51.7330    20.5630    19.5440    19.3880    25.1160   -18.5410     2.4550 
  127.5000    51.1320    20.4040    19.3950    18.6740    25.0960   -18.5000     2.4300 
  127.6250    48.2980    20.5270    19.4720    18.9160    25.1000   -18.4650     2.4130 
  127.7500    46.5190    20.8180    19.6810    20.0530    25.1260   -18.4510     2.4020 
  127.8750    45.6110    21.1640    19.9880    21.2640    25.1610   -18.4650     2.3900 
  128.0000    44.9360    21.4920    20.3660    21.2950    25.1980   -18.4940     2.3740 
  128.1250    46.8030    21.7700    20.7320    20.8610    25.2100   -18.5230     2.3650 
  128.2500    50.5900    21.9440    20.9580    20.0040    25.2060   -18.5390     2.3690 
  128.3750    52.8840    21.9060    20.9320    20.0980    25.2100   -18.5420     2.3880 
  128.5000    52.7010    21.5460    20.5860    21.4740    25.2200   -18.5420     2.4170 
  128.6250    52.0100    20.7850    19.8860    21.6350    25.2120   -18.5260     2.4430 
  128.7500    52.0390    19.8300    18.9870    19.4290    25.1820   -18.5060     2.4530 
  128.8750    52.4540    18.8960    18.0340    17.2570    25.1640   -18.4860     2.4560 
  129.0000    52.4750    18.1690    17.1820    16.4090    25.1750   -18.4570     2.4580 
  129.1250    52.1540    17.8190    16.6210    16.4080    25.2100   -18.4170     2.4580 
  129.2500    51.0390    17.8060    16.3760    15.8170    25.2240   -18.3750     2.4540 
  129.3750    49.8870    18.0600    16.4280    15.6410    25.2270   -18.3410     2.4470 
  129.5000    49.5750    18.4860    16.7050    16.4500    25.2210   -18.3170     2.4350 
  129.6250    50.6030    18.9600    17.0940    16.8080    25.2130   -18.3290     2.4150 
  129.7500    50.0380    19.3540    17.4650    16.0530    25.2230   -18.3620     2.3890 
  129.8750    45.8510    19.6240    17.7590    15.3790    25.2550   -18.4190     2.3700 
  130.0000    41.0420    19.7730    17.9450    17.2120    25.2470   -18.5120     2.3760 
  130.1250    40.2510    19.7720    17.9810    21.1710    25.1300   -18.6570     2.4150 
  130.2500    41.0100    19.6110    17.8580    22.8280    24.9510   -18.8380     2.4600 
  130.3750    41.0730    19.2770    17.5450    18.6470    24.8070   -19.0290     2.4810 
  130.5000    42.5260    18.7960    17.0380    15.3290    24.7200   -19.2080     2.4730 
  130.6250    46.4070    18.2380    16.3790    14.7780    24.6970   -19.3650     2.4550 
  130.7500    49.0290    17.7170    15.7130    15.0400    24.7200   -19.5010     2.4450 
  130.8750    51.1570    17.2950    15.1360    14.8450    24.7370   -19.6040     2.4410 
  131.0000    55.5620    16.9830    14.7060    13.6920    24.7480   -19.6780     2.4320 
  131.1250    59.7070    16.8060    14.4590    12.8580    24.7790   -19.6980     2.4190 
  131.2500    61.1870    16.7460    14.3420    12.6750    24.8120   -19.6650     2.4130 
  131.3750    62.3260    16.8000    14.3320    13.2140    24.8370   -19.6150     2.4170 
  131.5000    62.8270    16.9790    14.4040    13.8010    24.8410   -19.5620     2.4320 
  131.6250    58.8550    17.2710    14.5140    13.8730    24.8440   -19.5070     2.4530 
  131.7500    52.7560    17.5660    14.5910    13.7490    24.8390   -19.4490     2.4760 
  131.8750    48.8790    17.7680    14.5970    13.7390    24.8150   -19.3950     2.4960 
  132.0000    48.7430    17.8260    14.5410    14.2320    24.7960   -19.3360     2.5100 
  132.1250    49.8210    17.7650    14.4770    14.7360    24.7880   -19.2760     2.5190 
  132.2500    49.9470    17.7040    14.4530    14.6670    24.7760   -19.2200     2.5230 
  132.3750    50.5740    17.7310    14.4910    14.2450    24.7490   -19.1500     2.5230 
  132.5000    53.0280    17.8710    14.5930    14.2930    24.7570   -19.0610     2.5190 
  132.6250    55.9500    18.0820    14.7610    15.2200    24.8440   -18.9540     2.5140 
  132.7500    57.1170    18.3090    15.0050    16.2720    24.9820   -18.8450     2.5070 
  132.8750    56.3850    18.5450    15.3410    16.9460    25.0810   -18.7300     2.4970 
  133.0000    55.6980    18.8080    15.7600    17.6700    25.1530   -18.6280     2.4880 
  133.1250    55.2570    19.1730    16.2550    18.6080    25.1970   -18.5590     2.4860 
  133.2500    54.4710    19.6900    16.8150    19.4940    25.2040   -18.5360     2.4860 
  133.3750    53.9540    20.2910    17.3940    19.4910    25.1950   -18.5640     2.4820 
  133.5000    55.0890    20.6990    17.8110    19.2820    25.2120   -18.6400     2.4650 
  133.6250    57.5480    20.3270    17.6040    20.4260    25.2380   -18.7500     2.4360 
  133.7500    59.2070    18.9600    16.5880    21.6840    25.2710   -18.8720     2.4010 
  133.8750    61.7030    16.7110    14.8570    20.0900    25.2910   -18.9900     2.3570 
  134.0000    66.9850    14.0110    12.7910    14.6000    25.2970   -19.0980     2.3060 
  134.1250    71.9290    11.4750    10.8750     9.7390    25.2970   -19.1650     2.2640 
  134.2500    74.0910     9.4850     9.3360     8.0190    25.3010   -19.1830     2.2450 
  134.3750    75.1470     8.1510     8.2030     8.0010    25.3180   -19.1600     2.2460 
  134.5000    77.0930     7.4030     7.4200     7.9140    25.3500   -19.0980     2.2560 
  134.6250    79.8480     7.1040     6.9420     6.8120    25.3780   -18.9940     2.2670 
  134.7500    82.3650     6.9730     6.6470     5.6420    25.4070   -18.8750     2.2730 
  134.8750    83.8600     6.9040     6.4730     5.0900    25.4230   -18.7740     2.2740 
  135.0000    84.3770     6.8580     6.3710     4.9590    25.3940   -18.6950     2.2690 
  135.1250    85.0730     6.8430     6.3100     4.9870    25.3290   -18.6660     2.2650 
  135.2500    85.6560     6.8620     6.2560     5.0110    25.2640   -18.6830     2.2650 
  135.3750    86.0920     6.8960     6.1950     5.0400    25.2280   -18.7320     2.2660 
  135.5000    87.9830     6.9260     6.1250     5.0820    25.2040   -18.8170     2.2670 
  135.6250    90.8140     6.9580     6.0580     5.1360    25.1840   -18.9510     2.2670 
  135.7500    91.1230     6.9990     6.0130     5.2830    25.2080   -19.1070     2.2670 
  135.8750    87.6970     7.0350     6.0040     5.4920    25.2570   -19.2720     2.2620 
  136.0000    84.6280     7.0690     6.0500     5.7850    25.2890   -19.4340     2.2530 
  136.1250    85.3060     7.2020     6.2250     6.4220    25.2970   -19.5660     2.2440 
  136.2500    85.7300     7.5800     6.5910     7.3080    25.2970   -19.6780     2.2410 
  136.3750    83.4680     8.3460     7.2120     7.9710    25.2900   -19.7800     2.2470 
  136.5000    80.1310     9.5800     8.1180     8.6620    25.2720   -19.8730     2.2650 
  136.6250    76.8230    11.2700     9.3220    10.6220    25.2420   -19.9550     2.2990 
  136.7500    72.5820    13.0650    10.6480    14.8370    25.2420   -20.0260     2.3390 
  136.8750    68.6900    14.5990    11.8980    18.1340    25.2680   -20.0680     2.3570 
  137.0000    67.1850    15.5880    12.8600    16.9480    25.2900   -20.0870     2.3450 
  137.1250    66.4330    15.8690    13.3300    14.5880    25.2970   -20.1030     2.3230 
  137.2500    66.2380    15.6800    13.3780    14.4170    25.2960   -20.1260     2.3190 
  137.3750    67.8320    15.1550    13.0630    15.6220    25.2920   -20.1450     2.3240 
  137.5000    70.6490    14.3680    12.4560    16.1180    25.2860   -20.1540     2.3200 
  137.6250    73.5770    13.3860    11.6170    14.5470    25.2910   -20.1630     2.2960 
