~V
VERS. 2.00: Ver 2.00
~W
STRT.M 50.0000:
STOP.M 268.0000:
STEP.M 0.1250:
NULL. -999.2500:
UWI. F10199:
~C
DEPT.M :
GR.API :
RML.OHMM :
RI. :
RXO.OHMM :
CALI.CM :
DEN.GM/CC :
SP.MV :
~A
# ...
  140.0000    41.5770    21.1270    19.1430    15.5570    23.1920     2.5180    -5.1210 
  140.1250    44.1010    20.0260    18.2740    14.9790    23.1210     2.5030    -5.0640 
  140.2500    49.6440    18.8660    17.3270    13.9910    23.0540     2.4730    -5.0720 
  140.3750    54.9270    17.9430    16.5390    12.7440    22.9930     2.4330    -5.1070 
  140.5000    57.9620    17.5390    16.1480    11.9970    22.9250     2.3910    -5.1390 
  140.6250    58.6660    17.9390    16.4190    12.2190    22.8760     2.3630    -5.1850 
  140.7500    58.6240    18.9470    17.2450    13.0820    22.8690     2.3500    -5.2030 
  140.8750    57.2140    20.2460    18.4150    14.1620    22.8950     2.3510    -5.1850 
  141.0000    54.4050    21.3600    19.5470    15.1080    22.9490     2.3580    -5.1880 
  141.1250    51.9940    21.6480    20.0500    15.6430    23.0420     2.3630    -5.2350 
  141.2500    52.8320    20.9960    19.6950    15.5630    23.1580     2.3630    -5.2800 
  141.3750    54.7690    19.5760    18.5510    14.5500    23.2970     2.3620    -5.3190 
  141.5000    54.2330    17.8050    16.9660    13.0890    23.4520     2.3620    -5.3410 
  141.6250    50.7500    16.1860    15.4030    12.0700    23.6020     2.3650    -5.2930 
  141.7500    48.0990    14.9530    14.1360    11.8390    23.7400     2.3660    -5.2980 
  141.8750    47.7390    14.1290    13.2270    11.8760    23.8430     2.3640    -5.3300 
  142.0000    48.3190    13.6690    12.6630    11.5810    23.8990     2.3610    -5.3470 
  142.1250    48.8720    13.6030    12.4850    10.9920    23.9300     2.3640    -5.3220 
  142.2500    48.9640    13.8960    12.6550    10.7000    23.9600     2.3740    -5.3100 
  142.3750    49.0030    14.5680    13.1910    11.0740    23.9860     2.3880    -5.3120 
  142.5000    50.5080    15.5770    14.0730    12.0890    24.0220     2.3990    -5.2800 
  142.6250    53.8790    16.7690    15.2120    13.7800    24.0620     2.4020    -5.2660 
  142.7500    56.0400    17.8380    16.3310    15.5130    24.0890     2.4000    -5.2980 
  142.8750    54.1730    18.5390    17.1810    16.5440    24.1160     2.3940    -5.3120 
  143.0000    50.7290    18.7350    17.5780    16.9380    24.1470     2.3870    -5.2860 
  143.1250    49.2260    18.3810    17.4060    16.5420    24.1610     2.3800    -5.2700 
  143.2500    49.2320    17.7400    16.8890    16.0000    24.1670     2.3730    -5.2250 
  143.3750    50.3130    17.0030    16.2130    15.5360    24.1710     2.3670    -5.2020 
  143.5000    52.8030    16.2990    15.5220    15.1520    24.1590     2.3630    -5.2430 
  143.6250    54.8410    15.6970    14.9070    14.7010    24.1390     2.3620    -5.3220 
  143.7500    54.5740    15.1950    14.3800    14.3720    24.1280     2.3670    -5.3340 
  143.8750    53.2030    14.8110    13.9560    13.9980    24.1200     2.3780    -5.3420 
  144.0000    52.0610    14.5820    13.6630    13.3900    24.1180     2.3930    -5.4200 
  144.1250    51.2530    14.5830    13.5700    12.8980    24.1370     2.4090    -5.5620 
  144.2500    50.8610    14.7870    13.6620    12.5680    24.1640     2.4210    -5.7070 
  144.3750    50.4100    15.1450    13.9120    12.6370    24.1990     2.4230    -5.8010 
  144.5000    49.3760    15.5740    14.2600    12.8800    24.2400     2.4150    -5.8780 
  144.6250    48.6380    15.9700    14.6210    13.4160    24.2600     2.3980    -5.9940 
  144.7500    48.7360    16.2780    14.9260    13.8440    24.2490     2.3810    -6.1000 
  144.8750    49.1460    16.5040    15.1630    14.2290    24.2180     2.3690    -6.1940 
  145.0000    50.3720    16.7030    15.3620    14.3900    24.1570     2.3630    -6.2930 
  145.1250    52.3930    16.9730    15.5990    14.5760    24.0750     2.3590    -6.3860 
  145.2500    55.2440    17.3730    15.9330    14.6830    23.9990     2.3530    -6.4850 
  145.3750    57.9010    17.9200    16.3920    14.6940    23.9290     2.3480    -6.5700 
  145.5000    60.5030    18.5780    16.9590    14.7230    23.8670     2.3480    -6.5980 
  145.6250    62.8130    19.2600    17.5760    14.8710    23.8460     2.3550    -6.5800 
  145.7500    63.6630    19.8540    18.1390    15.4070    23.8630     2.3680    -6.5950 
  145.8750    61.4450    20.2750    18.5690    16.3000    23.9310     2.3810    -6.6240 
  146.0000    57.3270    20.4830    18.8140    17.1340    24.0260     2.3930    -6.5980 
  146.1250    55.7020    20.4660    18.8470    17.5000    24.1020     2.4030    -6.5140 
  146.2500    57.2480    20.3440    18.7600    17.9910    24.1360     2.4100    -6.4480 
  146.3750    57.8900    20.2130    18.6350    18.1770    24.1310     2.4130    -6.4510 
  146.5000    56.2790    20.1440    18.5390    17.8030    24.0820     2.4080    -6.5190 
  146.6250    55.3660    20.1550    18.5000    17.5980    24.0140     2.4000    -6.5830 
  146.7500    56.6990    20.1750    18.4750    17.5030    23.9640     2.3950    -6.6350 
  146.8750    59.8760    20.1260    18.4060    17.6560    23.9180     2.4010    -6.7280 
  147.0000    63.3580    19.9560    18.2470    17.7170    23.8630     2.4150    -6.8790 
  147.1250    64.3040    19.6620    17.9870    17.4590    23.8130     2.4340    -7.0480 
  147.2500    63.5200    19.3530    17.7020    17.1630    23.7520     2.4500    -7.1720 
  147.3750    61.7630    19.1310    17.4770    16.9110    23.6970     2.4590    -7.2490 
  147.5000    59.6450    19.0730    17.3810    16.6890    23.6630     2.4590    -7.3000 
  147.6250    58.7520    19.2110    17.4570    16.6110    23.6060     2.4480    -7.3650 
  147.7500    59.7110    19.4390    17.6310    16.4210    23.5200     2.4330    -7.4250 
  147.8750    59.8820    19.6460    17.8150    16.1950    23.4310     2.4170    -7.4160 
  148.0000    56.8060    19.7310    17.9180    15.9740    23.3430     2.4030    -7.3850 
  148.1250    54.0410    19.6060    17.8490    15.8400    23.2670     2.3950    -7.3790 
  148.2500    54.6390    19.3170    17.6280    15.7850    23.2060     2.3910    -7.4070 
  148.3750    56.1210    18.9280    17.3060    15.6740    23.1390     2.3900    -7.4340 
  148.5000    56.8050    18.5190    16.9500    15.4220    23.0520     2.3940    -7.5200 
  148.6250    58.3310    18.1510    16.6220    14.9960    22.9530     2.4030    -7.5700 
  148.7500    60.1000    17.8260    16.3320    14.6690    22.8390     2.4160    -7.6020 
  148.8750    59.9620    17.5180    16.0610    14.5430    22.7290     2.4240    -7.6800 
  149.0000    56.9150    17.2000    15.7830    14.4240    22.6430     2.4220    -7.7450 
  149.1250    54.6000    16.8720    15.4840    14.0310    22.5710     2.4050    -7.7900 
  149.2500    55.1360    16.5750    15.1860    13.1440    22.5020     2.3820    -7.8490 
  149.3750    57.5120    16.3580    14.9240    12.2200    22.4360     2.3610    -7.9130 
  149.5000    60.3370    16.2580    14.7280    11.7410    22.3500     2.3460    -7.9040 
  149.6250    60.8940    16.2680    14.6030    11.9010    22.2450     2.3380    -7.8990 
  149.7500    59.8330    16.2730    14.4750    12.2330    22.1500     2.3320    -7.9160 
  149.8750    58.9170    16.1500    14.2560    12.5890    22.0630     2.3270    -7.9740 
  150.0000    58.8680    15.8100    13.8760    12.7490    21.9920     2.3280    -8.0690 
  150.1250    58.4600    15.2530    13.3300    12.5380    21.9490     2.3380    -8.1560 
  150.2500    56.7130    14.7360    12.8000    11.8080    21.9190     2.3500    -8.2280 
  150.3750    54.1990    14.5960    12.5330    10.9320    21.8990     2.3560    -8.3310 
  150.5000    51.4210    15.1930    12.8040    10.7480    21.8980     2.3530    -8.4660 
  150.6250    48.5440    16.9400    13.9780    12.1480    21.9140     2.3410    -8.6410 
  150.7500    46.4530    19.5870    15.9590    14.9210    21.9330     2.3270    -8.7890 
  150.8750    46.5660    22.6900    18.5080    18.5880    21.9510     2.3130    -8.8910 
  151.0000    49.9670    25.5490    21.1290    22.1480    21.9610     2.3000    -8.9900 
  151.1250    55.6480    27.1690    22.9770    23.5450    21.9580     2.2910    -9.0740 
