~V
VERS. 2.00: Ver 2.00
~W
STRT.M 58.0000:
STOP.M 213.0000:
STEP.M 0.1250:
NULL. -999.2500:
UWI. F10138:
~C
DEPT.M :
GR.API :
RML.OHMM :
RI. :
RXO.OHMM :
CALI.CM :
DEN.GM/CC :
SP.MV :
~A
# ...
  125.5000    47.5960    27.8140    25.4350    25.0000    25.5340     2.5010    -7.3110 
  125.6250    49.1550    27.3240    25.0340    25.9060    25.3560     2.4910    -7.3060 
  125.7500    51.9040    26.7710    24.5880    26.6990    25.5720     2.4760    -7.3010 
  125.8750    52.0660    26.2430    24.1590    25.6000    25.6750     2.4620    -7.3140 
  126.0000    49.1200    25.8390    23.8090    22.8880    25.7290     2.4570    -7.3080 
  126.1250    45.2670    25.6950    23.6250    21.5490    25.7820     2.4610    -7.2420 
  126.2500    43.4300    25.8270    23.6360    21.4860    25.8370     2.4690    -7.1850 
  126.3750    43.4430    26.2290    23.8680    21.9310    25.8470     2.4770    -7.1740 
  126.5000    43.9340    26.8500    24.3200    21.9360    25.8330     2.4810    -7.2140 
  126.6250    43.6960    27.6320    24.9710    22.7500    25.8870     2.4840    -7.2610 
  126.7500    44.2410    28.4670    25.7150    24.1720    25.9060     2.4850    -7.3170 
  126.8750    47.8210    29.3040    26.4880    26.2560    26.0470     2.4850    -7.4500 
  127.0000    53.0980    30.1280    27.2540    28.2990    26.1550     2.4800    -7.6630 
  127.1250    55.7400    30.9590    28.0060    28.3340    26.3520     2.4710    -7.8930 
  127.2500    54.6070    31.8360    28.7640    27.7110    26.5530     2.4620    -8.1110 
  127.3750    51.4370    32.7400    29.5320    27.9170    26.7830     2.4600    -8.3280 
  127.5000    49.1080    33.5540    30.2470    29.0520    26.8960     2.4700    -8.5460 
  127.6250    49.3840    33.9990    30.7010    32.2640    26.8750     2.4910    -8.8030 
  127.7500    50.8430    33.9130    30.7370    34.4790    26.8680     2.5120    -9.0450 
  127.8750    50.1420    33.2570    30.2730    33.8470    26.8220     2.5240    -9.2270 
  128.0000    47.8340    32.1810    29.4030    30.4640    26.8210     2.5240    -9.3790 
  128.1250    46.2410    31.0300    28.4150    28.2410    26.8750     2.5120    -9.5890 
  128.2500    46.3940    30.1930    27.6640    27.3090    26.8940     2.4970    -9.8170 
  128.3750    46.2600    29.8960    27.3490    26.5770    26.9190     2.4850   -10.0090 
  128.5000    44.7430    30.2140    27.5420    26.0090    27.0580     2.4770   -10.1700 
  128.6250    44.3260    31.1230    28.2410    26.9430    27.2620     2.4730   -10.3010 
  128.7500    45.8430    32.3190    29.2270    28.7420    27.4710     2.4730   -10.4560 
  128.8750    48.5010    33.5760    30.3430    30.6930    27.6060     2.4760   -10.5970 
  129.0000    51.2940    34.6430    31.4000    32.0090    27.6200     2.4830   -10.7110 
  129.1250    52.1960    35.1870    32.1000    31.7800    27.5770     2.4930   -10.7970 
  129.2500    50.2270    35.1360    32.3090    31.4480    27.5680     2.5020   -10.8900 
  129.3750    47.9790    34.4700    31.9600    33.1380    27.5240     2.5080   -10.9960 
  129.5000    49.7770    33.2380    31.0520    34.2100    27.3600     2.5100   -11.0800 
  129.6250    55.3120    31.4870    29.5850    30.7070    27.2580     2.5050   -11.1620 
  129.7500    57.2920    29.4650    27.8050    29.0040    27.2390     2.4940   -11.2620 
  129.8750    54.6890    27.3600    25.9070    28.0880    27.2510     2.4760   -11.3940 
  130.0000    51.7550    25.3940    24.1080    26.5120    27.2560     2.4520   -11.5300 
  130.1250    52.9680    23.8800    22.6900    23.7010    27.3680     2.4300   -11.6450 
  130.2500    56.1840    22.9290    21.7430    21.9930    27.2820     2.4140   -11.7540 
  130.3750    57.6810    22.6220    21.3210    22.0380    27.0980     2.4050   -11.9000 
  130.5000    56.4350    22.9690    21.4350    23.9140    26.9110     2.4030   -12.0760 
  130.6250    55.0980    23.9630    22.1320    23.1270    26.8990     2.4040   -12.2020 
  130.7500    54.7130    25.2680    23.1750    23.2340    26.9610     2.4080   -12.2490 
  130.8750    53.5560    26.5420    24.2900    24.3890    27.0630     2.4170   -12.2770 
  131.0000    50.9430    27.4070    25.1210    26.0790    27.1170     2.4350   -12.3240 
  131.1250    48.7370    27.5070    25.2850    28.6750    27.2380     2.4580   -12.3490 
  131.2500    47.1710    27.0670    24.9130    29.3090    27.4190     2.4790   -12.3130 
  131.3750    45.5350    26.4760    24.3060    28.2020    27.5480     2.4900   -12.2230 
  131.5000    43.1050    26.1830    23.8390    25.3260    27.5320     2.4900   -12.1260 
  131.6250    40.7700    26.6370    23.9130    25.6740    27.6710     2.4840   -12.0640 
  131.7500    39.6190    27.7580    24.5590    28.4130    27.7590     2.4780   -12.0030 
  131.8750    39.5160    29.3060    25.6760    30.9950    27.7980     2.4760   -11.9090 
  132.0000    39.2970    30.9220    27.0350    32.1990    27.8370     2.4780   -11.8060 
  132.1250    37.3800    32.1140    28.2450    30.3860    28.0450     2.4830   -11.7320 
  132.2500    35.9620    32.6000    28.9470    29.6370    28.2420     2.4910   -11.6800 
  132.3750    36.2990    32.2410    28.9150    31.2560    28.3250     2.5020   -11.6000 
  132.5000    38.8260    31.1180    28.1300    33.0570    28.3110     2.5140   -11.4920 
  132.6250    44.6960    29.5040    26.7670    31.5710    28.2940     2.5190   -11.4040 
  132.7500    50.2550    27.8870    25.2940    27.4530    28.3830     2.5150   -11.3630 
  132.8750    51.3140    26.5440    24.0020    23.2750    28.5210     2.5050   -11.3340 
  133.0000    47.7380    25.5970    23.0510    21.4630    28.5260     2.4930   -11.2880 
  133.1250    44.6210    25.0070    22.4810    22.5420    28.6200     2.4830   -11.2520 
  133.2500    45.9510    24.4740    22.0440    24.2690    28.7270     2.4760   -11.2560 
  133.3750    49.3630    23.7500    21.5000    23.4620    28.6920     2.4700   -11.2920 
  133.5000    51.3080    22.7120    20.6800    22.0820    28.1350     2.4640   -11.3220 
  133.6250    51.4330    21.4760    19.6050    20.6800    27.3350     2.4580   -11.3120 
  133.7500    51.7290    20.4080    18.5790    19.4930    26.6400     2.4540   -11.2780 
  133.8750    51.5940    19.7880    17.8630    17.3190    26.3680     2.4530   -11.2760 
  134.0000    50.5210    19.7510    17.6110    15.9090    26.2930     2.4580   -11.3130 
  134.1250    50.2680    20.3350    17.8950    17.1110    26.2060     2.4690   -11.3330 
  134.2500    50.2320    21.2480    18.4930    20.4480    26.0630     2.4840   -11.3180 
  134.3750    48.1420    22.2350    19.2050    22.4620    25.8420     2.4970   -11.3220 
  134.5000    45.3060    23.0260    19.8100    22.5830    25.7630     2.5030   -11.3660 
  134.6250    46.8760    23.3010    20.0320    21.3710    25.7250     2.5000   -11.4150 
  134.7500    49.0620    23.0670    19.8350    20.6400    25.6830     2.4930   -11.4650 
  134.8750    48.2960    22.4710    19.3110    21.1520    25.7680     2.4890   -11.5150 
  135.0000    46.3010    21.7590    18.6540    21.2060    25.7820     2.4870   -11.5640 
  135.1250    47.0620    21.2460    18.1270    19.3190    25.7180     2.4870   -11.5900 
  135.2500    50.2590    21.1490    17.9180    17.4010    25.7620     2.4880   -11.6060 
  135.3750    53.4810    21.6070    18.1470    17.4950    26.0390     2.4870   -11.6270 
  135.5000    55.9270    22.6160    18.8430    19.0010    26.3300     2.4870   -11.6780 
  135.6250    55.9610    23.9250    19.8930    21.7740    26.5370     2.4880   -11.7290 
  135.7500    53.0500    24.9470    20.8640    24.0320    26.5090     2.4870   -11.7470 
  135.8750    49.2670    25.1740    21.3150    25.1710    26.5920     2.4840   -11.7410 
  136.0000    48.1500    24.3490    20.9500    24.5840    26.6920     2.4800   -11.7300 
  136.1250    50.1810    22.5710    19.7270    21.7200    26.8250     2.4790   -11.7190 
  136.2500    51.4810    20.5180    18.1620    18.4930    26.8560     2.4800   -11.6590 
  136.3750    50.3490    18.6110    16.6060    15.8660    26.7990     2.4820   -11.5390 
  136.5000    48.7540    17.0930    15.2890    14.4920    26.7110     2.4840   -11.3670 
  136.6250    48.4610    16.1490    14.3860    13.6040    26.6730     2.4820   -11.2280 
