~V
VERS. 2.00: Ver 2.00
~W
STRT.M 50.0000:
STOP.M 236.0000:
STEP.M 0.1250:
NULL. -999.2500:
UWI. F10144:
~C
DEPT.M :
DEN.GM/CC :
GR.API :
RML.OHMM :
RI. :
RXO.OHMM :
CALI.CM :
SP.MV :
~A
# ...
   95.0000     2.1210    62.7320     9.2560     7.1200     9.2440    22.9020   -29.8160 
   95.1250     2.1350    63.7220     9.1270     7.0600     9.0420    22.9020   -29.6730 
   95.2500     2.1380    67.9250     9.0340     7.0160     8.6010    22.9020   -29.5250 
   95.3750     2.1320    71.1340     9.0090     7.0090     8.2550    22.9020   -29.4120 
   95.5000     2.1220    69.2900     9.0650     7.0500     8.2630    22.9030   -29.3500 
   95.6250     2.1100    66.6340     9.1900     7.1340     8.6280    22.9060   -29.3470 
   95.7500     2.0970    67.3050     9.3100     7.2160     8.9890    22.9070   -29.3860 
   95.8750     2.0840    69.3700     9.3420     7.2460     9.2030    22.9060   -29.4610 
   96.0000     2.0760    70.8040     9.1980     7.1710     8.9900    22.9070   -29.5440 
   96.1250     2.0790    73.6780     8.8050     6.9480     8.1070    22.9110   -29.6190 
   96.2500     2.0970    76.4380     8.2650     6.6270     7.3380    22.9150   -29.6720 
   96.3750     2.1240    77.4730     7.7250     6.2770     6.8100    22.9150   -29.7010 
   96.5000     2.1500    76.6220     7.3330     5.9770     6.4630    22.9100   -29.7430 
   96.6250     2.1700    76.1940     7.2190     5.8110     6.5370    22.9030   -29.8560 
   96.7500     2.1800    76.7060     7.3350     5.7860     6.8740    22.9000   -30.0470 
   96.8750     2.1800    77.9000     7.6050     5.8870     7.2130    22.9040   -30.3190 
   97.0000     2.1710    78.2200     7.9360     6.0770     7.5790    22.9090   -30.6660 
   97.1250     2.1550    75.7620     8.2400     6.3010     7.4600    22.9040   -31.0780 
   97.2500     2.1370    71.7690     8.5010     6.5130     7.1400    22.8840   -31.5280 
   97.3750     2.1260    69.0100     8.7460     6.7090     7.2720    22.8550   -31.9910 
   97.5000     2.1230    67.7750     9.0010     6.9000     7.8240    22.8100   -32.4460 
   97.6250     2.1250    66.4460     9.2360     7.0730     7.9070    22.6950   -32.8760 
   97.7500     2.1310    65.6790     9.3860     7.2010     7.4990    22.5250   -33.3020 
   97.8750     2.1390    66.1680     9.4150     7.2570     7.3570    22.3720   -33.7380 
   98.0000     2.1470    68.2490     9.3420     7.2440     7.5810    22.2940   -34.1910 
   98.1250     2.1510    71.1260     9.2510     7.1980     7.8610    22.2390   -34.6530 
   98.2500     2.1420    72.3830     9.2340     7.1780     8.1000    22.1240   -35.0930 
   98.3750     2.1230    69.9950     9.3210     7.2070     8.3680    21.9680   -35.4810 
   98.5000     2.1020    63.8290     9.4820     7.2790     8.5400    21.8390   -35.7830 
   98.6250     2.0890    60.4130     9.6500     7.3650     8.5120    21.7480   -35.9520 
   98.7500     2.0880    61.5850     9.7690     7.4330     8.5080    21.6590   -36.0060 
   98.8750     2.0940    63.7330     9.8280     7.4680     8.7110    21.5810   -35.9510 
   99.0000     2.0980    64.6870     9.8480     7.4700     8.9200    21.5430   -35.8050 
   99.1250     2.0960    63.9460     9.8590     7.4460     8.9900    21.5490   -35.5780 
   99.2500     2.0860    62.9640     9.8580     7.4090     8.9380    21.5480   -35.3030 
   99.3750     2.0750    63.1690     9.8160     7.3580     8.8430    21.4620   -35.0010 
   99.5000     2.0700    66.2220     9.7090     7.2870     8.7710    21.2370   -34.6820 
   99.6250     2.0730    69.7150     9.5490     7.2010     8.7680    20.9730   -34.3510 
   99.7500     2.0870    70.3380     9.3990     7.1220     8.6310    20.8420   -34.0350 
   99.8750     2.1060    70.3020     9.3040     7.0720     8.1530    20.9250   -33.7580 
  100.0000     2.1220    71.1350     9.2870     7.0660     7.8840    21.1990   -33.5470 
  100.1250     2.1280    69.7810     9.3570     7.1210     7.9720    21.5430   -33.4290 
  100.2500     2.1240    65.4540     9.4750     7.2210     8.2830    21.7840   -33.3870 
  100.3750     2.1200    61.9130     9.5980     7.3380     8.5720    21.8870   -33.4040 
  100.5000     2.1200    61.4030     9.6630     7.4290     8.7690    21.9370   -33.4480 
  100.6250     2.1250    63.1060     9.6050     7.4310     8.8800    22.0010   -33.4670 
  100.7500     2.1290    64.3280     9.4300     7.3340     8.8810    22.0530   -33.4290 
  100.8750     2.1290    64.2280     9.1410     7.1360     8.6010    22.0900   -33.3270 
  101.0000     2.1270    63.5840     8.7360     6.8450     8.0840    22.1180   -33.1710 
  101.1250     2.1300    63.9920     8.2260     6.4810     7.6210    22.1340   -32.9860 
  101.2500     2.1380    68.0580     7.7050     6.1140     7.5530    22.1390   -32.8080 
  101.3750     2.1520    73.9590     7.2780     5.8070     7.2320    22.1450   -32.6760 
  101.5000     2.1680    77.0480     7.0560     5.6220     6.4180    22.1190   -32.6230 
  101.6250     2.1850    74.0180     7.1620     5.6360     6.0950    21.9720   -32.6880 
  101.7500     2.1970    70.9060     7.5370     5.8240     6.8230    21.7560   -32.8470 
  101.8750     2.1990    71.8940     8.0870     6.1540     7.7660    21.5890   -33.0790 
  102.0000     2.1930    73.8040     8.6780     6.5580     8.3290    21.5310   -33.3550 
  102.1250     2.1800    70.7360     9.1410     6.9380     8.5900    21.5310   -33.6590 
  102.2500     2.1670    65.6650     9.4060     7.2150     8.5130    21.5570   -33.9640 
  102.3750     2.1530    63.2780     9.4750     7.3570     8.3560    21.6530   -34.2520 
  102.5000     2.1380    63.2710     9.3910     7.3720     8.2370    21.8410   -34.4980 
  102.6250     2.1240    61.2150     9.1860     7.2700     8.2690    22.1150   -34.6930 
  102.7500     2.1120    60.5800     8.9410     7.1170     8.3650    22.3870   -34.8270 
  102.8750     2.1020    64.7820     8.7440     6.9770     8.4660    22.5800   -34.9110 
  103.0000     2.0950    71.0160     8.6860     6.9110     8.5330    22.6650   -34.9840 
  103.1250     2.0960    70.4820     8.8560     6.9810     8.5690    22.6520   -35.0880 
  103.2500     2.1130    65.6870     9.1790     7.1590     8.5640    22.5790   -35.2620 
  103.3750     2.1450    61.4450     9.5340     7.3870     8.5490    22.4760   -35.5480 
  103.5000     2.1830    58.7480     9.7790     7.5880     8.5530    22.4090   -35.9690 
  103.6250     2.2080    57.5240     9.7970     7.6840     8.5030    22.4140   -36.5620 
  103.7500     2.2040    58.6230     9.6480     7.6780     8.4180    22.4340   -37.2670 
  103.8750     2.1810    60.6550     9.4200     7.5960     8.3490    22.4380   -38.0160 
  104.0000     2.1500    60.4730     9.1970     7.4800     8.3450    22.4370   -38.7290 
  104.1250     2.1210    60.1890     9.0260     7.3560     8.6250    22.4370   -39.3370 
  104.2500     2.1040    61.7460     8.8740     7.2260     8.6290    22.4360   -39.8500 
  104.3750     2.0990    62.1030     8.7120     7.0860     8.3040    22.4350   -40.2760 
  104.5000     2.1050    61.0500     8.5390     6.9470     7.8680    22.4330   -40.6460 
  104.6250     2.1180    62.1120     8.3720     6.8300     7.7680    22.4300   -41.0150 
  104.7500     2.1290    64.8880     8.2120     6.7360     7.7460    22.4310   -41.4390 
  104.8750     2.1290    67.0620     8.0710     6.6630     7.8570    22.4440   -41.9440 
  105.0000     2.1170    67.7590     7.9900     6.6280     7.9090    22.4710   -42.5340 
  105.1250     2.1050    67.9400     8.0810     6.6960     7.7830    22.4990   -43.1920 
  105.2500     2.1150    68.2340     8.3970     6.9040     7.6960    22.5140   -43.8720 
  105.3750     2.1540    67.7870     8.9590     7.2670     8.0460    22.5130   -44.5500 
  105.5000     2.2080    65.2190     9.7000     7.7460     9.5250    22.5020   -45.1980 
  105.6250     2.2490    62.6480    10.4060     8.2250    10.9020    22.4470   -45.7610 
  105.7500     2.2460    63.6800    10.8230     8.5550    11.6360    22.3140   -46.2240 
  105.8750     2.2130    66.7660    10.8240     8.6450    10.9230    22.1410   -46.5850 
  106.0000     2.1740    67.4710    10.4560     8.4970     9.4250    22.0110   -46.8420 
  106.1250     2.1480    67.5080     9.9520     8.2090     8.5560    21.9800   -46.9690 
