~V
VERS. 2.00: Ver 2.00
~W
STRT.M 50.0000:
STOP.M 232.0000:
STEP.M 0.1250:
NULL. -999.2500:
UWI. F10160:
~C
DEPT.M :
SP.MV :
DEN.GM/CC :
GR.API :
RML.OHMM :
RI. :
RXO.OHMM :
CALI.CM :
~A
# ...
  218.7500   -16.4750     2.4450    70.6420     8.4470     6.9580     9.1840    24.8480 
  218.8750   -16.5180     2.4270    71.8270     8.4100     6.9260     8.9580    24.8500 
  219.0000   -16.5480     2.3990    74.2240     8.3860     6.8970     8.2190    24.8540 
  219.1250   -16.5880     2.3800    79.9790     8.3930     6.8950     7.6110    24.8580 
  219.2500   -16.6290     2.3910    84.3770     8.4330     6.9200     7.3600    24.8370 
  219.3750   -16.6450     2.4310    84.1760     8.5170     6.9710     7.3610    24.7360 
  219.5000   -16.6420     2.4740    81.0980     8.6540     7.0420     7.5180    24.5460 
  219.6250   -16.6060     2.4820    80.1950     8.8360     7.1360     7.8650    24.3580 
  219.7500   -16.5550     2.4590    80.8450     9.0300     7.2500     7.8780    24.2630 
  219.8750   -16.5000     2.4230    78.9100     9.2160     7.3820     7.8870    24.2390 
  220.0000   -16.4420     2.3980    74.2770     9.3830     7.5290     7.9990    24.2240 
  220.1250   -16.3900     2.3940    72.4080     9.5290     7.6830     8.5340    24.2100 
  220.2500   -16.3920     2.4000    74.2030     9.6620     7.8330     9.0560    24.2190 
  220.3750   -16.4490     2.4100    76.6040     9.7870     7.9760    10.9980    24.2390 
  220.5000   -16.5390     2.4240    76.7790     9.9120     8.1100    13.6910    24.2510 
  220.6250   -16.6570     2.4480    75.9450    10.0440     8.2340    13.7700    24.3060 
  220.7500   -16.7610     2.4700    76.7310    10.1890     8.3540    10.0050    24.4750 
  220.8750   -16.8260     2.4780    79.0150    10.3460     8.4750     8.4420    24.7150 
  221.0000   -16.8580     2.4690    81.0810    10.4930     8.5950     8.2250    24.9080 
  221.1250   -16.8710     2.4580    79.5710    10.5800     8.6890     8.4460    24.9650 
  221.2500   -16.8960     2.4560    77.7410    10.5790     8.7260     8.8440    24.9610 
  221.3750   -16.9370     2.4630    77.4350    10.4610     8.6830     9.6740    24.9480 
  221.5000   -17.0010     2.4640    77.4350    10.2190     8.5480    11.1020    24.9200 
  221.6250   -17.0840     2.4490    77.4350     9.8930     8.3430    11.7200    24.8810 
  221.7500   -17.1710     2.4300    77.4350     9.5870     8.1400     9.2570    24.8590 
  221.8750   -17.2510     2.4230    77.4350     9.3760     7.9930     8.2470    24.8830 
  222.0000   -17.2980     2.4350    77.4350     9.2960     7.9310     8.2920    24.9440 
  222.1250   -17.2910     2.4530    77.4350     9.3250     7.9480     9.3560    24.9950 
  222.2500   -17.2590     2.4540    77.4350     9.3460     7.9690    14.2030    25.0140 
  222.3750   -17.1940     2.4290    77.4350     9.2640     7.9310    26.3790    25.0140 
  222.5000   -17.1140     2.3850    77.4350     9.0430     7.8010    31.8470    25.0130 
  222.6250   -17.0260     2.3450    77.4350     8.7260     7.5860    17.0740    25.0170 
  222.7500   -16.9220     2.3240    77.4350     8.4280     7.3580    10.7330    25.0120 
  222.8750   -16.8280     2.3190    77.4350     8.2140     7.1650     7.6170    24.9850 
  223.0000   -16.7410     2.3180    77.4350     8.0940     7.0320     7.0710    24.9390 
  223.1250   -16.6880     2.3040    77.4350     8.0310     6.9620     7.3930    24.9110 
  223.2500   -16.6650     2.2850    77.4350     7.9710     6.9230     7.1340    24.8970 
  223.3750   -16.6800     2.2810    77.4350     7.9080     6.9040     6.9790    24.8610 
  223.5000   -16.7390     2.3070    77.4350     7.8620     6.9020     7.0470    24.7910 
  223.6250   -16.8310     2.3530    77.4350     7.8650     6.9250     6.5340    24.7240 
  223.7500   -16.9340     2.3820    77.4350     7.9170     6.9640     6.0600    24.6800 
  223.8750   -17.0260     2.3740    77.4350     7.9960     7.0090     5.7060    24.6480 
  224.0000   -17.0990     2.3340    77.4350     8.0730     7.0470     5.2550    24.6210 
  224.1250   -17.1700     2.2880    77.4350     8.1220     7.0660     4.6070    24.6090 
  224.2500   -17.2240     2.2740    77.4350     8.1370     7.0600     4.3990    24.6050 
  224.3750   -17.2510     2.3010    77.4350     8.1150     7.0220     4.2640    24.6010 
  224.5000   -17.2350     2.3420    77.4350     8.0520     6.9520     4.0790    24.6090 
  224.6250   -17.1990     2.3360    77.4350     7.9500     6.8570     3.9900    24.6420 
  224.7500   -17.1920     2.2780    77.4350     7.8350     6.7600     4.0360    24.6690 
  224.8750   -17.2070     2.2020    77.4350     7.7290     6.6770     4.3870    24.6720 
  225.0000   -17.2340     2.1520    77.4350     7.6480     6.6150     5.0180    24.6490 
  225.1250   -17.2620     2.1790    77.4350     7.5900     6.5690     6.1510    24.6040 
  225.2500   -17.2860     2.2780    77.4350     7.5270     6.5250     7.5880    24.5500 
  225.3750   -17.3210     2.4030    77.4350     7.4390     6.4760    10.1780    24.5040 
  225.5000   -17.3430     2.4890    77.4350     7.3290     6.4240    12.6300    24.4730 
  225.6250   -17.3400     2.5070    77.4350     7.2450     6.3900    11.8780    24.4440 
  225.7500   -17.3250     2.4960    77.4350     7.2400     6.3880    10.2060    24.4160 
  225.8750   -17.3320     2.4760    77.4350     7.3230     6.4220     8.3120    24.3920 
  226.0000   -17.3630     2.4500    77.4350     7.4470     6.4780     6.5790    24.3720 
  226.1250   -17.4060     2.4160    77.4350     7.5470     6.5340     5.9250    24.3620 
  226.2500   -17.4280     2.3800    77.4350     7.6030     6.5700     5.9410    24.3570 
  226.3750   -17.4170     2.3510    77.4350     7.6240     6.5860     6.8790    24.3450 
  226.5000   -17.3830     2.3380    77.4350     7.6260     6.5880     8.4520    24.3260 
  226.6250   -17.3530     2.3360    77.4350     7.6230     6.5870    10.7060    24.3230 
  226.7500   -17.3060     2.3360    77.4350     7.6200     6.5850     8.1840    24.2940 
  226.8750   -17.2450     2.3330    77.4350     7.6170     6.5850     7.2440    24.1740 
  227.0000   -17.2070     2.3330    77.4350     7.6160     6.5860     7.9600    24.0160 
  227.1250   -17.2010     2.3380    77.4350     7.6180     6.5870    10.7670    23.8060 
  227.2500   -17.2220     2.3430    77.4350     7.6200     6.5880    14.3010    22.9970 
  227.3750   -17.2630     2.3420    77.4350     7.6200     6.5880    14.7030    21.2320 
  227.5000   -17.3010     2.3310    77.4350     7.6200     6.5880    14.4120    18.9870 
  227.6250   -17.3580     2.3120    77.4350     7.6200     6.5880    12.4070    17.3640 
  227.7500   -17.4450     2.2890    77.4350     7.6200     6.5880     8.3540    16.5530 
  227.8750   -17.5500     2.2600    77.4350     7.6200     6.5880     6.5460    16.1930 
  228.0000   -17.6280     2.2270    77.4350     7.6200     6.5880     6.1840    16.0640 
  228.1250   -17.6600     2.1930    77.4350     7.6200     6.5880     6.1410    16.1290 
  228.2500   -17.6550     2.1640    77.4350     7.6200     6.5880     6.1540    16.2700 
  228.3750   -17.6040     2.1440    77.4350     7.6200     6.5880     6.1470    16.4390 
  228.5000   -17.5230     2.1300    77.4350     7.6200     6.5880     6.0330    16.6200 
  228.6250   -17.4260     2.1210    77.4350     7.6200     6.5880     5.8380    16.7640 
  228.7500   -17.3270     2.1170    77.4350     7.6200     6.5880     6.0740    16.8340 
  228.8750   -17.2460     2.1160    77.4350     7.6200     6.5880     6.3550    16.8470 
  229.0000   -17.2420     2.1170    77.4350     7.6200     6.5880     6.2180    16.8380 
  229.1250   -17.2550     2.1110    77.4350     7.6200     6.5880     5.8550    16.8070 
  229.2500  -999.2500     2.0960    77.4350     7.6200     6.5880     5.7100    16.7500 
  229.3750  -999.2500     2.0710    77.4350     7.6200     6.5880     5.8090    16.6730 
  229.5000  -999.2500     2.0440    77.4350     7.6200     6.5880     6.4410    16.5860 
  229.6250  -999.2500     2.0250    77.4350     7.6200     6.5880     8.4240    16.4660 
  229.7500  -999.2500     2.0180    77.4350     7.6200     6.5880    11.6260    16.3140 
  229.8750  -999.2500     2.0210    77.4350     7.6200     6.5880    14.2720    16.1710 
