~V
VERS. 2.00: Ver 2.00
~W
STRT.M 52.0000:
STOP.M 322.0000:
STEP.M 0.1250:
NULL. -999.2500:
UWI. F10105:
~C
DEPT.M :
GR.API :
RML.OHMM :
RI. :
RXO.OHMM :
CALI.CM :
DEN.GM/CC :
SP.MV :
~A
# ...
  209.5000    99.2150     8.8790     8.1590     8.5440    26.1110     2.3590    -3.0820 
  209.6250    98.8640     8.4260     7.9470     8.4840    26.0720     2.3890    -2.9040 
  209.7500    96.3280     7.8630     7.5330     7.9820    26.0380     2.4090    -2.6350 
  209.8750    94.7220     7.3270     7.0530     6.8910    26.0460     2.4210    -2.3740 
  210.0000    97.4470     6.8890     6.5880     6.0360    26.0610     2.4240    -2.1140 
  210.1250   103.9280     6.6020     6.2180     5.8310    26.0620     2.4210    -1.8130 
  210.2500   106.1490     6.4410     5.9630     6.0740    26.0930     2.4170    -1.5250 
  210.3750   102.9010     6.3810     5.8170     6.2630    26.2460     2.4160    -1.3020 
  210.5000    98.5500     6.3870     5.7490     6.4090    26.4490     2.4200    -1.1950 
  210.6250    97.4290     6.4570     5.7340     6.2710    26.5410     2.4300    -1.2310 
  210.7500    99.5380     6.6310     5.7860     6.0160    26.5430     2.4370    -1.3160 
  210.8750   101.5360     7.0190     5.9820     6.2300    26.5100     2.4360    -1.4100 
  211.0000   100.3820     7.7640     6.4380     6.9370    26.4810     2.4270    -1.5160 
  211.1250    94.6090     9.1020     7.3710     8.1590    26.4340     2.4150    -1.6700 
  211.2500    89.4820    10.9960     8.8530    10.3700    26.2980     2.4020    -1.9170 
  211.3750    88.7190    13.2810    10.8980    14.7020    26.1170     2.3850    -2.2370 
  211.5000    88.8930    15.5410    13.2780    19.9070    25.9790     2.3570    -2.6260 
  211.6250    83.9430    17.0320    15.2660    23.3560    25.9880     2.3210    -3.0310 
  211.7500    78.3450    17.4880    16.2280    23.8310    26.0430     2.2890    -3.3710 
  211.8750    77.6680    17.0890    16.1360    20.8650    26.0490     2.2710    -3.6700 
  212.0000    81.9320    16.3750    15.5240    16.0910    25.9420     2.2700    -4.0190 
  212.1250    87.5650    15.9990    15.1020    14.0710    25.8000     2.2800    -4.4610 
  212.2500    90.5270    16.1520    15.1590    14.1820    25.6710     2.2880    -4.8570 
  212.3750    90.0990    16.7190    15.6660    15.8850    25.5710     2.2920    -5.1750 
  212.5000    87.4430    17.4360    16.4520    18.2510    25.4980     2.2930    -5.4180 
  212.6250    85.6860    17.9420    17.2340    18.1200    25.4460     2.2980    -5.6570 
  212.7500    84.1640    18.0310    17.7140    16.0580    25.3800     2.3070    -5.8650 
  212.8750    81.7240    17.6330    17.7340    14.0650    25.3170     2.3170    -5.9710 
  213.0000    81.3740    16.7920    17.2770    15.0710    25.2810     2.3260    -5.9850 
  213.1250    84.1160    15.5920    16.3640    16.6860    25.2570     2.3310    -5.9220 
  213.2500    86.8540    14.2620    15.1940    15.1210    25.2450     2.3360    -5.8590 
  213.3750    88.7030    12.9770    13.9350    11.8480    25.2390     2.3430    -5.7960 
  213.5000    90.1670    11.9160    12.7880    10.2210    25.2510     2.3520    -5.7140 
  213.6250    92.3200    11.3180    12.0030    10.3710    25.2580     2.3640    -5.6230 
  213.7500    94.5890    11.2210    11.6710    10.9290    25.2950     2.3740    -5.6210 
  213.8750    96.5180    11.6370    11.8710    11.5190    25.4220     2.3790    -5.7630 
  214.0000    96.6410    12.4700    12.6060    12.4680    25.6810     2.3770    -5.9790 
  214.1250    95.1380    13.4860    13.7600    14.2030    25.9390     2.3650    -6.2160 
  214.2500    95.1640    14.3210    14.8960    15.8210    26.1010     2.3500    -6.4350 
  214.3750    96.6430    14.7710    15.6490    17.3880    26.0590     2.3380    -6.6450 
  214.5000    97.4440    14.8870    15.8710    20.0070    25.8080     2.3360    -6.8980 
  214.6250    95.9500    14.9770    15.8150    18.0140    25.4760     2.3470    -7.2350 
  214.7500    93.2610    15.9020    16.1350    13.3810    25.1850     2.3590    -7.6710 
  214.8750    91.8830    18.6240    17.4030    11.7150    24.9860     2.3650    -8.2320 
  215.0000    90.4160    23.4080    20.0990    14.5030    24.8680     2.3570    -8.8270 
  215.1250    86.1420    29.6940    24.8180    18.6240    24.8210     2.3340    -9.4340 
  215.2500    80.9260    36.2560    31.0080    23.8320    24.8110     2.3050   -10.1280 
  215.3750    77.2180    42.4070    37.6210    26.7970    24.8430     2.2780   -10.9000 
  215.5000    75.5070    47.4780    43.1880    29.1400    24.9890     2.2570   -11.7000 
  215.6250    73.1340    50.8390    46.6460    32.6200    25.3150     2.2430   -12.3840 
  215.7500    71.8090    53.3330    48.9850    36.9040    25.6880     2.2340   -12.9230 
  215.8750    73.2930    55.7700    51.1800    40.2140    25.9930     2.2300   -13.3430 
  216.0000    76.3230    58.6700    53.8010    42.2610    26.1500     2.2290   -13.7220 
  216.1250    78.1210    62.1560    57.0170    46.7110    26.1880     2.2310   -13.9980 
  216.2500    76.6560    65.8120    60.4790    49.4810    26.2000     2.2330   -14.1530 
  216.3750    73.3790    69.2110    63.8190    51.7360    26.2190     2.2380   -14.2580 
  216.5000    70.4070    71.9130    66.6340    55.2200    26.2320     2.2430   -14.3380 
  216.6250    67.9450    73.3790    68.3830    60.2030    26.2510     2.2480   -14.4940 
  216.7500    66.8830    73.7370    69.0610    62.6960    26.2270     2.2530   -14.7080 
  216.8750    68.1480    73.3030    68.8730    60.4200    26.2020     2.2560   -14.8670 
  217.0000    71.6250    72.6110    68.3140    54.9230    26.1900     2.2570   -14.9670 
  217.1250    73.9690    72.3080    68.0550    51.8890    26.2020     2.2500   -15.0590 
  217.2500    74.1430    72.6410    68.4250    51.7700    26.2060     2.2370   -15.1520 
  217.3750    75.0360    73.5610    69.4120    53.4270    26.1480     2.2210   -15.2630 
  217.5000    76.6770    74.8680    70.8030    56.8400    26.0120     2.2100   -15.4110 
  217.6250    78.2770    76.3980    72.3840    58.3670    25.9130     2.2080   -15.5370 
  217.7500    79.1890    78.0700    74.1120    56.3310    25.8440     2.2140   -15.5430 
  217.8750    80.1020    79.8650    76.0850    52.5260    25.7420     2.2210   -15.4890 
  218.0000    80.7300    81.5980    78.2330    50.2590    25.5660     2.2280   -15.4660 
  218.1250    79.1610    82.6650    79.9960    55.9630    25.4300     2.2330   -15.5820 
  218.2500    76.9600    82.5810    80.6800    63.9860    25.6450     2.2350   -15.7740 
  218.3750    75.3150    81.1450    79.8470    68.9340    26.0030     2.2380   -15.8750 
  218.5000    73.9570    78.6590    77.6250    65.6520    26.2280     2.2420   -15.8850 
  218.6250    73.2100    75.9330    74.7950    57.3310    26.2640     2.2460   -15.9290 
  218.7500    73.9850    73.8900    72.5230    52.9050    26.2770     2.2490   -16.0770 
  218.8750    74.9090    72.9530    71.4210    52.7410    26.2960     2.2460   -16.2150 
  219.0000    73.9170    73.0830    71.5780    55.1740    26.2830     2.2370   -16.2610 
  219.1250    71.7320    73.8980    72.6250    58.8810    26.2360     2.2250   -16.2520 
  219.2500    71.6440    74.7460    73.6940    60.5600    26.1550     2.2170   -16.2610 
  219.3750    73.1040    75.4140    74.3960    58.9280    26.1070     2.2170   -16.3170 
  219.5000    74.1470    76.0670    74.8400    56.2510    26.1280     2.2250   -16.3170 
  219.6250    74.7520    77.2870    75.6750    50.0430    26.2130     2.2370   -16.1940 
  219.7500    75.8600    79.4370    77.4690    48.0300    26.3330     2.2460   -16.0180 
  219.8750    77.0190    82.5300    80.3950    52.8020    26.4480     2.2470   -15.9440 
  220.0000    75.5690    86.1240    84.0820    61.4590    26.5040     2.2400   -16.0330 
  220.1250    71.3690    89.2370    87.4800    68.9730    26.5020     2.2290   -16.1540 
  220.2500    69.0070    91.0930    89.5570    73.0770    26.4900     2.2180   -16.2090 
  220.3750    69.9360    91.4640    89.8970    70.9120    26.4940     2.2110   -16.2230 
  220.5000    71.8530    90.7380    88.8310    65.2780    26.5030     2.2070   -16.2800 
  220.6250    72.4550    89.8130    87.3330    63.2970    26.5060     2.2070   -16.5050 
