~V
VERS. 2.00: Ver 2.00
~W
STRT.M 50.0000:
STOP.M 237.0000:
STEP.M 0.1250:
NULL. -999.2500:
UWI. F10163:
~C
DEPT.M :
DEN.GM/CC :
GR.API :
RML.OHMM :
RI. :
RXO.OHMM :
CALI.CM :
SP.MV :
~A
# ...
  185.0000     2.1730    62.4000   190.7230   172.2910   118.0240    23.7770   -16.3580 
  185.1250     2.1730    63.0360   197.4430   180.8990    81.6600    23.1630   -16.6030 
  185.2500     2.1740    64.1820   200.0950   186.8680    75.0280    23.0070   -16.8730 
  185.3750     2.1740    64.8520   196.7730   188.3290    84.5220    23.0580   -17.1200 
  185.5000     2.1740    65.4520   185.9040   183.2180   106.9920    23.3320   -17.4070 
  185.6250     2.1750    65.2760   183.2110   169.2320   162.3260    23.6900   -17.6990 
  185.7500     2.1790    64.1200   157.0210   149.0700   164.3780    23.7790   -18.0270 
  185.8750     2.1870    62.8360   129.6940   125.7390   106.5980    23.5530   -18.4100 
  186.0000     2.2010    62.8580   104.7650   102.8030    61.4350    22.6990   -18.7870 
  186.1250     2.2170    65.4920    85.9240    84.2850    45.2570    22.3190   -19.1390 
  186.2500     2.2350    68.8490    73.5760    71.4080    36.6830    22.1150   -19.5650 
  186.3750     2.2490    71.0200    67.8380    64.5900    30.5460    22.0320   -20.0870 
  186.5000     2.2550    70.0700    68.5440    63.8630    26.6240    21.9140   -20.6910 
  186.6250     2.2510    67.8110    76.4790    70.2610    26.2180    22.0730   -21.4040 
  186.7500     2.2420    67.9830    90.0280    82.4400    31.1340    22.2050   -22.1160 
  186.8750     2.2330    69.9170   107.7130    99.0290    32.3890    22.2420   -22.8420 
  187.0000     2.2260    70.3990   126.4960   117.0430    31.7630    22.3140   -23.6210 
  187.1250     2.2240    69.0890   140.8340   131.1330    35.0930    22.4640   -24.4740 
  187.2500     2.2230    67.7940   148.2420   138.6090    40.9240    22.5780   -25.3570 
  187.3750     2.2220    66.8210   149.9200   140.1140    45.5720    22.8030   -26.2860 
  187.5000     2.2180    64.8740   149.1530   138.4280    48.5380    23.1100   -27.2890 
  187.6250     2.2130    62.6120   148.7840   136.2600    54.1950    23.4610   -28.3890 
  187.7500     2.2070    62.9720   149.7930   134.9770    65.5170    23.7170   -29.5810 
  187.8750     2.1960    64.8980   152.5430   135.0710    78.2090    24.0480   -30.8320 
  188.0000     2.1780    66.8650   157.4580   136.9880    91.1400    24.7080   -32.1230 
  188.1250     2.1530    67.5610   165.6330   141.7530   106.4850    25.3740   -33.3280 
  188.2500     2.1300    66.6490   177.0860   149.4560   123.8140    25.8130   -34.3870 
  188.3750     2.1180    63.7110   191.9000   160.2390   135.7450    25.8990   -35.2450 
  188.5000     2.1230    62.4400   209.7240   173.8990   149.6120    25.7230   -35.8640 
  188.6250     2.1430    65.1940   229.5880   189.8030   174.3760    25.3320   -36.1830 
  188.7500     2.1620    66.2420   248.8960   205.8110   203.8370    25.2740   -36.1970 
  188.8750     2.1720    63.7470   265.1970   219.9090   229.2540    25.2500   -35.8170 
  189.0000     2.1710    61.6060   276.3810   230.2920   247.9450    25.2480   -35.0280 
  189.1250     2.1630    62.3630   280.3180   235.1400   258.4320    25.2480   -33.8810 
  189.2500     2.1580    61.2440   278.7930   235.7040   261.0730    25.2520   -32.5040 
  189.3750     2.1570    59.1520   273.6070   233.3710   253.6220    25.2770   -30.9360 
  189.5000     2.1600    58.7070   266.5120   229.5340   248.2700    25.3380   -29.1260 
  189.6250     2.1650    58.6550   258.6320   225.0660   252.0570    25.4280   -27.0870 
  189.7500     2.1720    58.0610   250.7640   220.5530   245.9940    25.6320   -24.9790 
  189.8750     2.1790    58.2530   243.2270   216.2170   234.4980    25.6300   -22.9340 
  190.0000     2.1870    60.8550   235.9820   212.0260   223.1380    25.6000   -21.0570 
  190.1250     2.1960    62.3190   228.1920   207.3180   212.7520    25.6200   -19.4060 
  190.2500     2.2050    60.4660   218.3280   200.7730   198.4530    25.7500   -17.9630 
  190.3750     2.2110    58.3020   204.9190   190.8850   191.4160    25.8840   -16.7160 
  190.5000     2.2100    59.4160   187.8540   177.0370   193.3490    26.0680   -15.6980 
  190.6250     2.1910    63.0100   169.5580   160.5170   193.3360    26.3120   -14.9420 
  190.7500     2.1570    64.7690   154.3600   145.2960   167.4870    26.7360   -14.4040 
  190.8750     2.1110    62.5270   145.6530   134.9250   132.3970    27.0630   -14.0320 
  191.0000     2.0730    59.2250   145.9460   132.5650   104.4470    26.9730   -13.7330 
  191.1250     2.0740    59.3110   158.5040   142.5810    96.7960    26.2280   -13.4840 
  191.2500     2.1330    62.5700   180.1480   162.7370   109.6200    25.6200   -13.2450 
  191.3750     2.2530    65.3890   202.7650   186.2250   224.5180    24.9960   -13.0280 
  191.5000     2.4140    64.5000   208.8350   198.1660   355.4080    24.4240   -12.8910 
  191.6250     2.5670    60.3450   178.4280   177.9020   501.2850    24.3370   -12.8110 
  191.7500     2.6660    54.8270   130.5440   135.4080   456.1720    24.3490   -12.7020 
  191.8750     2.6960    49.8860    86.3950    90.3320   326.3480    24.3830   -12.5460 
  192.0000     2.6710    47.4550    54.6880    56.0300   131.2390    24.3960   -12.3660 
  192.1250     2.6020    48.9250    35.8270    36.0560    67.7800    24.5040   -12.1770 
  192.2500     2.5120    53.1860    24.2090    24.2220    39.4660    24.5630   -12.0090 
  192.3750     2.4190    58.3350    17.2920    17.2750    20.9810    24.5040   -11.8590 
  192.5000     2.3390    61.1080    13.3280    13.2370    11.7410    24.7650   -11.6400 
  192.6250     2.2940    60.4990    11.2980    11.1000     9.3450    24.8140   -11.3470 
  192.7500     2.2810    58.6750    10.1610     9.8570     9.7130    24.8450   -11.0840 
  192.8750     2.2960    57.2850     9.5550     9.1590    10.5410    24.7910   -10.8670 
  193.0000     2.3220    57.3270     9.2360     8.7750     9.5340    24.9280   -10.7060 
  193.1250     2.3340    58.7070     9.0270     8.5450     8.0410    25.3410   -10.5680 
  193.2500     2.3220    58.7950     8.8260     8.3590     7.2370    25.6910   -10.4310 
  193.3750     2.2900    56.1610     8.6460     8.2220     6.8470    26.0130   -10.3170 
  193.5000     2.2540    53.0330     8.5390     8.1560     6.6830    26.1920   -10.2850 
  193.6250     2.2370    52.9400     8.5700     8.1850     7.0090    26.1910   -10.3460 
  193.7500     2.2460    54.3230     8.7250     8.2770     7.4790    25.8180   -10.4000 
  193.8750     2.2760    54.7740     8.9810     8.4050     7.8210    25.2960   -10.4280 
  194.0000     2.3090    52.8960     9.2880     8.5410     7.8260    24.8690   -10.4250 
  194.1250     2.3210    53.0600     9.5760     8.6500     8.2400    24.8690   -10.4550 
  194.2500     2.3140    56.0690     9.8100     8.7150     9.0510    25.0350   -10.5680 
  194.3750     2.3020    59.5710    10.0060     8.7520     9.8860    25.0990   -10.7220 
  194.5000     2.3010    60.5750    10.2170     8.8000    10.0730    25.0060   -10.8770 
  194.6250     2.3150    59.1270    10.5290     8.9210     9.7850    24.4050   -11.0200 
  194.7500     2.3270    56.9360    10.9630     9.1290     9.9330    24.0100   -11.1970 
  194.8750     2.3230    55.0110    11.4880     9.4130    10.5540    24.0180   -11.3880 
  195.0000     2.2990    54.3300    12.0200     9.7250    11.4790    24.9160   -11.5360 
  195.1250     2.2700    52.9830    12.4160     9.9720    11.4370    25.6940   -11.5800 
  195.2500     2.2560    50.4710    12.6000    10.0850    11.7550    25.8080   -11.5360 
  195.3750     2.2640    49.7950    12.5470    10.0240    12.4780    25.2540   -11.4690 
  195.5000     2.2900    51.0290    12.2850     9.7980    12.1640    24.9750   -11.4260 
  195.6250     2.3220    50.8250    11.8780     9.4600    10.5430    24.9990   -11.3600 
  195.7500     2.3480    49.8740    11.4620     9.1150     9.1870    24.9340   -11.2340 
  195.8750     2.3680    52.0280    11.1360     8.8420     8.5650    24.5760   -11.1210 
  196.0000     2.3810    57.0610    10.9960     8.7080     8.3740    24.4160   -11.1210 
  196.1250     2.3810    59.2830    11.1830     8.8090     8.3880    24.3840   -11.2530 
