~V
VERS. 2.00: Ver 2.00
~W
STRT.M 49.0000:
STOP.M 223.0000:
STEP.M 0.1250:
NULL. -999.2500:
UWI. F10156:
~C
DEPT.M :
SP.MV :
GR.API :
RML.OHMM :
RI. :
RXO.OHMM :
CALI.CM :
DEN.GM/CC :
~A
# ...
  195.2500   -15.1550    73.7920    48.2050    39.2140    63.0420    24.2760     2.2750 
  195.3750   -15.4970    68.1730    65.7130    54.8350    70.9760    24.2560     2.2680 
  195.5000   -15.8480    62.2260    84.7450    73.1590    77.4560    24.2660     2.2660 
  195.6250   -16.1930    59.3900   100.2560    89.3370    80.6180    24.2960     2.2590 
  195.7500   -16.5360    60.0610   107.8960    98.8990    79.5250    24.2450     2.2470 
  195.8750   -16.8760    60.4710   110.8510   103.8910    70.2520    24.0600     2.2370 
  196.0000   -17.2030    59.8550   112.0280   106.5300    64.4140    23.9810     2.2290 
  196.1250   -17.5050    59.8580   112.9410   108.1970    68.8900    24.1300     2.2220 
  196.2500   -17.7900    61.1780   114.0450   109.5090    88.5090    24.3530     2.2160 
  196.3750   -18.0820    61.1810   114.9150   110.4600   113.8320    24.5440     2.2140 
  196.5000   -18.3550    58.5210   114.9380   110.6470   128.7170    24.6390     2.2160 
  196.6250   -18.6280    55.5370   113.6930   109.7790   134.0580    24.6960     2.2180 
  196.7500   -18.8840    56.6500   110.5260   107.4580   129.1440    24.7690     2.2200 
  196.8750   -19.1380    58.0160   105.0860   103.3820   120.6860    24.8160     2.2240 
  197.0000   -19.4050    58.4220    97.1150    97.0780   110.7700    24.8480     2.2290 
  197.1250   -19.6530    60.7010    87.4420    88.8590   113.6300    24.9020     2.2340 
  197.2500   -19.8970    64.0540    78.2700    80.3300   118.3630    24.9320     2.2380 
  197.3750   -20.1380    65.4140    71.7130    73.6850   101.3720    24.9100     2.2430 
  197.5000   -20.3700    65.4560    69.0400    70.4710    73.1710    24.8180     2.2490 
  197.6250   -20.6050    66.0870    70.8150    71.6280    56.8910    24.7240     2.2510 
  197.7500   -20.8220    63.8950    77.5260    78.0200    81.5870    24.7460     2.2460 
  197.8750   -21.0200    59.9410    87.3240    87.8680   111.7040    24.8400     2.2380 
  198.0000   -21.2190    58.2410    98.1490    99.0810   132.3330    24.8890     2.2330 
  198.1250   -21.4050    60.6500   107.1650   108.7470   140.6030    24.8690     2.2300 
  198.2500   -21.5760    64.2660   111.3820   113.6320   139.9950    24.7670     2.2240 
  198.3750   -21.7590    64.7320   112.0450   114.5590   126.4050    24.6620     2.2160 
  198.5000   -21.9330    61.5410   111.2620   113.4400   117.9840    24.5920     2.2050 
  198.6250   -22.1010    57.6110   110.5860   111.9500   123.6820    24.5690     2.1960 
  198.7500   -22.2580    58.4580   110.9310   111.1390   133.8740    24.5650     2.1980 
  198.8750   -22.4030    61.7660   113.0150   111.8550   135.1610    24.5970     2.2110 
  199.0000   -22.5480    62.4030   118.0790   115.3760   129.0170    24.6430     2.2300 
  199.1250   -22.6810    59.7270   127.6200   123.2280   123.4390    24.7250     2.2440 
  199.2500   -22.7870    58.4530   144.3220   138.0430   127.3820    24.8790     2.2450 
  199.3750   -22.8480    60.1100   167.9630   159.4340   153.7160    25.0120     2.2370 
  199.5000   -22.8770    60.9480   196.9360   185.7000   221.0240    25.0870     2.2240 
  199.6250   -22.8820    59.2100   225.7460   212.1630   327.9170    25.1220     2.2140 
  199.7500   -22.8470    58.3590   242.1410   229.4030   367.8170    25.1020     2.2150 
  199.8750   -22.7510    60.6630   240.1500   232.1960   331.5840    25.0120     2.2200 
  200.0000   -22.6500    62.5830   221.4370   220.1380   264.3020    24.8040     2.2250 
  200.1250   -22.5280    61.0080   193.7470   197.8680   208.5520    24.5280     2.2270 
  200.2500   -22.3390    59.8780   165.8690   172.2840   174.9550    24.3530     2.2280 
  200.3750   -22.1710    62.7820   142.1700   148.9350   146.8760    24.3090     2.2280 
  200.5000   -21.9990    65.7610   127.4610   129.2600   121.1380    24.3530     2.2310 
  200.6250   -21.7830    64.0930   112.7600   113.0200   104.7730    24.4480     2.2380 
  200.7500   -21.5800    61.7990    99.5260    99.7840    95.0610    24.4360     2.2540 
  200.8750   -21.3780    62.6210    88.4170    88.5400    92.4550    24.2900     2.2740 
  201.0000   -21.1100    62.8230    79.2720    79.1210    75.4740    24.0770     2.2920 
  201.1250   -20.8370    60.5210    72.1050    71.5890    57.6940    23.9940     2.2980 
  201.2500   -20.6210    60.4320    67.3530    66.3930    55.7380    24.1290     2.2890 
  201.3750   -20.3490    63.6660    64.6860    63.1970    59.7200    24.3600     2.2790 
  201.5000   -20.0910    66.8390    64.1470    61.9990    64.1270    24.4830     2.2810 
  201.6250   -19.8240    66.2450    66.0340    63.0480    67.4740    24.4830     2.2980 
  201.7500   -19.5450    63.1010    71.5170    67.5290    66.2750    24.4300     2.3210 
  201.8750   -19.3080    59.8190    80.7850    75.7850    67.2450    24.3990     2.3380 
  202.0000   -19.0670    59.2090    93.7690    87.8040    60.1010    24.3570     2.3540 
  202.1250   -18.8230    62.4480   108.5360   101.6860    65.2510    24.1800     2.3830 
  202.2500   -18.5560    64.9980   118.5230   111.6370   105.1090    23.8090     2.4300 
  202.3750   -18.2920    63.6550   118.2710   112.8310   165.6810    23.6600     2.4580 
  202.5000   -18.0240    60.9800   108.8120   105.3790   151.6670    23.7790     2.4390 
  202.6250   -17.7670    60.6160    96.7640    94.3000    91.4600    24.1470     2.4000 
  202.7500   -17.5190    61.1060    88.8200    85.9220    66.1340    24.4310     2.4120 
  202.8750   -17.2580    58.3340    85.4740    81.8370    74.2260    24.3100     2.4850 
  203.0000   -17.0150    52.7170    84.3530    80.3070   118.3090    24.0880     2.5840 
  203.1250   -16.7600    49.1070    81.2330    77.5110   185.1340    24.0670     2.6520 
  203.2500   -16.5180    54.0870    70.6230    67.8440   196.5870    24.1280     2.6560 
  203.3750   -16.3090    63.8130    54.3870    52.3790   144.3700    24.1600     2.6270 
  203.5000   -16.0770    69.7220    37.5790    36.1860    85.6890    24.1750     2.5870 
  203.6250   -15.8510    67.8210    24.2210    23.5570    47.5850    24.1670     2.5450 
  203.7500   -15.6340    63.2470    15.8730    15.8940    25.7550    24.1200     2.4980 
  203.8750   -15.4080    59.5140    10.8140    11.2120    14.3600    24.0780     2.4490 
  204.0000   -15.2100    54.7800     9.2520     8.4420     8.6740    24.0870     2.4060 
  204.1250   -15.0330    49.3940     7.5740     6.8860     7.0440    24.1420     2.3820 
  204.2500   -14.8710    48.9850     6.8220     6.2020     7.0600    24.1820     2.3780 
  204.3750   -14.7370    52.7750     6.5720     5.9750     7.1060    24.1520     2.3820 
  204.5000   -14.6210    55.4600     6.6150     6.0140     7.0120    24.0350     2.3880 
  204.6250   -14.5260    53.8220     6.7810     6.1640     7.0180    24.0140     2.3920 
  204.7500   -14.4290    51.7220     6.9410     6.3100     7.2400    24.1650     2.3920 
  204.8750   -14.3430    51.9500     7.0470     6.4060     7.3760    24.3020     2.3910 
  205.0000   -14.2580    52.9010     7.1020     6.4570     7.2640    24.3710     2.3950 
  205.1250   -14.1720    53.0070     7.1260     6.4790     7.1090    24.4050     2.4050 
  205.2500   -14.1020    53.2730     7.1310     6.4830     7.4050    24.3810     2.4100 
  205.3750   -14.0260    53.7750     7.1010     6.4550     7.7830    24.3120     2.4040 
  205.5000   -13.9450    53.6630     7.0000     6.3640     7.9500    24.2600     2.3910 
  205.6250   -13.8610    53.2590     6.8150     6.1960     7.7220    24.2730     2.3830 
  205.7500   -13.8230    54.5870     6.5820     5.9840     7.4660    24.3050     2.3870 
  205.8750   -13.7660    57.0830     6.3840     5.8040     7.3300    24.2620     2.3980 
  206.0000   -13.6960    61.7440     6.2790     5.7080     7.2480    24.1720     2.4060 
  206.1250   -13.6470    68.8810     6.2920     5.7200     7.4070    24.1290     2.4130 
  206.2500   -13.5510    78.5880     6.4200     5.8360     8.0880    24.2130     2.4230 
  206.3750   -13.4490    86.9700     6.5960     5.9960     8.6750    24.3440     2.4360 
