~V
VERS. 2.00: Ver 2.00
~W
STRT.M 43.0000:
STOP.M 249.0000:
STEP.M 0.1250:
NULL. -999.2500:
UWI. F10197:
~C
DEPT.M :
GR.API :
RML.OHMM :
RI. :
RXO.OHMM :
CALI.CM :
SP.MV :
DEN.GM/CC :
~A
# ...
   76.7500    69.7940     8.9790     7.2020    11.0950    21.1200   -43.3130     2.1460 
   76.8750    72.2650     9.0490     7.2130    11.6650    21.2680   -43.3960     2.1460 
   77.0000    71.7580     9.1540     7.2670    12.1860    21.8230   -43.5240     2.1480 
   77.1250    68.2300     9.2560     7.3520    12.3530    22.6250   -43.7010     2.1510 
   77.2500    66.4000     9.3260     7.4400    12.5500    23.2610   -43.8720     2.1550 
   77.3750    67.3040     9.3520     7.5130    12.6920    23.5920   -43.9600     2.1580 
   77.5000    67.7060     9.3350     7.5600    12.7120    23.6500   -43.8900     2.1580 
   77.6250    64.2360     9.2660     7.5760    12.5960    23.6340   -43.6520     2.1580 
   77.7500    60.4680     9.1600     7.5720    12.0770    23.3460   -43.2740     2.1580 
   77.8750    60.1570     9.0480     7.5620    11.2510    22.6950   -42.7900     2.1570 
   78.0000    63.2080     8.9830     7.5750    10.6880    22.1300   -42.2120     2.1560 
   78.1250    65.6870     9.0640     7.6640    10.7220    21.9630   -41.4990     2.1540 
   78.2500    66.8360     9.3220     7.8530    10.9630    21.9460   -40.6220     2.1510 
   78.3750    66.9220     9.7360     8.1320    11.2840    21.9070   -39.5800     2.1470 
   78.5000    66.2190    10.1890     8.4300    11.7830    22.0360   -38.3610     2.1520 
   78.6250    66.2740    10.4100     8.5600    12.2950    22.5690   -36.8470     2.1710 
   78.7500    65.8630    10.1920     8.3650    12.4590    23.1390   -35.0950     2.1930 
   78.8750    66.1960     9.4530     7.7770    11.9010    23.3280   -33.1650     2.2110 
   79.0000    71.7660     8.3010     6.8740    10.2880    23.2060   -31.1890     2.2300 
   79.1250    83.7380     7.0600     5.8830     8.0310    23.0520   -29.3210     2.2600 
   79.2500    94.7860     6.1600     5.0960     6.2490    22.8510   -27.6730     2.2970 
   79.3750   101.2080     5.9470     4.7150     5.6820    22.4060   -26.3270     2.3280 
   79.5000   103.2760     6.7230     4.9110     5.8800    21.8280   -25.3840     2.3490 
   79.6250    96.7940     8.9430     6.0380     7.1700    21.5840   -25.0240     2.3680 
   79.7500    82.5720    12.4320     8.1960    10.6650    21.6020   -25.1980     2.3960 
   79.8750    69.4580    16.7640    11.4130    17.1550    21.7040   -25.8390     2.4370 
   80.0000    65.9600    20.6570    15.0440    23.9210    21.7630   -26.8310     2.4790 
   80.1250    68.7470    21.4860    16.9150    25.1140    21.7110   -28.0680     2.4930 
   80.2500    70.1210    19.1250    16.0940    19.7690    21.5350   -29.3850     2.4670 
   80.3750    70.3060    15.3900    13.6740    14.1380    21.3620   -30.7200     2.4030 
   80.5000    72.1970    12.1500    11.1710    11.5490    21.4100   -32.0310     2.3210 
   80.6250    75.7410    10.2460     9.4030    11.1680    21.8000   -33.2780     2.2520 
   80.7500    76.2080     9.2910     8.2870    11.3260    22.2360   -34.4510     2.2140 
   80.8750    74.3260     9.0290     7.7200    11.5720    22.5010   -35.5470     2.2060 
   81.0000    71.7230     9.3100     7.6370    11.8500    22.5380   -36.5360     2.2120 
   81.1250    69.5940    10.1290     8.0620    12.1730    22.4020   -37.3990     2.2180 
   81.2500    67.6640    11.3020     8.8490    12.9820    22.2660   -38.1830     2.2280 
   81.3750    64.6430    12.6040     9.8480    15.6500    22.3240   -38.8950     2.2480 
   81.5000    61.1660    13.6270    10.7700    20.8380    22.4720   -39.5320     2.2850 
   81.6250    58.2990    13.7110    11.0810    23.8890    22.4570   -40.0980     2.3320 
   81.7500    57.7390    12.8590    10.6550    18.9120    22.2320   -40.5640     2.3530 
   81.8750    59.7300    11.4770     9.7190    14.1740    21.9740   -40.8970     2.3190 
   82.0000    61.9360    10.1320     8.6680    12.2100    21.9820   -41.1010     2.2480 
   82.1250    62.8830     9.2890     7.8530    11.8530    22.2960   -41.1590     2.1980 
   82.2500    62.7760     8.9420     7.3520    11.5960    22.5670   -41.1100     2.1790 
   82.3750    63.3490     8.9540     7.1370    11.4750    22.6040   -40.9610     2.1750 
   82.5000    65.2150     9.1370     7.1140    11.4460    22.5130   -40.7100     2.1740 
   82.6250    66.3850     9.3320     7.1860    11.4320    22.4430   -40.3180     2.1730 
   82.7500    65.8040     9.4600     7.2590    11.4220    22.4380   -39.8340     2.1700 
   82.8750    64.5820     9.5030     7.2930    11.5080    22.4600   -39.3050     2.1650 
   83.0000    64.4310     9.4630     7.2690    11.5590    22.4180   -38.7630     2.1600 
   83.1250    67.0780     9.3560     7.1840    11.3750    22.2480   -38.2630     2.1590 
   83.2500    70.7680     9.2330     7.0720    11.0030    22.0260   -37.8230     2.1660 
   83.3750    71.6670     9.1370     6.9590    10.4920    21.7470   -37.4390     2.1800 
   83.5000    69.7450     9.0950     6.8710     9.9220    21.4820   -37.1280     2.1930 
   83.6250    67.1520     9.1230     6.8300     9.4540    21.2500   -36.9510     2.1970 
   83.7500    66.0760     9.1860     6.8270     9.4890    21.1440   -36.8960     2.1930 
   83.8750    66.6990     9.2520     6.8510    10.1340    21.1850   -36.9510     2.1810 
   84.0000    68.2350     9.3010     6.8870    10.9090    21.2460   -37.1150     2.1620 
   84.1250    69.2190     9.3340     6.9290    10.4590    21.2300   -37.3530     2.1460 
   84.2500    66.9750     9.3650     6.9780    10.2270    21.3030   -37.5950     2.1400 
   84.3750    62.2080     9.3960     7.0360    10.5300    21.5840   -37.8130     2.1450 
   84.5000    57.9060     9.4350     7.1090    11.1460    22.1040   -37.9580     2.1530 
   84.6250    56.0360     9.5240     7.2260    11.8120    22.9110   -37.9640     2.1590 
   84.7500    55.6890     9.7210     7.4210    12.2720    23.5640   -37.8170     2.1610 
   84.8750    56.6330    10.0710     7.7230    12.6880    23.9280   -37.4920     2.1660 
   85.0000    57.7310    10.5420     8.1190    13.2010    23.9250   -36.9510     2.1750 
   85.1250    59.8400    10.9580     8.5020    14.4440    23.7110   -36.1530     2.1930 
   85.2500    61.6150    11.0760     8.6870    15.8430    23.5650   -35.1470     2.2190 
   85.3750    63.0500    10.7250     8.5200    15.4770    23.7300   -33.9720     2.2530 
   85.5000    65.9010     9.9090     7.9680    12.8510    24.0360   -32.7150     2.2820 
   85.6250    70.1470     8.8430     7.1550    10.2040    24.1550   -31.4450     2.2890 
   85.7500    74.6470     7.8970     6.3630     8.5080    24.0530   -30.2760     2.2810 
   85.8750    79.1380     7.2720     5.7500     7.6990    23.8130   -29.2910     2.2720 
   86.0000    83.4700     7.0370     5.3970     7.6480    23.6030   -28.5400     2.2690 
   86.1250    86.7310     7.1980     5.3470     7.6820    23.5710   -28.0990     2.2630 
   86.2500    85.6770     7.5540     5.4970     8.2850    23.5110   -27.9390     2.2500 
   86.3750    80.7480     7.9560     5.7600     8.9120    23.3970   -28.0300     2.2320 
   86.5000    75.1000     8.2920     6.0530     9.2560    23.3060   -28.3140     2.2170 
   86.6250    73.0070     8.5100     6.3100     9.4200    23.2530   -28.7630     2.2130 
   86.7500    72.6950     8.6720     6.5260     9.8180    23.2240   -29.2720     2.2150 
   86.8750    71.6380     8.8400     6.7170    10.7450    23.2260   -29.7820     2.2200 
   87.0000    69.4170     9.0440     6.8970    11.8790    23.2260   -30.2730     2.2310 
   87.1250    66.4280     9.2410     7.0480    12.0060    23.1250   -30.6960     2.2480 
   87.2500    64.3000     9.3380     7.1240    10.8870    22.8660   -30.9970     2.2560 
   87.3750    65.8210     9.2540     7.0740    10.0190    22.5040   -31.1870     2.2460 
   87.5000    71.4650     8.9550     6.8740     9.2950    22.1340   -31.3170     2.2260 
   87.6250    74.9180     8.4940     6.5540     8.4550    21.9910   -31.4190     2.2180 
   87.7500    74.4860     8.0600     6.2320     7.6690    21.9680   -31.5640     2.2210 
   87.8750    74.1730     7.7990     6.0020     7.3610    21.9530   -31.8100     2.2320 
