~V
VERS. 2.00: Ver 2.00
~W
STRT.M 52.0000:
STOP.M 233.0000:
STEP.M 0.1250:
NULL. -999.2500:
UWI. F10175:
~C
DEPT.M :
GR.API :
RML.OHMM :
RI. :
RXO.OHMM :
CALI.CM :
DEN.GM/CC :
SP.MV :
~A
# ...
   63.2500    50.9140     1.5650     0.5790     0.7090    24.7060     2.3840    87.3280 
   63.3750    52.2380     1.4200     0.4860     0.7820    25.0690     2.4170    84.1660 
   63.5000    53.2820     1.1500     0.3560     0.9520    24.7990     2.4550    80.6610 
   63.6250    53.6220     0.8100     0.2250     1.1930    24.3740     2.5140    76.2000 
   63.7500    55.9510     0.5090     0.1250     1.3300    24.1240     2.5780    70.3840 
   63.8750    61.3240     0.3100     0.0650     1.3930    24.0750     2.6180    63.1360 
   64.0000    68.5360     0.2320     0.0440     1.4920    24.0410     2.6060    54.6720 
   64.1250    73.4930     0.2990     0.0760     1.9480    23.8950     2.5180    45.4980 
   64.2500    73.9460     0.5070     0.1830     2.9470    23.7400     2.3790    36.4250 
   64.3750    75.4920     0.8820     0.4110     4.0380    24.2370     2.2120    27.8260 
   64.5000    83.9470     1.4290     0.8190     4.6440    26.3120     2.0440    20.0340 
   64.6250    93.0100     2.0860     1.4540     4.4090    29.5990     1.9060    13.6250 
   64.7500    93.4720     2.6820     2.1660     4.2150    32.2050     1.8140     8.8150 
   64.8750    88.5780     3.0940     2.7680     4.2540    33.3790     1.7750     5.6450 
   65.0000    87.2990     3.2920     3.1550     4.3040    33.6470     1.7870     3.8400 
   65.1250    89.8350     3.3440     3.3630     4.3210    33.6470     1.8410     3.0040 
   65.2500    90.2420     3.4130     3.5450     4.2120    33.6470     1.9120     2.4000 
   65.3750    87.6940     3.5950     3.7860     4.1240    33.6470     1.9830     1.8210 
   65.5000    84.0690     3.9610     4.1560     4.2500    33.6470     2.0350     1.1870 
   65.6250    79.8710     4.6280     4.8000     5.4270    33.6470     2.0520     0.4580 
   65.7500    74.4690     5.6420     5.8190     8.2960    33.3980     2.0600    -0.3200 
   65.8750    69.8070     7.0550     7.3040    10.7670    32.2100     2.0910    -1.1080 
   66.0000    67.1580     8.8130     9.2290    11.2290    29.3250     2.1670    -1.9250 
   66.1250    65.2900    10.6320    11.2850    13.4100    27.1840     2.2750    -2.8760 
   66.2500    63.6890    12.0310    12.7890    21.0240    26.4150     2.3580    -3.8880 
   66.3750    62.6210    12.6480    13.2140    22.1020    25.8170     2.3830    -4.9690 
   66.5000    62.5800    12.4010    12.5520    13.8130    25.2310     2.3450    -6.1490 
   66.6250    65.6220    11.5320    11.3140     9.5820    24.9750     2.2740    -7.3190 
   66.7500    69.0080    10.6620    10.2070     8.3720    25.0400     2.2120    -8.4400 
   66.8750    68.2500    10.1440     9.5190     8.1540    25.0930     2.1740    -9.5310 
   67.0000    64.1200    10.0780     9.3120     7.9940    25.9790     2.1650   -10.5230 
   67.1250    63.4470    10.3600     9.5060     8.1640    27.3800     2.1850   -11.4400 
   67.2500    64.8760    10.6790     9.7880     9.4320    27.8420     2.2170   -12.2950 
   67.3750    64.9770    10.8470     9.9390    11.4980    26.0090     2.2400   -13.0100 
   67.5000    64.5980    10.7800     9.8450     9.5750    24.5390     2.2340   -13.5960 
   67.6250    63.9230    10.5010     9.5210     8.0800    24.5180     2.1840   -14.0800 
   67.7500    61.2740    10.1830     9.1480     7.5360    25.1370     2.1140   -14.5660 
   67.8750    57.6180     9.9430     8.8520     7.9250    25.9590     2.0500   -15.0580 
   68.0000    56.2050     9.8340     8.7050     8.4810    26.5950     2.0170   -15.5170 
   68.1250    58.2950     9.8420     8.7070     8.8570    26.3070     2.0250   -15.8640 
   68.2500    61.5840     9.8660     8.7420     8.8430    25.6550     2.0560   -16.0900 
   68.3750    63.6070     9.8460     8.7310     8.5580    24.7630     2.0910   -16.2970 
   68.5000    63.6920     9.7620     8.6470     8.2650    24.2970     2.1180   -16.4490 
   68.6250    64.7330     9.6480     8.5200     8.0400    24.2270     2.1320   -16.4940 
   68.7500    67.8120     9.5720     8.4090     8.0000    24.1090     2.1380   -16.4590 
   68.8750    72.1430     9.5760     8.3490     8.3190    23.9130     2.1420   -16.3260 
   69.0000    75.4180     9.6600     8.3420     8.3810    23.7190     2.1440   -16.1450 
   69.1250    73.7040     9.7830     8.3670     8.3630    23.6380     2.1430   -16.0070 
   69.2500    68.6130     9.8760     8.3780     8.2080    23.6070     2.1380   -15.9380 
   69.3750    65.4320     9.9020     8.3530     8.1290    23.5780     2.1310   -15.8590 
   69.5000    67.5950     9.8620     8.2910     8.1820    23.5400     2.1250   -15.8210 
   69.6250    71.8930     9.7950     8.2180     7.8940    23.4630     2.1250   -15.8310 
   69.7500    72.8050     9.7610     8.1740     7.4160    23.3380     2.1330   -15.8250 
   69.8750    70.7270     9.7930     8.1800     7.0980    23.2160     2.1470   -15.8520 
   70.0000    67.2990     9.8980     8.2460     7.1890    23.1430     2.1640   -15.8930 
   70.1250    64.7720    10.0520     8.3630     7.8160    23.0940     2.1800   -15.9350 
   70.2500    63.1010    10.2000     8.4880     8.3160    23.0500     2.1910   -15.9540 
   70.3750    63.4970    10.2980     8.5850     8.5600    23.0230     2.1960   -16.0070 
   70.5000    66.9480    10.3200     8.6280     8.5300    23.0370     2.1950   -16.0480 
   70.6250    71.6420    10.2510     8.6040     8.2690    23.1030     2.1870   -16.1380 
   70.7500    74.8560    10.1300     8.5400     8.1490    23.2140     2.1780   -16.3490 
   70.8750    74.4230     9.9920     8.4640     8.3020    23.3780     2.1700   -16.6270 
   71.0000    71.9520     9.8790     8.3990     8.5390    23.6000     2.1670   -16.9990 
   71.1250    69.5710     9.8330     8.3740     8.7200    23.9220     2.1690   -17.2920 
   71.2500    68.5990     9.8470     8.3930     8.8140    24.2820     2.1730   -17.5070 
   71.3750    68.3310     9.8820     8.4460     8.7920    24.4830     2.1750   -17.6010 
   71.5000    67.5140     9.8620     8.4840     8.4260    24.5210     2.1710   -17.5420 
   71.6250    67.3840     9.6620     8.3940     8.3330    24.4200     2.1570   -17.3130 
   71.7500    69.0730     9.2330     8.1000     8.3230    24.2680     2.1440   -16.8240 
   71.8750    74.1700     8.5750     7.5760     7.9200    24.1380     2.1400   -16.1270 
   72.0000    82.7770     7.7590     6.8800     6.9790    24.1240     2.1550   -15.3300 
   72.1250    93.9790     6.9370     6.1530     5.8800    24.1180     2.1940   -14.5940 
   72.2500   102.1730     6.2830     5.5530     5.3960    24.0340     2.2400   -14.0230 
   72.3750   104.9450     5.9190     5.1760     5.1250    23.8170     2.2790   -13.6990 
   72.5000   103.9730     5.9090     5.0730     5.0100    23.5680     2.2980   -13.6540 
   72.6250   100.6100     6.3000     5.2990     5.2250    23.3250     2.2910   -13.9000 
   72.7500    95.0270     6.9420     5.7620     5.8750    23.0750     2.2660   -14.4470 
   72.8750    86.8560     7.6870     6.3680     6.8690    22.8730     2.2330   -15.2410 
   73.0000    79.4770     8.3640     6.9780     7.5330    22.7800     2.1990   -16.1970 
   73.1250    75.9140     8.7660     7.4000     7.6820    22.7570     2.1770   -17.1910 
   73.2500    73.8800     8.8700     7.5740     7.8740    22.7190     2.1670   -18.0960 
   73.3750    72.9000     8.7330     7.5360     8.1180    22.6510     2.1650   -18.7620 
   73.5000    71.3600     8.4860     7.3930     8.1220    22.6460     2.1680   -19.1400 
   73.6250    68.0120     8.2720     7.2520     7.9170    22.7760     2.1740   -19.1810 
   73.7500    65.5310     8.1420     7.1610     7.7690    22.9320     2.1820   -18.9170 
   73.8750    66.5060     8.0650     7.0980     7.8830    23.0300     2.1930   -18.4110 
   74.0000    71.2610     7.9770     7.0070     8.1720    23.0840     2.2050   -17.6200 
   74.1250    76.9650     7.8070     6.8200     8.2890    23.1630     2.2140   -16.6400 
   74.2500    83.2210     7.5610     6.5450     7.7300    23.3360     2.2190   -15.5890 
   74.3750    89.2040     7.2870     6.2360     6.8900    23.6890     2.2180   -14.6440 
