~V
VERS. 2.00: Ver 2.00
~W
STRT.M 50.0000:
STOP.M 232.0000:
STEP.M 0.1250:
NULL. -999.2500:
UWI. F10160:
~C
DEPT.M :
SP.MV :
DEN.GM/CC :
GR.API :
RML.OHMM :
RI. :
RXO.OHMM :
CALI.CM :
~A
# ...
   72.5000   -38.3130     2.2150    66.9970     8.7060     6.8130     8.5800    24.1730 
   72.6250   -38.3250     2.2140    62.9980     8.7300     6.8460     8.6250    24.1910 
   72.7500   -38.2590     2.2110    58.5150     8.7850     6.8900     8.5370    24.2070 
   72.8750   -38.1300     2.2080    55.0040     8.8570     6.9420     8.4390    24.2150 
   73.0000   -37.9560     2.2070    51.9250     8.9190     6.9890     8.5370    24.2160 
   73.1250   -37.7280     2.2080    50.7430     8.9460     7.0120     8.6440    24.2150 
   73.2500   -37.4630     2.2130    51.0780     8.9460     7.0100     8.7070    24.2190 
   73.3750   -37.1660     2.2190    51.6310     8.9350     6.9840     8.6060    24.2330 
   73.5000   -36.8280     2.2240    51.1950     8.9300     6.9390     8.5010    24.2550 
   73.6250   -36.4630     2.2240    49.3790     8.9290     6.8790     8.4250    24.2680 
   73.7500   -36.0870     2.2190    49.1720     8.9070     6.8120     8.3150    24.2700 
   73.8750   -35.7130     2.2100    52.4570     8.8410     6.7430     8.1580    24.2680 
   74.0000   -35.3510     2.2020    57.2860     8.7160     6.6740     8.0450    24.2690 
   74.1250   -35.0080     2.1990    58.0140     8.5390     6.6140     8.1910    24.2730 
   74.2500   -34.6720     2.2020    54.4500     8.3530     6.5680     8.2960    24.2750 
   74.3750   -34.3250     2.2080    52.3090     8.1980     6.5480     8.4390    24.2730 
   74.5000   -33.9410     2.2130    53.8030     8.1200     6.5720     8.5420    24.2720 
   74.6250   -33.4870     2.2180    55.5520     8.2120     6.6870     8.5620    24.2720 
   74.7500   -32.9400     2.2260    56.0680     8.5210     6.9260     8.4910    24.2680 
   74.8750   -32.2770     2.2360    57.7670     9.0440     7.2980     8.7090    24.2730 
   75.0000   -31.4850     2.2480    61.9330     9.6470     7.7330     9.5880    24.3200 
   75.1250   -30.5540     2.2640    65.1120     9.9750     8.0110    11.2410    24.4830 
   75.2500   -29.5390     2.2870    66.3510     9.7610     7.9280    13.2820    24.8010 
   75.3750   -28.5020     2.3160    68.4670     8.9550     7.4140    14.1970    25.2270 
   75.5000   -27.5310     2.3500    75.3040     7.7790     6.5840    11.9030    25.6020 
   75.6250   -26.7240     2.3790    84.6390     6.6370     5.6840     6.7120    25.7620 
   75.7500   -26.1170     2.3970    89.7730     5.7830     4.9280     4.9510    25.7740 
   75.8750   -25.7340     2.4080    91.0870     5.2370     4.3790     4.5970    25.7380 
   76.0000   -25.5690     2.4150    92.4020     4.9330     4.0310     4.7070    25.6990 
   76.1250   -25.6490     2.4110    94.9090     4.8700     3.9110     4.6080    25.6750 
   76.2500   -25.9210     2.3920    93.8950     5.1100     4.0280     4.5810    25.6600 
   76.3750   -26.3660     2.3670    88.4170     5.8990     4.4960     4.8550    25.6130 
   76.5000   -26.9570     2.3570    81.1550     7.6580     5.5210     6.1210    25.5270 
   76.6250   -27.6710     2.3920    73.6560    11.2950     7.6360    11.3720    25.4550 
   76.7500   -28.4730     2.4780    65.7450    17.0670    11.1060    25.2940    25.4230 
   76.8750   -29.3360     2.5950    58.8260    24.7210    15.9700    48.0520    25.3980 
   77.0000   -30.2340     2.7010    56.1000    32.2710    21.2260    67.6680    25.3480 
   77.1250   -31.1110     2.7420    58.1940    34.4510    23.6820    65.7630    25.2650 
   77.2500   -31.9330     2.7150    61.2440    30.1760    22.1130    46.8200    25.1130 
   77.3750   -32.6750     2.6330    61.7130    22.9280    18.1640    25.7490    24.8760 
   77.5000   -33.3360     2.5200    60.0960    16.5460    14.1100    14.2230    24.6330 
   77.6250   -33.9190     2.4050    59.8590    12.7070    11.2270    10.2670    24.5260 
   77.7500   -34.4370     2.3130    61.4930    10.6090     9.3690     8.9060    24.5470 
   77.8750   -34.8850     2.2550    63.4420     9.6490     8.2910     8.3870    24.6040 
   78.0000   -35.2730     2.2320    65.0690     9.3630     7.7610     8.3580    24.6340 
   78.1250   -35.6000     2.2380    67.4400     9.4240     7.6080     8.6160    24.6390 
   78.2500   -35.8760     2.2470    69.5710     9.5270     7.5950     8.7360    24.6460 
   78.3750   -36.0990     2.2470    69.9020     9.5630     7.6140     8.4540    24.6600 
   78.5000   -36.2640     2.2330    67.5800     9.5290     7.6210     8.0570    24.6770 
   78.6250   -36.3640     2.2110    62.6280     9.4770     7.6140     7.8290    24.6680 
   78.7500   -36.4150     2.1950    59.0830     9.4550     7.6060     7.8020    24.5970 
   78.8750   -36.4450     2.1910    59.3210     9.4660     7.6000     8.1290    24.4580 
   79.0000   -36.4730     2.1960    61.5520     9.4810     7.5830     8.5540    24.2920 
   79.1250   -36.5050     2.2040    61.7940     9.4580     7.5310     8.8540    24.1650 
   79.2500   -36.5280     2.2070    60.9190     9.3880     7.4400     8.8980    24.0960 
   79.3750   -36.5290     2.2050    60.8310     9.2850     7.3180     9.0300    24.0710 
   79.5000   -36.5140     2.2010    60.4150     9.1740     7.1830     9.1830    24.0720 
   79.6250   -36.4900     2.1970    58.5070     9.0880     7.0640     9.3030    24.0760 
   79.7500   -36.4670     2.1940    57.7290     9.0420     6.9790     9.1630    24.0770 
   79.8750   -36.4530     2.1910    58.5200     9.0450     6.9350     9.0040    24.0750 
   80.0000   -36.4530     2.1860    58.9900     9.0950     6.9310     8.9540    24.0750 
   80.1250   -36.4690     2.1840    58.2780     9.1890     6.9630     8.9660    24.0770 
   80.2500   -36.4890     2.1880    58.3470     9.2970     7.0100     9.0330    24.0780 
   80.3750   -36.5050     2.2000    58.8330     9.3940     7.0550     9.0390    24.0760 
   80.5000   -36.4960     2.2160    58.0940     9.4560     7.0870     8.8250    24.0760 
   80.6250   -36.4670     2.2270    56.5390     9.4730     7.0950     8.5040    24.0770 
   80.7500   -36.4250     2.2320    57.4620     9.4670     7.0850     8.3380    24.0750 
   80.8750   -36.3690     2.2300    61.8860     9.4610     7.0630     8.3240    24.0730 
   81.0000   -36.3020     2.2270    65.3000     9.4670     7.0390     8.3640    24.0720 
   81.1250   -36.2370     2.2250    63.5830     9.4770     7.0160     8.4140    24.0730 
   81.2500   -36.1740     2.2270    61.8100     9.4640     6.9880     8.3950    24.0720 
   81.3750   -36.0950     2.2340    63.5680     9.4110     6.9470     8.3210    24.0710 
   81.5000   -36.0080     2.2440    66.0730     9.3120     6.8890     8.2650    24.0750 
   81.6250   -35.9120     2.2550    64.1250     9.1840     6.8150     8.1260    24.0790 
   81.7500   -35.8140     2.2610    60.1940     9.0630     6.7430     8.0290    24.0770 
   81.8750   -35.7100     2.2570    57.2000     8.9720     6.6870     8.2390    24.0780 
   82.0000   -35.5920     2.2470    55.8270     8.9250     6.6560     8.4330    24.0970 
   82.1250   -35.4490     2.2340    57.2190     8.9200     6.6590     8.5640    24.1440 
   82.2500   -35.2640     2.2240    59.8140     8.9260     6.6840     8.6080    24.2140 
   82.3750   -35.0230     2.2170    60.7720     8.9210     6.7200     8.6230    24.2940 
   82.5000   -34.7110     2.2110    59.4030     8.8970     6.7610     8.5000    24.3680 
   82.6250   -34.2970     2.2060    59.5600     8.8600     6.8060     8.4580    24.4550 
   82.7500   -33.8160     2.2040    62.5510     8.8400     6.8630     8.5090    24.5690 
   82.8750   -33.2780     2.2070    64.9320     8.8610     6.9370     8.6430    24.6890 
   83.0000   -32.6740     2.2170    65.5590     8.9410     7.0260     8.7400    24.7710 
   83.1250   -31.9840     2.2300    66.6080     9.0820     7.1120     8.5270    24.8060 
   83.2500   -31.2130     2.2410    65.6980     9.2100     7.1610     8.1550    24.8430 
   83.3750   -30.3680     2.2510    62.3850     9.2340     7.1340     7.8430    24.9070 
   83.5000   -29.4590     2.2630    61.8370     9.0840     7.0030     7.6180    25.0060 
   83.6250   -28.5240     2.2800    69.4200     8.7360     6.7520     7.3990    25.1540 
