~V
VERS. 2.00: Ver 2.00
~W
STRT.M 55.0000:
STOP.M 242.0000:
STEP.M 0.1250:
NULL. -999.2500:
UWI. F10187:
~C
DEPT.M :
GR.API :
RML.OHMM :
RI. :
RXO.OHMM :
CALI.CM :
DEN.GM/CC :
SP.MV :
~A
# ...
  167.5000    69.8060   172.3640   160.6210   157.1340    24.9780     2.2320    -7.3180 
  167.6250    65.8030   181.7540   169.9670   155.8400    25.0540     2.2230    -8.3200 
  167.7500    62.8480   192.4070   181.3330   152.8390    25.1200     2.2160    -9.2550 
  167.8750    61.9730   199.7950   191.0790   157.9490    25.1730     2.2120   -10.1640 
  168.0000    61.9790   198.9740   194.5600   171.8790    25.1750     2.2110   -11.0370 
  168.1250    61.2640   185.0650   185.8280   184.0720    25.0600     2.2090   -11.6930 
  168.2500    60.4770   162.0920   166.5600   188.7140    24.8860     2.2060   -12.1550 
  168.3750    60.0100   135.7020   141.2260   170.9980    24.7900     2.2060   -12.5010 
  168.5000    61.3270   111.8520   116.1590   123.1210    24.7650     2.2110   -12.6620 
  168.6250    65.2800    95.6360    97.6430    78.0900    24.6520     2.2270   -12.8280 
  168.7500    67.7060    86.9180    86.8050    58.1590    24.3810     2.2470   -13.1250 
  168.8750    67.4200    85.2220    83.6240    58.7230    24.0940     2.2640   -13.3270 
  169.0000    65.9550    89.9120    87.5970    73.0210    23.9430     2.2700   -13.3940 
  169.1250    65.4110   101.1300    99.0030    95.9740    24.0400     2.2620   -13.5730 
  169.2500    65.9630   116.4540   115.1630   120.0630    24.1160     2.2460   -13.8300 
  169.3750    65.8440   133.3760   133.2780   140.5080    24.1060     2.2310   -14.1220 
  169.5000    65.2620   148.4590   149.5330   147.2050    24.0460     2.2250   -14.5220 
  169.6250    65.8470   157.2710   159.0660   142.9190    24.0020     2.2320   -14.8340 
  169.7500    68.4630   159.2870   161.3160   130.8280    24.0070     2.2420   -14.9410 
  169.8750    71.6460   155.4200   157.3400   121.0790    24.0450     2.2470   -15.0190 
  170.0000    72.8460   147.5630   149.2100   131.9010    24.0970     2.2430   -15.1730 
  170.1250    72.1590   137.4170   138.6670   150.9500    24.2750     2.2350   -15.3660 
  170.2500    71.8770   126.7610   127.4560   133.5530    24.5640     2.2290   -15.6130 
  170.3750    71.7110   116.5910   116.5390   102.9120    24.7980     2.2290   -15.9100 
  170.5000    71.1140   107.8480   106.8800    89.5770    24.8320     2.2330   -16.2740 
  170.6250    71.0550   101.8620    99.9080    91.4390    24.6990     2.2390   -16.6370 
  170.7500    71.3430    98.8390    96.0300    85.1150    24.5330     2.2460   -16.9990 
  170.8750    71.8710    98.8680    95.4790    84.9260    24.3590     2.2530   -17.4520 
  171.0000    73.5690   101.5890    97.9870    92.8810    24.1320     2.2570   -17.8720 
  171.1250    76.7970   106.2860   102.9660    96.4840    23.9180     2.2540   -18.1040 
  171.2500    78.9060   111.2010   108.5800    94.6210    23.7590     2.2470   -18.2750 
  171.3750    78.9420   114.9730   113.2840   105.5690    23.7070     2.2410   -18.3550 
  171.5000    79.3250   116.6970   115.8300   112.5350    23.7080     2.2410   -18.2140 
  171.6250    84.0170   116.1230   115.5920    97.7910    23.7140     2.2500   -18.0160 
  171.7500    90.8630   114.6380   114.0080    92.9030    23.7140     2.2610   -17.9320 
  171.8750    93.4220   113.4100   112.3730    98.1590    23.7140     2.2710   -17.7480 
  172.0000    88.3900   113.2380   111.6270    98.4390    23.7140     2.2780   -17.4490 
  172.1250    80.3570   114.4520   112.2420    96.6670    23.6850     2.2820   -17.2390 
  172.2500    74.8850   116.2700   113.5360   117.5070    23.6050     2.2860   -16.9920 
  172.3750    72.5160   117.8570   114.6010   142.1760    23.4970     2.2900   -16.7260 
  172.5000    72.1640   118.5170   114.6160   146.7350    23.4470     2.2910   -16.6230 
  172.6250    73.9460   117.9020   113.1680   129.1870    23.6300     2.2880   -16.5430 
  172.7500    74.2700   116.7550   111.0060   122.4040    24.0840     2.2820   -16.3210 
  172.8750    74.0150   116.0120   108.9820   118.5120    24.6220     2.2750   -16.1500 
  173.0000    76.0800   116.7830   108.1670   114.6840    24.9450     2.2670   -16.1130 
  173.1250    76.9770   120.8030   110.3410   100.1450    25.0360     2.2570   -15.9920 
  173.2500    73.8090   128.7910   116.3230    91.4160    25.0390     2.2440   -15.8540 
  173.3750    70.2980   141.6880   127.1240    94.5160    25.0270     2.2290   -15.7370 
  173.5000    70.7120   160.2110   143.7180   118.4040    25.0260     2.2140   -15.5020 
  173.6250    70.5480   184.8010   167.3670   174.3610    25.0340     2.2010   -15.1760 
  173.7500    65.5660   210.4970   194.7540   262.5940    25.0300     2.1900   -14.8980 
  173.8750    58.8030   228.0310   219.5850   325.1380    25.0360     2.1800   -14.7300 
  174.0000    55.4970   225.1300   230.2150   354.1200    25.0890     2.1730   -14.6090 
  174.1250    58.5340   191.4020   207.6420   343.7510    25.1080     2.1720   -14.5300 
  174.2500    64.3050   141.4660   158.4980   285.9100    25.1050     2.1800   -14.5150 
  174.3750    69.1700    92.0670   102.9520   184.5050    25.1150     2.2000   -14.4950 
  174.5000    72.3230    54.8290    59.3660    92.9040    25.1120     2.2330   -14.4140 
  174.6250    77.6430    33.5810    34.7190    43.5850    25.1070     2.2780   -14.3860 
  174.7500    86.3880    21.7100    21.4360    20.0940    25.0780     2.3250   -14.4080 
  174.8750    94.2330    15.5350    14.7790    11.2980    25.0670     2.3660   -14.2680 
  175.0000    97.4730    12.6700    11.6200     9.3930    25.0610     2.3940   -14.0650 
  175.1250    97.4630    11.8320    10.4480     9.7700    25.0550     2.4070   -13.9490 
  175.2500    96.4610    11.7830    10.1370    10.1020    25.0660     2.4140   -13.7800 
  175.3750    93.2150    11.9790    10.2320    10.1930    25.0910     2.4230   -13.6050 
  175.5000    88.6800    12.0740    10.3650    10.1760    25.0740     2.4340   -13.5750 
  175.6250    87.3140    11.9350    10.2880     9.8240    25.0380     2.4430   -13.6340 
  175.7500    87.2690    11.7700    10.1060     9.4240    25.0200     2.4420   -13.7330 
  175.8750    85.5450    11.8380    10.0500     9.2410    25.0170     2.4310   -13.9220 
  176.0000    84.4790    12.3530    10.3450     9.6820    25.0170     2.4110   -14.0650 
  176.1250    86.3590    13.4750    11.2170    11.4740    25.0060     2.3900   -14.1710 
  176.2500    87.0750    14.9940    12.5620    15.1850    24.9880     2.3730   -14.4080 
  176.3750    85.9420    16.6580    14.1900    20.0840    25.0100     2.3610   -14.6900 
  176.5000    84.9050    18.1510    15.7580    22.9550    25.1350     2.3550   -14.8980 
  176.6250    85.9050    19.0700    16.7820    21.5240    25.2460     2.3560   -15.1110 
  176.7500    85.6540    19.3290    17.1170    19.0620    25.2810     2.3630   -15.3070 
  176.8750    83.1860    18.9360    16.7760    17.8240    25.2810     2.3740   -15.4180 
  177.0000    81.0830    18.0010    15.8810    18.4200    25.2780     2.3830   -15.4620 
  177.1250    80.9070    16.6540    14.5620    19.0920    25.3610     2.3850   -15.4230 
  177.2500    82.9490    15.1640    13.0830    16.1350    25.4300     2.3840   -15.2970 
  177.3750    86.3130    13.7210    11.6330    12.5620    25.4570     2.3870   -15.1060 
  177.5000    90.0320    12.4920    10.3760    10.5810    25.4690     2.3950   -14.9650 
  177.6250    93.1800    11.6660     9.4810     9.9280    25.5150     2.4070   -14.9060 
  177.7500    95.3890    11.2540     8.9350     9.5930    25.5860     2.4140   -14.7870 
  177.8750    96.6310    11.2940     8.7540     9.3960    25.5480     2.4140   -14.6580 
  178.0000    96.5290    11.8160     8.9700     9.5660    25.3420     2.4100   -14.6490 
  178.1250    94.1730    12.8670     9.6910    10.2630    25.0610     2.4080   -14.7150 
  178.2500    90.0930    14.1880    10.7950    11.3800    24.8660     2.4100   -14.7430 
  178.3750    84.7580    15.4440    12.0670    13.8460    24.6540     2.4140   -14.8170 
  178.5000    81.0230    16.2140    13.0970    18.3850    24.3480     2.4160   -14.8640 
  178.6250    83.1450    16.0350    13.2490    20.6170    24.1790     2.4150   -14.8040 
