~V
VERS. 2.00: Ver 2.00
~W
STRT.M 50.0000:
STOP.M 207.0000:
STEP.M 0.1250:
NULL. -999.2500:
UWI. F10134:
~C
DEPT.M :
SP.MV :
DEN.GM/CC :
GR.API :
RML.OHMM :
RI. :
RXO.OHMM :
CALI.CM :
~A
# ...
  151.2500     0.8210     2.1440    52.7950   206.5040   176.2190   112.7800    30.1300 
  151.3750     0.7420     2.1500    54.4680   208.3070   179.4180   114.7230    30.1290 
  151.5000     0.6220     2.1530    57.9910   208.5700   181.4300   123.4570    30.1270 
  151.6250     0.4720     2.1540    60.4070   205.7720   180.9390   124.4560    30.1350 
  151.7500     0.3250     2.1520    59.6890   198.2020   176.3110   118.3380    30.1410 
  151.8750     0.1940     2.1470    55.3690   184.2020   165.7520   106.2320    30.1080 
  152.0000     0.0860     2.1440    51.9980   164.0620   149.0590    93.8870    30.0100 
  152.1250    -0.0020     2.1490    54.2450   140.7400   128.4740    77.9630    29.8660 
  152.2500    -0.0840     2.1590    57.9560   119.1870   108.8220    64.7250    29.7330 
  152.3750    -0.1610     2.1720    59.1600   102.1680    92.9940    51.1040    29.6200 
  152.5000    -0.2330     2.1870    58.1340    90.8390    82.3020    41.8270    29.4840 
  152.6250    -0.2780     2.2050    57.7100    85.9750    77.5370    44.8500    29.2870 
  152.7500    -0.2860     2.2210    57.3050    85.7730    77.0750    55.1740    29.0930 
  152.8750    -0.2620     2.2280    56.4350    89.1830    80.0520    64.9940    28.9600 
  153.0000    -0.2110     2.2250    56.5410    95.0070    85.4820    70.0670    28.8790 
  153.1250    -0.1440     2.2130    58.9880   101.8560    92.1600    68.5530    28.7920 
  153.2500    -0.0580     2.2040    61.9830   107.9810    98.3210    70.6020    28.6920 
  153.3750     0.0400     2.2010    62.7960   112.2510   102.7680    74.0690    28.5890 
  153.5000     0.1430     2.2060    61.5590   114.2260   104.9560    77.4800    28.4870 
  153.6250     0.2400     2.2140    59.6350   114.2250   105.0330    77.1120    28.3910 
  153.7500     0.3160     2.2190    58.0860   113.7170   104.3850    69.9390    28.2970 
  153.8750     0.3640     2.2170    58.2050   113.4140   103.7190    60.1920    28.1940 
  154.0000     0.3610     2.2110    60.7050   113.2560   103.0440    54.1010    28.0900 
  154.1250     0.2830     2.2060    63.5360   112.3360   101.5820    59.1440    28.0230 
  154.2500     0.1400     2.2110    63.2430   110.0760    98.8760    67.0260    27.9980 
  154.3750    -0.0390     2.2240    60.9340   106.6330    95.0870    63.2180    27.9940 
  154.5000    -0.2120     2.2410    59.8790   102.9690    91.0390    50.9060    27.9940 
  154.6250    -0.3560     2.2480    61.1750   101.0730    88.4020    45.3710    27.9950 
  154.7500    -0.4780     2.2440    63.5620   102.3150    88.4060    52.5410    27.9830 
  154.8750    -0.5980     2.2360    66.7520   107.4610    91.8110    69.5190    27.9550 
  155.0000    -0.7230     2.2290    69.8110   116.5250    98.7420    86.9080    27.9190 
  155.1250    -0.8330     2.2270    69.0200   129.0010   108.8730    92.9250    27.8960 
  155.2500    -0.9200     2.2280    65.1490   142.4250   120.0450   117.2630    27.8900 
  155.3750    -0.9740     2.2280    62.3770   154.6640   130.3450   147.0850    27.8980 
  155.5000    -0.9900     2.2230    62.2890   164.0210   138.1860   157.4430    27.9180 
  155.6250    -0.9480     2.2070    62.8620   169.2310   142.3160   146.7870    27.9360 
  155.7500    -0.8510     2.1860    61.5690   171.3770   143.5990   129.9770    27.9110 
  155.8750    -0.7150     2.1680    60.0040   171.5480   142.9540   112.1070    27.8210 
  156.0000    -0.5570     2.1620    59.1810   170.9280   141.4560   109.0980    27.7050 
  156.1250    -0.3960     2.1700    59.2990   170.3540   139.9310   133.4880    27.6350 
  156.2500    -0.2150     2.1810    59.9640   170.1770   138.7750   142.9320    27.6200 
  156.3750     0.0060     2.1870    59.9930   170.6990   138.2400   141.6930    27.6270 
  156.5000     0.2410     2.1850    58.3780   172.2830   138.5960   141.5920    27.6320 
  156.6250     0.4610     2.1810    57.1840   175.4860   140.2780   145.1220    27.6270 
  156.7500     0.6580     2.1790    58.0940   180.3270   143.3310   149.3930    27.6210 
  156.8750     0.8280     2.1830    60.3580   186.9890   147.9850   151.7840    27.6310 
  157.0000     0.9650     2.1900    62.5300   195.5770   154.4070   148.3440    27.6130 
  157.1250     1.0740     2.1950    64.0600   206.0660   162.6320   146.3200    27.4650 
  157.2500     1.1700     2.1920    64.3400   217.0140   171.3730   153.3350    27.2450 
  157.3750     1.2720     2.1850    62.2150   226.4630   178.9300   180.0820    27.1070 
  157.5000     1.3920     2.1760    59.0660   232.1350   183.3930   227.0110    27.1530 
  157.6250     1.5090     2.1740    58.3540   231.5350   182.7300   262.5950    27.3420 
  157.7500     1.5770     2.1790    60.3330   225.7880   177.8550   265.1460    27.5250 
  157.8750     1.5750     2.1870    63.2140   216.3600   169.9440   226.1790    27.6460 
  158.0000     1.5050     2.1960    64.7770   205.0090   160.4490   174.4150    27.6980 
  158.1250     1.3760     2.2020    64.7320   193.3630   150.7860   168.2240    27.7090 
  158.2500     1.2230     2.2090    63.6490   182.7490   142.1130   172.1390    27.7080 
  158.3750     1.0710     2.2200    62.0800   173.9140   135.1230   153.7370    27.6800 
  158.5000     0.9320     2.2320    62.3640   166.8890   129.9410   121.1440    27.5760 
  158.6250     0.8210     2.2380    64.8000   160.7390   125.9090   108.6070    27.3720 
  158.7500     0.7340     2.2340    65.8190   153.8910   121.6330   110.5590    27.1730 
  158.8750     0.6670     2.2220    64.4020   145.5380   116.3820   118.9320    27.0030 
  159.0000     0.6240     2.2080    62.2430   135.4660   109.9170   118.4230    26.8030 
  159.1250     0.6190     2.2010    61.1600   123.5120   101.9900    94.2230    26.5760 
  159.2500     0.6570     2.2050    61.8400   110.0130    92.6240    73.1360    26.4350 
  159.3750     0.7350     2.2160    65.0210    94.9740    81.5180    84.4240    26.4030 
  159.5000     0.8600     2.2320    68.6870    78.8020    68.7740   102.7910    26.4130 
  159.6250     1.0120     2.2500    69.7820    62.9250    55.5810    87.1850    26.4170 
  159.7500     1.1620     2.2700    69.9010    48.9690    43.7850    61.8280    26.4100 
  159.8750     1.2970     2.2930    72.2450    37.8500    34.3920    48.9410    26.4360 
  160.0000     1.4030     2.3160    76.3620    29.7740    27.6140    36.4430    26.5480 
  160.1250     1.4620     2.3360    78.1260    24.7600    23.4230    20.5790    26.7440 
  160.2500     1.4850     2.3470    77.1420    21.6470    20.8380    15.6910    26.9440 
  160.3750     1.4900     2.3440    75.6570    19.8070    19.3580    14.8460    27.1080 
  160.5000     1.4970     2.3270    75.2760    18.7600    18.5920    14.7140    27.2190 
  160.6250     1.5310     2.3010    75.3230    18.2230    18.2740    14.7710    27.1780 
  160.7500     1.5970     2.2810    75.9730    17.9100    18.1100    14.3870    26.9630 
  160.8750     1.6940     2.2740    76.8650    17.7410    18.0070    14.3680    26.6930 
  161.0000     1.8160     2.2850    76.0130    17.7150    17.9740    14.5790    26.5180 
  161.1250     1.9430     2.3070    72.6950    17.9850    18.1540    14.7730    26.4990 
  161.2500     2.0440     2.3270    71.8790    18.6970    18.6740    14.6020    26.5150 
  161.3750     2.0900     2.3370    74.6080    20.0170    19.6700    14.5980    26.5160 
  161.5000     2.0600     2.3360    76.8950    22.0100    21.2140    15.7820    26.5150 
  161.6250     1.9400     2.3250    75.6600    24.5610    23.2700    17.6110    26.5180 
  161.7500     1.7660     2.3120    72.6910    27.0870    25.3900    20.3610    26.5210 
  161.8750     1.5640     2.3010    70.6980    28.9880    27.0380    24.2750    26.5200 
  162.0000     1.3620     2.2970    69.5660    29.7860    27.7110    28.3820    26.5200 
  162.1250     1.1950     2.3010    70.1480    29.2690    27.1110    29.2850    26.5230 
  162.2500     1.0840     2.3090    73.2030    28.1770    25.8620    25.9790    26.5250 
  162.3750     1.0310     2.3160    77.7580    27.1800    24.5600    22.3780    26.5060 
