~V
VERS. 2.00: Ver 2.00
~W
STRT.M 49.0000:
STOP.M 223.0000:
STEP.M 0.1250:
NULL. -999.2500:
UWI. F10156:
~C
DEPT.M :
SP.MV :
GR.API :
RML.OHMM :
RI. :
RXO.OHMM :
CALI.CM :
DEN.GM/CC :
~A
   49.0000  -999.2500    53.5300     9.9020     0.5400     3.0090    23.8810  -999.2500 
   49.1250  -999.2500    52.0330     9.7620     0.5400     1.4960    23.8830  -999.2500 
   49.2500  -999.2500    53.0440     9.4130     0.5400     1.3320    23.9110  -999.2500 
   49.3750  -999.2500    54.0880     8.8610     0.5390     1.2680    24.0010  -999.2500 
   49.5000  -999.2500    52.7520     8.2460     0.5360     0.4330    24.1460  -999.2500 
   49.6250  -999.2500    49.7280     7.7250     0.5290    -0.2230    24.2210  -999.2500 
   49.7500  -999.2500    47.9670     7.3940     0.5190    -0.4360    24.1270  -999.2500 
   49.8750  -999.2500    49.2360     7.1720     0.5090    -0.4660    24.0350  -999.2500 
   50.0000  -999.2500    52.0250     6.9950     0.5030    -0.4090    24.1010  -999.2500 
   50.1250  -999.2500    52.3420     6.8450     0.5020    -0.2850    24.4040  -999.2500 
   50.2500  -999.2500    48.3970     6.7960     0.5050    -0.1840    24.8380  -999.2500 
   50.3750  -999.2500    46.5520     6.8970     0.5090    -0.2600    25.1250  -999.2500 
   50.5000  -999.2500    49.6230     7.1150     0.5110    -0.3330    25.1920  -999.2500 
   50.6250  -999.2500    53.3080     7.3450     0.5110    -0.3640    25.1850  -999.2500 
   50.7500  -999.2500    53.8910     7.4500     0.5090    -0.4550    25.2850  -999.2500 
   50.8750  -999.2500    54.6110     7.3970     0.5070    -0.6370    25.4590  -999.2500 
   51.0000  -999.2500    57.2430     7.2090     0.5060    -0.7310    25.5700  -999.2500 
   51.1250  -999.2500    58.1580     7.0070     0.5030    -0.6980    25.5830  -999.2500 
   51.2500  -999.2500    55.1740     7.0230     0.4970    -0.4860    25.5720  -999.2500 
   51.3750  -999.2500    52.8680     7.2890     0.4880    -0.1290    25.5610  -999.2500 
   51.5000  -999.2500    53.5460     7.6740     0.4800     0.3150    25.5440  -999.2500 
   51.6250  -999.2500    56.3220     7.9680     0.4750     0.5060    25.4880  -999.2500 
   51.7500  -999.2500    57.5430     7.9690     0.4780     0.1990    25.3000  -999.2500 
   51.8750  -999.2500    56.4770     7.7130     0.4860    -0.0820    24.8830  -999.2500 
   52.0000  -999.2500    54.7360     7.3450     0.4990    -0.0690    24.3220  -999.2500 
   52.1250  -999.2500    53.9540     7.0610     0.5150     0.1800    23.8520  -999.2500 
   52.2500  -999.2500    53.8800     7.0620     0.5330     0.2940    23.6370  -999.2500 
   52.3750  -999.2500    53.2070     7.3150     0.5520     0.2710    23.5650  -999.2500 
   52.5000  -999.2500    51.3020     7.7470     0.5680     0.2060    23.4220  -999.2500 
   52.6250  -999.2500    49.7190     8.2770     0.5800     0.1920    23.2690  -999.2500 
   52.7500  -999.2500    49.4740     8.7440     0.5870     0.1750    23.2010  -999.2500 
   52.8750  -999.2500    49.7060     8.9430     0.5880     0.1260    23.1730  -999.2500 
   53.0000  -999.2500    51.0150     8.8010     0.5810     0.0910    23.1890  -999.2500 
   53.1250  -999.2500    53.9310     8.3350     0.5660     0.1350    23.2010  -999.2500 
   53.2500  -999.2500    55.2460     7.7170     0.5480     0.2410    23.1660  -999.2500 
   53.3750  -999.2500    50.9550     7.1980     0.5320     0.3480    23.0770  -999.2500 
   53.5000  -999.2500    45.1990     6.8540     0.5210     0.4090    22.9970  -999.2500 
   53.6250  -999.2500    44.1830     6.6360     0.5160     0.4470    22.9550  -999.2500 
   53.7500  -999.2500    47.0190     6.4410     0.5150     0.5570    22.9290  -999.2500 
   53.8750  -999.2500    47.4990     6.2510     0.5150     0.7200    22.9040  -999.2500 
   54.0000  -999.2500    45.1590     6.1050     0.5170     0.8980    22.8880  -999.2500 
   54.1250  -999.2500    42.8350     6.0150     0.5200     0.9710    22.8830  -999.2500 
   54.2500  -999.2500    43.2340     5.9690     0.5200     0.9220    22.8940  -999.2500 
   54.3750  -999.2500    45.9680     5.9310     0.5160     0.8930    22.9130  -999.2500 
   54.5000  -999.2500    47.6520     5.8710     0.5070     0.9230    22.9370  -999.2500 
   54.6250  -999.2500    47.8600     5.7350     0.4980     0.9670    22.9480  -999.2500 
   54.7500  -999.2500    48.3120     5.4720     0.4940     0.9740    22.9550  -999.2500 
   54.8750  -999.2500    48.2880     5.1530     0.4970     0.9330    22.9610  -999.2500 
   55.0000  -999.2500    47.4620     4.8790     0.5080     0.9420    22.9670  -999.2500 
   55.1250  -999.2500    47.1080     4.7110     0.5200     0.9390    22.9700  -999.2500 
   55.2500  -999.2500    48.2030     4.6340     0.5240     0.8130    22.9840  -999.2500 
   55.3750  -999.2500    48.5830     4.5640     0.5190     0.6340    23.0430  -999.2500 
   55.5000  -999.2500    47.9500     4.4770     0.5090     0.4730    23.1740  -999.2500 
   55.6250  -999.2500    45.3250     4.4420     0.5010     0.3490    23.3350  -999.2500 
   55.7500  -999.2500    40.2090     4.6720     0.4990     0.3510    23.5490  -999.2500 
   55.8750  -999.2500    36.3150     5.2440     0.5000     0.2680    23.7880  -999.2500 
   56.0000  -999.2500    35.8770     6.0530     0.5020     0.0900    24.1940  -999.2500 
   56.1250  -999.2500    37.0160     6.7430     0.5060    -0.0910    24.6660  -999.2500 
   56.2500  -999.2500    38.1350     6.8340     0.5170    -0.1470    24.9730  -999.2500 
   56.3750  -999.2500    40.9120     6.5360     0.5350    -0.1150    25.0680  -999.2500 
   56.5000  -999.2500    44.1050     6.2090     0.5560     0.1400    25.1020  -999.2500 
   56.6250  -999.2500    46.0100     5.9980     0.5720     1.0260    25.1060  -999.2500 
   56.7500  -999.2500    46.4430     5.8630     0.5700     3.6720    25.0230  -999.2500 
   56.8750  -999.2500    47.8750     5.7920     0.5490     6.5330    24.9120  -999.2500 
   57.0000  -999.2500    50.4310     5.9740     0.5120     7.9340    24.9190  -999.2500 
   57.1250  -999.2500    51.3290     6.6530     0.4690    12.1100    25.1290  -999.2500 
   57.2500  -999.2500    50.5580     7.7500     0.4310    23.1130    25.4340  -999.2500 
   57.3750  -999.2500    50.4820     8.1950     0.4080    50.6810    25.6800  -999.2500 
   57.5000  -999.2500    51.5010     7.1430     0.4030    58.1700    25.7640  -999.2500 
   57.6250  -999.2500    51.1570     5.2480     0.4140    14.0480    25.7570  -999.2500 
   57.7500  -999.2500    49.4920     3.7390     0.4360     3.2190    25.7180  -999.2500 
   57.8750  -999.2500    49.3440     2.8080     0.4580     0.8490    25.6840  -999.2500 
   58.0000  -999.2500    49.3790     2.3010     0.4750     0.1940    25.6150  -999.2500 
   58.1250  -999.2500    46.4720     2.0590     0.4870     0.0290    25.4670  -999.2500 
   58.2500  -999.2500    41.6190     1.9910     0.4930     0.0280    25.3620  -999.2500 
   58.3750  -999.2500    40.5400     2.0290     0.4930     0.1880    25.3890  -999.2500 
   58.5000  -999.2500    45.5810     2.1620     0.4870     0.2840    25.4870  -999.2500 
   58.6250  -999.2500    53.2160     2.3550     0.4790     0.2290    25.5540     0.0000 
   58.7500  -999.2500    56.8760     2.5360     0.4750    -0.0160    25.5240     0.0000 
   58.8750  -999.2500    54.6560     2.6640     0.4760    -0.2480    25.3510     0.0000 
   59.0000  -999.2500    51.3560     2.7560     0.4810    -0.2560    25.0430     0.0000 
   59.1250   -26.4340    50.9080     2.8380     0.4830    -0.0620    24.6680     0.0000 
   59.2500   -26.4340    52.2630     2.9240     0.4810     0.2540    24.4430     2.0380 
   59.3750   -26.4340    50.8690     2.9800     0.4780     0.3280    24.3460     2.0470 
   59.5000   -26.4340    46.6550     2.9640     0.4800     0.1150    24.2870     2.0560 
   59.6250   -26.4340    43.9520     2.8930     0.4900    -0.0950    24.1970     2.0620 
   59.7500   -26.7750    43.8470     2.8590     0.5050    -0.1030    24.1360     2.0610 
   59.8750   -26.9960    44.5050     2.9160     0.5180    -0.0550    24.2410     2.0520 
   60.0000   -27.0660    46.0700     3.0460     0.5230    -0.0020    24.5620     2.0370 
   60.1250   -26.9350    47.8580     3.1630     0.5210     0.1630    25.0430     2.0240 
