~V
VERS. 2.00: Ver 2.00
~W
STRT.M 52.0000:
STOP.M 216.0000:
STEP.M 0.1250:
NULL. -999.2500:
UWI. F10126:
~C
DEPT.M :
DEN.GM/CC :
GR.API :
RML.OHMM :
RI. :
RXO.OHMM :
CALI.CM :
SP.MV :
~A
# ...
  153.2500     2.3690    91.5690    15.1670    12.6840    10.2090    23.8770   -14.5830 
  153.3750     2.3620    87.2460    19.5220    16.2110    15.9910    23.8720   -14.7790 
  153.5000     2.3450    81.4420    25.5400    22.0100    24.4610    24.0240   -15.0230 
  153.6250     2.3160    78.7260    32.3270    29.8560    32.8770    24.2680   -15.3140 
  153.7500     2.2820    79.7460    38.3520    37.5050    38.3890    24.4240   -15.6540 
  153.8750     2.2490    81.8290    42.5480    42.7790    40.1680    24.5120   -16.0220 
  154.0000     2.2220    82.4600    44.5230    44.7870    39.3240    24.5480   -16.3560 
  154.1250     2.2060    80.3900    44.5010    44.2490    38.7860    24.4790   -16.6030 
  154.2500     2.1970    78.2120    43.7350    43.1290    38.9980    24.3230   -16.7920 
  154.3750     2.1950    78.5970    42.9010    42.1950    40.0140    24.1430   -16.9620 
  154.5000     2.1980    82.5190    42.2560    41.5970    38.4970    23.9780   -17.1510 
  154.6250     2.2090    84.6380    41.6430    41.0920    37.5010    23.8540   -17.3650 
  154.7500     2.2250    82.4770    40.6910    40.2590    37.0540    23.7400   -17.6010 
  154.8750     2.2460    79.5050    39.1060    38.7640    34.6090    23.6630   -17.8420 
  155.0000     2.2710    80.0070    36.7330    36.4070    29.8840    23.6230   -18.0570 
  155.1250     2.3000    84.6400    33.5120    33.0960    28.1410    23.6000   -18.2950 
  155.2500     2.3320    90.1120    29.8300    29.2800    25.5930    23.5970   -18.5390 
  155.3750     2.3660    93.5640    26.0140    25.3370    22.0560    23.6370   -18.7740 
  155.5000     2.3920    93.1830    22.3890    21.6120    18.1780    23.6640   -19.0280 
  155.6250     2.3930    90.2630    19.3480    18.4810    14.1050    23.6800   -19.3270 
  155.7500     2.3660    88.8350    17.0580    16.0770    12.1360    23.7750   -19.6680 
  155.8750     2.3170    90.1760    15.7350    14.5420    10.7410    24.0860   -20.0530 
  156.0000     2.2670    92.3740    15.6560    14.0050     9.7230    24.5650   -20.5350 
  156.1250     2.2390    92.9410    17.4550    14.9240    10.0000    24.9080   -21.1010 
  156.2500     2.2380    90.1920    21.1550    17.5720    12.1560    24.7250   -21.7290 
  156.3750     2.2540    84.8490    26.8330    22.5700    18.3160    24.3090   -22.4480 
  156.5000     2.2730    79.8780    34.2580    30.3850    25.0880    23.9530   -23.2780 
  156.6250     2.2820    77.2610    42.5650    40.6120    32.8490    23.7340   -24.2490 
  156.7500     2.2810    77.2540    49.9360    50.0320    35.1770    23.5440   -25.3130 
  156.8750     2.2730    79.2970    55.0670    55.6630    34.1710    23.4280   -26.4600 
  157.0000     2.2630    82.3550    57.8210    56.9130    34.1260    23.4080   -27.6450 
  157.1250     2.2540    83.8220    59.8060    56.1890    29.0180    23.5880   -28.8630 
  157.2500     2.2470    80.9030    63.9610    57.2940    25.5690    23.8390   -30.1490 
  157.3750     2.2420    75.8160    72.9140    62.9470    30.7160    24.2040   -31.4450 
  157.5000     2.2390    71.2860    89.1400    75.5710    57.2050    24.6720   -32.6590 
  157.6250     2.2340    70.1350   116.8540    99.0060    98.9570    25.0710   -33.7060 
  157.7500     2.2240    70.1850   156.1980   133.1230   100.0610    25.3400   -34.6330 
  157.8750     2.2110    67.5990   207.1180   178.0440    98.7390    25.5420   -35.4280 
  158.0000     2.2000    62.9720   267.3770   232.6150   139.8240    25.6660   -36.0040 
  158.1250     2.1930    60.4580   331.8980   294.6470   229.3630    25.6080   -36.2140 
  158.2500     2.1890    61.3090   391.6310   356.8330   243.9100    25.4570   -36.0790 
  158.3750     2.1870    62.3480   438.1650   409.5760   200.6010    25.3630   -35.6080 
  158.5000     2.1900    61.1430   464.8170   441.4640   303.0980    25.4520   -34.8590 
  158.6250     2.2040    60.2570   466.2810   443.4600   412.7320    25.5910   -33.7880 
  158.7500     2.2230    61.2090   451.2650   427.3640   402.6450    25.6320   -32.4170 
  158.8750     2.2370    63.0440   427.8520   402.9250   309.3100    25.6050   -30.8270 
  159.0000     2.2430    63.9450   404.3690   377.7340   244.3830    25.6580   -29.1980 
  159.1250     2.2530    63.6930   389.6130   360.8770   195.5900    25.8380   -27.7310 
  159.2500     2.2900    61.5710   386.7020   357.8170   177.9900    25.9430   -26.4520 
  159.3750     2.3610    58.2880   395.3100   370.2170   188.8280    25.7790   -25.3710 
  159.5000     2.4540    55.0720   410.0140   393.5720   184.0580    25.3740   -24.4560 
  159.6250     2.5340    52.2560   416.9760   414.0960   307.3920    25.1900   -23.7830 
  159.7500     2.5780    50.8100   402.2570   414.7230   471.1200    25.1670   -23.3300 
  159.8750     2.5940    52.6290   358.0600   383.0920   561.7500    25.2880   -23.0470 
  160.0000     2.6040    58.3820   287.5000   315.8020   387.8120    25.4610   -22.8710 
  160.1250     2.6300    62.6160   205.4440   224.2060   266.5180    25.5700   -22.7220 
  160.2500     2.6620    61.5600   132.7600   139.5730   197.6200    25.5390   -22.5570 
  160.3750     2.6760    57.8990    79.0010    78.3690   169.8770    25.4370   -22.4020 
  160.5000     2.6560    56.6500    44.8100    41.7020    90.2120    25.3570   -22.2690 
  160.6250     2.6000    60.8450    26.9730    24.2790    34.6820    25.2400   -22.1620 
  160.7500     2.5350    66.4880    17.1760    15.5190    15.1480    25.1180   -22.0850 
  160.8750     2.4790    69.9530    11.9970    11.1900     9.0760    25.0280   -22.0170 
  161.0000     2.4380    70.5110     9.4490     9.0560     7.4710    25.0140   -21.9840 
  161.1250     2.4090    69.5450     8.5100     8.1950     7.6100    25.0730   -21.9880 
  161.2500     2.3880    67.9250     8.2370     7.9250     7.7760    25.1450   -22.0040 
  161.3750     2.3710    65.3290     8.2780     7.9710     7.5050    25.1520   -22.0100 
  161.5000     2.3590    63.0250     8.4420     8.1450     7.3990    25.0860   -22.0230 
  161.6250     2.3470    62.0500     8.6530     8.3540     7.6930    25.0120   -22.0460 
  161.7500     2.3340    61.1420     8.9120     8.5940     8.4770    24.9850   -22.0650 
  161.8750     2.3220    61.1310     9.2630     8.9070     9.2400    24.9560   -22.0800 
  162.0000     2.3130    63.7130     9.7450     9.3350     9.2830    24.7820   -22.0490 
  162.1250     2.3110    67.8840    10.3810     9.9130     9.3970    24.4140   -21.9920 
  162.2500     2.3140    69.7170    11.0640    10.5610     9.9410    24.1250   -21.9420 
  162.3750     2.3190    68.5850    11.6450    11.1340    10.2790    24.1720   -21.9120 
  162.5000     2.3220    66.0370    11.9420    11.4240    10.6570    24.4790   -21.8810 
  162.6250     2.3220    64.4690    11.7220    11.1440    11.3260    24.9320   -21.7890 
  162.7500     2.3190    65.8400    11.0470    10.3570    11.8730    25.2020   -21.5830 
  162.8750     2.3190    69.3230    10.0550     9.2480    11.6720    25.1780   -21.2860 
  163.0000     2.3280    70.2970     8.9670     8.0800    10.6530    24.8520   -20.9230 
  163.1250     2.3480    65.8600     8.0560     7.1300     8.2300    24.3130   -20.5080 
  163.2500     2.3710    61.0800     7.4460     6.4860     6.4900    23.9520   -20.0820 
  163.3750     2.3890    60.6380     7.1510     6.1530     5.8100    23.8270   -19.6910 
  163.5000     2.3980    64.1500     7.1020     6.0680     5.9210    23.9410   -19.3710 
  163.6250     2.3970    67.8700     7.1790     6.1320     6.4320    24.3520   -19.1510 
  163.7500     2.3950    69.8880     7.2320     6.1930     6.5830    24.8280   -19.0600 
  163.8750     2.3970    69.8190     7.1950     6.1720     6.3410    25.0320   -19.0710 
  164.0000     2.4030    67.2460     7.0640     6.0530     5.8900    25.0160   -19.1570 
  164.1250     2.4090    64.0600     6.8910     5.8800     5.5520    24.9500   -19.2800 
  164.2500     2.4130    61.8250     6.7670     5.7420     5.6090    24.9580   -19.4090 
  164.3750     2.4120    60.4280     6.7430     5.6940     5.7460    24.9930   -19.5050 
