~V
VERS. 2.00: Ver 2.00
~W
STRT.M 45.0000:
STOP.M 252.0000:
STEP.M 0.1250:
NULL. -999.2500:
UWI. F10190:
~C
DEPT.M :
GR.API :
RML.OHMM :
RI. :
RXO.OHMM :
CALI.CM :
SP.MV :
DEN.GM/CC :
~A
# ...
  101.2500    58.4330    10.4580     7.7090    11.4070    24.3620   -26.7650     2.1800 
  101.3750    58.9780    10.5180     7.7340    11.4480    24.4510   -27.1360     2.1550 
  101.5000    60.0880    10.5310     7.7800    11.3350    24.5370   -27.4760     2.1350 
  101.6250    61.4300    10.4730     7.7950    11.2770    24.5720   -27.8070     2.1250 
  101.7500    63.2160    10.3530     7.7680    11.1940    24.5790   -28.1570     2.1260 
  101.8750    64.0800    10.1900     7.6990    11.0940    24.5860   -28.5030     2.1360 
  102.0000    62.9810    10.0280     7.6090    10.9800    24.6220   -28.7580     2.1460 
  102.1250    63.0800     9.9100     7.5290    10.8990    24.6940   -28.9520     2.1490 
  102.2500    63.8450     9.8360     7.4650    10.3940    24.7760   -29.0910     2.1450 
  102.3750    63.7250     9.7730     7.4030     9.7990    24.8420   -29.1380     2.1410 
  102.5000    63.7660     9.6690     7.3140     9.2820    24.8620   -29.1100     2.1400 
  102.6250    63.7560     9.4890     7.1770     9.8020    24.8560   -29.0460     2.1400 
  102.7500    62.8710     9.2300     6.9860     9.7960    24.8490   -28.9320     2.1430 
  102.8750    62.5140     8.9310     6.7640     8.9570    24.8720   -28.7960     2.1540 
  103.0000    67.9920     8.6880     6.5650     8.2440    24.8970   -28.6980     2.1690 
  103.1250    73.1890     8.5720     6.4400     8.5430    24.8970   -28.6620     2.1810 
  103.2500    72.2790     8.6180     6.4210     8.6480    24.8830   -28.7120     2.1850 
  103.3750    66.6180     8.8270     6.5220     8.2220    24.8740   -28.8690     2.1830 
  103.5000    62.0330     9.1560     6.7350     8.6250    24.8730   -29.1390     2.1730 
  103.6250    60.5740     9.4840     6.9830     9.4740    24.8730   -29.4700     2.1550 
  103.7500    60.5400     9.7310     7.2070    10.0080    24.8710   -29.8520     2.1350 
  103.8750    61.1630     9.8550     7.3630    10.2840    24.8600   -30.2790     2.1200 
  104.0000    62.1080     9.8370     7.4190    10.3560    24.8220   -30.6740     2.1130 
  104.1250    62.0150     9.7470     7.4100    10.3010    24.7710   -30.9810     2.1190 
  104.2500    60.9020     9.6580     7.3760    10.2510    24.7360   -31.2470     2.1340 
  104.3750    59.5230     9.6290     7.3560    10.4290    24.7230   -31.5300     2.1490 
  104.5000    60.7350     9.6810     7.3690    10.7500    24.7220   -31.8290     2.1530 
  104.6250    64.0500     9.7760     7.4050    11.0300    24.7210   -32.0950     2.1510 
  104.7500    66.5170     9.8670     7.4440    11.2810    24.7200   -32.3380     2.1480 
  104.8750    66.5450     9.9120     7.4660    11.4520    24.7220   -32.5740     2.1480 
  105.0000    63.6690     9.8780     7.4490    11.3990    24.7230   -32.8530     2.1440 
  105.1250    59.7170     9.7960     7.4050    11.1950    24.7220   -33.1330     2.1370 
  105.2500    57.1790     9.7060     7.3560    11.0720    24.7160   -33.3340     2.1310 
  105.3750    58.3250     9.6510     7.3230    11.0090    24.7060   -33.4100     2.1310 
  105.5000    61.9130     9.6690     7.3300    11.0390    24.7110   -33.3630     2.1370 
  105.6250    63.0250     9.7520     7.3710    10.9830    24.7190   -33.3030     2.1440 
  105.7500    62.0630     9.8740     7.4350    10.9160    24.7230   -33.2030     2.1460 
  105.8750    61.6630     9.9900     7.4990    10.7570    24.7230   -33.0440     2.1430 
  106.0000    61.7460    10.0400     7.5360    10.6700    24.7230   -32.8150     2.1350 
  106.1250    61.4350    10.0100     7.5350    10.6120    24.7190   -32.5920     2.1260 
  106.2500    61.7530     9.9130     7.4980    10.7160    24.7030   -32.3740     2.1180 
  106.3750    63.4130     9.7880     7.4380    10.8160    24.6620   -32.1350     2.1140 
  106.5000    65.1670     9.6840     7.3760    10.7620    24.6100   -31.8510     2.1180 
  106.6250    66.5510     9.6210     7.3310    10.7360    24.5150   -31.5180     2.1230 
  106.7500    65.7140     9.5960     7.3060    10.8020    24.3730   -31.1810     2.1260 
  106.8750    61.6070     9.5960     7.3000    10.8740    24.2150   -30.8290     2.1270 
  107.0000    57.9900     9.6150     7.3170    10.8040    24.1270   -30.4130     2.1290 
  107.1250    58.0020     9.6490     7.3490    10.6990    24.0880   -29.9370     2.1330 
  107.2500    61.3480     9.6900     7.3890    10.6720    23.9990   -29.4380     2.1370 
  107.3750    64.2520     9.7300     7.4300    10.6910    23.8730   -28.9850     2.1430 
  107.5000    64.9400     9.7590     7.4640    10.7050    23.9860   -28.6110     2.1500 
  107.6250    65.1830     9.7780     7.4880    10.6190    24.3250   -28.3320     2.1490 
  107.7500    65.5820     9.7980     7.5000    10.3720    24.6160   -28.1120     2.1390 
  107.8750    66.6290     9.8260     7.5040     9.9550    24.7240   -27.9170     2.1270 
  108.0000    66.7790     9.8670     7.5070     9.7260    24.7250   -27.8070     2.1220 
  108.1250    66.8450     9.9150     7.5140     9.7000    24.7270   -27.7650     2.1250 
  108.2500    66.3860     9.9580     7.5200     9.7480    24.7420   -27.7770     2.1320 
  108.3750    64.5750     9.9660     7.5050     9.7420    24.7760   -27.8440     2.1370 
  108.5000    63.2010     9.8840     7.4310     9.5070    24.7930   -27.9420     2.1420 
  108.6250    63.3500     9.7230     7.2990     9.3040    24.7980   -27.9870     2.1510 
  108.7500    63.2690     9.5310     7.1440     9.2440    24.7990   -28.0060     2.1610 
  108.8750    61.2110     9.3790     7.0190     9.1270    24.7990   -28.0270     2.1650 
  109.0000    60.9040     9.3760     6.9970     8.7020    24.7840   -28.0850     2.1640 
  109.1250    64.8360     9.5390     7.0910     8.6520    24.7350   -28.1670     2.1660 
  109.2500    70.0710     9.8340     7.2830     9.4620    24.6590   -28.2540     2.1680 
  109.3750    71.9010    10.1760     7.5240    10.1780    24.5970   -28.3140     2.1650 
  109.5000    70.2350    10.4540     7.7460    10.4840    24.5770   -28.3380     2.1510 
  109.6250    66.6410    10.6310     7.9170    10.5340    24.5740   -28.3660     2.1360 
  109.7500    61.5610    10.7420     8.0550    10.4870    24.5740   -28.3890     2.1300 
  109.8750    57.5070    10.8810     8.2150    10.4850    24.5740   -28.4050     2.1350 
  110.0000    58.6290    11.1650     8.4700    10.8740    24.5740   -28.3170     2.1540 
  110.1250    62.8650    11.5690     8.8110    11.8140    24.5890   -28.1220     2.1880 
  110.2500    65.7880    11.9880     9.1710    14.3630    24.6520   -27.8760     2.2370 
  110.3750    66.6260    12.2730     9.4450    18.7080    24.7780   -27.6300     2.2940 
  110.5000    68.2620    12.2360     9.4890    20.0470    24.8050   -27.3770     2.3280 
  110.6250    70.1130    11.8960     9.3050    16.4360    24.7040   -27.0690     2.3130 
  110.7500    69.4880    11.3460     8.9450    12.4470    24.5590   -26.7190     2.2630 
  110.8750    67.0190    10.7260     8.5020    10.3150    24.4450   -26.3550     2.2190 
  111.0000    67.5680    10.2040     8.0930     9.8440    24.3810   -26.0110     2.2110 
  111.1250    71.1430     9.8670     7.8000     9.4740    24.3680   -25.6560     2.2240 
  111.2500    72.9320     9.7540     7.6600     8.9130    24.3630   -25.2450     2.2380 
  111.3750    71.4820     9.8500     7.6770     8.1230    24.3100   -24.7740     2.2350 
  111.5000    69.7590    10.0830     7.8110     8.4500    24.2070   -24.2630     2.2090 
  111.6250    67.8890    10.2660     7.9390     9.1650    24.2720   -23.7580     2.1700 
  111.7500    65.1410    10.2460     7.9490     9.8720    24.4710   -23.2430     2.1380 
  111.8750    64.1300     9.9290     7.7660     9.9800    24.5870   -22.6680     2.1270 
  112.0000    70.1750     9.3330     7.3790     8.9860    24.5480   -22.0440     2.1380 
  112.1250    79.4510     8.6910     6.9290     7.4050    24.4650   -21.4320     2.1550 
  112.2500    86.0650     8.1680     6.5290     6.5100    24.3930   -20.8480     2.1710 
  112.3750    86.8590     7.8420     6.2440     5.7170    24.3550   -20.3000     2.1870 
