~V
VERS. 2.00: Ver 2.00
~W
STRT.M 58.0000:
STOP.M 213.0000:
STEP.M 0.1250:
NULL. -999.2500:
UWI. F10138:
~C
DEPT.M :
GR.API :
RML.OHMM :
RI. :
RXO.OHMM :
CALI.CM :
DEN.GM/CC :
SP.MV :
~A
# ...
  170.5000    74.7260    29.5840    28.1120    16.4870    25.3180     2.3030   -28.7010 
  170.6250    70.5240    31.3810    28.1210    17.0470    25.2530     2.3100   -28.9230 
  170.7500    65.6440    37.0570    31.4930    19.1980    25.2770     2.3030   -29.1450 
  170.8750    61.0260    46.6520    38.5010    23.7790    25.0880     2.2840   -29.3310 
  171.0000    58.8160    59.8020    49.2070    35.4420    24.6300     2.2560   -29.5470 
  171.1250    59.1480    68.7910    62.7680    57.2630    24.8830     2.2240   -29.7580 
  171.2500    59.4480    81.7760    75.8710    72.8530    25.4110     2.1980   -29.9020 
  171.3750    58.1930    91.6080    85.9000    65.7270    25.8400     2.1810   -30.0510 
  171.5000    55.6660    98.1170    92.1320    49.4660    25.6360     2.1760   -30.2210 
  171.6250    52.3210   103.4360    96.1810    42.2530    25.4060     2.1740   -30.2940 
  171.7500    50.2000   110.2990   100.9840    47.7690    25.4500     2.1670   -30.3540 
  171.8750    51.6910   119.4850   107.6660    70.4930    25.7490     2.1480   -30.4470 
  172.0000    55.8030   130.0550   115.7810   107.0030    26.1400     2.1180   -30.4930 
  172.1250    58.7860   139.1020   123.2360   132.2350    26.4180     2.0860   -30.5290 
  172.2500    59.7140   143.8620   127.7420   132.7110    26.1990     2.0660   -30.6110 
  172.3750    59.4600   142.9530   127.9960   123.7050    25.6610     2.0670   -30.6880 
  172.5000    59.7590   136.8020   123.9970   112.1250    23.9610     2.0880   -30.7230 
  172.6250    61.8350   126.8310   116.4980    96.8390    23.1010     2.1230   -30.7910 
  172.7500    64.8240   115.7140   107.5920    81.7250    22.9160     2.1570   -30.8950 
  172.8750    67.4250   105.0190    98.5850    67.3000    22.7290     2.1820   -30.9540 
  173.0000    68.6810    95.9390    90.5860    57.0080    22.7640     2.1960   -31.0130 
  173.1250    68.4950    89.4790    84.6300    54.2220    22.7070     2.2020   -31.1070 
  173.2500    68.5580    85.0790    80.4780    49.4310    22.6460     2.2060   -31.1400 
  173.3750    67.5970    82.0180    77.6160    44.2210    22.5280     2.2080   -31.1360 
  173.5000    64.2840    79.4210    75.2930    38.9240    22.3570     2.2080   -31.1630 
  173.6250    63.0730    76.6360    72.8520    36.4820    22.3110     2.2090   -31.1820 
  173.7500    66.8390    73.8260    70.2920    36.6150    22.3160     2.2090   -31.1340 
  173.8750    71.2520    71.6870    68.1540    36.6540    22.2790     2.2110   -31.1230 
  174.0000    70.7900    71.0430    67.1790    35.9810    22.2450     2.2160   -31.1480 
  174.1250    65.7680    72.8360    68.3280    36.1120    22.1300     2.2200   -31.1290 
  174.2500    61.7300    76.7000    71.4550    38.3970    21.8800     2.2220   -31.1230 
  174.3750    60.3680    81.9850    76.1040    40.8570    21.7530     2.2220   -31.1390 
  174.5000    61.3320    87.5480    81.3070    40.6010    21.7190     2.2200   -31.1460 
  174.6250    62.2340    91.7310    85.5450    38.5130    21.6870     2.2210   -31.1300 
  174.7500    61.5910    93.8660    87.9960    37.5560    21.6180     2.2260   -31.1350 
  174.8750    60.9010    94.1470    88.6860    37.7990    21.6480     2.2320   -31.1540 
  175.0000    61.5250    93.3630    88.2620    38.2660    21.8410     2.2360   -31.1680 
  175.1250    62.0150    92.3360    87.5020    40.3410    21.9090     2.2340   -31.1580 
  175.2500    62.4550    91.4670    86.8630    44.4380    21.9460     2.2300   -31.1660 
  175.3750    63.9420    90.7030    86.3390    48.9840    21.9470     2.2250   -31.1980 
  175.5000    65.3820    89.8690    85.7820    51.6440    21.9580     2.2220   -31.2260 
  175.6250    66.4340    88.6770    84.9440    51.3850    21.9640     2.2220   -31.2450 
  175.7500    66.8020    86.8590    83.5870    51.0090    22.0510     2.2220   -31.2640 
  175.8750    66.1940    84.0980    81.3920    51.1190    22.0940     2.2240   -31.2830 
  176.0000    64.0740    80.3850    78.2380    52.0930    22.2370     2.2250   -31.2970 
  176.1250    62.3110    76.4700    74.6340    52.6250    22.5160     2.2290   -31.3250 
  176.2500    62.7070    73.6860    71.7980    52.3010    22.5310     2.2350   -31.3590 
  176.3750    63.9930    73.0320    70.7160    50.1380    22.7370     2.2440   -31.4080 
  176.5000    64.8330    75.0420    72.0420    48.9850    23.7180     2.2520   -31.4590 
  176.6250    64.1210    79.9050    76.2960    53.6740    24.6640     2.2560   -31.5130 
  176.7500    63.3360    86.0140    82.2270    65.7270    24.7230     2.2470   -31.5920 
  176.8750    63.5430    91.6380    88.2880    63.3880    24.3030     2.2220   -31.6660 
  177.0000    62.8390    95.0830    92.7200    47.7650    23.4060     2.1820   -31.7000 
  177.1250    59.6270    95.0550    93.8310    38.5780    22.0740     2.1400   -31.7500 
  177.2500    57.0410    92.9230    92.4250    38.1420    21.7220     2.1120   -31.8210 
  177.3750    55.7180    90.3470    89.9300    37.8910    22.1270     2.1060   -31.8370 
  177.5000    55.3000    88.7740    87.8700    35.6120    22.8400     2.1220   -31.8010 
  177.6250    57.2110    89.3270    87.4880    33.1600    22.9430     2.1510   -31.7870 
  177.7500    60.5700    91.9930    88.9590    32.9710    22.9290     2.1750   -31.7790 
  177.8750    62.2920    96.8290    92.4700    34.3460    22.8660     2.1880   -31.7290 
  178.0000    60.6140   103.5130    97.8830    35.8360    22.9110     2.1920   -31.6890 
  178.1250    60.4790   110.8920   104.3190    34.6570    22.7460     2.1920   -31.6810 
  178.2500    62.6230   116.9330   109.8640    34.6150    22.5580     2.1950   -31.6570 
  178.3750    64.8110   120.2900   113.1230    36.5700    22.4560     2.2000   -31.6560 
  178.5000    65.0300   121.0960   113.8870    37.3510    22.4160     2.2060   -31.6560 
  178.6250    65.5060   121.5440   113.7720    34.6740    22.3430     2.2110   -31.6050 
  178.7500    66.8080   124.5330   115.5710    30.9950    22.3050     2.2150   -31.5420 
  178.8750    67.5400   131.6190   121.0420    29.3980    22.2920     2.2190   -31.4460 
  179.0000    66.6620   142.8070   130.5490    31.2960    22.4140     2.2240   -31.2990 
  179.1250    65.7540   156.0200   142.6080    37.7830    22.6070     2.2250   -31.0930 
  179.2500    63.8660   166.5640   153.0800    49.0930    22.8290     2.2140   -30.8370 
  179.3750    61.2170   170.7760   158.5570    62.3530    23.1040     2.1920   -30.4990 
  179.5000    58.7390   167.8840   157.7050    79.1620    23.4610     2.1630   -30.1610 
  179.6250    58.1710   160.5500   151.9350   101.8720    23.8990     2.1390   -29.8130 
  179.7500    58.2820   153.5620   145.6090   123.1830    24.3820     2.1280   -29.3970 
  179.8750    57.8700   148.6220   140.7940   133.9730    24.4230     2.1320   -29.0090 
  180.0000    58.0430   145.5350   137.7650   137.4170    24.3680     2.1440   -28.6210 
  180.1250    58.5890   143.0600   135.5380   134.5450    24.2590     2.1590   -28.2250 
  180.2500    58.6580   140.0030   132.8010   135.2230    24.0480     2.1730   -27.8260 
  180.3750    60.3260   136.3260   129.2560   135.1950    23.5910     2.1860   -27.4680 
  180.5000    64.0660   132.8460   125.4860   122.7290    23.1280     2.2000   -27.1040 
  180.6250    66.2300   131.1560   122.9360   109.3240    22.9000     2.2130   -26.7740 
  180.7500    65.0090   132.0550   122.5520   103.8510    22.7700     2.2240   -26.4680 
  180.8750    64.0250   136.0580   124.9130   109.0440    22.6890     2.2340   -26.1620 
  181.0000    62.9230   143.4810   130.3770   125.0200    22.6530     2.2510   -25.9180 
  181.1250    58.1570   155.1400   139.7310   147.5790    22.6420     2.2900   -25.6610 
  181.2500    54.2680   170.3550   152.3880   164.8700    22.5990     2.3510   -25.4400 
  181.3750    54.5880   188.4060   167.7850   176.2980    22.6430     2.4260   -25.2200 
  181.5000    56.4380   207.6370   184.5930   178.9220    23.2820     2.4990   -25.0360 
  181.6250    54.3870   224.7630   200.2210   188.7020    23.4770     2.5440   -24.8800 
