~V
VERS. 2.00: Ver 2.00
~W
STRT.M 52.0000:
STOP.M 216.0000:
STEP.M 0.1250:
NULL. -999.2500:
UWI. F10126:
~C
DEPT.M :
DEN.GM/CC :
GR.API :
RML.OHMM :
RI. :
RXO.OHMM :
CALI.CM :
SP.MV :
~A
# ...
   74.5000     2.0940    76.0990     8.9830     7.5170    10.2280    24.9040   -19.0540 
   74.6250     2.1600    78.4330     8.6540     7.1590    10.0250    24.5650   -17.2910 
   74.7500     2.2230    82.1260     8.2160     6.6710     9.7030    24.2280   -15.2980 
   74.8750     2.2830    87.3050     7.7440     6.1350     8.7820    23.9760   -13.1840 
   75.0000     2.3350    90.1530     7.3280     5.6500     6.9060    23.8030   -11.1410 
   75.1250     2.3610    90.6330     7.0460     5.3090     5.3290    23.7370    -9.3760 
   75.2500     2.3540    90.8220     6.8870     5.1020     5.5480    23.9120    -7.9450 
   75.3750     2.3140    89.9120     6.8560     5.0170     6.4860    24.3920    -6.8000 
   75.5000     2.2570    86.2190     7.0160     5.0770     7.5330    25.1730    -5.8160 
   75.6250     2.2190    82.5400     7.6250     5.4190     7.5470    25.7910    -5.0470 
   75.7500     2.2330    82.9330     8.8970     6.1650     7.1900    26.0080    -4.6260 
   75.8750     2.3110    84.0960    11.0210     7.4990     8.3880    25.7840    -4.5650 
   76.0000     2.4380    81.9010    13.9250     9.6000    13.7450    25.2080    -4.8010 
   76.1250     2.5650    76.5590    17.0040    12.4540    27.8570    24.3850    -5.3310 
   76.2500     2.6440    72.3520    19.1820    15.0700    33.8650    23.9340    -6.1630 
   76.3750     2.6510    71.8330    19.6800    16.1860    29.4980    23.7650    -7.3770 
   76.5000     2.5930    74.6570    18.3480    15.2570    23.7900    23.8470    -9.0000 
   76.6250     2.4950    78.0870    15.7130    12.9870    19.5350    24.2350   -11.0390 
   76.7500     2.3970    77.4840    13.0150    10.7590    14.5530    24.8160   -13.2950 
   76.8750     2.3180    71.9320    10.8990     9.0570    12.0950    25.5100   -15.6490 
   77.0000     2.2630    65.6920     9.5750     7.9470    11.5220    26.3670   -17.9730 
   77.1250     2.2320    63.7380     9.0110     7.3900    11.5420    27.1570   -20.1260 
   77.2500     2.2110    64.7400     8.8450     7.1670    11.5300    27.8810   -22.0070 
   77.3750     2.1950    65.8590     8.8820     7.1530    11.5620    28.4240   -23.5190 
   77.5000     2.1830    65.9300     8.9880     7.2330    11.5850    28.6660   -24.7150 
   77.6250     2.1750    64.7260     9.0770     7.3240    11.9330    28.8610   -25.6090 
   77.7500     2.1720    63.7140     9.1240     7.3880    12.0100    29.2130   -26.1930 
   77.8750     2.1730    63.7740     9.1300     7.4200    11.7290    29.5580   -26.5000 
   78.0000     2.1770    64.1580     9.1050     7.4230    11.4420    29.7880   -26.6170 
   78.1250     2.1870    62.8090     9.0640     7.4000    11.7390    30.0430   -26.5840 
   78.2500     2.2000    60.5580     9.0250     7.3650    12.1110    30.2410   -26.4710 
   78.3750     2.2130    59.7440     9.0000     7.3250    12.1750    30.2620   -26.3290 
   78.5000     2.2230    61.6300     8.9930     7.2860    11.9820    30.1480   -26.1380 
   78.6250     2.2180    63.3870     9.0030     7.2520    11.8160    30.1450   -25.8630 
   78.7500     2.1930    62.5950     9.0180     7.2180    11.6960    30.2520   -25.5940 
   78.8750     2.1500    61.7000     9.0310     7.1800    11.6330    30.4130   -25.3260 
   79.0000     2.1020    63.4200     9.0440     7.1410    11.4140    30.4600   -25.0380 
   79.1250     2.0730    65.4870     9.0660     7.1080    11.2660    30.2790   -24.7390 
   79.2500     2.0740    64.5970     9.1060     7.0910    11.4820    29.7110   -24.4490 
   79.3750     2.0990    62.7680     9.1670     7.0920    11.7550    28.9350   -24.1790 
   79.5000     2.1270    62.8700     9.2400     7.1070    11.4680    28.4210   -23.8860 
   79.6250     2.1380    65.0310     9.2990     7.1200    11.2720    28.4380   -23.5160 
   79.7500     2.1360    66.6320     9.3250     7.1100    10.9620    28.6850   -23.0650 
   79.8750     2.1390    67.9640     9.3130     7.0670    10.6170    28.7760   -22.5750 
   80.0000     2.1610    69.6370     9.2760     7.0000    10.4880    28.4200   -22.0940 
   80.1250     2.2030    70.1140     9.2530     6.9390    10.5070    27.7360   -21.7170 
   80.2500     2.2470    70.4770     9.2810     6.9160    10.4960    27.2060   -21.4930 
   80.3750     2.2800    70.3800     9.3720     6.9540    10.5380    27.0690   -21.3700 
   80.5000     2.2940    69.1270     9.5130     7.0490    10.9050    27.2180   -21.3570 
   80.6250     2.2870    68.6730     9.6610     7.1760    11.2920    27.6020   -21.5610 
   80.7500     2.2660    69.8890     9.7620     7.2830    11.5530    28.2920   -21.9520 
   80.8750     2.2400    69.7660     9.7920     7.3410    11.5120    29.0840   -22.4650 
   81.0000     2.2140    65.4870     9.7590     7.3480    11.6660    29.6550   -23.0390 
   81.1250     2.1980    60.5930     9.6940     7.3290    11.8490    29.7800   -23.5870 
   81.2500     2.1920    59.2470     9.6390     7.3240    11.8460    29.6440   -24.0350 
   81.3750     2.1970    61.2430     9.6090     7.3470    11.7230    29.5310   -24.4400 
   81.5000     2.2070    65.1410     9.5950     7.3890    12.0680    29.5920   -24.8500 
   81.6250     2.2150    67.7910     9.5710     7.4240    12.4130    29.6720   -25.2220 
   81.7500     2.2170    67.5210     9.5130     7.4270    12.7210    29.8270   -25.5520 
   81.8750     2.2160    66.1800     9.4150     7.3900    12.8410    30.1320   -25.8580 
   82.0000     2.2130    65.0640     9.2870     7.3230    12.9370    30.6350   -26.1380 
   82.1250     2.2050    64.3170     9.1570     7.2490    12.8650    31.2280   -26.3250 
   82.2500     2.1850    64.0180     9.0580     7.1940    12.8770    31.7650   -26.3610 
   82.3750     2.1480    63.5750     8.9990     7.1700    12.8440    31.9970   -26.1780 
   82.5000     2.1010    62.7520     8.9680     7.1730    12.8370    31.8070   -25.7110 
   82.6250     2.0630    63.1120     8.9150     7.1730    12.4090    30.8680   -24.8810 
   82.7500     2.0490    66.3060     8.7900     7.1200    11.5700    29.4600   -23.7280 
   82.8750     2.0640    69.3470     8.5700     6.9810    10.5900    28.0370   -22.2450 
   83.0000     2.1030    70.5780     8.2740     6.7630     8.7020    26.7140   -20.4320 
   83.1250     2.1560    73.0920     7.9600     6.5200     7.1620    25.5800   -18.3470 
   83.2500     2.2110    77.2330     7.6960     6.3150     6.8850    24.8030   -16.2100 
   83.3750     2.2600    79.4980     7.5090     6.1750     7.1520    24.3790   -14.1220 
   83.5000     2.2960    79.8160     7.3970     6.0970     8.4750    24.2620   -12.1240 
   83.6250     2.3150    80.4910     7.3560     6.0670    10.0280    24.3300   -10.2760 
   83.7500     2.3250    81.7890     7.3850     6.0700     8.9120    24.3990    -8.6790 
   83.8750     2.3320    82.3210     7.5100     6.1320     6.9590    24.3290    -7.4370 
   84.0000     2.3380    83.6900     7.7340     6.2800     6.2860    24.2510    -6.5730 
   84.1250     2.3400    87.4700     7.9930     6.4960     6.4940    24.1030    -6.0280 
   84.2500     2.3390    90.8680     8.1320     6.6560     6.9540    23.9480    -5.5770 
   84.3750     2.3340    90.9580     8.0220     6.6210     7.4650    23.8880    -5.1450 
   84.5000     2.3320    89.5260     7.6160     6.3100     7.6960    23.9240    -4.7620 
   84.6250     2.3350    92.6480     6.9820     5.7660     6.8260    23.9780    -4.5260 
   84.7500     2.3430   100.5190     6.3590     5.2120     5.7770    24.0350    -4.4220 
   84.8750     2.3560   106.0930     5.9330     4.7960     5.0520    24.1210    -4.4550 
   85.0000     2.3700   104.0290     5.8210     4.6010     4.9570    24.2320    -4.6520 
   85.1250     2.3750    98.1500     6.1070     4.6980     5.4960    24.3620    -5.1520 
   85.2500     2.3670    93.0330     6.6650     5.0280     6.0130    24.4920    -5.9810 
   85.3750     2.3460    86.4580     7.3870     5.5340     6.3690    24.6280    -7.1310 
   85.5000     2.3190    78.0160     8.1450     6.1270     7.2260    24.7420    -8.5470 
   85.6250     2.2990    73.8930     8.8150     6.6970     8.6070    24.7850   -10.1350 
