~V
VERS. 2.00: Ver 2.00
~W
STRT.M 60.0000:
STOP.M 220.0000:
STEP.M 0.1250:
NULL. -999.2500:
UWI. F10154:
~C
DEPT.M :
GR.API :
RML.OHMM :
RI. :
RXO.OHMM :
CALI.CM :
DEN.GM/CC :
SP.MV :
~A
# ...
  172.5000    58.3190     6.3300     5.7960     4.4450    24.4350     2.4430    -7.0670 
  172.6250    55.0050     5.9540     5.3960     4.3900    24.3910     2.4180    -6.9640 
  172.7500    55.3660     5.8680     5.3000     4.5720    24.3820     2.4060    -6.8780 
  172.8750    59.0580     5.9260     5.3730     4.7980    24.2730     2.4030    -6.8300 
  173.0000    61.9790     5.9880     5.4810     4.9390    24.1080     2.4030    -6.8580 
  173.1250    61.2080     5.9600     5.5010     5.1120    24.1050     2.3940    -6.9370 
  173.2500    59.1350     5.8680     5.4290     5.1060    24.1590     2.3820    -7.0440 
  173.3750    59.0790     5.7770     5.3230     4.7410    24.0800     2.3730    -7.1770 
  173.5000    61.8570     5.7580     5.2600     4.4380    23.9800     2.3740    -7.3350 
  173.6250    64.5040     5.8640     5.3110     4.4420    23.9100     2.3870    -7.5210 
  173.7500    65.2620     6.0540     5.4590     4.9450    23.8870     2.4020    -7.6910 
  173.8750    63.6900     6.2730     5.6460     5.3810    23.8180     2.4120    -7.8560 
  174.0000    60.2370     6.4610     5.7970     5.1110    23.7380     2.4090    -8.0790 
  174.1250    54.6740     6.5520     5.8280     4.9140    23.8070     2.3860    -8.3950 
  174.2500    49.3700     6.5440     5.7460     4.8840    24.0310     2.3530    -8.7260 
  174.3750    47.7330     6.4490     5.5880     5.0160    24.3400     2.3230    -9.0480 
  174.5000    50.5680     6.2980     5.4070     5.2660    24.6390     2.3130    -9.3600 
  174.6250    54.8820     6.1430     5.2490     5.3600    24.5280     2.3280    -9.6830 
  174.7500    55.9520     6.0440     5.1330     5.1650    24.0770     2.3530   -10.0970 
  174.8750    53.6400     6.0420     5.0740     4.9290    23.7000     2.3700   -10.5950 
  175.0000    50.3760     6.1500     5.0890     4.9660    23.6520     2.3720   -11.1100 
  175.1250    50.2100     6.3450     5.1920     5.2560    23.9330     2.3590   -11.6270 
  175.2500    51.9730     6.5510     5.3490     5.6150    24.2960     2.3410   -12.1510 
  175.3750    53.7620     6.7280     5.5260     5.8670    24.6350     2.3240   -12.6360 
  175.5000    55.7880     6.8670     5.6860     5.9620    24.7040     2.3100   -13.0690 
  175.6250    57.8850     6.9910     5.7980     5.7350    24.5150     2.3020   -13.4720 
  175.7500    59.8970     7.1320     5.8710     5.4850    24.3130     2.3070   -13.8460 
  175.8750    61.9030     7.3030     5.9260     5.4780    24.2120     2.3250   -14.1960 
  176.0000    67.4560     7.4910     5.9830     5.4900    24.1720     2.3540   -14.5190 
  176.1250    76.0930     7.6700     6.0520     5.8610    24.2430     2.3790   -14.8320 
  176.2500    81.2420     7.8140     6.1200     6.2380    24.2570     2.3890   -15.1820 
  176.3750    83.5710     7.9170     6.1750     6.3550    24.2720     2.3860   -15.6190 
  176.5000    88.4890     7.9880     6.2120     6.1100    24.3200     2.3760   -16.1580 
  176.6250   100.1010     8.0570     6.2430     6.0260    24.2760     2.3690   -16.7340 
  176.7500   110.1520     8.1420     6.2850     6.0940    24.3020     2.3620   -17.3070 
  176.8750   112.4730     8.2370     6.3400     6.4490    24.5970     2.3460   -17.9340 
  177.0000   108.3640     8.3200     6.4000     7.0210    25.0540     2.3200   -18.6140 
  177.1250   103.2740     8.3780     6.4510     7.2880    25.3450     2.2960   -19.3120 
  177.2500   101.1880     8.4390     6.4930     6.4860    25.4190     2.2910   -20.0440 
  177.3750   100.9520     8.5470     6.5390     6.0960    25.2930     2.3060   -20.8050 
  177.5000   101.6020     8.7300     6.6040     6.6260    25.1780     2.3290   -21.5850 
  177.6250   100.8320     8.9740     6.7060     7.4740    25.2260     2.3400   -22.4670 
  177.7500    98.0230     9.2090     6.8410     7.6360    25.3420     2.3340   -23.4200 
  177.8750    93.6840     9.3860     6.9960     7.6180    25.4590     2.3180   -24.3980 
  178.0000    89.1890     9.4970     7.1490     7.5370    25.5290     2.3030   -25.4190 
  178.1250    85.6510     9.5770     7.2820     7.6890    25.4340     2.2970   -26.4550 
  178.2500    83.1260     9.6660     7.3900     8.0100    25.2920     2.2980   -27.4460 
  178.3750    83.6970     9.7630     7.4760     8.2240    25.2450     2.3030   -28.4330 
  178.5000    87.1370     9.8370     7.5440     8.1970    25.2290     2.3110   -29.4090 
  178.6250    90.0600     9.8550     7.5910     8.0640    25.2360     2.3160   -30.2710 
  178.7500    89.8990     9.8500     7.6180     8.0580    25.2470     2.3180   -31.0710 
  178.8750    88.7720     9.8980     7.6480     8.1870    25.2230     2.3170   -31.8070 
  179.0000    87.5270    10.1050     7.7450     8.2880    25.1930     2.3200   -32.5040 
  179.1250    83.7050    10.6090     8.0300     8.3060    25.1770     2.3410   -33.1970 
  179.2500    80.8860    11.3560     8.5150     8.2740    25.1370     2.3810   -33.8530 
  179.3750    82.9940    12.2080     9.1360     8.8770    25.0000     2.4280   -34.3480 
  179.5000    89.3120    12.9300     9.7340    11.0690    24.7280     2.4640   -34.5550 
  179.6250    95.1630    13.1710    10.0360    14.5430    24.4190     2.4610   -34.2350 
  179.7500    98.3060    12.8480     9.9080    14.1410    24.0550     2.4190   -33.2590 
  179.8750    98.9890    12.0280     9.3560    10.4590    23.5810     2.3530   -31.6650 
  180.0000    97.0580    10.9220     8.5300     7.4610    23.0790     2.2880   -29.6240 
  180.1250    91.9060     9.8140     7.6560     6.3530    23.1140     2.2550   -27.3480 
  180.2500    83.7240     8.9160     6.9170     5.7360    23.9250     2.2580   -25.0100 
  180.3750    75.3060     8.3050     6.3900     5.4320    25.1720     2.2790   -22.7510 
  180.5000    70.8730     7.9760     6.0850     5.6860    26.0020     2.2940   -20.7300 
  180.6250    71.6720     7.8920     5.9810     6.1860    26.2230     2.2780   -19.1470 
  180.7500    71.7670     7.9180     5.9820     6.5010    26.3800     2.2400   -18.1340 
  180.8750    68.0680     7.9700     6.0340     6.5370    26.6480     2.2030   -17.6580 
  181.0000    62.6990     7.9790     6.0850     6.2340    26.8240     2.1850   -17.5230 
  181.1250    59.5380     7.8940     6.0810     5.9410    26.6260     2.1880   -17.4630 
  181.2500    59.4380     7.7390     6.0240     5.2670    26.3480     2.1860   -17.3270 
  181.3750    62.0510     7.5540     5.9400     4.2650    26.3710     2.1660   -17.0790 
  181.5000    66.5190     7.3830     5.8570     3.9010    26.6440     2.1320   -16.7330 
  181.6250    70.6790     7.2700     5.7900     4.5600    26.7620     2.1160   -16.3960 
  181.7500    71.8120     7.2280     5.7420     5.2710    26.6580     2.1380   -16.1030 
  181.8750    72.0330     7.2690     5.7270     5.5930    26.3340     2.1980   -15.8580 
  182.0000    74.9850     7.3930     5.7590     5.8140    25.4570     2.2760   -15.6420 
  182.1250    78.5800     7.5840     5.8470     5.6400    24.9770     2.3320   -15.4670 
  182.2500    80.5240     7.7910     5.9650     5.8650    24.8950     2.3510   -15.3710 
  182.3750    82.6700     7.9720     6.0830     6.1780    24.8860     2.3400   -15.3040 
  182.5000    84.8990     8.0930     6.1660     6.4900    24.9000     2.3190   -15.1910 
  182.6250    83.0670     8.1270     6.1740     6.5540    24.9260     2.3100   -15.0590 
  182.7500    79.2680     8.0900     6.1200     6.3830    24.8880     2.3150   -14.9070 
  182.8750    79.2920     8.0020     6.0210     6.0300    24.7850     2.3280   -14.7210 
  183.0000    84.5670     7.8900     5.9050     5.9770    24.7030     2.3400   -14.5380 
  183.1250    90.0770     7.7980     5.8130     6.0260    24.6320     2.3490   -14.4580 
  183.2500    93.3080     7.7690     5.7760     6.1070    24.5470     2.3590   -14.5290 
  183.3750    94.1000     7.8350     5.8110     6.1100    24.4930     2.3700   -14.7460 
  183.5000    93.1920     8.0140     5.9280     6.1760    24.4840     2.3810   -15.1260 
  183.6250    92.6600     8.3260     6.1450     6.5630    24.5490     2.3880   -15.5950 
