~V
VERS. 2.00: Ver 2.00
~W
STRT.M 60.0000:
STOP.M 220.0000:
STEP.M 0.1250:
NULL. -999.2500:
UWI. F10154:
~C
DEPT.M :
GR.API :
RML.OHMM :
RI. :
RXO.OHMM :
CALI.CM :
DEN.GM/CC :
SP.MV :
~A
# ...
  150.0000    96.3850    12.2900    12.8250     8.5980    24.1640     2.4210   -12.6710 
  150.1250    91.9790    14.3870    14.4440     8.7970    23.9820     2.3970   -12.8400 
  150.2500    87.1520    17.9620    17.1630    10.1630    24.0370     2.3520   -13.0130 
  150.3750    80.2960    24.0150    21.7770    13.3860    24.3670     2.2950   -13.2310 
  150.5000    72.2950    34.0060    29.6340    18.0690    24.8760     2.2380   -13.4800 
  150.6250    66.9690    51.3800    44.1630    32.0020    25.3280     2.2000   -13.6910 
  150.7500    65.9940    78.2790    67.5900    60.0440    25.5350     2.1830   -13.9080 
  150.8750    66.9730   117.8430   102.4040   100.9890    25.5870     2.1820   -14.1740 
  151.0000    65.5310   171.6700   149.1650   163.5210    25.5950     2.1900   -14.4730 
  151.1250    60.6510   235.2370   203.6630   223.9360    25.5770     2.1940   -14.7230 
  151.2500    56.3790   290.1060   250.5230   243.2480    25.5910     2.1880   -14.9110 
  151.3750    54.9030   318.4670   273.7520   242.1380    25.6410     2.1740   -15.0490 
  151.5000    55.6330   312.6050   266.5560   279.8180    25.6410     2.1580   -15.1650 
  151.6250    58.0980   278.9160   236.0340   287.9270    25.5090     2.1480   -15.2910 
  151.7500    60.9720   240.2710   202.4420   254.6070    25.3060     2.1450   -15.3710 
  151.8750    63.8050   207.9980   175.1820   204.0940    25.1620     2.1490   -15.3780 
  152.0000    65.1240   185.1460   156.7020   145.3140    25.0880     2.1610   -15.3480 
  152.1250    63.8220   169.9550   145.4400   212.5130    24.9740     2.1860   -15.3420 
  152.2500    63.6240   156.9330   136.1500   305.7070    24.6890     2.2210   -15.3290 
  152.3750    65.9690   143.3490   126.0730   276.3640    24.3480     2.2620   -15.2760 
  152.5000    67.9800   128.2940   114.1390    95.9900    24.1560     2.2970   -15.1650 
  152.6250    68.0100   112.5190   100.8470    47.8700    24.2960     2.3150   -14.9500 
  152.7500    68.4030    97.6430    87.9060    43.2040    24.6590     2.3160   -14.6890 
  152.8750    70.5230    84.6560    76.3560    59.8540    25.0640     2.3060   -14.4420 
  153.0000    72.6440    74.0150    66.7300    74.9790    25.2050     2.2910   -14.2180 
  153.1250    72.9870    66.2340    59.6110    63.3360    24.9810     2.2810   -14.0190 
  153.2500    71.5750    60.8660    54.6510    46.0200    24.6390     2.2770   -13.8430 
  153.3750    70.3880    57.8170    51.7290    32.4610    24.3510     2.2780   -13.6570 
  153.5000    71.5830    56.8990    50.6670    28.0870    24.1560     2.2780   -13.4930 
  153.6250    72.5000    57.9720    51.3980    36.5020    24.0270     2.2730   -13.4930 
  153.7500    71.5120    60.1440    53.1840    44.2290    23.9440     2.2650   -13.6040 
  153.8750    71.1360    62.8470    55.5400    45.1560    23.9000     2.2550   -13.7010 
  154.0000    72.8720    65.6390    58.0090    42.4360    23.8910     2.2480   -13.7160 
  154.1250    75.6100    68.2850    60.2130    42.7800    23.9090     2.2440   -13.6730 
  154.2500    76.3580    70.8080    62.1380    41.9910    23.9240     2.2430   -13.6210 
  154.3750    75.5440    73.1880    63.8690    41.1120    23.9120     2.2430   -13.5540 
  154.5000    73.7680    75.2140    65.3470    37.9440    23.8970     2.2450   -13.4670 
  154.6250    70.4220    76.3150    66.1490    38.6310    23.9010     2.2480   -13.3010 
  154.7500    67.7330    76.2510    66.0160    42.2720    23.9790     2.2510   -13.0490 
  154.8750    67.1840    74.9760    64.8490    47.1710    24.1670     2.2540   -12.8320 
  155.0000    67.9120    72.7470    62.8350    48.0200    24.3480     2.2580   -12.6970 
  155.1250    68.7750    70.0460    60.3820    46.3780    24.6140     2.2630   -12.6270 
  155.2500    70.6080    67.5440    58.0870    45.9130    24.8550     2.2690   -12.5690 
  155.3750    73.7300    65.6420    56.3220    46.6020    24.9600     2.2720   -12.5220 
  155.5000    74.7290    64.5000    55.2470    48.7710    24.9390     2.2710   -12.4810 
  155.6250    71.8710    64.0370    54.8210    49.9790    24.9020     2.2680   -12.4670 
  155.7500    69.0590    63.7230    54.5980    45.1220    24.9140     2.2630   -12.4980 
  155.8750    67.3390    63.1460    54.2470    44.6070    24.8730     2.2600   -12.5290 
  156.0000    66.7850    62.0600    53.5510    44.7270    24.7110     2.2580   -12.5530 
  156.1250    68.0110    60.4490    52.4520    42.6400    24.4230     2.2590   -12.5760 
  156.2500    69.3920    58.7400    51.2470    39.6380    24.1770     2.2600   -12.5820 
  156.3750    70.9130    57.3510    50.2530    37.6550    24.0920     2.2630   -12.5600 
  156.5000    72.6460    56.6640    49.7760    37.0880    24.1250     2.2650   -12.5600 
  156.6250    71.6910    57.1300    50.2080    39.6250    24.2330     2.2680   -12.6460 
  156.7500    68.0800    58.6460    51.5580    42.9550    24.3460     2.2690   -12.7390 
  156.8750    65.2590    60.9300    53.7390    44.8770    24.4540     2.2680   -12.7980 
  157.0000    66.6230    63.2790    56.2650    47.7970    24.5890     2.2660   -12.8470 
  157.1250    68.5810    64.3200    57.8630    48.9540    24.7650     2.2650   -12.9090 
  157.2500    67.7030    63.2900    57.5250    50.8410    24.8580     2.2680   -13.0000 
  157.3750    66.4020    60.1900    55.0550    53.6890    24.8710     2.2760   -13.1160 
  157.5000    65.6530    55.9230    51.2580    52.3840    24.7990     2.2870   -13.2130 
  157.6250    65.2800    52.1750    47.7510    40.8660    24.6460     2.2920   -13.2290 
  157.7500    66.3890    50.2220    45.8600    32.5160    24.4220     2.2890   -13.2710 
  157.8750    69.1240    50.4870    46.1030    33.3720    24.2390     2.2750   -13.3680 
  158.0000    71.1210    52.6110    48.3220    37.7220    24.1220     2.2570   -13.4540 
  158.1250    70.0050    55.5650    51.7880    45.8120    24.0710     2.2450   -13.4760 
  158.2500    67.2680    57.9030    54.9160    52.1060    24.0710     2.2420   -13.4510 
  158.3750    64.2130    58.9470    56.6190    55.6550    24.0720     2.2500   -13.4360 
  158.5000    62.4030    58.8430    56.6970    51.3790    24.0310     2.2630   -13.4020 
  158.6250    63.7930    58.6000    56.0880    41.4170    23.9230     2.2750   -13.3140 
  158.7500    66.9060    59.3670    56.2620    34.8140    23.8300     2.2810   -13.2000 
  158.8750    68.3170    61.5740    57.8740    35.1750    23.7800     2.2800   -13.1100 
  159.0000    67.6780    65.0040    60.8530    40.3300    23.7520     2.2750   -13.0690 
  159.1250    66.0330    69.0110    64.5710    43.6470    23.7320     2.2680   -13.0660 
  159.2500    66.0900    72.8670    68.0670    42.6900    23.6920     2.2600   -13.0820 
  159.3750    68.7450    76.4680    71.0180    37.0170    23.6050     2.2510   -13.1080 
  159.5000    71.5530    80.2040    73.7530    30.2760    23.4760     2.2420   -13.2130 
  159.6250    70.6270    84.9600    77.3320    27.0940    23.4040     2.2340   -13.4310 
  159.7500    68.1240    91.1010    82.4060    32.9940    23.5750     2.2290   -13.6700 
  159.8750    66.7840    98.6340    88.9990    47.8420    23.9630     2.2290   -13.8740 
  160.0000    65.9720   107.3690    96.6630    60.8200    24.4370     2.2300   -14.0360 
  160.1250    66.0360   117.1160   105.0880    57.4230    24.7980     2.2290   -14.2130 
  160.2500    67.3770   129.0480   114.3630    52.6400    24.9370     2.2220   -14.4270 
  160.3750    67.2220   145.2830   125.1980    58.6570    24.9050     2.2120   -14.6510 
  160.5000    63.8950   165.5640   138.1430    75.1840    24.8600     2.2010   -14.8130 
  160.6250    60.5270   185.4240   152.4250    73.1900    24.8950     2.1930   -14.8580 
  160.7500    60.7310   199.9280   164.6890    65.8290    24.8190     2.1910   -14.8580 
  160.8750    63.1990   206.9560   171.6070    62.7110    24.4620     2.1950   -14.8730 
  161.0000    64.7950   206.4060   171.6570    47.7470    23.9350     2.2030   -14.9040 
  161.1250    64.3070   199.3750   165.8400    41.9960    23.6030     2.2140   -14.9190 
