~V
VERS. 2.00: Ver 2.00
~W
STRT.M 50.0000:
STOP.M 207.0000:
STEP.M 0.1250:
NULL. -999.2500:
UWI. F10134:
~C
DEPT.M :
SP.MV :
DEN.GM/CC :
GR.API :
RML.OHMM :
RI. :
RXO.OHMM :
CALI.CM :
~A
# ...
  140.0000     6.6040     2.4790    53.8700    20.3380    16.0290    15.7160    26.2650 
  140.1250     6.7230     2.5050    52.3690    20.1310    15.8500    15.2850    26.2650 
  140.2500     6.8580     2.5130    51.1220    20.1210    15.7980    14.4700    26.2680 
  140.3750     6.9940     2.5070    51.3440    20.3230    15.8800    13.7710    26.2720 
  140.5000     7.1090     2.4960    54.4340    20.7020    16.0730    13.0240    26.2450 
  140.6250     7.1760     2.4930    57.9690    21.1590    16.3330    13.9320    26.1540 
  140.7500     7.1920     2.5020    59.2560    21.5260    16.5680    15.6290    26.0160 
  140.8750     7.1700     2.5150    58.8240    21.6740    16.6980    16.1230    26.1190 
  141.0000     7.1290     2.5270    57.3340    21.5440    16.6670    15.8140    26.7700 
  141.1250     7.1030     2.5320    55.8330    21.1610    16.4520    16.4170    27.8200 
  141.2500     7.0770     2.5350    54.9300    20.7260    16.1520    16.9170    28.6090 
  141.3750     7.0450     2.5400    53.2570    20.4180    15.8790    16.8190    28.9060 
  141.5000     6.9840     2.5450    51.2200    20.3690    15.7390    16.4640    28.9510 
  141.6250     6.8650     2.5470    50.3270    20.6390    15.8140    17.0910    28.9320 
  141.7500     6.7020     2.5440    51.6650    21.0530    16.0170    17.0150    28.7190 
  141.8750     6.5150     2.5390    53.7280    21.4050    16.2320    16.5750    28.2910 
  142.0000     6.3240     2.5330    53.9140    21.4880    16.3260    16.7050    27.7510 
  142.1250     6.1600     2.5250    51.7900    21.1390    16.1780    16.2560    26.8460 
  142.2500     6.0160     2.5150    50.4700    20.5420    15.8620    14.9160    25.7590 
  142.3750     5.8900     2.5060    51.3650    19.9530    15.5160    13.7680    25.4730 
  142.5000     5.7750     2.5010    52.4970    19.6360    15.2990    13.2010    25.3510 
  142.6250     5.6990     2.5040    51.2940    19.8190    15.3730    13.9000    25.2680 
  142.7500     5.6540     2.5130    49.8670    20.3860    15.7210    14.7210    25.1990 
  142.8750     5.6330     2.5230    49.9660    21.1570    16.2720    15.0090    25.1200 
  143.0000     5.6380     2.5320    50.3350    21.8810    16.8770    14.4470    25.0530 
  143.1250     5.6690     2.5380    48.2490    22.1780    17.2650    14.7500    25.1340 
  143.2500     5.7220     2.5420    44.3330    21.8490    17.2380    14.8050    25.3130 
  143.3750     5.7930     2.5420    41.7580    20.8340    16.7090    14.9540    25.4750 
  143.5000     5.8650     2.5330    43.1450    19.2820    15.7490    14.6920    25.5190 
  143.6250     5.9250     2.5160    45.8450    17.5510    14.5810    13.1570    25.5190 
  143.7500     5.9790     2.4980    48.2570    16.1150    13.5480    11.0000    25.5230 
  143.8750     6.0410     2.4860    52.0870    15.2570    12.8620    10.0380    25.5350 
  144.0000     6.1000     2.4820    57.4260    15.0770    12.6350    10.1920    25.5580 
  144.1250     6.1320     2.4830    61.1560    15.5720    12.9410    10.7820    25.5770 
  144.2500     6.1210     2.4810    60.7100    16.3930    13.5860    11.4560    25.5840 
  144.3750     6.0670     2.4720    57.8720    17.2430    14.3760    12.5480    25.6330 
  144.5000     5.9950     2.4590    56.1300    17.8330    15.0770    13.5780    25.7800 
  144.6250     5.9140     2.4460    57.0970    17.9120    15.4270    13.5430    26.0340 
  144.7500     5.8130     2.4380    57.1880    17.5760    15.4100    12.8280    26.3310 
  144.8750     5.6890     2.4360    54.4590    16.9630    15.0880    12.3420    26.5990 
  145.0000     5.5400     2.4400    52.0880    16.2360    14.5820    11.7430    26.7710 
  145.1250     5.3730     2.4440    54.3610    15.5610    14.0240    11.6830    26.8220 
  145.2500     5.1990     2.4370    58.8910    15.0210    13.5230    11.5070    26.8440 
  145.3750     5.0280     2.4130    61.3340    14.6450    13.1330    11.3240    26.8880 
  145.5000     4.8550     2.3790    59.8320    14.4370    12.8820    10.9760    26.9340 
  145.6250     4.6860     2.3470    58.3010    14.4380    12.8150    10.9470    26.9720 
  145.7500     4.5220     2.3290    59.7530    14.6610    12.9330    11.2850    26.9950 
  145.8750     4.3430     2.3230    62.3160    15.1840    13.2770    11.6670    27.0090 
  146.0000     4.1390     2.3170    63.0700    16.1260    13.9130    12.1570    27.0700 
  146.1250     3.9170     2.2990    62.0170    17.7270    15.0010    12.8780    27.2380 
  146.2500     3.6960     2.2730    62.1980    19.9100    16.5160    14.5190    27.4280 
  146.3750     3.4940     2.2490    64.9030    22.5290    18.3870    16.4920    27.5620 
  146.5000     3.3190     2.2380    68.4450    25.3870    20.4840    18.3420    27.6520 
  146.6250     3.1570     2.2410    69.5830    28.4360    22.7580    24.3970    27.7600 
  146.7500     2.9890     2.2440    68.1130    32.0340    25.3860    26.6620    27.8840 
  146.8750     2.8050     2.2400    64.6950    37.2630    29.0550    22.9810    27.9820 
  147.0000     2.6040     2.2260    59.5290    45.9030    35.1110    24.9380    28.0400 
  147.1250     2.3850     2.2080    56.0890    61.3440    46.5280    47.0050    28.0890 
  147.2500     2.1650     2.1940    55.9890    84.5970    64.5790    69.8380    28.1940 
  147.3750     1.9610     2.1860    56.2440   115.6850    89.4040   100.9080    28.3730 
  147.5000     1.7920     2.1860    55.1060   150.7710   117.7300   138.4310    28.5710 
  147.6250     1.6510     2.1910    54.8550   178.4190   140.5640   155.0910    28.7220 
  147.7500     1.5190     2.1980    56.9690   191.7200   152.5890   141.2550    28.8440 
  147.8750     1.3780     2.2030    58.0570   194.4450   156.2050   139.8030    28.9890 
  148.0000     1.2220     2.2020    57.6690   195.6080   158.0260   136.1070    29.1730 
  148.1250     1.0720     2.1930    56.8120   202.8920   164.6660   165.9910    29.3400 
  148.2500     0.9350     2.1800    54.9060   217.0930   177.5590   227.8480    29.4780 
  148.3750     0.8100     2.1670    52.5530   236.2390   195.4290   270.6970    29.6200 
  148.5000     0.6850     2.1560    51.4440   255.2050   214.0260   274.8220    29.7770 
  148.6250     0.5620     2.1500    51.8950   263.7120   224.4160   276.3640    29.8980 
  148.7500     0.4440     2.1470    52.3030   257.5330   221.8720   278.5750    29.9690 
  148.8750     0.3300     2.1490    53.4980   239.8880   207.8990   250.9400    30.0600 
  149.0000     0.2200     2.1530    56.3560   219.3560   189.4660   180.1260    30.2170 
  149.1250     0.1170     2.1540    58.9510   205.6460   175.7560   115.3150    30.3780 
  149.2500     0.0280     2.1490    59.6720   202.3830   171.3940    85.3650    30.4580 
  149.3750    -0.0430     2.1370    58.6820   210.8700   178.2860    84.2580    30.4660 
  149.5000    -0.0840     2.1240    56.1840   230.6730   196.4070   109.7900    30.4590 
  149.6250    -0.0840     2.1150    53.1570   259.5890   224.0090   191.6440    30.4660 
  149.7500    -0.0490     2.1160    51.4160   288.1960   252.2590   250.1010    30.4730 
  149.8750     0.0260     2.1260    50.9040   306.0300   271.3270   256.8360    30.4880 
  150.0000     0.1450     2.1410    50.6840   305.2960   273.1480   265.8580    30.5180 
  150.1250     0.2910     2.1510    49.8660   285.4550   255.4110   262.7920    30.5530 
  150.2500     0.4440     2.1480    49.8430   259.2920   229.9310   206.6460    30.5710 
  150.3750     0.5740     2.1330    52.1330   234.5630   204.9160   159.7980    30.5730 
  150.5000     0.6700     2.1130    55.0160   215.2320   185.0010    96.0890    30.5600 
  150.6250     0.7280     2.0990    55.0950   203.6430   172.8490    68.4560    30.4950 
  150.7500     0.7720     2.0970    54.3130   198.1750   166.8900    63.8620    30.3770 
  150.8750     0.8150     2.1080    55.4070   197.5180   165.8790    84.2030    30.2480 
  151.0000     0.8460     2.1230    56.2590   199.9280   168.2160   107.1490    30.1600 
  151.1250     0.8520     2.1350    54.2570   203.4980   172.2420   113.5520    30.1340 
