~V
VERS. 2.00: Ver 2.00
~W
STRT.M 55.0000:
STOP.M 239.0000:
STEP.M 0.1250:
NULL. -999.2500:
UWI. F10186:
~C
DEPT.M :
GR.API :
RML.OHMM :
RI. :
RXO.OHMM :
CALI.CM :
DEN.GM/CC :
SP.MV :
~A
# ...
   88.7500    61.4930    10.3610     8.1940    10.1180    21.9890     2.2010   -10.5110 
   88.8750    60.4590    12.3980     9.5280    11.4600    22.0480     2.2210   -10.3700 
   89.0000    58.3860    15.4220    11.6610    15.2980    22.2850     2.2610   -10.2370 
   89.1250    55.8370    18.8810    14.4000    23.1480    22.8370     2.3280   -10.1160 
   89.2500    54.4400    21.5950    16.9330    36.1650    23.4480     2.4030   -10.0260 
   89.3750    54.5480    22.5170    18.3950    50.7120    23.8790     2.4570   -10.0190 
   89.5000    56.1010    21.0800    18.0780    51.3160    24.0130     2.4620   -10.0660 
   89.6250    59.4370    17.6450    15.8690    37.0430    23.7660     2.4120   -10.1640 
   89.7500    61.0730    14.0560    13.1640    23.9540    23.2090     2.3430   -10.3500 
   89.8750    59.8500    11.3320    10.8500    15.1330    22.6540     2.2790   -10.6230 
   90.0000    57.8420     9.7260     9.2480    10.8500    22.3870     2.2320   -10.9020 
   90.1250    57.8360     9.1210     8.4010     9.7390    22.3410     2.2030   -11.1280 
   90.2500    60.1810     9.0100     8.0130     9.3420    22.3050     2.1870   -11.3780 
   90.3750    62.5630     9.1300     7.9210     9.2530    22.2910     2.1780   -11.6100 
   90.5000    63.7140     9.3000     7.9820     9.1830    22.3250     2.1740   -11.7750 
   90.6250    62.3860     9.4000     8.0830     9.2240    22.3800     2.1760   -11.8980 
   90.7500    60.1440     9.4220     8.1610     9.2600    22.4230     2.1810   -11.9760 
   90.8750    58.1070     9.3960     8.2090     9.4040    22.4570     2.1860   -12.0040 
   91.0000    56.5750     9.3580     8.2410     9.5700    22.4850     2.1900   -12.0370 
   91.1250    57.0520     9.3320     8.2660     9.7250    22.5120     2.1910   -12.1000 
   91.2500    61.0310     9.3130     8.2830     9.7250    22.5060     2.1900   -12.1290 
   91.3750    63.1260     9.2840     8.2800     9.7180    22.4590     2.1880   -12.1670 
   91.5000    59.7250     9.2290     8.2470     9.6490    22.3900     2.1880   -12.2330 
   91.6250    56.3710     9.1390     8.1790     9.7000    22.3300     2.1890   -12.2360 
   91.7500    57.7610     9.0330     8.0930     9.7290    22.2910     2.1900   -12.2390 
   91.8750    60.1670     8.9270     8.0030     9.6420    22.2670     2.1910   -12.2780 
   92.0000    59.0020     8.8380     7.9250     9.5130    22.2480     2.1920   -12.2880 
   92.1250    57.1420     8.7760     7.8720     9.4250    22.2050     2.1960   -12.2590 
   92.2500    58.3990     8.7320     7.8380     9.5040    22.1290     2.2010   -12.2360 
   92.3750    60.4310     8.6990     7.8170     9.5450    22.0610     2.2050   -12.1900 
   92.5000    61.7350     8.6680     7.7960     9.4430    22.0090     2.2070   -12.0980 
   92.6250    63.2200     8.6310     7.7630     9.2920    21.9920     2.2050   -11.9700 
   92.7500    63.7610     8.5800     7.7150     9.1520    21.9870     2.2000   -11.8020 
   92.8750    60.8600     8.5150     7.6540     9.0620    21.9870     2.1950   -11.6120 
   93.0000    56.5120     8.4310     7.5760     8.9960    21.9870     2.1880   -11.4270 
   93.1250    57.0260     8.3080     7.4670     8.9040    21.9870     2.1830   -11.1890 
   93.2500    60.1000     8.1240     7.3120     8.8000    21.9900     2.1810   -10.8590 
   93.3750    61.8650     7.8610     7.0980     8.6530    22.0000     2.1810   -10.5110 
   93.5000    63.3330     7.5360     6.8420     8.3730    22.0190     2.1860   -10.2060 
   93.6250    67.5830     7.2590     6.6190     8.0620    22.0480     2.1970    -9.8920 
   93.7500    72.3580     7.1900     6.5390     7.7690    22.1510     2.2160    -9.5410 
   93.8750    74.1980     7.4640     6.7030     7.4550    22.3980     2.2410    -9.2360 
   94.0000    72.6830     8.1340     7.1650     7.3300    22.7270     2.2660    -9.0340 
   94.1250    69.7200     9.1190     7.9130     8.0330    22.9320     2.2790    -8.8940 
   94.2500    67.8400    10.0570     8.7020     9.9510    22.9450     2.2790    -8.7900 
   94.3750    66.0240    10.5920     9.2620    12.4190    22.8320     2.2680    -8.7280 
   94.5000    63.6010    10.4610     9.3420    13.1760    22.5580     2.2550    -8.6800 
   94.6250    64.3210     9.5590     8.7570    10.9370    22.2380     2.2450    -8.6440 
   94.7500    69.2810     8.3460     7.8220     9.1110    22.2370     2.2400    -8.6650 
   94.8750    73.6240     7.2470     6.8780     7.9480    22.5720     2.2370    -8.7370 
   95.0000    74.8870     6.5670     6.1930     6.9660    22.9500     2.2340    -8.8510 
   95.1250    73.3500     6.4890     5.9500     6.2890    22.8060     2.2300    -9.0280 
   95.2500    69.3500     6.8570     6.0790     6.5950    22.3580     2.2250    -9.2420 
   95.3750    62.3890     7.5430     6.5120     7.4560    22.0050     2.2200    -9.4560 
   95.5000    55.8100     8.4010     7.1530     8.3410    21.9010     2.2140    -9.7060 
   95.6250    52.8820     9.2470     7.8720     8.8310    21.9590     2.2070   -10.0450 
   95.7500    53.9160     9.9130     8.5050     8.8590    22.0630     2.2020   -10.3710 
   95.8750    57.4450    10.3020     8.9470     8.7320    22.1790     2.2010   -10.6110 
   96.0000    59.6220    10.3880     9.1410     8.7190    22.2570     2.2060   -10.7430 
   96.1250    57.7060    10.1850     9.0620     8.8890    22.1990     2.2150   -10.8170 
   96.2500    55.1940     9.8420     8.8190     9.0720    22.0520     2.2210   -10.8650 
   96.3750    53.9600     9.4620     8.4920     9.1000    21.9290     2.2210   -10.8780 
   96.5000    53.5780     9.1230     8.1560     9.0070    21.8220     2.2170   -10.8650 
   96.6250    54.6240     8.8860     7.8750     8.8260    21.6800     2.2100   -10.8330 
   96.7500    57.2380     8.7470     7.6660     8.5530    21.5190     2.2060   -10.8010 
   96.8750    60.0540     8.6940     7.5300     8.2730    21.4050     2.2040   -10.7830 
   97.0000    60.8430     8.7080     7.4610     8.0680    21.3320     2.2040   -10.7800 
   97.1250    60.1610     8.7780     7.4530     7.9610    21.2740     2.2050   -10.8030 
   97.2500    60.9480     8.8750     7.4850     8.0040    21.2690     2.2060   -10.8380 
   97.3750    62.8000     8.9810     7.5390     8.2420    21.3240     2.2060   -10.9050 
   97.5000    63.3190     9.0780     7.5990     8.5750    21.4230     2.2050   -10.9810 
   97.6250    61.5110     9.1570     7.6580     8.9140    21.4880     2.2020   -11.1000 
   97.7500    60.5530     9.2370     7.7230     9.0210    21.5110     2.1990   -11.2320 
   97.8750    60.9980     9.3360     7.8050     8.8220    21.5250     2.1980   -11.3490 
   98.0000    60.4940     9.4530     7.9040     8.7140    21.5650     2.1990   -11.4820 
   98.1250    57.1090     9.5440     7.9870     8.9170    21.6550     2.2030   -11.6300 
   98.2500    52.0580     9.5520     8.0120     9.3330    21.7440     2.2040   -11.7870 
   98.3750    49.3560     9.4320     7.9440     9.9030    21.8140     2.1990   -11.9260 
   98.5000    50.5610     9.1800     7.7710    10.3920    21.8410     2.1880   -12.0430 
   98.6250    53.7660     8.8310     7.5110     9.8390    21.8140     2.1760   -12.0680 
   98.7500    55.7700     8.4800     7.2340     8.9410    21.7550     2.1690   -12.0220 
   98.8750    56.6260     8.1930     6.9920     8.4790    21.6900     2.1720   -11.9310 
   99.0000    56.5380     8.0060     6.8170     8.3420    21.6050     2.1790   -11.7870 
   99.1250    55.3310     7.9420     6.7370     8.2950    21.5420     2.1870   -11.5890 
   99.2500    53.7050     7.9600     6.7290     8.2220    21.5180     2.1890   -11.3350 
   99.3750    51.8730     8.0290     6.7760     8.2010    21.5310     2.1870   -10.9910 
   99.5000    50.8880     8.1120     6.8540     8.3380    21.5880     2.1820   -10.5420 
   99.6250    52.4000     8.1480     6.9250     8.5920    21.7150     2.1780   -10.0840 
   99.7500    55.3960     8.0800     6.9420     8.5330    21.8260     2.1760    -9.6510 
   99.8750    57.4880     7.8760     6.8710     8.2540    21.8810     2.1760    -9.1530 
