~V
VERS. 2.00: Ver 2.00
~W
STRT.M 50.0000:
STOP.M 224.0000:
STEP.M 0.1250:
NULL. -999.2500:
UWI. F10153:
~C
DEPT.M :
GR.API :
RML.OHMM :
RI. :
RXO.OHMM :
CALI.CM :
SP.MV :
DEN.GM/CC :
~A
# ...
   95.0000   103.4800     7.7390     5.6490     5.9180    24.0450    -5.0720     2.2820 
   95.1250   103.3170     8.1110     5.9490     6.0370    23.9350    -5.3200     2.2770 
   95.2500   102.9600     8.5040     6.2720     6.2800    23.8360    -5.5580     2.2820 
   95.3750    99.6600     8.8250     6.5450     7.4380    23.8350    -5.7500     2.2980 
   95.5000    96.3520     8.9600     6.6820     8.7770    23.9300    -5.9140     2.3170 
   95.6250    96.0300     8.8360     6.6190     8.4510    24.0420    -6.0710     2.3280 
   95.7500    98.4420     8.5210     6.3940     7.0820    24.1170    -6.2400     2.3310 
   95.8750   103.2030     8.1380     6.0730     6.1350    24.1360    -6.4580     2.3290 
   96.0000   109.4950     7.8720     5.7870     5.7630    24.1300    -6.7510     2.3270 
   96.1250   114.1470     7.8290     5.6300     5.5630    24.1220    -7.1390     2.3250 
   96.2500   113.5470     7.9740     5.6040     5.5190    24.1210    -7.6210     2.3170 
   96.3750   105.9060     8.2190     5.6960     5.9390    24.1310    -8.1980     2.2950 
   96.5000    97.9420     8.4040     5.8150     6.5760    24.1570    -8.8010     2.2610 
   96.6250    94.6420     8.5040     5.9230     6.9860    24.1960    -9.3780     2.2240 
   96.7500    93.8880     8.6500     6.0630     7.0560    24.2420    -9.9220     2.1960 
   96.8750    92.0860     9.2270     6.4210     6.9100    24.2820   -10.4290     2.2040 
   97.0000    89.3310    10.5100     7.1690     7.2770    24.3120   -10.9210     2.2600 
   97.1250    86.0130    12.5060     8.3870     9.0730    24.3200   -11.4300     2.3540 
   97.2500    82.1780    14.8100     9.9090    13.2200    24.3020   -11.9760     2.4570 
   97.3750    81.0070    16.3990    11.1810    17.8130    24.2660   -12.6350     2.5190 
   97.5000    84.2010    16.3840    11.5140    18.2510    24.2340   -13.4510     2.5130 
   97.6250    89.2240    14.8330    10.7670    14.3430    24.1940   -14.4440     2.4480 
   97.7500    93.5250    12.6700     9.4840     9.7770    24.1320   -15.5840     2.3570 
   97.8750    94.5220    10.9520     8.3080     7.7720    24.0710   -16.8560     2.2750 
   98.0000    92.6800    10.1220     7.6000     8.0190    24.0430   -18.1650     2.2210 
   98.1250    89.1890    10.0620     7.3820     9.4590    24.0470   -19.4220     2.1950 
   98.2500    85.1970    10.4020     7.4820    10.6740    24.0620   -20.5950     2.1840 
   98.3750    82.4650    10.8070     7.7380    10.9060    24.0660   -21.6310     2.1840 
   98.5000    82.0080    11.0410     7.9510    10.6180    24.0560   -22.5310     2.1910 
   98.6250    83.1000    11.1040     8.0530    10.2600    24.0450   -23.2970     2.2070 
   98.7500    84.3860    11.1090     8.0860    10.0380    24.0390   -23.9620     2.2280 
   98.8750    85.6160    11.1790     8.1200     9.7800    24.0230   -24.5280     2.2450 
   99.0000    85.8830    11.3580     8.2090     9.6170    23.9800   -25.0280     2.2440 
   99.1250    83.7550    11.6080     8.3520     9.9010    23.9230   -25.4710     2.2260 
   99.2500    80.2830    11.8640     8.5170    10.6320    23.8750   -25.8680     2.2000 
   99.3750    77.7260    12.0470     8.6550    11.6070    23.8650   -26.2120     2.1820 
   99.5000    75.8610    12.1260     8.7300    12.2650    23.8800   -26.5060     2.1800 
   99.6250    73.6590    12.0990     8.7250    12.4180    23.8920   -26.7340     2.1920 
   99.7500    72.0270    11.9900     8.6520    12.3680    23.8880   -26.8880     2.2070 
   99.8750    73.7340    11.7950     8.5080    12.1300    23.8710   -26.9460     2.2150 
  100.0000    78.0270    11.5480     8.3260    11.6920    23.8570   -26.9470     2.2120 
  100.1250    80.9550    11.3020     8.1450    11.2240    23.8490   -26.9260     2.2000 
  100.2500    80.8680    11.0960     7.9910    10.7610    23.8420   -26.9010     2.1830 
  100.3750    78.8930    10.9800     7.8980    10.5220    23.8370   -26.8840     2.1670 
  100.5000    77.6360    10.9460     7.8650    10.4990    23.8400   -26.8920     2.1560 
  100.6250    77.5680    10.9540     7.8800    10.4500    23.8460   -26.9360     2.1550 
  100.7500    77.9230    10.9660     7.9220    10.3840    23.8530   -27.0130     2.1610 
  100.8750    78.5970    10.9470     7.9760    10.4770    23.8640   -27.0920     2.1700 
  101.0000    78.8960    10.8890     8.0250    10.6840    23.8870   -27.1320     2.1800 
  101.1250    77.9520    10.8120     8.0610    10.8410    23.9140   -27.1120     2.1890 
  101.2500    76.0480    10.7350     8.0870    10.9600    23.9340   -27.0360     2.1980 
  101.3750    74.0350    10.6720     8.0990    11.0770    23.9470   -26.8890     2.2090 
  101.5000    72.7750    10.6140     8.0900    11.1980    23.9730   -26.6500     2.2170 
  101.6250    71.2210    10.5540     8.0550    11.4210    24.0440   -26.2990     2.2150 
  101.7500    68.7020    10.4950     8.0000    11.7080    24.1960   -25.8470     2.2040 
  101.8750    67.0990    10.4480     7.9300    11.7170    24.6050   -25.2570     2.1870 
  102.0000    68.1140    10.4040     7.8610    11.4040    25.2830   -24.5150     2.1710 
  102.1250    70.3180    10.3340     7.8010    11.2910    25.9450   -23.5880     2.1660 
  102.2500    70.9720    10.2230     7.7520    11.5380    26.3600   -22.4750     2.1700 
  102.3750    68.3030    10.0870     7.7250    11.7300    26.4600   -21.0950     2.1800 
  102.5000    65.9910    10.0540     7.7670    11.5230    26.5280   -19.4890     2.1870 
  102.6250    68.0280    10.3720     7.9960    10.9140    26.5770   -17.7510     2.1930 
  102.7500    73.7410    11.1500     8.4800    10.3150    26.3720   -15.9720     2.2070 
  102.8750    79.3610    12.4810     9.3300    10.4800    25.6740   -14.2750     2.2440 
  103.0000    81.4060    13.8720    10.3100    11.5230    24.8700   -12.7720     2.3050 
  103.1250    81.6720    14.5010    10.9030    14.4260    24.4070   -11.5470     2.3680 
  103.2500    84.6840    13.9950    10.7830    18.4590    24.2680   -10.6050     2.4140 
  103.3750    95.7130    12.1260     9.6720    16.1190    24.2720   -10.0880     2.4200 
  103.5000   108.8530     9.8270     8.1420     9.8910    24.2830    -9.9820     2.3980 
  103.6250   113.9650     8.0060     6.8240     6.4590    24.3090   -10.2360     2.3670 
  103.7500   110.1930     6.8820     5.9180     5.4770    24.3440   -10.7400     2.3410 
  103.8750   102.1910     6.6320     5.6080     5.5260    24.3210   -11.4240     2.3210 
  104.0000    94.9520     6.9860     5.7770     6.0170    24.1990   -12.1520     2.3010 
  104.1250    88.0300     7.6250     6.2400     6.7120    24.0340   -12.8520     2.2790 
  104.2500    82.0160     8.2940     6.7930     7.2720    23.9000   -13.5000     2.2570 
  104.3750    80.5870     8.7240     7.2010     7.4310    23.8030   -14.0290     2.2340 
  104.5000    81.5980     8.7970     7.3220     7.3560    23.6680   -14.4240     2.2120 
  104.6250    80.9970     8.5100     7.1290     7.3400    23.5040   -14.7050     2.1970 
  104.7500    79.4970     7.9980     6.7290     7.2070    23.3840   -14.9360     2.1950 
  104.8750    81.0520     7.4710     6.2790     6.5290    23.4010   -15.1950     2.2160 
  105.0000    85.2310     7.1920     5.9750     5.7640    23.5200   -15.5300     2.2580 
  105.1250    88.9540     7.3230     5.9460     5.7130    23.6630   -15.9590     2.3060 
  105.2500    91.0630     7.8130     6.1720     6.4010    23.7950   -16.4690     2.3450 
  105.3750    89.7720     8.5820     6.6480     7.5010    23.9060   -17.0430     2.3560 
  105.5000    85.2220     9.3290     7.2010     8.8670    23.9810   -17.6240     2.3430 
  105.6250    79.8800     9.8000     7.6410     9.9020    23.9930   -18.1340     2.3160 
  105.7500    76.4100     9.9980     7.9180    10.3040    23.9530   -18.5210     2.2860 
  105.8750    76.3190    10.0680     8.0540    10.2340    23.9020   -18.6850     2.2570 
  106.0000    76.6460    10.2880     8.2110    10.2310    23.8720   -18.6040     2.2270 
  106.1250    74.9970    10.7590     8.4890    10.5650    23.8800   -18.2450     2.1980 
