~V
VERS. 2.00: Ver 2.00
~W
STRT.M 50.0000:
STOP.M 284.0000:
STEP.M 0.1250:
NULL. -999.2500:
UWI. F10107:
~C
DEPT.M :
DEN.GM/CC :
SP.MV :
GR.API :
RML.OHMM :
RI. :
RXO.OHMM :
CALI.CM :
~A
   50.0000  -999.2500  -999.2500     0.0000     0.0000     0.0000     0.0000     0.0000 
   50.1250  -999.2500  -999.2500    34.4810     1.7070     0.3850     0.4000    25.2870 
   50.2500  -999.2500  -999.2500    36.6250     1.6830     0.3850     0.4020    25.2850 
   50.3750  -999.2500  -999.2500    38.6050     1.6450     0.3860     0.4020    25.2810 
   50.5000  -999.2500  -999.2500    38.4370     1.5980     0.3850     0.3970    25.2790 
   50.6250  -999.2500  -999.2500    37.2590     1.5500     0.3820     0.3890    25.2780 
   50.7500  -999.2500  -999.2500    35.8170     1.5060     0.3760     0.3870    25.2780 
   50.8750  -999.2500  -999.2500    33.4070     1.4680     0.3720     0.3910    25.2800 
   51.0000  -999.2500  -999.2500    30.5900     1.4390     0.3700     0.3960    25.2810 
   51.1250  -999.2500  -999.2500    30.3160     1.4260     0.3720     0.4000    25.2720 
   51.2500  -999.2500  -999.2500    32.3670     1.4280     0.3770     0.4070    25.2540 
   51.3750  -999.2500  -999.2500    34.6760     1.4400     0.3820     0.4160    25.2400 
   51.5000  -999.2500  -999.2500    35.6000     1.4550     0.3870     0.4230    25.2320 
   51.6250  -999.2500  -999.2500    33.3440     1.4570     0.3920     0.4220    25.2300 
   51.7500  -999.2500  -999.2500    29.8900     1.4470     0.3970     0.4190    25.2310 
   51.8750  -999.2500  -999.2500    27.9660     1.4280     0.4000     0.4230    25.2350 
   52.0000  -999.2500  -999.2500    28.8230     1.4090     0.4010     0.4320    25.2380 
   52.1250  -999.2500  -999.2500    31.0600     1.3930     0.3990     0.4380    25.2390 
   52.2500  -999.2500  -999.2500    33.5110     1.3770     0.3960     0.4430    25.2390 
   52.3750  -999.2500  -999.2500    35.8400     1.3560     0.3950     0.4480    25.2390 
   52.5000  -999.2500  -999.2500    36.7370     1.3340     0.3960     0.4500    25.2390 
   52.6250  -999.2500  -999.2500    35.1840     1.3220     0.3980     0.4470    25.2390 
   52.7500  -999.2500  -999.2500    34.5110     1.3260     0.4000     0.4480    25.2390 
   52.8750  -999.2500  -999.2500    35.2060     1.3440     0.4010     0.4490    25.2390 
   53.0000  -999.2500  -999.2500    35.0820     1.3690     0.3990     0.4500    25.2380 
   53.1250  -999.2500  -999.2500    33.0790     1.3870     0.3950     0.4460    25.2370 
   53.2500  -999.2500  -999.2500    32.1300     1.3870     0.3910     0.4370    25.2360 
   53.3750  -999.2500  -999.2500    34.2130     1.3640     0.3870     0.4270    25.2380 
   53.5000  -999.2500  -999.2500    37.8350     1.3170     0.3840     0.4210    25.2390 
   53.6250  -999.2500  -999.2500    39.0120     1.2490     0.3820     0.4230    25.2390 
   53.7500  -999.2500  -999.2500    37.5230     1.1740     0.3800     0.4320    25.2440 
   53.8750  -999.2500  -999.2500    35.0150     1.1110     0.3790     0.4430    25.2560 
   54.0000  -999.2500     0.0000    33.4170     1.0790     0.3770     0.4550    25.2730 
   54.1250  -999.2500     0.0000    32.3730     1.0890     0.3720     0.4640    25.2830 
   54.2500  -999.2500     0.0000    32.8100     1.1260     0.3640     0.4710    25.2870 
   54.3750  -999.2500     0.0000    35.0960     1.1720     0.3550     0.4760    25.2870 
   54.5000  -999.2500     0.0000    36.4300     1.2070     0.3460     0.4770    25.2870 
   54.6250  -999.2500     0.0000    34.6360     1.2150     0.3420     0.4780    25.2870 
   54.7500  -999.2500     0.0000    32.3030     1.2060     0.3410     0.4780    25.2840 
   54.8750  -999.2500     7.2610    30.8240     1.1950     0.3420     0.4750    25.2730 
   55.0000  -999.2500    10.8470    30.2560     1.1880     0.3430     0.4750    25.2470 
   55.1250  -999.2500    12.3440    30.8450     1.1810     0.3450     0.4900    25.2340 
   55.2500  -999.2500    13.8360    32.3140     1.1650     0.3490     0.5150    25.2290 
   55.3750  -999.2500    15.2300    32.5150     1.1370     0.3550     0.5310    25.2270 
   55.5000  -999.2500    16.4670    32.3850     1.1030     0.3610     0.5350    25.2220 
   55.6250  -999.2500    17.5560    34.7580     1.0770     0.3630     0.5370    25.2200 
   55.7500  -999.2500    18.6320    37.0430     1.0630     0.3600     0.5510    25.2200 
   55.8750  -999.2500    19.7820    35.5770     1.0560     0.3530     0.5700    25.2200 
   56.0000  -999.2500    20.9450    31.9830     1.0470     0.3460     0.5890    25.2200 
   56.1250  -999.2500    21.9490    31.6480     1.0330     0.3430     0.6020    25.2200 
   56.2500  -999.2500    22.7340    32.7200     1.0180     0.3420     0.6120    25.2200 
   56.3750  -999.2500    23.2460    32.1350     1.0080     0.3450     0.6210    25.2200 
   56.5000  -999.2500    23.4430    30.9640     1.0010     0.3500     0.6270    25.2200 
   56.6250  -999.2500    23.2290    31.3040     0.9870     0.3590     0.6450    25.2200 
   56.7500  -999.2500    22.6860    32.9870     0.9610     0.3700     0.6760    25.2200 
   56.8750  -999.2500    21.9290    35.4320     0.9180     0.3790     0.7290    25.2200 
   57.0000  -999.2500    21.1180    37.6990     0.8640     0.3840     0.8130    25.2170 
   57.1250  -999.2500    20.3500    38.6710     0.8150     0.3810     0.9130    25.2020 
   57.2500  -999.2500    19.6210    38.5640     0.7880     0.3730     0.9370    25.1670 
   57.3750  -999.2500    18.9380    38.6690     0.7840     0.3650     0.8620    25.0050 
   57.5000  -999.2500    18.2850    40.3980     0.7840     0.3650     0.6980    24.5100 
   57.6250  -999.2500    17.6220    42.1810     0.7580     0.3760     0.5170    23.4800 
   57.7500  -999.2500    16.9310    41.8960     0.6890     0.3910     0.4570    22.5620 
   57.8750  -999.2500    16.1780    41.1380     0.5780     0.4000     0.4260    22.0120 
   58.0000  -999.2500    15.3420    41.8830     0.4480     0.3910     0.3460    21.8850 
   58.1250  -999.2500    14.5370    42.9690     0.3310     0.3620     0.3140    22.0710 
   58.2500  -999.2500    13.8880    43.2980     0.2410     0.3270     0.2700    22.3010 
   58.3750  -999.2500    13.3870    44.4110     0.1870     0.2990     0.2350    22.4190 
   58.5000  -999.2500    12.9690    45.6250     0.1810     0.2950     0.3850    22.5060 
   58.6250  -999.2500    12.5020    44.9270     0.2550     0.3440     3.8010    22.8970 
   58.7500  -999.2500    11.8120    43.6580     0.4270     0.4830     4.9990    23.6580 
   58.8750  -999.2500    10.7830    44.0650     0.7360     0.7670     5.5630    24.6530 
   59.0000  -999.2500     9.4150    45.7780     1.2250     1.2630     5.6840    25.9010 
   59.1250  -999.2500     7.7010    46.1840     1.9320     2.0540     5.7530    27.7710 
   59.2500  -999.2500     5.6930    45.1350     2.7550     3.0540     5.7890    30.1520 
   59.3750     2.0040     3.4550    44.5880     3.5630     4.1330     5.8270    32.0400 
   59.5000     2.0040     1.1200    46.0980     4.1890     5.1030     5.8740    32.7280 
   59.6250     2.0050    -1.0830    46.1810     4.5070     5.7590     5.9220    32.6800 
   59.7500     2.0050    -2.9820    43.1630     4.6850     6.1640     5.9530    32.6180 
   59.8750     2.0060    -4.4860    40.5740     4.8530     6.4360     5.9780    32.6290 
   60.0000     2.0050    -5.6300    40.3950     5.0570     6.6610     5.9890    32.6410 
   60.1250     2.0050    -6.5160    39.7800     5.2850     6.8590     6.0000    32.6170 
   60.2500     2.0050    -7.2330    37.7490     5.5040     7.0270     6.0220    32.5670 
   60.3750     2.0050    -7.8020    37.6410     5.6930     7.1630     6.0280    32.5300 
   60.5000     2.0060    -8.2610    41.1940     5.8390     7.2670     6.0110    32.5170 
   60.6250     2.0090    -8.6220    45.2620     5.9340     7.3340     5.9890    32.5160 
   60.7500     2.0140    -8.9000    46.1560     5.9870     7.3740     5.9650    32.5180 
   60.8750     2.0200    -9.1170    44.5960     6.0100     7.3960     5.9260    32.5200 
   61.0000     2.0260    -9.3050    42.6030     6.0220     7.4100     5.9170    32.5360 
   61.1250     2.0300    -9.4610    41.1560     6.0440     7.4310     5.9250    32.5950 
