~V
VERS. 2.00: Ver 2.00
~W
STRT.M 51.0000:
STOP.M 246.0000:
STEP.M 0.1250:
NULL. -999.2500:
UWI. F10182:
~C
DEPT.M :
SP.MV :
GR.API :
RML.OHMM :
RI. :
RXO.OHMM :
DEN.GM/CC :
CALI.CM :
~A
# ...
  208.5000   -19.9590    57.3700    68.4220    64.4580    56.8970     2.1960    24.2910 
  208.6250   -19.9870    57.9060    64.8300    60.7280    53.3010     2.1960    24.2810 
  208.7500   -20.0130    58.3110    63.3900    58.8530    53.6560     2.1920    24.2620 
  208.8750   -20.0470    60.0450    63.7010    58.5190    55.4720     2.1860    24.2380 
  209.0000   -20.1150    63.4600    65.6000    59.5870    53.3830     2.1820    24.2370 
  209.1250   -20.2240    66.3060    68.8790    61.8510    49.1730     2.1830    24.2080 
  209.2500   -20.3610    66.9450    73.4240    65.1640    46.2190     2.1910    24.1380 
  209.3750   -20.5300    66.2650    78.6870    69.0230    45.1220     2.1990    24.0060 
  209.5000   -20.7170    63.9180    84.2660    73.0630    42.6660     2.2000    23.7840 
  209.6250   -20.8920    60.2510    89.7250    76.9090    38.7060     2.1900    23.4070 
  209.7500   -21.0790    57.7510    94.5940    80.1630    38.5180     2.1740    22.9730 
  209.8750   -21.2750    57.2830    98.7610    82.7610    37.6630     2.1640    22.7670 
  210.0000   -21.4650    55.6720   102.1300    84.6550    37.6310     2.1630    22.7210 
  210.1250   -21.5910    52.9380   104.5390    85.7720    37.1240     2.1690    22.7340 
  210.2500   -21.6840    51.9230   105.5030    85.8310    35.9310     2.1770    22.7370 
  210.3750   -21.7580    51.9080   105.0810    84.9400    35.8520     2.1830    22.7520 
  210.5000   -21.7740    52.1720   103.4670    83.2770    35.2990     2.1840    22.7570 
  210.6250   -21.8160    53.4490   101.1230    81.1970    35.4570     2.1820    22.7600 
  210.7500   -21.8580    56.8840    98.5830    79.1200    35.4820     2.1820    22.7610 
  210.8750   -21.8220    59.2700    96.2860    77.3380    35.2210     2.1830    22.7620 
  211.0000   -21.7900    59.2600    94.4210    75.9810    33.9100     2.1860    22.7600 
  211.1250   -21.8290    58.0290    93.0230    75.0690    32.3430     2.1900    22.7580 
  211.2500   -21.8340    57.1250    91.9950    74.5320    32.5040     2.1930    22.7580 
  211.3750   -21.8440    57.6060    90.9900    74.0700    33.0670     2.1950    22.7500 
  211.5000   -21.8970    58.9110    89.6220    73.3570    33.7590     2.1950    22.7220 
  211.6250   -21.8750    58.1220    87.3470    71.9350    35.6050     2.1940    22.6540 
  211.7500   -21.8170    53.8460    83.3010    69.0370    42.5280     2.1930    22.6090 
  211.8750   -21.7990    50.8860    77.5950    64.6660    51.1340     2.1940    22.6370 
  212.0000   -21.7480    52.2800    70.7570    59.1890    49.0300     2.1980    22.6890 
  212.1250   -21.6470    56.7980    63.7340    53.3730    40.1080     2.2010    22.7270 
  212.2500   -21.5730    60.4120    57.8840    48.3610    35.7070     2.2030    22.7090 
  212.3750   -21.4620    60.7790    54.0390    44.9290    32.3010     2.2140    22.6830 
  212.5000   -21.3250    57.3210    52.6760    43.5540    31.2480     2.2520    22.6590 
  212.6250   -21.1870    52.2250    53.7110    44.3010    33.8950     2.3240    22.6590 
  212.7500   -21.0090    51.1950    56.4680    46.8410    39.5040     2.4100    22.8110 
  212.8750   -20.8040    54.0690    59.0250    49.6380    56.1080     2.4590    23.1860 
  213.0000   -20.5960    57.4770    59.7650    51.2750    90.3630     2.4470    23.5810 
  213.1250   -20.3430    58.6260    57.9160    50.8370    97.1160     2.3900    23.7340 
  213.2500   -20.0790    57.5050    54.0550    48.4130    62.2930     2.3280    23.6950 
  213.3750   -19.8370    55.8600    49.8940    45.3850    41.1430     2.2880    23.8090 
  213.5000   -19.5560    53.2470    45.6800    42.0470    35.4580     2.2740    23.9910 
  213.6250   -19.2860    51.1320    40.6530    37.7760    35.5490     2.2770    24.0470 
  213.7500   -19.0910    51.8420    33.8120    31.6410    38.5950     2.2800    23.9280 
  213.8750   -18.8950    54.7870    26.0590    24.5980    40.2200     2.2790    23.8430 
  214.0000   -18.7050    60.2190    18.8830    18.0820    34.0580     2.2760    23.7460 
  214.1250   -18.6020    67.4760    13.4550    13.1080    21.3470     2.2800    23.6820 
  214.2500   -18.5200    74.1350    10.3320    10.1020    10.2960     2.3000    23.8430 
  214.3750   -18.4530    77.6870     8.6850     8.3820     8.7770     2.3290    24.0990 
  214.5000   -18.4700    78.8350     7.9920     7.5570     8.8450     2.3520    24.3320 
  214.6250   -18.5570    78.0010     7.8650     7.3310     8.9450     2.3650    24.4500 
  214.7500   -18.6370    75.3750     8.0430     7.4920     8.8250     2.3710    24.4590 
  214.8750   -18.7490    74.6300     8.2550     7.7410     8.8630     2.3780    24.4340 
  215.0000   -18.8650    77.8390     8.3860     7.9220     9.0060     2.3860    24.4240 
  215.1250   -18.9420    84.2820     8.4230     7.9910     9.1150     2.3900    24.4500 
  215.2500   -18.9850    90.2880     8.4690     8.0190     8.9940     2.3870    24.4660 
  215.3750   -18.9790    94.4230     8.6930     8.1510     9.0160     2.3840    24.4640 
  215.5000   -18.9170    97.0800     9.2500     8.5150     9.4750     2.3830    24.4470 
  215.6250   -18.8030    98.6870    10.2440     9.2080    10.8380     2.3820    24.4080 
  215.7500   -18.6620    95.1710    10.3730    10.3020    13.5690     2.3740    24.3750 
  215.8750   -18.5170    85.9590    11.8540    11.6000    17.8260     2.3580    24.3460 
  216.0000   -18.4140    75.9040    13.2050    12.8330    21.3870     2.3390    24.3130 
  216.1250   -18.3110    69.7360    14.1460    13.7080    22.3380     2.3210    24.2950 
  216.2500   -18.2270    68.0450    14.5330    14.0260    21.0090     2.3110    24.2890 
  216.3750   -18.2110    67.8260    14.7100    14.0610    19.0670     2.3090    24.2840 
  216.5000   -18.1980    67.7310    15.0380    14.1150    17.8370     2.3120    24.2740 
  216.6250   -18.1650    67.8100    15.7780    14.4320    18.7240     2.3190    24.2650 
  216.7500   -18.1690    68.0830    17.0170    15.1560    21.8330     2.3270    24.2560 
  216.8750   -18.1550    68.3620    18.4630    16.1340    24.8500     2.3340    24.2750 
  217.0000   -18.0980    68.9910    19.8630    17.1920    27.6330     2.3390    24.2820 
  217.1250   -18.0510    70.0390    21.0450    18.1620    28.1540     2.3390    24.2840 
  217.2500   -17.9960    70.3340    21.9510    18.9420    27.4610     2.3320    24.2870 
  217.3750   -17.9040    68.4490    22.7320    19.6140    28.7280     2.3220    24.2900 
  217.5000   -17.8330    67.1730    23.5080    20.2710    30.7080     2.3080    24.2870 
  217.6250   -17.7830    68.4010    24.3400    20.9690    31.9140     2.2940    24.2830 
  217.7500   -17.6880    70.0470    25.2260    21.7100    33.2810     2.2890    24.2810 
  217.8750   -17.5790    71.3710    26.0780    22.4250    33.6960     2.3000    24.2820 
  218.0000   -17.4270    73.1470    26.7950    23.0390    33.6200     2.3310    24.2850 
  218.1250   -17.2180    74.1550    27.2870    23.4780    32.9440     2.3770    24.2840 
  218.2500   -16.9960    72.3550    27.4560    23.6550    34.4990     2.4220    24.2730 
  218.3750   -16.7370    68.7640    27.3730    23.6150    35.1480     2.4480    24.2410 
  218.5000   -16.4300    64.7280    27.1340    23.4330    33.9620     2.4510    24.2130 
  218.6250   -16.1170    61.7360    26.8690    23.2210    32.6490     2.4410    24.2130 
  218.7500   -15.7970    61.0880    26.7390    23.1210    32.1860     2.4330    24.2450 
  218.8750   -15.4640    60.4700    26.7930    23.1820    32.4690     2.4380    24.2730 
  219.0000   -15.1950    60.4290    26.9390    23.3530    33.9190     2.4610    24.2760 
  219.1250   -14.9590    62.6660    26.8990    23.4400    36.1810     2.4980    24.2680 
  219.2500   -14.7170    64.5210    26.1670    23.0510    35.5250     2.5270    24.2460 
  219.3750   -14.5350    62.7890    24.6730    22.0720    33.3030     2.5230    24.2070 
  219.5000   -14.3930    60.3960    22.6470    20.6120    31.8250     2.4840    24.1660 
  219.6250   -14.2240    60.3980    20.5230    18.9650    27.7380     2.4230    24.1150 
