~V
VERS. 2.00: Ver 2.00
~W
STRT.M 44.0000:
STOP.M 255.0000:
STEP.M 0.1250:
NULL. -999.2500:
UWI. F10191:
~C
DEPT.M :
DEN.GM/CC :
SP.MV :
GR.API :
RML.OHMM :
RI. :
RXO.OHMM :
CALI.CM :
~A
# ...
   89.0000     2.2930   -32.4520    79.4550     9.4080     5.8910     6.4470    25.8310 
   89.1250     2.2660   -33.3040    75.7500    10.5720     6.5600     7.8420    25.7860 
   89.2500     2.2400   -34.1950    73.6850    11.7250     7.3450     9.0200    25.6760 
   89.3750     2.2190   -35.1360    71.0310    12.5690     8.0500     9.5700    25.5210 
   89.5000     2.2070   -36.0290    67.6060    12.9270     8.5120     9.7190    25.4470 
   89.6250     2.2020   -36.7780    65.6910    12.7800     8.6370     9.7240    25.4900 
   89.7500     2.2010   -37.4510    64.9620    12.4240     8.5600     9.7330    25.5760 
   89.8750     2.2030   -38.0050    63.7700    12.0620     8.3940     9.7180    25.6590 
   90.0000     2.2020   -38.3670    62.1690    11.8140     8.2260     9.8160    25.7210 
   90.1250     2.1950   -38.6790    62.2950    11.7250     8.1050     9.9640    25.7430 
   90.2500     2.1900   -38.9560    64.4630    11.7280     8.0240    10.0820    25.7470 
   90.3750     2.1860   -39.1630    65.7220    11.7740     7.9750    10.0950    25.7470 
   90.5000     2.1810   -39.4350    65.5660    11.8250     7.9520    10.0620    25.7470 
   90.6250     2.1740   -39.7830    66.8330    11.8630     7.9500    10.0660    25.7470 
   90.7500     2.1670   -40.1150    69.0460    11.8900     7.9570    10.1730    25.7470 
   90.8750     2.1600   -40.4890    70.0330    11.9070     7.9610    10.3160    25.7470 
   91.0000     2.1540   -40.9610    69.0860    11.9110     7.9550    10.4110    25.7470 
   91.1250     2.1570   -41.3850    67.7260    11.8740     7.9250    10.4140    25.7510 
   91.2500     2.1700   -41.7420    66.5970    11.7610     7.8590    10.2970    25.7660 
   91.3750     2.1880   -42.1170    64.7010    11.5540     7.7440    10.2100    25.7950 
   91.5000     2.2110   -42.4070    62.9300    11.2770     7.5880    10.3390    25.8270 
   91.6250     2.2330   -42.6010    63.5080    11.0200     7.4360    10.6480    25.9230 
   91.7500     2.2510   -42.8010    64.7870    10.8770     7.3430    10.4680    26.1580 
   91.8750     2.2660   -42.9410    63.3600    10.9040     7.3440     9.6680    26.5060 
   92.0000     2.2850   -42.9930    59.4710    11.0980     7.4460     9.3550    26.7650 
   92.1250     2.3030   -43.0310    56.8550    11.3800     7.6210     9.9700    26.6800 
   92.2500     2.3010   -42.9900    56.4780    11.5970     7.7890     9.9800    26.3180 
   92.3750     2.2700   -42.8300    56.5630    11.6590     7.8940    10.1910    26.0220 
   92.5000     2.2220   -42.5960    57.3840    11.5590     7.9100    10.5440    25.9070 
   92.6250     2.1860   -42.2130    60.6520    11.3760     7.8470    10.5160    25.9010 
   92.7500     2.1640   -41.6870    65.3780    11.2370     7.7670    10.2000    25.9210 
   92.8750     2.1510   -41.0190    67.0880    11.1760     7.7010    10.0160    25.9650 
   93.0000     2.1440   -40.1920    64.2930    11.1380     7.6370     9.9780    26.0160 
   93.1250     2.1500   -39.2320    61.8780    10.9980     7.5220     9.8200    26.0370 
   93.2500     2.1670   -38.2900    63.4020    10.7090     7.3280     9.5080    26.0550 
   93.3750     2.1850   -37.3440    64.9120    10.3020     7.0630     9.1340    26.1010 
   93.5000     2.1960   -36.4260    61.8590     9.8700     6.7700     8.6430    26.1810 
   93.6250     2.2010   -35.6810    58.5310     9.5710     6.5340     8.0870    26.1980 
   93.7500     2.2040   -35.0460    59.9510     9.4860     6.4110     7.8500    26.1490 
   93.8750     2.2040   -34.5530    63.7690     9.6320     6.4210     7.9460    26.0770 
   94.0000     2.1990   -34.2650    66.7040     9.9480     6.5490     8.3520    26.0110 
   94.1250     2.1960   -34.1580    66.6320    10.3030     6.7410     9.0060    25.9450 
   94.2500     2.1970   -34.0940    65.8520    10.5320     6.9020     9.5710    25.8910 
   94.3750     2.1960   -34.1170    65.9830    10.5510     6.9650     9.4340    25.8730 
   94.5000     2.1910   -34.2470    66.5010    10.3680     6.9070     8.8660    25.9100 
   94.6250     2.1860   -34.3470    67.0820    10.0860     6.7560     8.7130    25.9720 
   94.7500     2.1870   -34.4820    66.3490     9.8640     6.6030     8.7480    26.0120 
   94.8750     2.1940   -34.6480    64.3790     9.7840     6.5120     8.6260    26.0160 
   95.0000     2.2010   -34.7350    62.5780     9.8560     6.5150     8.6460    26.0040 
   95.1250     2.2020   -34.7550    63.5030    10.0250     6.6050     9.3120    25.9920 
   95.2500     2.1980   -34.7900    66.6420    10.1760     6.7130    10.2830    26.0060 
   95.3750     2.1900   -34.7520    68.8630    10.2420     6.7860    10.3490    26.0210 
   95.5000     2.1800   -34.6070    68.9450    10.2070     6.7950     9.3480    26.0130 
   95.6250     2.1700   -34.4280    67.1580    10.1130     6.7420     8.6150    25.9860 
   95.7500     2.1630   -34.1430    65.9030    10.0390     6.6750     8.6530    25.9710 
   95.8750     2.1620   -33.8070    66.5490    10.0150     6.6230     8.8710    25.9550 
   96.0000     2.1700   -33.4590    67.8370    10.0280     6.5930     8.9520    25.9190 
   96.1250     2.1850   -33.0780    67.4780    10.0180     6.5620     8.8730    25.8790 
   96.2500     2.1960   -32.7210    66.9620     9.9290     6.4940     8.6810    25.8300 
   96.3750     2.2000   -32.4420    69.1530     9.7400     6.3780     8.3970    25.7770 
   96.5000     2.2010   -32.2020    71.0580     9.4830     6.2260     8.1400    25.7320 
   96.6250     2.2050   -32.0510    68.8940     9.2430     6.0840     7.9300    25.6940 
   96.7500     2.2130   -32.0100    66.2960     9.1070     6.0000     7.8530    25.6710 
   96.8750     2.2260   -32.0190    65.6070     9.1260     6.0050     7.9330    25.6430 
   97.0000     2.2410   -32.1590    65.4470     9.3060     6.1100     8.2490    25.6170 
   97.1250     2.2520   -32.3940    63.6440     9.6080     6.3100     8.7130    25.6060 
   97.2500     2.2590   -32.6200    61.9910     9.9160     6.5390     9.2170    25.6040 
   97.3750     2.2600   -32.8780    60.9540    10.1460     6.7370     9.6110    25.6130 
   97.5000     2.2510   -33.2150    60.5620    10.2540     6.8590     9.7840    25.6520 
   97.6250     2.2270   -33.4810    62.3590    10.2110     6.8720     9.3980    25.7340 
   97.7500     2.1980   -33.6880    65.9220    10.0530     6.7970     8.5710    25.7970 
   97.8750     2.1770   -33.8770    68.4190     9.7940     6.6490     8.1580    25.8130 
   98.0000     2.1730   -33.9720    68.4450     9.4690     6.4500     8.2810    25.7890 
   98.1250     2.1890   -34.0500    70.3720     9.1720     6.2580     8.9740    25.7220 
   98.2500     2.2190   -34.1220    75.4870     9.0360     6.1490     8.6030    25.6540 
   98.3750     2.2530   -34.1570    79.9930     9.1770     6.1940     7.8030    25.6110 
   98.5000     2.2660   -34.1800    79.8550     9.6630     6.4410     7.7270    25.6010 
   98.6250     2.2410   -34.2020    75.0930    10.4690     6.9130     8.5070    25.6020 
   98.7500     2.2020   -34.1670    68.8320    11.2900     7.4620     9.4910    25.5970 
   98.8750     2.1660   -34.0450    64.0000    11.7770     7.8860     9.9660    25.5560 
   99.0000     2.1380   -33.8130    63.2090    11.6540     7.9780    10.0810    25.4080 
   99.1250     2.1280   -33.4460    65.9460    10.8580     7.6080     9.9680    25.0850 
   99.2500     2.1430   -32.9830    68.8780     9.8510     7.0090     9.4770    24.7300 
   99.3750     2.1790   -32.4480    70.7600     8.9990     6.4130     8.4240    24.4960 
   99.5000     2.2170   -31.8600    69.5780     8.5210     5.9880     7.3000    24.3920 
   99.6250     2.2320   -31.2940    65.7190     8.5270     5.8480     7.4640    24.3680 
   99.7500     2.2290   -30.7560    63.6050     8.8550     5.9280     8.1430    24.3500 
   99.8750     2.2200   -30.2860    64.5890     9.3580     6.1570     8.6170    24.3090 
  100.0000     2.2140   -29.9320    65.1630     9.8660     6.4450     8.9720    24.2520 
  100.1250     2.2130   -29.6360    64.5460    10.1800     6.6780     9.1650    24.1850 
