~V
VERS. 2.00: Ver 2.00
~W
STRT.M 50.0000:
STOP.M 236.0000:
STEP.M 0.1250:
NULL. -999.2500:
UWI. F10180:
~C
DEPT.M :
SP.MV :
GR.API :
RML.OHMM :
RI. :
RXO.OHMM :
CALI.CM :
DEN.GM/CC :
~A
# ...
  117.5000   -12.9600    77.7430    10.1400     8.3460     8.7080    23.5670     2.2410 
  117.6250   -12.8790    76.5020     9.6260     8.2720     9.0380    23.5830     2.2370 
  117.7500   -12.7990    73.6030     9.4800     8.2990     9.7950    23.7130     2.2260 
  117.8750   -12.7370    70.3760     9.6680     8.4080    10.2270    23.9130     2.2100 
  118.0000   -12.7520    69.8200     9.9660     8.5410    10.2010    24.0950     2.1950 
  118.1250   -12.8020    71.9950    10.2250     8.6350    10.1460    24.2220     2.1820 
  118.2500   -12.8460    71.8310    10.3260     8.6230    10.2670    24.2890     2.1750 
  118.3750   -12.9630    67.3770    10.1620     8.4440    10.3880    24.2790     2.1780 
  118.5000   -13.0810    65.2400     9.8050     8.1560    10.2250    24.2240     2.1860 
  118.6250   -13.1130    68.0960     9.3690     7.8390     9.5490    24.1200     2.1960 
  118.7500   -13.1610    74.2300     8.9760     7.5810     8.5450    24.0150     2.2020 
  118.8750   -13.2000    77.6440     8.7130     7.4530     8.2410    24.0180     2.2020 
  119.0000   -13.1310    77.3840     8.5580     7.4270     9.5450    23.9940     2.2000 
  119.1250   -13.0370    75.6110     8.4890     7.4460    11.0510    23.8830     2.1980 
  119.2500   -13.0000    74.7710     8.4930     7.4460     9.8450    23.7410     2.2000 
  119.3750   -12.9670    74.5400     8.5600     7.3740     8.4100    23.6560     2.2050 
  119.5000   -12.9100    74.2580     8.6290     7.2540     7.6860    23.5900     2.2110 
  119.6250   -12.9180    75.3800     8.6520     7.1320     7.5780    23.5490     2.2150 
  119.7500   -12.9600    77.5420     8.6200     7.0600     7.6500    23.5500     2.2160 
  119.8750   -12.9380    76.6180     8.5570     7.0830     7.9560    23.5580     2.2130 
  120.0000   -12.9570    73.0400     8.5030     7.1890     8.2750    23.5580     2.2070 
  120.1250   -13.0000    70.9330     8.4730     7.3610     8.4590    23.5410     2.1990 
  120.2500   -12.9460    72.3130     8.4920     7.5760     8.4490    23.5100     2.1900 
  120.3750   -12.8340    74.0000     8.5950     7.8100     8.5160    23.4880     2.1820 
  120.5000   -12.7890    74.3220     8.7580     8.0320     8.7380    23.4700     2.1760 
  120.6250   -12.7080    73.8970     8.9100     8.2170     8.9740    23.4470     2.1720 
  120.7500   -12.5710    74.5700     8.9630     8.3390     9.1910    23.4270     2.1720 
  120.8750   -12.4650    74.5890     8.8610     8.3660     9.2140    23.4090     2.1730 
  121.0000   -12.3250    71.8550     8.6820     8.3070     9.0110    23.3860     2.1730 
  121.1250   -12.1960    67.5310     8.4880     8.1700     8.7930    23.3710     2.1690 
  121.2500   -12.1740    65.0130     8.2930     7.9760     8.6980    23.3670     2.1630 
  121.3750   -12.1840    66.5190     8.0910     7.7620     8.5890    23.3740     2.1560 
  121.5000   -12.1270    70.2140     7.9350     7.5800     8.6110    23.4430     2.1510 
  121.6250   -12.1060    74.5980     7.9340     7.4790     8.7150    23.6410     2.1530 
  121.7500   -12.1010    77.7100     8.1840     7.5070     8.7480    23.9130     2.1640 
  121.8750   -12.0720    75.6760     8.7210     7.7240     9.4640    24.0480     2.1850 
  122.0000   -12.1070    70.6330     9.3820     8.0840    10.5960    24.0400     2.2100 
  122.1250   -12.1120    66.9690    10.0050     8.5150    12.0190    23.9900     2.2340 
  122.2500   -11.9860    66.3910    10.4430     8.9080    12.6780    23.9720     2.2540 
  122.3750   -11.7970    65.8940    10.5780     9.1310    12.2810    23.9850     2.2750 
  122.5000   -11.6610    64.0430    10.5040     9.1580    11.5220    23.9820     2.3060 
  122.6250   -11.4950    63.4590    10.3260     8.9900    10.4630    23.9990     2.3480 
  122.7500   -11.2810    65.7880    10.1130     8.6470     9.3140    24.0590     2.3900 
  122.8750   -11.0950    69.4420     9.8040     8.1340     9.8120    24.1700     2.4100 
  123.0000   -10.8820    72.5600     9.3030     7.5240     9.7600    24.3550     2.4000 
  123.1250   -10.6340    75.5860     8.5840     6.8950     7.6790    24.5590     2.3660 
  123.2500   -10.4620    78.6170     7.7710     6.3610     6.5230    24.5230     2.3230 
  123.3750   -10.4090    80.0800     7.1530     6.0960     6.2510    24.2930     2.2980 
  123.5000   -10.3420    80.3510     6.9220     6.1700     6.3430    24.0980     2.3020 
  123.6250   -10.3350    79.3110     7.1600     6.6220     6.7070    23.8800     2.3310 
  123.7500   -10.3950    75.3680     7.8810     7.4100     7.8470    23.7460     2.3660 
  123.8750   -10.4270    70.7620     9.0910     8.3740     9.8880    23.8030     2.3810 
  124.0000   -10.4990    68.8420    10.4500     9.2050    12.1770    23.9350     2.3650 
  124.1250   -10.5710    68.8650    11.5180     9.6960    11.6520    23.9540     2.3280 
  124.2500   -10.6030    68.8510    11.8820     9.7900     9.9560    23.8430     2.2860 
  124.3750   -10.6220    70.4120    11.3690     9.5990     9.1360    23.7210     2.2600 
  124.5000   -10.6400    74.0950    10.5300     9.4340     8.9440    23.6570     2.2540 
  124.6250   -10.6230    75.2590     9.8670     9.5240     9.4030    23.6280     2.2700 
  124.7500   -10.6170    71.9950     9.7140    10.0360    10.5320    23.6200     2.3090 
  124.8750   -10.6120    68.3520    10.2770    11.0560    12.4150    23.6310     2.3790 
  125.0000   -10.4990    67.4890    11.3190    12.2180    15.8870    23.6740     2.4640 
  125.1250   -10.3970    68.0690    12.4510    12.9930    20.6620    23.7820     2.5410 
  125.2500   -10.3480    70.6720    13.0410    12.8570    24.9130    23.9950     2.5810 
  125.3750   -10.2340    76.0820    12.3490    11.5460    21.3270    24.3110     2.5610 
  125.5000   -10.0730    80.8840    10.7020     9.7310    12.8070    24.6180     2.4980 
  125.6250    -9.9520    83.2580     8.7640     8.0220     7.0830    24.7770     2.4170 
  125.7500    -9.8720    85.3450     7.1730     6.8090     5.4210    24.8060     2.3420 
  125.8750    -9.8350    85.2550     6.3170     6.2630     6.0040    24.7360     2.2890 
  126.0000    -9.8850    81.9350     6.0270     6.1380     6.7630    24.6140     2.2580 
  126.1250    -9.9960    78.5710     6.1150     6.2300     7.5250    24.4530     2.2440 
  126.2500   -10.0460    79.6350     6.3350     6.3420     8.1250    24.3400     2.2450 
  126.3750   -10.0440    83.0310     6.4250     6.3190     7.6720    24.4200     2.2510 
  126.5000   -10.1170    84.5790     6.3190     6.1760     6.3510    24.5890     2.2530 
  126.6250   -10.1480    85.5050     6.0980     6.0040     5.7370    24.7100     2.2530 
  126.7500   -10.0800    87.0160     5.9020     5.9190     6.5360    24.7940     2.2630 
  126.8750   -10.0190    87.6160     5.8960     6.0320     7.5620    24.9100     2.3020 
  127.0000    -9.9190    85.2950     6.1400     6.3140     7.2950    24.9780     2.3630 
  127.1250    -9.7520    80.9690     6.6180     6.6860     7.9450    24.9410     2.4230 
  127.2500    -9.6370    76.9140     7.1510     7.0280    11.0060    24.8430     2.4550 
  127.3750    -9.5530    75.5150     7.4560     7.1860    13.0150    24.7360     2.4340 
  127.5000    -9.4420    76.9550     7.5240     7.1270     9.4330    24.6790     2.3800 
  127.6250    -9.3760    80.4360     7.4950     6.9240     7.1090    24.6370     2.3180 
  127.7500    -9.3610    85.4680     7.4850     6.7200     6.6690    24.5950     2.2710 
  127.8750    -9.3950    89.9430     7.4910     6.5840     7.1370    24.6070     2.2540 
  128.0000    -9.4720    92.8200     7.4620     6.4690     7.1330    24.7170     2.2600 
  128.1250    -9.5340    95.8660     7.3530     6.3680     6.2450    24.8440     2.2780 
  128.2500    -9.5430    98.7220     7.1450     6.3190     5.5510    24.9510     2.2960 
  128.3750    -9.6730    97.1260     6.9160     6.3180     5.5710    24.9180     2.2990 
  128.5000    -9.8820    90.7580     6.7560     6.3210     5.8600    24.7770     2.2770 
  128.6250   -10.0540    83.2350     6.7600     6.4180     6.3690    24.6130     2.2320 
