~V
VERS. 2.00: Ver 2.00
~W
STRT.M 52.0000:
STOP.M 236.0000:
STEP.M 0.1250:
NULL. -999.2500:
UWI. F10181:
~C
DEPT.M :
GR.API :
RML.OHMM :
RI. :
RXO.OHMM :
CALI.CM :
DEN.GM/CC :
SP.MV :
~A
# ...
   97.0000    64.0840     8.9980     7.6780     7.8460    22.8630     2.1740    -9.3980 
   97.1250    64.1870     8.9840     7.7030     8.1470    22.7650     2.1820    -9.4510 
   97.2500    62.4890     8.9450     7.6980     8.5350    22.7060     2.1910    -9.4890 
   97.3750    60.3870     8.8700     7.6550     8.8770    22.6870     2.2000    -9.5090 
   97.5000    60.0010     8.7560     7.5730     8.8920    22.6940     2.2060    -9.5070 
   97.6250    61.6470     8.6120     7.4570     7.8000    22.7420     2.2060    -9.4690 
   97.7500    63.5960     8.4670     7.3300     7.2740    22.8470     2.2010    -9.4250 
   97.8750    64.7910     8.3380     7.2090     7.2370    22.9950     2.1940    -9.3710 
   98.0000    64.5450     8.2350     7.1050     7.4210    23.1510     2.1860    -9.2990 
   98.1250    62.7900     8.1570     7.0220     7.5120    23.2430     2.1800    -9.2170 
   98.2500    60.7830     8.0830     6.9470     7.5510    23.2570     2.1760    -9.1310 
   98.3750    60.5120     7.9960     6.8680     7.5570    23.2410     2.1760    -9.0230 
   98.5000    62.1270     7.8810     6.7710     7.3930    23.2480     2.1790    -8.9020 
   98.6250    62.9800     7.7300     6.6470     7.0660    23.2930     2.1840    -8.7770 
   98.7500    61.9350     7.5560     6.5040     6.8040    23.3400     2.1910    -8.6270 
   98.8750    61.4740     7.3860     6.3580     6.6400    23.3590     2.1960    -8.4690 
   99.0000    63.7890     7.2520     6.2320     6.5730    23.3620     2.1990    -8.3340 
   99.1250    68.2900     7.2120     6.1700     6.5190    23.3590     2.2000    -8.2290 
   99.2500    71.6550     7.2810     6.1880     6.5310    23.3310     2.2000    -8.1300 
   99.3750    71.1810     7.4580     6.2920     6.4700    23.2560     2.1990    -8.0710 
   99.5000    67.9440     7.7160     6.4690     6.4520    23.1680     2.1950    -8.0590 
   99.6250    65.4930     8.0010     6.6860     6.6100    23.0240     2.1890    -8.0790 
   99.7500    64.8830     8.2400     6.8840     6.9010    22.9190     2.1830    -8.1540 
   99.8750    64.4260     8.3900     7.0260     7.1440    22.9660     2.1800    -8.2510 
  100.0000    63.0440     8.4370     7.0910     7.3810    23.1610     2.1810    -8.3330 
  100.1250    63.1250     8.3920     7.0780     7.5340    23.2410     2.1830    -8.3670 
  100.2500    64.8990     8.3170     7.0320     7.4560    23.2070     2.1850    -8.3670 
  100.3750    66.4590     8.2580     6.9920     7.2440    23.1350     2.1840    -8.3300 
  100.5000    65.9030     8.2540     6.9910     7.1060    23.0980     2.1790    -8.2540 
  100.6250    62.8020     8.3540     7.0710     7.1360    23.0950     2.1710    -8.1270 
  100.7500    61.6350     8.5710     7.2430     7.2710    23.0990     2.1650    -7.9300 
  100.8750    63.7360     8.9000     7.5080     7.4490    23.0970     2.1670    -7.6870 
  101.0000    65.4730     9.2780     7.8290     7.7940    23.0920     2.1800    -7.4110 
  101.1250    63.1490     9.5490     8.0970     8.6240    23.1040     2.2120    -7.1180 
  101.2500    60.3170     9.5660     8.1930     9.9240    23.1420     2.2550    -6.8460 
  101.3750    62.1960     9.2490     8.0360    11.9530    23.1800     2.3010    -6.5650 
  101.5000    68.8550     8.6280     7.6210    14.4040    23.1660     2.3340    -6.2510 
  101.6250    75.9920     7.8530     7.0320    11.5890    23.1360     2.3430    -5.9500 
  101.7500    81.5260     7.1660     6.4600     7.6380    23.2280     2.3290    -5.6680 
  101.8750    86.0200     6.6940     6.0180     6.1080    23.3920     2.3020    -5.4260 
  102.0000    90.8660     6.4630     5.7490     5.9940    23.4520     2.2730    -5.2310 
  102.1250    94.9070     6.4270     5.6490     6.4010    23.3490     2.2520    -5.0800 
  102.2500    94.7140     6.4490     5.6220     6.6270    23.1100     2.2440    -4.9650 
  102.3750    92.1640     6.4490     5.6090     6.6110    22.8550     2.2490    -4.8830 
  102.5000    93.1540     6.3950     5.5750     6.5140    22.8130     2.2630    -4.8520 
  102.6250    96.9870     6.2970     5.5160     6.3300    23.1610     2.2780    -4.8720 
  102.7500    96.9230     6.1950     5.4540     6.0650    23.6250     2.2880    -4.9530 
  102.8750    92.9990     6.1170     5.4050     5.9620    23.9750     2.2900    -5.0700 
  103.0000    89.5520     6.0800     5.3850     6.0060    24.1150     2.2870    -5.2300 
  103.1250    87.3250     6.1120     5.4170     6.1100    24.1490     2.2820    -5.4120 
  103.2500    84.0640     6.2350     5.5210     6.1000    24.1470     2.2770    -5.5840 
  103.3750    82.9820     6.4830     5.7280     6.0740    24.0200     2.2750    -5.7790 
  103.5000    85.9340     6.8750     6.0560     6.1280    23.8350     2.2790    -5.9990 
  103.6250    86.5600     7.4040     6.5090     6.4080    23.7800     2.2930    -6.2200 
  103.7500    82.2970     7.9690     7.0070     6.6770    23.7050     2.3100    -6.4290 
  103.8750    75.2280     8.4660     7.4660     6.9710    23.4800     2.3210    -6.6190 
  104.0000    70.0050     8.7900     7.7910     7.4120    23.1640     2.3140    -6.7670 
  104.1250    70.2980     8.8340     7.8740     7.7470    22.9010     2.2840    -6.8850 
  104.2500    73.0780     8.6460     7.7390     7.6760    22.7380     2.2460    -6.9560 
  104.3750    74.8750     8.2840     7.4290     7.3810    22.6190     2.2150    -6.9870 
  104.5000    74.4490     7.8200     7.0080     7.0970    22.4890     2.1990    -6.9930 
  104.6250    74.2040     7.3300     6.5490     6.8000    22.3950     2.2000    -7.0020 
  104.7500    76.0470     6.9100     6.1400     6.4390    22.4670     2.2080    -7.0050 
  104.8750    79.0350     6.6910     5.8760     6.1510    22.7470     2.2190    -6.9940 
  105.0000    82.1500     6.8590     5.8840     6.2000    23.1110     2.2330    -6.9800 
  105.1250    84.1470     7.7140     6.3880     6.8210    23.3320     2.2550    -6.9800 
  105.2500    83.2780     9.2140     7.3980     8.1060    23.4940     2.2860    -7.0200 
  105.3750    79.6370    11.1630     8.8380    10.4820    23.7240     2.3230    -7.0960 
  105.5000    75.1360    13.1230    10.4460    14.5170    24.0250     2.3570    -7.2050 
  105.6250    70.3340    14.3210    11.6870    21.2200    24.1510     2.3700    -7.2920 
  105.7500    64.4850    14.3630    12.1360    25.5400    23.9440     2.3590    -7.3520 
  105.8750    58.9840    13.2720    11.6580    21.5450    23.4350     2.3260    -7.4020 
  106.0000    55.8330    11.5520    10.5330    14.0690    22.9140     2.2810    -7.4550 
  106.1250    57.4320     9.9560     9.3070    10.0970    22.5940     2.2370    -7.5070 
  106.2500    61.1220     8.8660     8.3590     8.2510    22.4120     2.2010    -7.5470 
  106.3750    64.3970     8.2690     7.7430     7.4830    22.3070     2.1750    -7.5720 
  106.5000    64.3040     8.0080     7.3930     7.0880    22.2420     2.1570    -7.5650 
  106.6250    60.3480     7.9410     7.2320     6.7360    22.1980     2.1470    -7.5780 
  106.7500    59.1250     7.9560     7.1690     6.4590    22.1500     2.1410    -7.6100 
  106.8750    62.5440     8.0330     7.1800     6.3320    22.0910     2.1390    -7.6420 
  107.0000    66.4860     8.1550     7.2510     6.3880    22.0270     2.1400    -7.6680 
  107.1250    65.6430     8.3000     7.3620     6.6380    21.9810     2.1440    -7.7110 
  107.2500    63.3060     8.4320     7.4750     6.9350    21.9340     2.1490    -7.7590 
  107.3750    62.8100     8.5300     7.5610     7.1420    21.8260     2.1550    -7.8030 
  107.5000    62.9560     8.5830     7.6040     7.1560    21.6110     2.1600    -7.8450 
  107.6250    62.1810     8.5880     7.5900     7.0390    21.3200     2.1650    -7.8610 
  107.7500    61.7020     8.5640     7.5370     6.9850    21.2620     2.1690    -7.8840 
  107.8750    62.9240     8.5240     7.4570     7.0430    21.3150     2.1720    -7.9300 
  108.0000    64.0260     8.4750     7.3620     7.2380    21.3360     2.1740    -7.9910 
  108.1250    62.2270     8.4200     7.2670     7.6250    21.2920     2.1740    -8.0380 
