~V
VERS. 2.00: Ver 2.00
~W
STRT.M 50.0000:
STOP.M 200.0000:
STEP.M 0.1250:
NULL. -999.2500:
UWI. F10131:
~C
DEPT.M :
GR.API :
RML.OHMM :
RI. :
RXO.OHMM :
CALI.CM :
SP.MV :
DEN.GM/CC :
~A
# ...
  128.7500    65.9110    18.3630    15.9310    13.3340    24.4870    -7.4410     2.5700 
  128.8750    62.2420    17.7640    15.6050    16.5350    24.4700    -7.3220     2.5710 
  129.0000    57.4730    17.2710    15.1780    17.6810    24.4410    -7.2340     2.5640 
  129.1250    56.4620    17.0920    14.8970    16.6390    24.4460    -7.1820     2.5490 
  129.2500    58.3940    17.1610    14.7950    14.9270    24.5030    -7.2000     2.5330 
  129.3750    58.7500    17.4140    14.8570    12.6660    24.6180    -7.3140     2.5220 
  129.5000    57.9140    17.7860    15.0520    11.1280    24.7710    -7.4900     2.5160 
  129.6250    58.4780    18.1910    15.3420    11.0670    24.8410    -7.6780     2.5130 
  129.7500    62.1480    18.5150    15.6390    15.5230    24.8700    -7.8380     2.5070 
  129.8750    67.8080    18.6520    15.8560    26.6080    24.8980    -7.9390     2.4950 
  130.0000    72.3660    18.5260    15.9080    23.2000    24.9740    -7.9900     2.4790 
  130.1250    73.1420    18.0670    15.6950    18.7750    24.9850    -8.0210     2.4600 
  130.2500    71.0950    17.3910    15.2660    18.0260    25.0130    -7.9940     2.4430 
  130.3750    68.4890    16.6190    14.6990    16.8400    24.9470    -7.8970     2.4350 
  130.5000    66.0020    15.8930    14.1030    15.6840    24.8550    -7.7650     2.4370 
  130.6250    66.1980    15.3700    13.6130    15.0160    24.7710    -7.6110     2.4540 
  130.7500    71.0520    15.0880    13.2980    15.0060    24.7520    -7.4630     2.4770 
  130.8750    74.9810    15.0360    13.1880    14.2680    24.7190    -7.3740     2.4980 
  131.0000    72.1740    15.1480    13.2590    13.5460    24.7020    -7.3430     2.5100 
  131.1250    65.9320    15.3040    13.4330    12.6330    24.6870    -7.3510     2.5080 
  131.2500    65.1900    15.3740    13.5750    13.1440    24.7670    -7.4010     2.4990 
  131.3750    69.5930    15.3080    13.6090    14.1990    24.9440    -7.4700     2.4890 
  131.5000    74.0410    15.1480    13.5330    14.5450    25.0930    -7.5330     2.4850 
  131.6250    74.5790    15.0420    13.4300    13.1180    25.1520    -7.6040     2.4890 
  131.7500    71.5930    15.1370    13.4250    11.6950    25.0900    -7.6910     2.4930 
  131.8750    67.0240    15.5010    13.5910    12.2150    24.9580    -7.7970     2.4930 
  132.0000    63.5750    16.0980    13.9330    15.1590    24.8000    -7.9360     2.4850 
  132.1250    61.3500    16.7740    14.3880    16.8880    24.7450    -8.0820     2.4740 
  132.2500    60.0530    17.3060    14.8000    16.3990    24.6660    -8.1860     2.4630 
  132.3750    61.4000    17.5630    15.0530    15.3370    24.6300    -8.2530     2.4560 
  132.5000    65.4840    17.5300    15.0920    13.9360    24.6350    -8.3200     2.4520 
  132.6250    66.6270    17.2950    14.9320    14.1680    24.6710    -8.4070     2.4500 
  132.7500    63.4320    17.0610    14.7190    15.0050    24.7250    -8.5060     2.4510 
  132.8750    59.6810    16.9410    14.5580    16.1480    24.7650    -8.5820     2.4550 
  133.0000    59.7500    16.9840    14.5230    15.3240    24.7330    -8.6010     2.4620 
  133.1250    61.3810    17.2060    14.6620    15.2390    24.5570    -8.5500     2.4660 
  133.2500    61.2410    17.5310    14.9260    15.2050    24.4170    -8.4910     2.4660 
  133.3750    60.0500    17.8880    15.2560    15.1960    24.4500    -8.4590     2.4660 
  133.5000    59.6740    18.2040    15.5820    15.3430    24.6600    -8.4480     2.4680 
  133.6250    61.1610    18.4200    15.8290    16.0410    24.8970    -8.4340     2.4760 
  133.7500    61.6700    18.5590    15.9880    16.6230    25.0210    -8.3780     2.4870 
  133.8750    60.0240    18.6540    16.0840    16.7420    25.1160    -8.2900     2.4950 
  134.0000    57.8530    18.7340    16.1500    16.8450    25.2330    -8.2100     2.4990 
  134.1250    55.2850    18.7900    16.2010    17.0640    25.3060    -8.1600     2.5020 
  134.2500    53.7970    18.7920    16.2230    17.6180    25.3560    -8.1090     2.5070 
  134.3750    53.9400    18.7170    16.1870    18.2470    25.3740    -8.0090     2.5140 
  134.5000    54.6560    18.5610    16.0830    18.2030    25.3810    -7.8560     2.5240 
  134.6250    53.6920    18.3480    15.9330    17.0820    25.3390    -7.6680     2.5340 
  134.7500    53.0550    18.1450    15.8000    15.6720    25.2820    -7.4690     2.5430 
  134.8750    54.0420    18.0150    15.7350    14.8450    25.2640    -7.2960     2.5490 
  135.0000    55.0190    18.0080    15.7660    15.0040    25.3130    -7.1480     2.5520 
  135.1250    54.5780    18.1620    15.9060    15.6530    25.3340    -6.9940     2.5520 
  135.2500    54.5280    18.4020    16.1040    15.8810    25.2780    -6.8490     2.5520 
  135.3750    55.5120    18.6450    16.3110    15.6590    25.1470    -6.7590     2.5500 
  135.5000    57.2570    18.8050    16.4760    15.6610    25.0620    -6.7150     2.5480 
  135.6250    56.7290    18.8160    16.5440    15.9990    25.0430    -6.7040     2.5420 
  135.7500    53.6580    18.7290    16.5230    15.9450    25.0530    -6.7120     2.5350 
  135.8750    51.9940    18.6130    16.4420    15.3590    25.0780    -6.7100     2.5290 
  136.0000    52.9610    18.5450    16.3490    14.7420    25.1220    -6.6900     2.5270 
  136.1250    52.0040    18.6040    16.3210    14.9470    25.1370    -6.6480     2.5280 
  136.2500    49.0950    18.8030    16.4080    15.6930    25.1590    -6.5740     2.5280 
  136.3750    48.8810    19.1410    16.6390    17.2420    25.2010    -6.4600     2.5260 
  136.5000    51.0740    19.5940    17.0130    18.2650    25.2910    -6.2940     2.5230 
  136.6250    50.9480    20.1210    17.5050    18.3700    25.3580    -6.0860     2.5240 
  136.7500    49.8690    20.6290    18.0250    18.9030    25.3970    -5.8730     2.5290 
  136.8750    52.6500    21.0380    18.4960    19.7320    25.4110    -5.6630     2.5380 
  137.0000    58.8120    21.2830    18.8490    19.9470    25.3910    -5.4700     2.5480 
  137.1250    62.7200    21.3010    19.0120    19.1050    25.2960    -5.3400     2.5540 
  137.2500    62.9400    21.1440    19.0130    18.3940    25.1340    -5.2930     2.5570 
  137.3750    61.9230    20.8540    18.8820    17.6160    24.9760    -5.3050     2.5590 
  137.5000    61.2600    20.4610    18.6460    17.6110    24.7990    -5.3540     2.5630 
  137.6250    58.5640    19.9600    18.3060    17.4910    24.6600    -5.4100     2.5690 
  137.7500    55.5660    19.3750    17.8780    17.3470    24.5420    -5.4880     2.5770 
  137.8750    55.2440    18.7510    17.3870    17.1330    24.5730    -5.5980     2.5830 
  138.0000    57.1600    18.1730    16.8980    16.2030    24.6480    -5.7380     2.5850 
  138.1250    57.8740    17.7790    16.5380    14.7100    24.7690    -5.8470     2.5820 
  138.2500    56.1800    17.6050    16.3750    13.4060    24.9280    -5.9310     2.5760 
  138.3750    54.5210    17.6260    16.4240    13.5070    25.0390    -5.9960     2.5700 
  138.5000    53.9830    17.7510    16.6280    14.7670    25.0630    -6.0500     2.5660 
  138.6250    53.7780    17.8410    16.8760    16.3850    25.0390    -6.1290     2.5660 
  138.7500    53.0260    17.8060    17.0430    16.7640    25.0570    -6.2270     2.5640 
  138.8750    51.8920    17.6360    17.0790    15.7960    25.1040    -6.3150     2.5600 
  139.0000    52.2190    17.3780    16.9980    14.8130    25.1870    -6.3790     2.5530 
  139.1250    54.4970    17.0740    16.8390    14.1850    25.1570    -6.4810     2.5470 
  139.2500    56.7700    16.7100    16.6130    14.2800    25.0950    -6.5990     2.5440 
  139.3750    58.4510    16.2070    16.2550    14.2900    25.0380    -6.7440     2.5440 
  139.5000    61.1270    15.5040    15.6840    14.1900    25.0270    -6.9220     2.5440 
  139.6250    63.8450    14.6390    14.8750    13.3820    25.0980    -7.1240     2.5370 
  139.7500    65.8280    13.8690    14.0350    12.1280    25.2140    -7.3370     2.5190 
  139.8750    68.8610    13.4980    13.4230    10.2910    25.3220    -7.5690     2.4870 
