~V
VERS. 2.00: Ver 2.00
~W
STRT.M 50.0000:
STOP.M 251.0000:
STEP.M 0.1250:
NULL. -999.2500:
UWI. F10193:
~C
DEPT.M :
DEN.GM/CC :
GR.API :
RML.OHMM :
RI. :
RXO.OHMM :
CALI.CM :
SP.MV :
~A
# ...
  162.5000     2.3760    87.1870    15.6190    14.0150    11.4980    26.0270    -1.0880 
  162.6250     2.3900    86.5680    15.5530    13.9350    11.8960    25.9080    -1.2310 
  162.7500     2.3870    87.4180    15.7750    13.9970    13.0910    25.8350    -1.4400 
  162.8750     2.3650    89.7040    16.0780    14.0880    14.1460    25.7510    -1.7200 
  163.0000     2.3310    91.3870    16.1860    14.0220    14.2290    25.6570    -2.0490 
  163.1250     2.2990    91.1200    15.9150    13.6670    13.6350    25.6010    -2.4040 
  163.2500     2.2770    90.6630    15.5200    13.2170    13.2590    25.6050    -2.7780 
  163.3750     2.2690    90.0700    15.4060    12.9630    13.9890    25.6720    -3.1880 
  163.5000     2.2710    90.3060    16.1210    13.2610    14.6370    25.7810    -3.6520 
  163.6250     2.2770    90.6600    18.7430    14.8300    15.3100    25.8510    -4.1920 
  163.7500     2.2780    86.5720    23.9990    18.2660    20.4330    25.8210    -4.7960 
  163.8750     2.2690    76.9780    33.0330    24.6650    27.7640    25.6990    -5.4580 
  164.0000     2.2490    66.2180    47.2040    35.5980    36.4060    25.5200    -6.1690 
  164.1250     2.2220    61.5670    68.6450    53.6640    57.5900    25.3490    -6.9240 
  164.2500     2.1980    61.0910    95.0460    76.9830    94.6610    25.2260    -7.6830 
  164.3750     2.1790    60.5750   121.2550   100.9290   132.9810    25.1220    -8.4100 
  164.5000     2.1630    59.0670   139.7790   119.0890   145.5320    25.0310    -9.0670 
  164.6250     2.1520    59.9200   144.3250   125.8220   142.6490    25.0050    -9.6190 
  164.7500     2.1480    63.5770   140.3680   124.5610   127.6140    25.0590   -10.0820 
  164.8750     2.1510    66.4420   133.8280   119.8640   126.9710    25.1480   -10.4740 
  165.0000     2.1580    66.2350   128.4980   115.3790   130.3630    25.2400   -10.8170 
  165.1250     2.1620    65.5530   125.6780   112.7830   124.9730    25.3760   -11.1210 
  165.2500     2.1640    66.9790   124.7220   111.8290   113.7440    25.5570   -11.3930 
  165.3750     2.1670    69.3080   125.4670   112.4970   116.9240    25.7380   -11.6290 
  165.5000     2.1750    69.5930   127.6450   114.6490   127.4230    25.8580   -11.8270 
  165.6250     2.1840    66.3960   130.2060   117.3860   136.2090    25.9000   -11.9840 
  165.7500     2.1910    63.4760   131.5080   119.0780   140.9450    25.9200   -12.1220 
  165.8750     2.1940    63.4450   130.8740   118.9340   154.7600    25.9690   -12.2650 
  166.0000     2.1940    65.4290   129.0180   117.4120   157.4070    26.0690   -12.4350 
  166.1250     2.1890    66.1570   128.3030   116.4600   129.4160    26.2100   -12.6390 
  166.2500     2.1810    66.0650   131.2340   118.4960    97.0810    26.3580   -12.8660 
  166.3750     2.1750    66.0540   139.6860   125.4830    91.7530    26.5000   -13.0980 
  166.5000     2.1710    66.5450   154.4880   138.3670   130.1280    26.6170   -13.3200 
  166.6250     2.1720    66.4850   175.6930   157.1830   172.4690    26.6430   -13.5200 
  166.7500     2.1770    64.3920   199.3670   178.2490   178.8210    26.5750   -13.7070 
  166.8750     2.1810    60.6340   221.5360   198.1100   153.3510    26.4750   -13.8870 
  167.0000     2.1840    58.4260   239.0930   214.1940   161.9530    26.4090   -14.0670 
  167.1250     2.1870    61.2540   250.8420   225.3520   228.2420    26.3920   -14.2500 
  167.2500     2.1910    64.8580   258.7190   232.9940   329.2300    26.4030   -14.4220 
  167.3750     2.1940    66.3080   262.3110   236.7370   369.1450    26.4880   -14.5610 
  167.5000     2.1960    65.9060   260.3920   235.5000   323.8210    26.6670   -14.6520 
  167.6250     2.1980    65.7290   252.4400   228.6480   301.0870    26.8460   -14.6880 
  167.7500     2.2030    65.4720   241.4310   218.8420   259.1110    26.9300   -14.6860 
  167.8750     2.2090    62.5170   229.1460   207.8510   233.6260    26.9380   -14.6560 
  168.0000     2.2120    59.5920   216.3580   196.5290   240.2970    26.9320   -14.6180 
  168.1250     2.2010    62.0150   203.5350   185.2760   217.8870    26.9350   -14.5920 
  168.2500     2.1800    67.5330   191.7390   174.9350   191.7460    26.9320   -14.5810 
  168.3750     2.1600    69.6860   182.2090   166.5820   176.8220    26.8930   -14.5700 
  168.5000     2.1500    66.3800   175.8070   161.0160   158.1470    26.7910   -14.5320 
  168.6250     2.1580    62.0140   172.9250   158.7250   147.9310    26.6400   -14.4300 
  168.7500     2.1770    61.0480   171.6020   158.0850   147.2120    26.4900   -14.2620 
  168.8750     2.1980    62.7710   169.4830   157.0140   163.0050    26.3380   -14.0360 
  169.0000     2.2160    63.6540   164.1350   153.1500   181.4690    26.1740   -13.7650 
  169.1250     2.2320    62.9580   154.0450   144.6390   175.0250    26.0500   -13.4640 
  169.2500     2.2480    63.4760   141.9140   133.5770   149.0330    26.0000   -13.1750 
  169.3750     2.2610    66.6580   130.8450   122.7730   117.2850    25.9990   -12.9400 
  169.5000     2.2670    70.6350   123.4880   114.9240    90.7990    26.0050   -12.7910 
  169.6250     2.2640    73.0750   122.4040   112.7530    73.1380    25.9720   -12.7420 
  169.7500     2.2560    72.6270   127.0560   116.0590    71.8950    25.9470   -12.7430 
  169.8750     2.2480    68.5340   136.6750   124.2580    85.1180    26.0370   -12.7470 
  170.0000     2.2400    63.3520   149.5500   135.7950   103.2450    26.2670   -12.7130 
  170.1250     2.2310    62.4830   162.7700   147.9920    98.3350    26.4680   -12.6350 
  170.2500     2.2210    64.4840   173.0150   157.6630    95.6570    26.4500   -12.5560 
  170.3750     2.2100    65.8340   178.1360   162.7200    99.9440    26.2250   -12.5180 
  170.5000     2.2030    65.0360   177.3080   162.2560   102.7060    25.9330   -12.5430 
  170.6250     2.2040    63.9780   170.4550   156.0370    97.4880    25.7210   -12.6400 
  170.7500     2.2130    64.8050   160.4730   146.6960    86.6590    25.6260   -12.7770 
  170.8750     2.2240    66.6340   149.9430   136.5750    71.6280    25.5940   -12.9230 
  171.0000     2.2330    68.4170   141.7090   128.3230    56.2130    25.5910   -13.0570 
  171.1250     2.2330    68.6800   139.0240   125.1480    49.9460    25.6650   -13.1710 
  171.2500     2.2260    67.2010   141.9920   127.4680    51.9640    25.8910   -13.2690 
  171.3750     2.2170    65.1660   149.9390   134.9220    58.3370    26.2720   -13.3510 
  171.5000     2.2080    63.0030   160.9320   145.9480    64.0400    26.6740   -13.4010 
  171.6250     2.2010    61.6830   171.0590   157.2140    66.3350    26.9090   -13.4000 
  171.7500     2.1960    61.6840   175.8000   164.1800    67.2490    27.0210   -13.3650 
  171.8750     2.1920    63.1280   172.0730   163.3740    71.2670    27.1200   -13.3210 
  172.0000     2.1930    64.5920   159.4000   153.5410    82.5650    27.2480   -13.2940 
  172.1250     2.2090    64.1540   139.8400   135.8070    92.9110    27.3210   -13.3080 
  172.2500     2.2430    63.7780   119.2990   115.9850    89.5780    27.3060   -13.3580 
  172.3750     2.2900    64.5310   101.6910    98.2190    72.3570    27.2220   -13.4450 
  172.5000     2.3320    66.0160    89.4010    85.1970    57.3900    27.1130   -13.5730 
  172.6250     2.3420    67.8430    84.3930    78.9710    48.6460    27.0150   -13.7340 
  172.7500     2.3220    69.0490    85.7080    78.6720    43.8130    26.9330   -13.8980 
  172.8750     2.2870    68.0340    93.2010    84.2160    44.4120    26.8510   -14.0360 
  173.0000     2.2550    64.7330   106.4400    95.2720    53.8050    26.7560   -14.1250 
  173.1250     2.2350    60.6690   125.0530   111.5380    61.6420    26.6400   -14.1370 
  173.2500     2.2220    57.4540   146.4240   130.4570    67.5030    26.5420   -14.0650 
  173.3750     2.2090    55.6340   168.5880   150.0750    74.8500    26.5310   -13.9020 
  173.5000     2.1950    56.1580   189.7630   168.6100    81.9590    26.6400   -13.6520 
  173.6250     2.1830    59.2760   207.9800   184.0850    91.3280    26.8220   -13.3370 
