~V
VERS. 2.00: Ver 2.00
~W
STRT.M 55.0000:
STOP.M 228.0000:
STEP.M 0.1250:
NULL. -999.2500:
UWI. F10142:
~C
DEPT.M :
DEN.GM/CC :
GR.API :
RML.OHMM :
RI. :
RXO.OHMM :
CALI.CM :
SP.MV :
~A
# ...
  145.0000     2.2990    78.0570     9.2750     8.4730     7.4990    24.7620    -9.9980 
  145.1250     2.3030    76.9160     9.1500     8.3330     7.3750    24.7180    -9.9820 
  145.2500     2.3050    79.8740     9.3070     8.4450     7.7280    24.7160    -9.9700 
  145.3750     2.3080    84.2500     9.6760     8.7470     8.8890    24.7290    -9.9580 
  145.5000     2.3110    84.9260    10.1430     9.1450     9.7520    24.7410    -9.9550 
  145.6250     2.3140    82.4880    10.5240     9.4800    10.0620    24.7500    -9.9580 
  145.7500     2.3160    82.5810    10.6610     9.6170     9.3110    24.7510    -9.9400 
  145.8750     2.3170    85.5370    10.4760     9.4710     8.0750    24.7540    -9.9170 
  146.0000     2.3150    86.2720     9.9860     9.0360     7.0980    24.7690    -9.8880 
  146.1250     2.3110    82.9140     9.2760     8.3630     6.7270    24.7790    -9.8500 
  146.2500     2.3090    80.6410     8.5230     7.6220     6.4010    24.7720    -9.8240 
  146.3750     2.3120    81.2170     7.8390     6.9290     5.5510    24.7510    -9.8210 
  146.5000     2.3210    83.4490     7.3210     6.3850     5.0410    24.7270    -9.8020 
  146.6250     2.3280    84.4380     7.1320     6.1360     5.3520    24.7260    -9.8020 
  146.7500     2.3270    82.4630     7.3380     6.2330     6.8950    24.7590    -9.8330 
  146.8750     2.3140    78.2700     8.0190     6.7400     9.5660    24.7970    -9.8540 
  147.0000     2.2950    73.3200     9.2020     7.6960    13.4250    24.8080    -9.8820 
  147.1250     2.2770    70.6890    10.8760     9.1430    16.7990    24.8080    -9.9320 
  147.2500     2.2650    69.7670    12.7600    10.8690    17.5230    24.8510    -9.9610 
  147.3750     2.2570    69.6180    14.5840    12.6510    16.8820    24.9570    -9.9900 
  147.5000     2.2510    69.9390    16.0860    14.2290    17.4480    25.0730   -10.0460 
  147.6250     2.2460    69.7830    16.9860    15.2820    20.1470    25.1370   -10.0800 
  147.7500     2.2450    69.3040    17.2810    15.7360    22.7660    25.1590   -10.1010 
  147.8750     2.2510    68.9530    16.9220    15.5310    20.4140    25.1670   -10.1360 
  148.0000     2.2640    69.8980    15.8980    14.6750    15.6230    25.1930   -10.1620 
  148.1250     2.2810    74.1380    14.2810    13.2490    12.7460    25.2670   -10.1870 
  148.2500     2.2950    78.5470    12.5430    11.6800    11.0150    25.2970   -10.2170 
  148.3750     2.3010    80.5990    11.1330    10.3400     8.8690    25.3070   -10.2480 
  148.5000     2.2990    79.3840    10.4600     9.5610     7.4540    25.3230   -10.2840 
  148.6250     2.2900    75.0030    11.0340     9.7610     9.8710    25.3350   -10.3480 
  148.7500     2.2810    70.5500    12.8730    11.0110    16.3790    25.3270   -10.4220 
  148.8750     2.2770    67.3720    15.9420    13.3980    27.6620    25.3130   -10.4950 
  149.0000     2.2820    65.7020    19.7650    16.7110    37.4440    25.3110   -10.5710 
  149.1250     2.2920    65.0890    22.9560    20.0200    33.9050    25.2960   -10.6250 
  149.2500     2.3020    65.8190    24.1450    21.9970    28.1650    25.2600   -10.6780 
  149.3750     2.3080    68.4350    22.9250    21.9420    26.2480    25.2390   -10.7180 
  149.5000     2.3100    71.0370    20.1570    20.1100    20.5630    25.2780   -10.7300 
  149.6250     2.3080    73.4140    17.3590    17.5010    16.5110    25.3940   -10.7300 
  149.7500     2.3030    75.5610    15.3310    15.2390    13.4840    25.4740   -10.7240 
  149.8750     2.2940    77.1440    14.0460    13.6760    12.7180    25.5030   -10.6950 
  150.0000     2.2840    78.2990    13.3190    12.7770    12.6690    25.4960   -10.6690 
  150.1250     2.2790    78.7820    12.9810    12.3250    13.4300    25.4670   -10.6660 
  150.2500     2.2820    78.5990    12.6000    11.9230    13.0210    25.3870   -10.6480 
  150.3750     2.2960    78.2530    11.9040    11.3470    11.5540    25.2480   -10.6380 
  150.5000     2.3140    79.1930    10.8760    10.5350     9.7490    25.1220   -10.6510 
  150.6250     2.3260    80.5160     9.7900     9.6470     8.8980    25.1170   -10.6550 
  150.7500     2.3260    80.6900     9.1010     9.0160     8.5720    25.2380   -10.6570 
  150.8750     2.3150    78.8300     9.1780     8.9420     8.4040    25.3620   -10.6900 
  151.0000     2.2970    75.0580    10.2760     9.6770    10.1390    25.4350   -10.7240 
  151.1250     2.2800    69.9420    12.5550    11.4800    17.8900    25.4590   -10.7510 
  151.2500     2.2730    66.0100    15.2750    13.8650    34.0350    25.4520   -10.7970 
  151.3750     2.2780    66.4710    17.3840    15.9890    42.9350    25.4350   -10.8380 
  151.5000     2.2930    71.0830    17.8400    16.8560    31.5060    25.4200   -10.8890 
  151.6250     2.3090    75.3690    16.1850    15.8120    18.9070    25.4060   -10.9440 
  151.7500     2.3180    77.6190    13.7960    13.8690    11.4950    25.3980   -11.0110 
  151.8750     2.3160    80.6040    11.9250    12.1000     9.7500    25.3960   -11.0960 
  152.0000     2.3050    84.0510    11.3930    11.3050    10.7850    25.4020   -11.2000 
  152.1250     2.2910    80.8850    12.8350    12.1730    16.9410    25.3870   -11.3080 
  152.2500     2.2790    72.5240    16.0230    14.7080    34.3780    25.3560   -11.4290 
  152.3750     2.2710    66.4840    20.8100    18.9210    56.4490    25.3310   -11.5590 
  152.5000     2.2680    66.8090    26.9190    24.3520    58.1060    25.2990   -11.6820 
  152.6250     2.2680    69.1510    32.8340    29.7300    45.7260    25.2320   -11.8210 
  152.7500     2.2720    69.9660    36.5730    33.6580    47.1110    25.1980   -11.9600 
  152.8750     2.2760    71.5130    37.5590    35.5690    52.0630    25.1970   -12.0800 
  153.0000     2.2780    74.0200    36.7700    35.7500    49.4020    25.1870   -12.1950 
  153.1250     2.2740    74.8720    35.6530    34.9370    38.2410    25.1650   -12.2990 
  153.2500     2.2660    73.6520    34.7680    34.0150    33.9170    25.1580   -12.3960 
  153.3750     2.2580    70.8170    34.2050    33.2660    35.0690    25.1380   -12.5170 
  153.5000     2.2580    67.3790    33.9570    32.7320    37.8900    25.1050   -12.6400 
  153.6250     2.2690    66.8450    33.9050    32.3850    39.6080    25.0740   -12.7500 
  153.7500     2.2870    71.0710    33.9830    32.2070    39.9450    25.0330   -12.8780 
  153.8750     2.3030    75.0630    34.3910    32.3740    37.1130    25.0000   -13.0160 
  154.0000     2.3080    73.4910    35.6070    33.2890    33.2030    24.9990   -13.1530 
  154.1250     2.2980    68.1680    38.7580    35.9770    34.5870    25.0440   -13.3010 
  154.2500     2.2820    66.1460    44.5260    41.1430    46.3920    25.1090   -13.4670 
  154.3750     2.2670    67.6680    53.5630    49.4770    68.0670    25.1510   -13.6430 
  154.5000     2.2590    68.9840    65.8510    61.0010    86.3960    25.1690   -13.8180 
  154.6250     2.2590    68.7420    79.7800    74.3670   113.1360    25.1620   -14.0010 
  154.7500     2.2630    68.0260    91.3580    86.0770   131.1730    25.1370   -14.1810 
  154.8750     2.2710    67.9550    97.3580    93.2040   132.8010    25.0880   -14.3430 
  155.0000     2.2840    68.9530    96.8360    94.4580   110.8260    25.0080   -14.4840 
  155.1250     2.3020    70.8310    91.4440    90.4900    87.1740    24.9120   -14.6270 
  155.2500     2.3180    73.8510    85.4700    85.0430    75.8160    24.8270   -14.7430 
  155.3750     2.3270    77.1850    81.1530    80.4880    75.1040    24.7290   -14.7950 
  155.5000     2.3240    79.6650    79.5550    78.2720    70.9730    24.6600   -14.8130 
  155.6250     2.3070    79.8130    81.6730    79.6890    73.0970    24.6370   -14.8160 
  155.7500     2.2830    78.7230    87.3830    84.7640    74.1500    24.6270   -14.7920 
  155.8750     2.2630    77.7840    97.3910    94.3000    74.5760    24.6210   -14.7580 
  156.0000     2.2620    74.4560   113.0160   109.7420    81.7640    24.6450   -14.7400 
  156.1250     2.2990    67.3210   138.1690   134.8840   111.2690    24.7070   -14.7060 
