~V
VERS. 2.00: Ver 2.00
~W
STRT.M 64.0000:
STOP.M 235.0000:
STEP.M 0.1250:
NULL. -999.2500:
UWI. F10178:
~C
DEPT.M :
GR.API :
RML.OHMM :
RI. :
RXO.OHMM :
CALI.CM :
DEN.GM/CC :
SP.MV :
~A
# ...
  210.2500    76.8980    25.2940    22.6940    30.6920    25.3280     2.2970   -17.7710 
  210.3750    77.3330    26.9210    24.0620    31.6900    25.3060     2.2940   -17.7950 
  210.5000    78.0220    28.4770    25.3460    32.1930    25.5730     2.2940   -17.8160 
  210.6250    77.3700    30.0730    26.6900    33.9730    25.9040     2.2970   -17.7630 
  210.7500    75.0040    31.7560    28.1950    36.5590    25.1670     2.3020   -17.6680 
  210.8750    72.6470    33.4550    29.8210    38.4920    24.7240     2.3050   -17.5110 
  211.0000    72.0090    34.9940    31.4140    39.9010    24.6240     2.3060   -17.2970 
  211.1250    72.4660    36.0600    32.6920    42.0950    24.6240     2.3060   -16.9970 
  211.2500    73.6850    36.5020    33.4850    43.8370    24.6230     2.3120   -16.6840 
  211.3750    74.1520    36.1880    33.6430    42.8130    24.6140     2.3320   -16.3340 
  211.5000    73.4940    35.0360    33.0490    39.2710    24.5830     2.3690   -15.9060 
  211.6250    72.4720    32.9050    31.4760    39.5320    24.5350     2.4190   -15.4620 
  211.7500    73.1120    30.0830    29.1140    36.9530    24.4910     2.4670   -15.0150 
  211.8750    74.3240    26.8380    26.2210    30.9630    24.4620     2.5010   -14.6160 
  212.0000    72.7400    23.5060    23.1620    24.8450    24.4460     2.5140   -14.2520 
  212.1250    69.9060    20.4570    20.3220    20.4370    24.4480     2.5070   -13.9370 
  212.2500    70.4600    17.8480    17.8640    17.2920    24.4530     2.4880   -13.6850 
  212.3750    73.4040    15.7380    15.8470    15.5190    24.4770     2.4640   -13.4530 
  212.5000    74.0480    14.1190    14.2760    14.5990    24.5100     2.4350   -13.2650 
  212.6250    71.4800    13.0120    13.1810    13.0160    24.5450     2.4040   -13.0880 
  212.7500    70.9720    12.2850    12.4460    11.8260    24.5640     2.3740   -12.9320 
  212.8750    72.2820    11.8870    12.0280    11.4160    24.5880     2.3500   -12.8300 
  213.0000    73.3690    11.7690    11.8790    11.6600    24.5990     2.3340   -12.7210 
  213.1250    73.5550    11.9090    11.9740    12.0950    24.5780     2.3280   -12.6100 
  213.2500    74.1720    12.2020    12.2160    12.1910    24.5540     2.3240   -12.5190 
  213.3750    73.8010    12.5860    12.5420    12.4860    24.5610     2.3200   -12.4800 
  213.5000    72.1200    13.0110    12.8900    12.6620    24.5780     2.3140   -12.4640 
  213.6250    70.8400    13.4410    13.2140    13.8390    24.5770     2.3060   -12.4260 
  213.7500    70.5530    13.8540    13.5060    14.6470    24.5890     2.2980   -12.3520 
  213.8750    70.3640    14.2490    13.7570    14.8530    24.6050     2.2920   -12.1680 
  214.0000    68.7610    14.6440    13.9730    14.2730    24.6010     2.2920   -11.9710 
  214.1250    66.5850    15.1030    14.2170    15.2140    24.5710     2.2980   -11.7930 
  214.2500    66.1010    15.6780    14.5630    18.4400    24.5570     2.3030   -11.5990 
  214.3750    67.1810    16.4000    15.0470    19.5560    24.5940     2.3000   -11.3910 
  214.5000    67.3290    17.2820    15.6800    18.6460    24.6270     2.2900   -11.1700 
  214.6250    64.8380    18.3620    16.5050    20.0020    24.6500     2.2900   -11.0180 
  214.7500    62.9450    19.6130    17.5120    23.0550    24.5830     2.3130   -10.9620 
  214.8750    65.3270    21.0090    18.7000    23.4480    24.5130     2.3580   -10.9970 
  215.0000    71.1620    22.4660    20.0270    23.4310    24.4310     2.4100   -11.1060 
  215.1250    73.8050    23.7830    21.3550    25.1960    24.2980     2.4360   -11.2400 
  215.2500    70.7310    24.7600    22.4630    30.7120    24.1530     2.4250   -11.3880 
  215.3750    66.2680    25.2790    23.1830    30.7250    24.0080     2.3830   -11.5500 
  215.5000    63.5790    25.3780    23.4800    26.0470    23.8520     2.3300   -11.7020 
  215.6250    62.9390    25.2480    23.4800    23.9700    23.8370     2.2890   -11.8910 
  215.7500    64.2960    25.1120    23.4610    24.2650    23.9440     2.2650   -12.0670 
  215.8750    67.9170    24.8700    23.4080    24.9520    24.0480     2.2510   -12.2630 
  216.0000    70.0620    24.1310    22.9390    24.9990    24.1040     2.2400   -12.4520 
  216.1250    68.5070    22.2510    21.2680    28.2200    24.7370     2.2330   -12.6450 
  216.2500    68.5800    19.3690    18.4890    29.2440    25.5560     2.2360   -12.8650 
  216.3750    71.0410    16.0010    15.2540    23.1160    25.3320     2.2570   -13.0560 
  216.5000    72.7300    12.8660    12.3630    13.6850    24.6360     2.2950   -13.2140 
  216.6250    71.6860    10.6860    10.4250    10.5590    24.2480     2.3410   -13.2250 
  216.7500    71.6980     9.4620     9.3360    10.4180    24.3210     2.3780   -13.1630 
  216.8750    73.3700     9.0120     8.9380    10.5540    24.3860     2.3960   -13.0000 
  217.0000    72.7520     9.0400     9.0150     9.9750    24.3940     2.3990   -12.7460 
  217.1250    68.8620     9.2050     9.2880     9.4850    24.3440     2.3930   -12.4550 
  217.2500    65.9550     9.2160     9.4180     8.9970    24.2840     2.3890   -12.1060 
  217.3750    64.8550     8.9820     9.2640     8.0070    24.2760     2.3870   -11.7470 
  217.5000    65.0010     8.5490     8.8620     6.7860    24.3090     2.3850   -11.4010 
  217.6250    65.8860     8.0580     8.3650     6.2700    24.3620     2.3820   -11.0870 
  217.7500    67.4520     7.6590     7.9410     5.9750    24.3670     2.3810   -10.8140 
  217.8750    67.6390     7.4120     7.6600     5.7010    24.3010     2.3810   -10.5950 
  218.0000    65.8670     7.3260     7.5310     5.5810    24.2320     2.3810   -10.4390 
  218.1250    65.1670     7.3870     7.5380     5.8580    24.2780     2.3800   -10.3190 
  218.2500    65.2050     7.5280     7.6170     6.0330    24.3300     2.3830   -10.2250 
  218.3750    65.0910     7.7150     7.7360     6.0040    24.3540     2.3920   -10.1880 
  218.5000    65.8990     7.9210     7.8700     5.9550    24.3720     2.4110   -10.1760 
  218.6250    68.3490     8.1260     8.0030     6.1410    24.3940     2.4330   -10.2730 
  218.7500    70.7000     8.3130     8.1220     6.1300    24.3870     2.4480   -10.4010 
  218.8750    70.6590     8.4770     8.2190     6.0240    24.3850     2.4490   -10.5430 
  219.0000    69.1660     8.6270     8.3020     5.9020    24.3980     2.4370   -10.7080 
  219.1250    68.8790     8.8070     8.4030     5.8890    24.3910     2.4190   -10.8610 
  219.2500    69.3940     9.0710     8.5720     5.9770    24.3680     2.4070   -11.0100 
  219.3750    69.3300     9.4720     8.8560     6.3240    24.3560     2.4070   -11.1350 
  219.5000    69.0500    10.0320     9.2830     7.0550    24.3620     2.4180   -11.2530 
  219.6250    69.5560    10.7390     9.8630     7.7080    24.3090     2.4400   -11.2820 
  219.7500    70.4670    11.4620    10.4930     8.0470    24.2340     2.4650   -11.2760 
  219.8750    72.1860    12.0710    11.0460     8.3010    24.1830     2.4870   -11.2790 
  220.0000    73.6240    12.4580    11.3990     8.8720    24.1940     2.5010   -11.2600 
  220.1250    71.7100    12.5750    11.4830     9.1310    24.1850     2.5040   -11.2400 
  220.2500    68.6820    12.5800    11.4410     9.0010    24.2100     2.5000   -11.2240 
  220.3750    70.8760    12.6440    11.4310     9.0270    24.3060     2.4940   -11.1750 
  220.5000    79.6740    12.9240    11.6010     9.5240    24.3840     2.4930   -11.1310 
  220.6250    86.0900    13.5620    12.0880    10.9150    24.3840     2.4990   -11.1200 
  220.7500    86.0410    14.4870    12.8570    11.8250    24.3390     2.5080   -11.1410 
  220.8750    82.4670    15.6010    13.8530    12.7150    24.2760     2.5190   -11.1710 
  221.0000    81.2160    16.7680    14.9700    12.9500    24.2080     2.5300   -11.1760 
  221.1250    82.8370    17.8230    16.0530    13.3360    24.1510     2.5410   -11.2290 
  221.2500    83.1630    18.6730    16.9780    14.7870    24.0960     2.5460   -11.2630 
  221.3750    82.3000    19.2730    17.6830    16.5320    24.0470     2.5430   -11.3110 
