~V
VERS. 2.00: Ver 2.00
~W
STRT.M 55.0000:
STOP.M 228.0000:
STEP.M 0.1250:
NULL. -999.2500:
UWI. F10142:
~C
DEPT.M :
DEN.GM/CC :
GR.API :
RML.OHMM :
RI. :
RXO.OHMM :
CALI.CM :
SP.MV :
~A
   55.0000     2.0220    46.7220     0.3460     0.4110     0.5940    25.6900  -999.2500 
   55.1250     2.0420    46.8360     0.3430     0.4120     0.5890    25.7140  -999.2500 
   55.2500     2.0590    44.6020     0.3440     0.4110     0.5690    25.8050  -999.2500 
   55.3750     2.0680    42.8340     0.3450     0.4100     0.5530    25.8580  -999.2500 
   55.5000     2.0730    43.6070     0.3470     0.4070     0.5440    25.8520  -999.2500 
   55.6250     2.0760    44.8270     0.3480     0.4030     0.5430    25.7960  -999.2500 
   55.7500     2.0820    44.0710     0.3470     0.4000     0.5430    25.7750  -999.2500 
   55.8750     2.0930    42.0220     0.3440     0.4000     0.5480    25.8020  -999.2500 
   56.0000     2.1030    40.1880     0.3400     0.4010     0.5520    25.8530  -999.2500 
   56.1250     2.1080    40.0580     0.3360     0.4040     0.5600    25.8790  -999.2500 
   56.2500     2.1070    42.3760     0.3330     0.4070     0.5680    25.8910  -999.2500 
   56.3750     2.1020    46.3870     0.3330     0.4130     0.5750    25.8900  -999.2500 
   56.5000     2.0990    50.2430     0.3340     0.4250     0.5770    25.8880  -999.2500 
   56.6250     2.1020    52.5180     0.3360     0.4400     0.5770    25.8870  -999.2500 
   56.7500     2.1060    54.1170     0.3360     0.4520     0.5770    25.8840  -999.2500 
   56.8750     2.1070    56.0180     0.3340     0.4600     0.5770    25.8890  -999.2500 
   57.0000     2.1030    58.3270     0.3290     0.4660     0.5770    25.8910  -999.2500 
   57.1250     2.1040    58.7900     0.3240     0.4700     0.5770    25.8430  -999.2500 
   57.2500     2.1180    58.0710     0.3230     0.4720     0.5770    25.6770  -999.2500 
   57.3750     2.1470    57.2640     0.3250     0.4700     0.5780    25.3630  -999.2500 
   57.5000     2.1870    55.7220     0.3280     0.4680     0.5850    25.1540   -17.9850 
   57.6250     2.2250    53.8500     0.3270     0.4660     0.5930    25.1380   -17.9850 
   57.7500     2.2500    53.1020     0.3250     0.4650     0.6140    25.2710   -18.0820 
   57.8750     2.2600    52.4320     0.3230     0.4650     0.6380    25.5140   -18.1050 
   58.0000     2.2610    51.3230     0.3230     0.4630     0.6650    25.8160   -18.0180 
   58.1250     2.2590    52.1160     0.3260     0.4600     0.6990    25.9430   -17.7840 
   58.2500     2.2580    54.1870     0.3300     0.4550     0.7100    25.9720   -17.4350 
   58.3750     2.2510    54.8180     0.3310     0.4500     0.7240    25.9730   -16.9710 
   58.5000     2.2330    53.9560     0.3300     0.4460     0.7380    25.9810   -16.4000 
   58.6250     2.1980    54.9330     0.3250     0.4460     0.7550    25.9680   -15.7360 
   58.7500     2.1590    56.0980     0.3190     0.4480     0.7690    25.9500   -15.0330 
   58.8750     2.1300    56.8470     0.3120     0.4530     0.7710    25.9350   -14.3110 
   59.0000     2.1170    58.2120     0.3070     0.4610     0.7700    25.9090   -13.6110 
   59.1250     2.1210    59.4570     0.3040     0.4680     0.7610    25.8900   -12.9910 
   59.2500     2.1330    58.8320     0.3040     0.4710     0.7530    25.8860   -12.4510 
   59.3750     2.1470    56.3300     0.3070     0.4730     0.7400    25.8910   -11.9700 
   59.5000     2.1660    53.6900     0.3120     0.4720     0.7260    25.8850   -11.4990 
   59.6250     2.1950    52.7780     0.3190     0.4720     0.7100    25.8780   -11.0140 
   59.7500     2.2330    53.4850     0.3260     0.4720     0.6940    25.8810   -10.5470 
   59.8750     2.2780    54.5650     0.3350     0.4720     0.6840    25.8770   -10.0940 
   60.0000     2.3220    55.0810     0.3420     0.4730     0.6660    25.8350    -9.6560 
   60.1250     2.3620    55.4380     0.3460     0.4720     0.6610    25.6130    -9.2620 
   60.2500     2.3910    55.8680     0.3440     0.4690     0.6500    25.1590    -8.9450 
   60.3750     2.3990    55.7080     0.3370     0.4630     0.6280    24.6960    -8.7460 
   60.5000     2.3790    54.3240     0.3300     0.4550     0.6070    24.5320    -8.7040 
   60.6250     2.3270    50.5840     0.3330     0.4490     0.6020    24.7500    -8.8120 
   60.7500     2.2580    45.7880     0.3460     0.4440     0.5950    25.1550    -8.9660 
   60.8750     2.1920    43.5120     0.3600     0.4370     0.5890    25.5730    -9.1430 
   61.0000     2.1470    44.9690     0.3650     0.4270     0.5860    25.8400    -9.3200 
   61.1250     2.1350    46.1870     0.3610     0.4140     0.5870    25.9260    -9.4540 
   61.2500     2.1520    45.4460     0.3530     0.4010     0.5950    25.9370    -9.5180 
   61.3750     2.1910    45.1220     0.3300     0.3890     0.6020    25.9290    -9.4910 
   61.5000     2.2510    45.4850     0.2840     0.3740     0.6000    25.9230    -9.3200 
   61.6250     2.3340    45.0200     0.2240     0.3530     0.5820    25.8950    -8.9360 
   61.7500     2.4370    44.9040     0.1780     0.3220     0.5690    25.8140    -8.3470 
   61.8750     2.5500    46.1380     0.1500     0.2720     0.5620    25.6800    -7.5740 
   62.0000     2.6480    47.1910     0.1330     0.2100     0.5580    25.4660    -6.7140 
   62.1250     2.6830    48.1030     0.1360     0.1540     0.5570    25.1230    -5.9390 
   62.2500     2.6420    51.6650     0.1940     0.1660     1.3120    24.8120    -5.3500 
   62.3750     2.5360    58.7880     0.3960     0.3170     2.7300    24.6040    -5.0350 
   62.5000     2.4000    66.7290     0.8750     0.6030     4.2450    24.4710    -5.0600 
   62.6250     2.2890    70.1060     1.8130     0.9760     5.9940    24.4260    -5.4890 
   62.7500     2.2300    68.8580     3.1100     1.4580     6.9460    24.4220    -6.2440 
   62.8750     2.2220    66.1960     4.5890     2.1900     7.3190    24.4440    -7.2830 
   63.0000     2.2390    64.4970     6.0370     3.2570     7.7140    24.4870    -8.5080 
   63.1250     2.2500    63.4580     7.2620     4.6030    11.0310    24.5840    -9.7790 
   63.2500     2.2380    63.4790     8.2590     5.9760    20.8190    24.6660   -10.9530 
   63.3750     2.2040    65.5010     9.0120     7.1390    26.3280    24.6760   -11.9570 
   63.5000     2.1600    67.9540     9.4350     7.8890    15.0090    24.5490   -12.7810 
   63.6250     2.1230    68.4870     9.3900     8.0580     9.2420    24.4510   -13.3990 
   63.7500     2.1000    66.9370     9.0330     7.8390     7.5220    24.4170   -13.8950 
   63.8750     2.0930    64.8660     8.5740     7.4440     7.4550    24.4190   -14.3040 
   64.0000     2.0970    63.3540     8.2140     7.0770     8.2790    24.4160   -14.6240 
   64.1250     2.1100    63.2510     8.0880     6.8810     9.4580    24.4150   -14.8320 
   64.2500     2.1250    65.2190     8.1270     6.8280     9.4560    24.4240   -14.9630 
   64.3750     2.1370    68.6750     8.2450     6.8640     8.1140    24.4250   -15.0160 
   64.5000     2.1460    70.7210     8.3780     6.9390     7.1400    24.4000   -14.9960 
   64.6250     2.1540    69.4880     8.5140     7.0350     6.8400    24.3540   -14.9370 
   64.7500     2.1670    67.3510     8.6680     7.1480     6.9570    24.3360   -14.8320 
   64.8750     2.1840    65.3550     8.8330     7.2710     7.4030    24.3300   -14.6710 
   65.0000     2.1980    64.3610     8.9730     7.3820     7.8050    24.3380   -14.4840 
   65.1250     2.2010    66.9570     9.0210     7.4270     8.0090    24.3680   -14.2700 
   65.2500     2.1960    71.5020     8.9490     7.3750     7.6740    24.4110   -14.0110 
   65.3750     2.1890    74.7600     8.7620     7.2170     7.2040    24.4890   -13.7280 
   65.5000     2.1900    78.5090     8.5010     6.9700     6.5220    24.6170   -13.4400 
   65.6250     2.2050    85.9500     8.2370     6.6780     5.9700    24.7160   -13.1360 
   65.7500     2.2300    90.9410     8.0280     6.4030     5.5830    24.7910   -12.8450 
   65.8750     2.2560    92.6490     7.9050     6.1820     5.3380    24.8330   -12.5760 
   66.0000     2.2760    95.0840     7.8850     6.0400     5.5390    24.8320   -12.3410 
   66.1250     2.2840    97.3310     7.9850     6.0010     5.9330    24.7670   -12.1570 
