~V
VERS. 2.00: Ver 2.00
~W
STRT.M 50.0000:
STOP.M 233.0000:
STEP.M 0.1250:
NULL. -999.2500:
UWI. F10166:
~C
DEPT.M :
SP.MV :
DEN.GM/CC :
GR.API :
RML.OHMM :
RI. :
RXO.OHMM :
CALI.CM :
~A
# ...
  196.2500   -20.3180     2.2810    54.6960     8.6390     7.8130     5.6910    22.9410 
  196.3750   -20.2870     2.2660    53.3000     8.3590     7.5270     5.8540    22.9760 
  196.5000   -20.2710     2.2480    53.0560     8.2990     7.4270     6.1100    23.0400 
  196.6250   -20.2570     2.2370    54.9490     8.4970     7.5470     6.5380    23.0750 
  196.7500   -20.2190     2.2400    55.8540     8.8920     7.8380     6.9660    23.0910 
  196.8750   -20.1710     2.2580    56.8480     9.4420     8.2700     7.3250    23.0930 
  197.0000   -20.0740     2.2820    61.3890    10.0740     8.7870     7.8430    23.0770 
  197.1250   -19.9620     2.3030    67.7480    10.6420     9.2780     8.7670    23.0480 
  197.2500   -19.8300     2.3140    70.0740    10.9950     9.6120     9.5600    23.0280 
  197.3750   -19.6700     2.3160    67.0190    11.0270     9.6860     9.5700    23.0250 
  197.5000   -19.4660     2.3170    60.3050    10.7230     9.4690     8.7130    23.0290 
  197.6250   -19.2360     2.3210    55.9240    10.1560     9.0110     7.6190    23.0280 
  197.7500   -19.0300     2.3290    57.4560     9.5580     8.5030     6.8400    23.0360 
  197.8750   -18.8300     2.3390    63.2970     9.1080     8.0810     6.4770    23.0990 
  198.0000   -18.6610     2.3500    68.6040     8.9270     7.8390     6.3890    23.2520 
  198.1250   -18.5320     2.3600    69.7910     9.0770     7.8390     6.3870    23.4410 
  198.2500   -18.4480     2.3660    69.1840     9.4100     8.0030     6.4050    23.5620 
  198.3750   -18.4570     2.3670    69.1270     9.7870     8.2510     6.5280    23.5950 
  198.5000   -18.5450     2.3670    71.1030    10.0790     8.4920     6.7270    23.5940 
  198.6250   -18.7540     2.3660    75.7410    10.1970     8.6320     6.7510    23.6540 
  198.7500   -19.0580     2.3660    83.3190    10.1950     8.6510     6.7120    23.8120 
  198.8750   -19.4560     2.3640    93.2170    10.1500     8.5730     6.8520    24.0760 
  199.0000   -19.9560     2.3520   101.0970    10.1220     8.4380     7.1950    24.4050 
  199.1250   -20.5080     2.3250   102.2290    10.1140     8.2900     7.5360    24.6920 
  199.2500   -21.0890     2.2890   100.0170    10.0890     8.1560     7.7140    24.8560 
  199.3750   -21.6280     2.2530    97.8750    10.0270     8.0460     7.8090    24.8930 
  199.5000   -22.1020     2.2230    96.5060     9.9580     7.9830     7.8800    24.8550 
  199.6250   -22.4230     2.2110    94.4650    10.0510     8.0570     8.1090    24.7980 
  199.7500   -22.5750     2.2210    92.5150    10.5520     8.3900     8.7190    24.7440 
  199.8750   -22.5570     2.2560    89.9970    11.7700     9.1630     9.7860    24.6890 
  200.0000   -22.3230     2.3090    85.7340    14.0560    10.6120    11.6090    24.6340 
  200.1250   -21.8720     2.3740    80.0220    17.9630    13.1900    15.3160    24.5980 
  200.2500   -21.2990     2.4370    75.5750    23.1070    16.8110    22.0490    24.5880 
  200.3750   -20.6540     2.4910    73.1670    28.3850    20.8930    33.1740    24.5910 
  200.5000   -20.0270     2.5270    71.6230    31.6010    23.8960    47.6420    24.5910 
  200.6250   -19.4660     2.5310    69.2460    29.9060    23.4500    50.4830    24.5870 
  200.7500   -19.0130     2.5050    70.3720    24.8330    20.2850    35.1380    24.5840 
  200.8750   -18.6840     2.4570    77.6400    19.0900    16.2690    19.1760    24.5860 
  201.0000   -18.4650     2.4040    86.9970    14.6830    12.9160    10.9810    24.5940 
  201.1250   -18.3530     2.3660    89.5290    12.4910    10.9770     9.1580    24.5880 
  201.2500   -18.2480     2.3530    86.9750    11.8700    10.1660     9.8580    24.5670 
  201.3750   -18.1090     2.3650    85.1540    12.3420    10.2520    11.3550    24.5390 
  201.5000   -17.8830     2.3970    85.3740    13.3690    10.9250    12.6940    24.5120 
  201.6250   -17.5310     2.4340    83.3460    14.1990    11.6810    13.1310    24.4770 
  201.7500   -17.0810     2.4540    78.3980    14.2400    11.9440    12.4900    24.3750 
  201.8750   -16.5040     2.4490    74.3810    13.3650    11.4830    11.2420    24.1390 
  202.0000   -15.8280     2.4190    74.2660    11.8720    10.4430     9.6900    23.8810 
  202.1250   -15.0560     2.3750    75.8220    10.2760     9.2000     7.8570    23.9180 
  202.2500   -14.2150     2.3340    73.3600     8.9890     8.1250     6.3990    24.2110 
  202.3750   -13.3610     2.3070    67.6140     8.1530     7.3680     5.7770    24.4920 
  202.5000   -12.5170     2.2990    63.1440     7.7510     6.9530     5.8940    24.5800 
  202.6250   -11.7550     2.3110    60.3540     7.6770     6.8400     6.1660    24.5500 
  202.7500   -11.0620     2.3290    58.8130     7.6810     6.8480     6.0870    24.5410 
  202.8750   -10.5030     2.3450    60.3850     7.6180     6.8550     5.7750    24.5230 
  203.0000   -10.1000     2.3560    65.8010     7.4470     6.7960     5.4720    24.4170 
  203.1250    -9.8680     2.3650    72.7540     7.2390     6.6800     5.3330    24.1890 
  203.2500    -9.7940     2.3700    77.7480     7.0950     6.5820     5.3120    24.0020 
  203.3750    -9.8070     2.3720    80.1770     7.0480     6.5430     5.3450    24.0120 
  203.5000    -9.8800     2.3680    80.8280     7.0770     6.5620     5.4200    24.2120 
  203.6250    -9.9630     2.3590    80.9990     7.1260     6.6100     5.5380    24.4220 
  203.7500   -10.0510     2.3480    81.7270     7.1440     6.6370     5.6650    24.5220 
  203.8750   -10.1400     2.3400    82.6270     7.1100     6.6170     5.7070    24.5350 
  204.0000   -10.2170     2.3360    84.7010     7.0260     6.5420     5.5440    24.5290 
  204.1250   -10.3690     2.3360    87.4280     6.9300     6.4350     5.2990    24.5280 
  204.2500   -10.6090     2.3390    89.7070     6.8900     6.3510     5.2700    24.5290 
  204.3750   -10.9700     2.3450    91.5510     6.9570     6.3360     5.4910    24.5100 
  204.5000   -11.4640     2.3510    92.4430     7.1440     6.4180     5.7730    24.4150 
  204.6250   -12.0400     2.3480    92.2330     7.4290     6.6020     5.9980    24.2350 
  204.7500   -12.6600     2.3330    91.0930     7.7400     6.8300     6.2910    24.1100 
  204.8750   -13.2430     2.3090    90.3110     8.0320     7.0530     6.6230    24.1630 
  205.0000   -13.7370     2.2830    89.9600     8.2810     7.2310     6.8160    24.3720 
  205.1250   -14.1040     2.2690    87.9400     8.4950     7.3520     6.9400    24.5810 
  205.2500   -14.3370     2.2650    85.3120     8.7280     7.4610     7.2410    24.6880 
  205.3750   -14.4910     2.2660    83.1580     9.0050     7.5990     7.5920    24.7150 
  205.5000   -14.5900     2.2670    82.5940     9.3230     7.7880     7.8270    24.7160 
  205.6250   -14.7120     2.2670    82.4230     9.7080     8.0580     8.6110    24.7160 
  205.7500   -14.8770     2.2700    82.5380    10.2260     8.4440     9.9510    24.7140 
  205.8750   -15.1110     2.2760    83.6980    10.9960     9.0120    10.7640    24.7130 
  206.0000   -15.4450     2.2810    83.6720    12.1720     9.8580    10.7840    24.7160 
  206.1250   -15.8380     2.2770    81.7550    14.0610    11.2010    12.2020    24.7210 
  206.2500   -16.2820     2.2670    79.7240    16.6940    13.1180    16.0510    24.7220 
  206.3750   -16.7440     2.2570    78.9940    19.9730    15.6360    21.0010    24.7170 
  206.5000   -17.2000     2.2490    79.5180    23.4890    18.5660    24.6410    24.7150 
  206.6250   -17.6610     2.2390    80.1520    26.2690    21.2430    26.1610    24.7150 
  206.7500   -18.0790     2.2250    79.7450    27.5790    22.9040    26.6380    24.7020 
  206.8750   -18.4390     2.2100    78.0230    27.3400    23.2690    26.2280    24.6760 
  207.0000   -18.7350     2.1960    74.8800    26.1920    22.6940    24.5320    24.6520 
  207.1250   -18.9580     2.1890    72.2420    25.1140    21.8810    22.1770    24.6460 
  207.2500   -19.1510     2.1930    72.8640    24.7420    21.4510    21.3420    24.6470 
  207.3750   -19.3350     2.2030    77.3650    25.2970    21.6970    22.5830    24.6470 
