~V
VERS. 2.00: Ver 2.00
~W
STRT.M 63.0000:
STOP.M 308.0000:
STEP.M 0.1250:
NULL. -999.2500:
UWI. F10102:
~C
DEPT.M :
DEN.GM/CC :
SP.MV :
GR.API :
RML.OHMM :
RI. :
RXO.OHMM :
CALI.CM :
~A
# ...
  299.2500     2.5240    -1.1360    49.2520    10.9400     9.9250    13.2850    24.2530 
  299.3750     2.5230    -1.2650    49.2520    10.7960     9.9000    11.4810    24.0640 
  299.5000     2.5270    -1.3580    49.2520    10.4820     9.6510     9.2560    23.9010 
  299.6250     2.5330    -1.3480    49.2520    10.0930     9.2700     7.8670    23.8560 
  299.7500     2.5350    -1.2590    49.2520     9.7350     8.8800     7.4370    23.9250 
  299.8750     2.5290    -1.0480    49.2520     9.5230     8.6230     7.4410    24.0090 
  300.0000     2.5190    -0.7530    49.2520     9.2430     8.2570     7.4600    24.2270 
  300.1250     2.5080    -0.4450    49.2520     9.0780     8.0590     7.1910    24.3410 
  300.2500     2.5000    -0.0940    49.2520     8.8860     7.8420     6.6050    24.3720 
  300.3750     2.5000     0.3560    49.2520     8.7040     7.6190     6.3430    24.4110 
  300.5000     2.5090     0.7780    49.2520     8.6140     7.4560     6.5020    24.4180 
  300.6250     2.5250     1.0670    49.2520     8.7590     7.4800     6.8810    24.2340 
  300.7500     2.5500     1.2870    49.2520     9.1720     7.7480     7.4440    23.8390 
  300.8750     2.5820     1.4470    49.2520     9.8230     8.2780     9.0110    23.6010 
  301.0000     2.6130     1.5460    49.2520    10.5880     9.0060    12.6580    23.6850 
  301.1250     2.6340     1.5520    49.2520    11.1960     9.7290    15.9520    24.0370 
  301.2500     2.6340     1.5340    49.2520    11.4250    10.1510    14.0530    24.2920 
  301.3750     2.6050     1.5430    49.2520    11.1820    10.0880    11.0230    24.4020 
  301.5000     2.5620     1.5270    49.2520    10.5500     9.5640     8.5730    24.4410 
  301.6250     2.5190     1.4810    49.2520     9.7560     8.7950     7.3120    24.4670 
  301.7500     2.4820     1.4350    49.2520     9.0810     8.0880     6.8190    24.4730 
  301.8750     2.4550     1.4260    49.2520     8.6520     7.5840     6.7040    24.4910 
  302.0000     2.4360     1.4780    49.2520     8.4890     7.3280     6.4740    24.4890 
  302.1250     2.4250     1.5640    49.2520     8.5550     7.3150     6.6300    24.4940 
  302.2500     2.4250     1.6230    49.2520     8.7150     7.4240     7.0510    24.5280 
  302.3750     2.4370     1.5840    49.2520     8.8920     7.5710     7.2510    24.5290 
  302.5000     2.4540     1.4900    49.2520     9.0340     7.6900     7.0100    24.4650 
  302.6250     2.4720     1.4090    49.2520     9.1050     7.7500     6.8050    24.4180 
  302.7500     2.4920     1.4040    49.2520     9.1210     7.7770     6.8120    24.3790 
  302.8750     2.5160     1.3490    49.2520     9.1000     7.8020     6.8100    24.3740 
  303.0000     2.5380     1.1880    49.2520     9.0650     7.8370     6.5920    24.3620 
  303.1250     2.5460     1.0100    49.2520     9.0360     7.8730     6.3340    24.3570 
  303.2500     2.5320     0.9110    49.2520     9.0190     7.8960     6.0860    24.4390 
  303.3750     2.4890     0.8590    49.2520     9.0120     7.9030     5.8350    24.7450 
  303.5000     2.4340     0.8120    49.2520     9.0100     7.9020     5.6330    25.2320 
  303.6250     2.3850     0.8170    49.2520     9.0100     7.9020     5.4590    25.5020 
  303.7500     2.3560     0.8000    49.2520     9.0100     7.9020     5.3150    25.4400 
  303.8750     2.3520     0.7780    49.2520     9.0100     7.9020     5.0800    25.1720 
  304.0000     2.3610     0.8250    49.2520     9.0100     7.9020     4.7100    24.7210 
  304.1250     2.3720     0.9630    49.2520     9.0100     7.9020     4.4330    24.2560 
  304.2500     2.3870     1.0310    49.2520     9.0100     7.9020     4.2900    24.0450 
  304.3750     2.4120     0.9830    49.2520     9.0100     7.9020     4.2770    24.0580 
  304.5000     2.4500     0.9290    49.2520     9.0100     7.9020     4.6310    24.1390 
  304.6250     2.4890     0.6430    49.2520     9.0100     7.9020     5.5690    24.1080 
  304.7500     2.5140     0.2050    49.2520     9.0100     7.9020     6.3390    24.0590 
  304.8750     2.5070    -0.2090    49.2520     9.0100     7.9020     6.7760    24.0760 
  305.0000     2.4800    -0.6300    49.2520     9.0100     7.9020     7.5300    24.1750 
  305.1250     2.4550    -1.1030    49.2520     9.0100     7.9020     9.9590    24.2660 
  305.2500     2.4480    -1.5390    49.2520     9.0100     7.9020    15.8480    24.3120 
  305.3750     2.4690    -1.8920    49.2520     9.0100     7.9020    22.3480    24.3120 
  305.5000     2.4940    -2.2450    49.2520     9.0100     7.9020    20.0310    24.2640 
  305.6250     2.5020    -2.2450    49.2520     9.0100     7.9020    12.2870    24.2730 
  305.7500     2.4870  -999.2500    49.2520     9.0100     7.9020     9.1660    24.4150 
  305.8750     2.4600  -999.2500    49.2520     9.0100     7.9020     8.4170    24.6900 
  306.0000     2.4480  -999.2500    49.2520     9.0100     7.9020     8.3330    24.8770 
  306.1250     2.4590  -999.2500    49.2520     9.0100     7.9020     8.0800    24.7910 
  306.2500     2.4900  -999.2500    49.2520     9.0100     7.9020     8.1890    24.4960 
  306.3750     2.5220  -999.2500    49.2520     9.0100     7.9020     9.1120    24.1870 
  306.5000     2.5430  -999.2500    49.2520     9.0100     7.9020     9.2100    23.9970 
  306.6250     2.5490  -999.2500    49.2520     9.0100     7.9020     8.0560    23.9250 
  306.7500     2.5430  -999.2500    49.2520     9.0100     7.9020     6.7410    23.8090 
  306.8750     2.5330  -999.2500    49.2520     9.0100     7.9020     6.0130    23.5830 
  307.0000     2.5240  -999.2500    49.2520     9.0100     7.9020     5.9890    23.2860 
  307.1250     2.5120  -999.2500    49.2520     9.0100     7.9020     6.0770    23.1130 
  307.2500     2.4850  -999.2500    49.2520     9.0100     7.9020     6.1330    22.9040 
  307.3750     2.4290  -999.2500    49.2520     9.0100     7.9020     5.8490    22.1120 
  307.5000     2.3490  -999.2500    49.2520     9.0100     7.9020     5.2240    19.8330 
  307.6250     2.2630  -999.2500    49.2520     9.0100     7.9020     4.7250    16.2420 
  307.7500     2.1910  -999.2500    49.2520     9.0100     7.9020     4.5220    13.5930 
  307.8750     2.1560  -999.2500    49.2520     9.0100     7.9020     4.4830    12.6550 
  308.0000     2.0180  -999.2500    49.2520     9.0100     7.9020     4.4820    12.5530 
