~V
VERS. 2.00: Ver 2.00
~W
STRT.M 52.0000:
STOP.M 224.0000:
STEP.M 0.1250:
NULL. -999.2500:
UWI. F10155:
~C
DEPT.M :
SP.MV :
GR.API :
RML.OHMM :
RI. :
RXO.OHMM :
CALI.CM :
DEN.GM/CC :
~A
# ...
  130.7500   -13.4450    76.7380    16.4660    16.8380    25.2520    24.8410     2.2330 
  130.8750   -13.7730    74.8540    19.0010    19.3860    27.3200    24.9000     2.2560 
  131.0000   -14.0770    74.6970    21.1870    21.5670    29.6430    24.7500     2.3160 
  131.1250   -14.3070    74.5640    23.1810    23.5920    30.6910    24.5270     2.3830 
  131.2500   -14.4490    72.8540    25.0680    25.3760    31.4320    24.3460     2.4350 
  131.3750   -14.5180    69.8640    26.7090    26.5060    32.1510    24.2240     2.4620 
  131.5000   -14.4720    65.6040    27.5150    26.2230    32.4440    24.1830     2.4680 
  131.6250   -14.3530    61.2960    27.1540    24.6110    32.5600    24.2700     2.4710 
  131.7500   -14.1660    58.1910    25.6090    22.1780    31.9440    24.4220     2.4810 
  131.8750   -13.9250    57.0140    23.3040    19.6830    30.3560    24.5430     2.4990 
  132.0000   -13.6450    56.8440    20.9780    17.8080    27.5680    24.6450     2.5170 
  132.1250   -13.3280    58.1790    19.2050    16.6600    24.6250    24.7010     2.5300 
  132.2500   -12.9970    63.6370    18.1500    16.1860    21.0270    24.7170     2.5350 
  132.3750   -12.6460    70.6330    17.7490    16.2430    17.2950    24.6130     2.5310 
  132.5000   -12.3450    73.0910    17.9410    16.6850    16.4840    24.2850     2.5230 
  132.6250   -12.1060    70.7830    18.4210    17.2630    15.4120    23.6960     2.5150 
  132.7500   -11.9210    67.3150    18.8970    17.8130    14.5740    23.0170     2.5090 
  132.8750   -11.8020    67.9940    19.0730    18.1400    14.4970    22.4580     2.5040 
  133.0000   -11.7500    72.0620    18.7030    17.9680    15.0040    22.4100     2.4970 
  133.1250   -11.7100    73.8230    17.9200    17.3250    15.3510    22.6230     2.4870 
  133.2500   -11.6410    72.5880    16.9110    16.3810    14.9860    22.9010     2.4770 
  133.3750   -11.5590    70.9790    15.9430    15.4180    13.9770    22.9700     2.4720 
  133.5000   -11.4790    69.1610    15.3490    14.7570    13.4100    22.8940     2.4750 
  133.6250   -11.3740    64.4070    15.1870    14.4870    13.7080    22.8550     2.4800 
  133.7500   -11.2540    59.9240    15.3920    14.5800    14.2790    22.8580     2.4810 
  133.8750   -11.0970    59.2710    15.7990    14.9170    14.4810    22.8430     2.4750 
  134.0000   -10.8780    60.5370    16.1940    15.3160    13.7410    22.4790     2.4660 
  134.1250   -10.6390    61.4180    16.4170    15.5910    12.9800    22.1510     2.4610 
  134.2500   -10.4250    63.7290    16.4040    15.6470    12.4760    22.1310     2.4570 
  134.3750   -10.2530    68.5640    16.1380    15.4500    12.3110    22.4070     2.4440 
  134.5000   -10.1120    71.5360    15.5980    14.9690    12.3860    22.7040     2.4090 
  134.6250   -10.0060    71.1930    14.8780    14.2840    12.2320    22.7990     2.3590 
  134.7500    -9.9200    68.4640    14.0820    13.4860    11.5860    22.7490     2.3100 
  134.8750    -9.8450    65.1490    13.3650    12.7260    10.8220    22.6030     2.2750 
  135.0000    -9.7720    62.0380    12.9600    12.2190    10.5100    22.4160     2.2600 
  135.1250    -9.7130    59.1370    12.9540    12.0520    10.6050    22.2770     2.2540 
  135.2500    -9.6580    57.5830    13.3760    12.2760    10.8860    22.1830     2.2480 
  135.3750    -9.6070    58.1990    14.1590    12.8670    11.3410    22.1550     2.2400 
  135.5000    -9.5780    60.5520    15.1470    13.7310    11.9680    22.1910     2.2380 
  135.6250    -9.5710    62.9290    16.0830    14.6150    12.6190    22.2410     2.2420 
  135.7500    -9.5990    63.3970    16.8020    15.3340    13.1920    22.1830     2.2500 
  135.8750    -9.6730    62.7910    17.2280    15.7760    13.3810    21.9370     2.2580 
  136.0000    -9.7850    63.1260    17.3570    15.9010    12.6640    21.6890     2.2690 
  136.1250    -9.9270    63.2810    17.3490    15.8630    11.7240    21.4350     2.2910 
  136.2500   -10.0980    63.6290    17.3110    15.7700    10.9980    21.2780     2.3270 
  136.3750   -10.2800    64.8470    17.3070    15.6890    10.5730    21.1730     2.3680 
  136.5000   -10.4400    67.4580    17.3600    15.6510    10.4200    20.9820     2.3900 
  136.6250   -10.5630    67.7200    17.4580    15.6470    10.8480    20.9370     2.3810 
  136.7500   -10.6370    64.3450    17.6040    15.6830    11.8240    21.2690     2.3450 
  136.8750   -10.6620    61.2930    17.8110    15.7770    13.1380    21.9360     2.3020 
  137.0000   -10.6690    61.2300    18.0810    15.9510    15.1200    22.8950     2.2760 
  137.1250   -10.6590    61.6880    18.3440    16.1550    16.7600    23.9100     2.2770 
  137.2500   -10.6090    61.7080    18.5130    16.3200    17.6650    24.5910     2.3000 
  137.3750   -10.5100    64.1170    18.5130    16.3670    18.3640    24.8100     2.3380 
  137.5000   -10.3650    68.4270    18.2990    16.2330    18.1240    24.8170     2.3810 
  137.6250   -10.2010    69.3350    17.9760    15.9850    17.2770    24.8060     2.4190 
  137.7500   -10.0310    66.5350    17.6450    15.7090    16.6590    24.8400     2.4490 
  137.8750    -9.8510    62.6520    17.4010    15.4850    16.6360    24.8250     2.4700 
  138.0000    -9.6780    59.2990    17.3150    15.3820    16.6580    24.7820     2.4820 
  138.1250    -9.5050    55.9740    17.3550    15.3910    16.8110    24.8150     2.4880 
  138.2500    -9.3570    54.0050    17.4790    15.4840    17.2290    24.8610     2.4910 
  138.3750    -9.2650    53.6240    17.6350    15.6180    17.6550    24.8370     2.4910 
  138.5000    -9.2200    54.4280    17.7720    15.7550    17.9010    24.8210     2.4940 
  138.6250    -9.2050    56.2880    17.8570    15.8610    17.4630    24.8670     2.5010 
  138.7500    -9.2250    57.7430    17.8710    15.9130    17.0630    24.9230     2.5120 
  138.8750    -9.2650    55.9770    17.8110    15.9030    17.0690    24.9460     2.5190 
  139.0000    -9.2790    52.5930    17.6990    15.8370    17.2780    24.9090     2.5160 
  139.1250    -9.2940    53.0860    17.6000    15.7660    17.5190    24.8650     2.5040 
  139.2500    -9.3340    55.8740    17.5740    15.7430    17.4590    24.8720     2.4920 
  139.3750    -9.3900    56.9510    17.6600    15.8050    17.5530    24.9130     2.4870 
  139.5000    -9.4380    56.2740    17.8650    15.9700    17.6010    24.9260     2.4910 
  139.6250    -9.4690    55.9510    18.1060    16.1810    17.5680    24.9310     2.4980 
  139.7500    -9.4610    55.7590    18.3010    16.3680    17.2960    24.9440     2.5000 
  139.8750    -9.4100    55.0930    18.3710    16.4570    17.4030    24.9540     2.4930 
  140.0000    -9.3220    55.4030    18.2430    16.3710    17.6160    24.9540     2.4780 
  140.1250    -9.2120    57.6890    17.9600    16.1390    17.3880    24.9340     2.4660 
  140.2500    -9.0720    61.3930    17.5790    15.8080    17.2010    24.8660     2.4630 
  140.3750    -8.8820    65.4500    17.1870    15.4510    16.8600    24.7450     2.4740 
  140.5000    -8.6860    66.7700    16.9210    15.1850    16.4820    24.7310     2.4970 
  140.6250    -8.5030    65.5550    16.8630    15.0950    15.9830    24.7630     2.5240 
  140.7500    -8.3550    63.6320    17.0540    15.2300    15.6520    24.7820     2.5450 
  140.8750    -8.2690    61.5300    17.4670    15.5870    15.6700    24.7700     2.5570 
  141.0000    -8.2430    59.9380    18.0020    16.1110    16.4930    24.7220     2.5580 
  141.1250    -8.2490    59.5680    18.4810    16.6390    17.2680    24.6120     2.5540 
  141.2500    -8.2860    59.2550    18.7930    17.0500    18.0300    24.5070     2.5470 
  141.3750    -8.3750    56.9300    18.8960    17.2850    18.6180    24.4860     2.5380 
  141.5000    -8.4970    53.5950    18.7940    17.3400    18.4310    24.4920     2.5280 
  141.6250    -8.5960    53.1900    18.5710    17.2910    17.6650    24.4670     2.5180 
  141.7500    -8.6450    55.5040    18.2470    17.1620    17.3210    24.3660     2.5110 
  141.8750    -8.6520    55.9020    17.8100    16.9410    17.8600    24.1840     2.5110 
