~V
VERS. 2.00: Ver 2.00
~W
STRT.M 50.0000:
STOP.M 230.0000:
STEP.M 0.1250:
NULL. -999.2500:
UWI. F10167:
~C
DEPT.M :
DEN.GM/CC :
GR.API :
RML.OHMM :
RI. :
RXO.OHMM :
CALI.CM :
SP.MV :
~A
# ...
  140.0000     2.4980    86.3450    29.3970    25.7260    33.8660    25.1090    -0.3340 
  140.1250     2.4930    86.7020    26.4920    23.4820    29.1700    25.0420    -0.3320 
  140.2500     2.4820    85.3140    23.1390    20.7010    23.1150    24.9960    -0.2540 
  140.3750     2.4740    80.7320    20.0880    18.0170    17.5290    24.9550    -0.2040 
  140.5000     2.4740    73.5640    17.8280    15.8860    14.2760    24.8900    -0.1800 
  140.6250     2.4830    68.4220    16.6730    14.6340    13.3940    24.7810    -0.0960 
  140.7500     2.4950    68.4940    16.3390    14.1110    13.3730    24.7540    -0.0530 
  140.8750     2.5050    70.4310    16.5680    14.1750    13.4440    24.8420    -0.0470 
  141.0000     2.5130    71.8670    17.0000    14.5770    13.9900    24.8500     0.0180 
  141.1250     2.5190    74.6230    17.0680    14.8490    15.0720    24.7160     0.0720 
  141.2500     2.5220    76.8000    16.3620    14.5150    16.7650    24.5730     0.0570 
  141.3750     2.5190    75.7110    14.7520    13.3470    16.8370    24.4650     0.0930 
  141.5000     2.5040    73.2960    12.4730    11.4760    13.7190    24.4190     0.1780 
  141.6250     2.4710    73.7820    10.0820     9.3610     8.8330    24.4810     0.1880 
  141.7500     2.4270    74.6810     8.1230     7.5280     5.9370    24.5770     0.1820 
  141.8750     2.3790    74.7140     6.7980     6.1870     4.8370    24.6320     0.1760 
  142.0000     2.3360    76.7710     6.0760     5.3570     4.6990    24.5200     0.0900 
  142.1250     2.3080    81.0710     5.8500     4.9980     5.0710    24.3050    -0.0060 
  142.2500     2.2960    83.4610     5.8450     4.8970     5.1890    24.0890    -0.0490 
  142.3750     2.2980    83.1250     5.9210     4.9380     5.1800    23.9800    -0.1530 
  142.5000     2.3060    82.2120     5.9840     5.0220     5.0970    23.9290    -0.3340 
  142.6250     2.3110    82.7770     5.9860     5.0800     4.9980    23.8540    -0.4720 
  142.7500     2.3090    85.7620     5.9470     5.0970     4.9570    23.7290    -0.6060 
  142.8750     2.2980    88.5190     5.8940     5.0790     4.9660    23.5770    -0.7550 
  143.0000     2.2830    88.0030     5.8480     5.0420     4.9850    23.4130    -0.8340 
  143.1250     2.2720    85.6330     5.8210     4.9960     5.0400    23.3320    -0.8970 
  143.2500     2.2670    84.6090     5.8160     4.9490     5.1120    23.3590    -1.0330 
  143.3750     2.2670    84.8620     5.8420     4.9150     5.1680    23.4900    -1.1270 
  143.5000     2.2710    85.3550     5.9120     4.9100     5.1860    23.6510    -1.1440 
  143.6250     2.2720    87.8780     6.0510     4.9610     5.2260    23.7610    -1.2180 
  143.7500     2.2680    89.8980     6.2470     5.0650     5.3710    23.8180    -1.2700 
  143.8750     2.2620    89.2350     6.4780     5.2120     5.6870    23.8370    -1.2560 
  144.0000     2.2560    87.4250     6.7120     5.3780     6.0930    23.8320    -1.3010 
  144.1250     2.2580    86.2100     6.9090     5.5340     6.3010    23.8450    -1.4150 
  144.2500     2.2660    84.2330     7.0600     5.6640     6.2820    23.8510    -1.4470 
  144.3750     2.2780    80.5790     7.1770     5.7730     6.2010    23.8540    -1.4590 
  144.5000     2.2900    78.1820     7.2790     5.8720     6.3290    23.8520    -1.5350 
  144.6250     2.2970    79.8070     7.3730     5.9710     6.5990    23.8390    -1.5620 
  144.7500     2.2980    81.5250     7.4460     6.0590     6.8450    23.8120    -1.5470 
  144.8750     2.2930    80.1560     7.4750     6.1160     6.9250    23.7950    -1.5610 
  145.0000     2.2840    76.5920     7.4420     6.1200     6.8190    23.8030    -1.5150 
  145.1250     2.2710    77.2050     7.3550     6.0650     6.6150    23.8360    -1.3320 
  145.2500     2.2600    82.5530     7.2740     5.9910     6.3720    23.8510    -1.1740 
  145.3750     2.2530    87.8270     7.2530     5.9440     6.1730    23.8540    -1.0270 
  145.5000     2.2520    89.5540     7.3350     5.9690     6.1270    23.8540    -0.8030 
  145.6250     2.2540    87.5040     7.5540     6.1090     6.3570    23.8540    -0.6090 
  145.7500     2.2570    85.4800     7.8610     6.3400     6.7270    23.8540    -0.4620 
  145.8750     2.2560    85.4380     8.2070     6.6280     7.0860    23.8540    -0.2870 
  146.0000     2.2510    86.7060     8.5350     6.9220     7.3630    23.8620    -0.1350 
  146.1250     2.2420    87.0310     8.7930     7.1610     7.6640    23.8890    -0.1380 
  146.2500     2.2330    85.8640     9.0150     7.3390     7.7670    23.9340    -0.1690 
  146.3750     2.2270    85.8960     9.2840     7.5030     7.7640    23.9710    -0.2050 
  146.5000     2.2280    87.5520     9.7130     7.7410     8.0090    23.9960    -0.3370 
  146.6250     2.2460    86.4420    10.4110     8.1760     8.3290    24.0420    -0.4510 
  146.7500     2.2810    81.6510    11.2880     8.7980     8.5240    24.1540    -0.4660 
  146.8750     2.3270    77.1450    12.1850     9.5290     9.8390    24.3280    -0.4870 
  147.0000     2.3670    75.6640    12.9320    10.2380    13.6760    24.4850    -0.5130 
  147.1250     2.3800    75.7650    13.4460    10.8040    15.8940    24.6150    -0.4050 
  147.2500     2.3620    73.3040    13.9770    11.3200    14.7920    24.8010    -0.2680 
  147.3750     2.3240    68.8180    14.9090    12.0230    12.4550    24.9860    -0.1790 
  147.5000     2.2830    64.8080    16.6510    13.2520    13.0310    25.1090    -0.0300 
  147.6250     2.2530    65.2730    19.6140    15.5200    17.6560    25.1410     0.1550 
  147.7500     2.2340    69.4000    23.3490    18.7520    24.9630    25.1140     0.2060 
  147.8750     2.2180    72.3500    27.0130    22.4490    28.7480    25.0710     0.2140 
  148.0000     2.2010    70.7240    29.3920    25.5390    30.2110    25.0490     0.2700 
  148.1250     2.1860    67.2100    29.0210    26.3730    32.4510    25.0490     0.2400 
  148.2500     2.1800    66.0940    26.3070    24.8100    32.1630    25.0660     0.2170 
  148.3750     2.1870    68.0530    22.2130    21.5150    24.9920    25.0870     0.2600 
  148.5000     2.2090    71.2120    17.9310    17.6220    18.1230    25.0640     0.2650 
  148.6250     2.2400    74.5770    14.5100    14.2300    14.0590    24.9410     0.2400 
  148.7500     2.2680    77.2940    12.1730    11.7220    11.4710    24.8750     0.2880 
  148.8750     2.2840    79.5790    10.9320    10.1520     9.6360    24.8760     0.3170 
  149.0000     2.2870    80.6110    10.7140     9.4700     8.8570    24.8940     0.2790 
  149.1250     2.2770    77.9400    11.5760     9.7480     9.4560    24.9120     0.2730 
  149.2500     2.2630    73.1560    13.2630    10.8050    11.3100    24.9410     0.1970 
  149.3750     2.2500    69.4880    15.6650    12.6050    14.1800    24.9750     0.0540 
  149.5000     2.2400    67.5570    18.6140    15.0570    17.8350    25.0090    -0.0310 
  149.6250     2.2330    65.8610    21.8950    18.0120    21.6770    25.0570    -0.1420 
  149.7500     2.2240    64.8960    25.2070    21.1070    22.2690    25.0900    -0.3600 
  149.8750     2.2130    66.6510    28.4240    24.1340    21.1810    25.0920    -0.5510 
  150.0000     2.2000    70.9100    31.5220    26.9970    27.0470    25.0870    -0.6960 
  150.1250     2.1880    73.3180    34.4750    29.6550    30.3520    25.0730    -0.9120 
  150.2500     2.1810    71.1140    37.1710    32.0780    33.0150    25.0910    -1.1020 
  150.3750     2.1800    66.0450    39.3170    34.0740    36.3120    25.1120    -1.2350 
  150.5000     2.1850    60.2350    40.5620    35.3620    38.3380    25.1030    -1.4060 
  150.6250     2.1940    56.7490    40.5070    35.5830    37.8670    25.0270    -1.5940 
  150.7500     2.2040    56.2850    39.4940    34.9720    36.8000    24.9870    -1.6810 
  150.8750     2.2120    57.6580    37.8740    33.8090    35.8780    24.9540    -1.7490 
  151.0000     2.2180    60.9830    35.9510    32.3660    33.1210    24.8980    -1.8550 
  151.1250     2.2200    63.7740    33.7580    30.7090    30.6710    24.8550    -1.8200 
