~V
VERS. 2.00: Ver 2.00
~W
STRT.M 64.0000:
STOP.M 235.0000:
STEP.M 0.1250:
NULL. -999.2500:
UWI. F10178:
~C
DEPT.M :
GR.API :
RML.OHMM :
RI. :
RXO.OHMM :
CALI.CM :
DEN.GM/CC :
SP.MV :
~A
# ...
  176.5000    50.5370     3.6410     3.5730     4.0100    24.5680     2.4160    -2.0500 
  176.6250    52.2710     3.4880     3.3680     3.5630    24.6160     2.3830    -1.7360 
  176.7500    53.4050     3.6090     3.4040     4.1100    24.6610     2.3840    -1.5090 
  176.8750    51.5100     4.0480     3.7220     5.0660    24.7550     2.3990    -1.3490 
  177.0000    48.3350     4.7970     4.3450     5.6490    24.8780     2.4080    -1.2240 
  177.1250    50.0800     5.7660     5.2650     5.9820    24.8420     2.4120    -1.0890 
  177.2500    56.3220     6.6820     6.2370     6.9740    24.6680     2.4260    -0.8650 
  177.3750    62.1200     7.3050     6.9640     8.4380    24.4780     2.4570    -0.5970 
  177.5000    65.3220     7.4760     7.2000     9.4500    24.3230     2.4940    -0.3840 
  177.6250    66.1620     7.1500     6.8660     8.5910    24.4190     2.5120    -0.2270 
  177.7500    64.5220     6.6010     6.2820     6.5650    24.6280     2.5010    -0.0320 
  177.8750    61.1640     6.0510     5.6870     5.2900    24.6880     2.4680     0.1830 
  178.0000    58.5700     5.6670     5.2460     4.8340    24.6220     2.4300     0.3340 
  178.1250    57.3760     5.5590     5.0620     4.8460    24.5500     2.4070     0.4200 
  178.2500    57.5660     5.6520     5.0730     5.0520    24.5380     2.4010     0.4170 
  178.3750    59.9170     5.8630     5.2080     5.4850    24.5100     2.4010     0.2500 
  178.5000    61.3690     6.1040     5.3840     5.7930    24.4560     2.3970    -0.0510 
  178.6250    57.1800     6.2960     5.5290     5.7530    24.4310     2.3860    -0.4220 
  178.7500    50.8870     6.4180     5.6190     5.2510    24.4870     2.3780    -0.7880 
  178.8750    46.9930     6.4720     5.6510     5.1750    24.6120     2.3810    -1.0570 
  179.0000    47.9080     6.4690     5.6320     5.4160    24.6990     2.3960    -1.2110 
  179.1250    51.1610     6.4160     5.5660     5.5210    24.7870     2.4070    -1.3790 
  179.2500    52.7570     6.3290     5.4660     5.3460    24.9100     2.4020    -1.6180 
  179.3750    50.2670     6.2180     5.3380     5.0610    24.9900     2.3820    -1.8180 
  179.5000    45.7700     6.1030     5.1980     4.9240    24.9850     2.3580    -1.8900 
  179.6250    44.0550     6.0270     5.0820     5.1050    25.0010     2.3470    -1.7810 
  179.7500    45.2620     6.0260     5.0250     5.3650    25.0330     2.3520    -1.6080 
  179.8750    47.5840     6.1290     5.0500     5.4520    25.0970     2.3670    -1.5600 
  180.0000    48.8790     6.3420     5.1690     5.4670    25.1490     2.3830    -1.6790 
  180.1250    49.9500     6.6570     5.3800     5.9850    25.1250     2.3960    -1.9210 
  180.2500    52.6870     7.0020     5.6290     6.4090    25.0730     2.4070    -2.2170 
  180.3750    56.1530     7.3150     5.8670     6.6380    25.0480     2.4170    -2.5850 
  180.5000    57.1580     7.5430     6.0450     6.8890    25.0390     2.4300    -3.0500 
  180.6250    55.6380     7.6340     6.1140     7.0140    25.0380     2.4480    -3.6700 
  180.7500    55.9460     7.6190     6.0920     7.0200    25.0650     2.4660    -4.4050 
  180.8750    57.1580     7.5370     6.0090     6.7760    25.1850     2.4750    -5.0830 
  181.0000    56.2240     7.4440     5.9090     6.4800    25.4240     2.4620    -5.6070 
  181.1250    55.1590     7.4040     5.8440     6.0380    25.6310     2.4210    -5.9560 
  181.2500    58.8280     7.4410     5.8360     5.4810    25.6580     2.3640    -6.1970 
  181.3750    65.4370     7.5600     5.8930     5.4700    25.6870     2.3040    -6.3360 
  181.5000    69.8600     7.7420     6.0100     6.1790    25.8920     2.2580    -6.4020 
  181.6250    73.8220     7.9680     6.1750     6.4660    26.1140     2.2450    -6.4260 
  181.7500    80.7140     8.2110     6.3630     6.6030    26.0650     2.2660    -6.4370 
  181.8750    86.5710     8.4570     6.5620     7.0520    25.6340     2.3160    -6.4340 
  182.0000    87.5870     8.6930     6.7560     7.5120    25.2820     2.3780    -6.4020 
  182.1250    85.3250     8.8990     6.9220     7.7420    25.1940     2.4280    -6.2130 
  182.2500    84.5180     9.0670     7.0540     8.0200    25.3230     2.4570    -6.0850 
  182.3750    85.2470     9.1860     7.1470     8.2450    25.4400     2.4700    -6.1050 
  182.5000    87.0670     9.2410     7.1890     8.3490    25.4460     2.4750    -6.3060 
  182.6250    91.0230     9.2040     7.1570     8.4030    25.5510     2.4700    -6.7060 
  182.7500    94.3090     9.0880     7.0600     8.5650    25.8010     2.4470    -7.2190 
  182.8750    95.2050     8.9190     6.9120     8.3240    26.0480     2.4090    -7.8420 
  183.0000    91.9090     8.7460     6.7450     7.5900    26.3210     2.3670    -8.5810 
  183.1250    87.3960     8.6510     6.6150     6.5150    26.3600     2.3410    -9.6690 
  183.2500    85.2300     8.6740     6.5660     6.5260    26.3230     2.3330   -10.9490 
  183.3750    85.4430     8.8180     6.6130     7.1100    26.3370     2.3360   -12.2960 
  183.5000    86.2550     9.0400     6.7440     7.7250    26.3530     2.3400   -13.5540 
  183.6250    88.1750     9.2380     6.9120     8.4060    26.1240     2.3410   -14.5570 
  183.7500    93.4230     9.3190     7.0370     8.7350    25.7710     2.3450   -15.3350 
  183.8750    99.4890     9.2560     7.0750     8.5310    25.4040     2.3580   -15.9410 
  184.0000   101.3990     9.1050     7.0370     8.2090    25.2390     2.3790   -16.4380 
  184.1250    99.0430     9.0130     7.0090     8.3050    25.2280     2.3890   -16.6840 
  184.2500    97.7560     9.1010     7.0910     8.2890    25.2500     2.3690   -16.5180 
  184.3750    98.8480     9.3950     7.3300     7.9480    25.3840     2.3120   -15.9520 
  184.5000    99.5780     9.8050     7.6940     7.2170    25.8120     2.2260   -15.1370 
  184.6250    97.0650    10.1110     8.0370     6.7870    26.4350     2.1440   -14.2200 
  184.7500    90.2630    10.1260     8.1790     6.8780    26.8070     2.0960   -13.2210 
  184.8750    80.2680     9.7730     8.0150     7.0480    26.7960     2.0950   -12.1100 
  185.0000    72.0590     9.1140     7.5630     6.6560    26.6930     2.1330   -10.9130 
  185.1250    70.4700     8.3110     6.9460     6.3680    26.6750     2.1880    -9.7460 
  185.2500    69.7060     7.5780     6.3530     6.5120    26.8330     2.2370    -8.7440 
  185.3750    66.1480     7.0140     5.8750     6.5590    26.7970     2.2720    -7.9210 
  185.5000    59.2940     6.6460     5.5470     6.2250    26.7660     2.2960    -7.2610 
  185.6250    54.0590     6.4790     5.3880     5.6840    26.5340     2.3160    -6.7650 
  185.7500    52.8060     6.4420     5.3450     5.4650    26.3920     2.3380    -6.4370 
  185.8750    53.4620     6.4880     5.3880     5.3180    26.5770     2.3500    -6.3060 
  186.0000    54.4400     6.5590     5.4750     5.3130    27.0630     2.3330    -6.3380 
  186.1250    56.7910     6.5680     5.5330     5.3320    27.7280     2.2560    -6.3870 
  186.2500    60.2510     6.4720     5.5040     5.2200    28.6900     2.1210    -6.4310 
  186.3750    61.6870     6.2840     5.3860     4.8030    30.0650     1.9470    -6.5460 
  186.5000    60.2440     6.0810     5.2380     4.3150    31.6710     1.7830    -6.6970 
  186.6250    60.4590     5.9950     5.1690     3.6140    32.5650     1.7110    -6.8570 
  186.7500    65.6490     6.0810     5.2400     3.4990    31.3850     1.7570    -7.0070 
  186.8750    73.5480     6.3310     5.4550     4.2560    28.5530     1.9040    -7.0810 
  187.0000    78.6560     6.6720     5.7640     5.8760    26.1070     2.0990    -7.0300 
  187.1250    78.4320     6.9890     6.0680     6.7590    25.2190     2.2710    -7.0350 
  187.2500    79.4280     7.2020     6.2770     6.9960    25.0110     2.3850    -7.2000 
  187.3750    83.0270     7.2910     6.3610     6.9950    24.9560     2.4430    -7.4610 
  187.5000    86.3820     7.2790     6.3390     7.1430    24.8960     2.4630    -7.7480 
  187.6250    89.4350     7.2020     6.2530     7.2240    25.0550     2.4610    -7.9460 
