~V
VERS. 2.00: Ver 2.00
~W
STRT.M 52.0000:
STOP.M 224.0000:
STEP.M 0.1250:
NULL. -999.2500:
UWI. F10155:
~C
DEPT.M :
SP.MV :
GR.API :
RML.OHMM :
RI. :
RXO.OHMM :
CALI.CM :
DEN.GM/CC :
~A
# ...
  108.2500   -34.1700    73.6080     9.7890     7.7830     7.2500    21.7370     2.1920 
  108.3750   -32.1510    75.2840    11.6150     8.9740     7.7540    21.7210     2.2770 
  108.5000   -29.9480    74.1160    14.6610    11.2440     9.9820    21.6930     2.3720 
  108.6250   -27.6890    71.1290    18.2440    14.4500    14.8960    21.9790     2.4560 
  108.7500   -25.5080    69.8910    21.1960    17.8590    23.1280    22.6640     2.5200 
  108.8750   -23.5820    70.6500    22.1440    19.8120    29.5330    23.5830     2.5560 
  109.0000   -22.0250    71.0990    20.0700    18.4240    28.7220    24.3560     2.5570 
  109.1250   -20.8630    71.6340    16.3880    15.1440    20.6100    24.7250     2.5260 
  109.2500   -20.0370    75.7260    12.6330    11.7670    12.4890    24.7010     2.4700 
  109.3750   -19.4490    82.8160     9.9270     9.3070     7.6050    24.5970     2.4010 
  109.5000   -19.0060    85.0160     8.7980     8.1070     6.2970    24.6300     2.3500 
  109.6250   -18.4960    82.3550     8.6700     7.7450     6.3650    24.6370     2.3400 
  109.7500   -17.8490    81.0040     9.0010     7.8970     7.8130    24.6390     2.3720 
  109.8750   -17.0560    85.7050     9.2150     8.1260    10.6300    24.6640     2.4270 
  110.0000   -16.1300    93.9830     8.7830     7.8410    11.5340    24.7480     2.4710 
  110.1250   -15.1870    99.1400     7.8090     7.0140     7.9440    24.8280     2.4830 
  110.2500   -14.3830   100.0170     6.6490     5.9950     5.0020    24.9000     2.4650 
  110.3750   -13.7930    98.4460     5.7150     5.1530     4.0010    24.9180     2.4270 
  110.5000   -13.5970    96.9970     5.3500     4.7540     3.9160    24.9330     2.3790 
  110.6250   -13.8690    96.1610     5.4930     4.7720     4.2010    24.8900     2.3270 
  110.7500   -14.5760    93.1510     6.0260     5.1580     5.1890    24.7760     2.2750 
  110.8750   -15.6060    88.3360     6.7820     5.8030     6.2450    24.6650     2.2290 
  111.0000   -16.9900    85.0230     7.5680     6.5490     6.6460    24.6170     2.2010 
  111.1250   -18.5060    85.3600     8.2230     7.2170     7.3640    24.4910     2.1940 
  111.2500   -19.9930    86.8820     8.6770     7.7060     8.3630    24.3430     2.2030 
  111.3750   -21.3870    88.5550     8.9360     7.9860     8.5310    24.2260     2.2190 
  111.5000   -22.5640    90.6470     9.0580     8.0930     8.2910    24.1890     2.2280 
  111.6250   -23.5420    89.2830     9.1550     8.1380     8.5190    24.2660     2.2280 
  111.7500   -24.3880    83.1550     9.2820     8.1670     8.9930    24.4520     2.2190 
  111.8750   -25.1710    77.0780     9.4500     8.2020     9.2200    24.5630     2.2040 
  112.0000   -25.8380    75.5090     9.6380     8.2440     9.2590    24.3690     2.1860 
  112.1250   -26.4100    76.1330     9.8050     8.2710     9.4660    24.1860     2.1730 
  112.2500   -26.8830    77.7980     9.9310     8.2720     9.7550    24.1190     2.1690 
  112.3750   -27.2540    80.1330    10.0210     8.2580     9.8110    24.0980     2.1790 
  112.5000   -27.5450    80.6520    10.1140     8.2640     9.2530    23.9380     2.2010 
  112.6250   -27.8040    78.4610    10.2440     8.3160     9.0750    23.7450     2.2250 
  112.7500   -28.0030    76.2680    10.4160     8.4210     9.1140    23.5260     2.2420 
  112.8750   -28.1110    77.8150    10.6040     8.5590     9.2170    23.2300     2.2500 
  113.0000   -28.1220    81.7110    10.7360     8.6810     8.8770    22.6540     2.2500 
  113.1250   -28.0680    82.5700    10.7620     8.7360     8.2340    21.5890     2.2450 
  113.2500   -27.9790    79.4700    10.6560     8.6910     7.3430    20.2350     2.2360 
  113.3750   -27.8200    75.2200    10.4350     8.5500     6.4970    19.0200     2.2230 
  113.5000   -27.5550    73.9570    10.1430     8.3380     6.4040    18.2820     2.2080 
  113.6250   -27.2400    75.7110     9.8570     8.1090     6.3870    17.7680     2.1930 
  113.7500   -26.9010    78.7650     9.6160     7.8940     6.4420    17.5830     2.1800 
  113.8750   -26.5480    80.5290     9.4370     7.7120     6.6090    17.9770     2.1710 
  114.0000   -26.1330    80.1890     9.3150     7.5660     6.7590    18.9450     2.1650 
  114.1250   -25.6580    80.2120     9.2120     7.4370     7.0200    20.1580     2.1650 
  114.2500   -25.1690    79.4420     9.1060     7.3160     7.3010    21.2390     2.1710 
  114.3750   -24.7490    76.1870     8.9840     7.1990     7.3720    21.8660     2.1800 
  114.5000   -24.4220    73.0680     8.8310     7.0840     7.3960    22.0490     2.1900 
  114.6250   -24.0470    72.7250     8.6630     6.9740     7.4310    22.0790     2.1940 
  114.7500   -23.6070    74.5980     8.5300     6.8870     7.5780    22.0790     2.1880 
  114.8750   -23.1470    77.0990     8.5440     6.8860     7.7370    22.0700     2.1730 
  115.0000   -22.7280    78.9860     8.9640     7.1430     7.7820    22.0520     2.1630 
  115.1250   -22.3530    78.3630     9.8970     7.7740     7.9610    22.0310     2.1800 
  115.2500   -21.9670    74.9010    11.3020     8.8380     8.5930    22.0080     2.2330 
  115.3750   -21.5320    70.1790    12.8470    10.2020    10.1290    21.9820     2.3090 
  115.5000   -21.0280    65.9420    13.7700    11.2850    12.8730    21.9240     2.3710 
  115.6250   -20.5370    63.5540    13.6110    11.4330    14.7210    21.9750     2.3920 
  115.7500   -20.1300    65.8190    12.4060    10.5330    12.8260    22.0240     2.3680 
  115.8750   -19.8770    72.3970    10.6930     9.1080    12.0770    22.0360     2.3210 
  116.0000   -19.8660    77.0580     9.3100     7.9080     9.3430    21.9980     2.2830 
  116.1250   -20.0130    77.3310     8.6970     7.2610     8.7470    21.9690     2.2640 
  116.2500   -20.2530    77.2030     8.9020     7.2190     9.9750    21.9770     2.2590 
  116.3750   -20.5040    78.0090     9.7080     7.7110    11.4440    21.9680     2.2600 
  116.5000   -20.6400    75.6510    10.6790     8.5250    12.0950    21.9540     2.2640 
  116.6250   -20.6520    71.5300    11.2860     9.1730    11.9960    21.9500     2.2720 
  116.7500   -20.5100    68.7180    11.2590     9.3060    11.8350    21.9610     2.2840 
  116.8750   -20.2070    67.8000    10.6160     8.8650    11.7960    21.9890     2.2980 
  117.0000   -19.7130    68.2980     9.6250     8.0750    10.8060    22.0280     2.3040 
  117.1250   -19.1720    72.1760     8.7100     7.3130     9.0910    22.0050     2.3000 
  117.2500   -18.7060    77.3230     8.0900     6.7490     8.1250    21.9580     2.2840 
  117.3750   -18.3680    79.2860     7.8510     6.4590     8.1780    21.9200     2.2650 
  117.5000   -18.3460    78.1560     8.0350     6.4990     8.7230    21.8810     2.2500 
  117.6250   -18.5690    78.9810     8.4880     6.7820     9.0220    21.8600     2.2440 
  117.7500   -18.9690    82.0470     9.0840     7.2250     9.1410    21.8690     2.2450 
  117.8750   -19.4490    83.6660     9.6650     7.7120     9.5570    21.9230     2.2460 
  118.0000   -19.9090    81.6180    10.0130     8.0630    10.4480    21.9970     2.2400 
  118.1250   -20.2830    79.2240    10.0280     8.1530    10.8840    22.0510     2.2290 
  118.2500   -20.5330    78.3130     9.7020     7.9440    10.4140    22.0010     2.2210 
  118.3750   -20.7340    77.9370     9.1460     7.5140     9.5480    21.9400     2.2210 
  118.5000   -20.9680    75.6300     8.5910     7.0460     9.2760    21.8610     2.2300 
  118.6250   -21.3410    72.6390     8.2610     6.7290     8.6550    21.6380     2.2400 
  118.7500   -21.8660    70.4260     8.2570     6.6570     8.3370    21.1650     2.2480 
  118.8750   -22.4940    70.4500     8.5660     6.8440     8.8780    20.6840     2.2520 
  119.0000   -23.2000    71.9660     9.0820     7.2390     9.9480    20.8800     2.2540 
  119.1250   -23.9280    73.1760     9.6030     7.6830    10.6100    21.3120     2.2550 
  119.2500   -24.6510    73.2690    10.0130     8.0600    10.8600    21.5480     2.2530 
  119.3750   -25.3020    72.9840    10.2540     8.2980    10.5200    21.5590     2.2440 
