~V
VERS. 2.00: Ver 2.00
~W
STRT.M 60.0000:
STOP.M 245.0000:
STEP.M 0.1250:
NULL. -999.2500:
UWI. F10162:
~C
DEPT.M :
SP.MV :
DEN.GM/CC :
GR.API :
RML.OHMM :
RI. :
RXO.OHMM :
CALI.CM :
~A
# ...
  206.2500    -5.4040     2.3210    77.7440    21.1820    18.3350    25.8870    24.8700 
  206.3750    -5.2180     2.3250    79.5390    19.7920    16.7850    24.6000    24.8160 
  206.5000    -5.0450     2.3280    77.4990    18.2920    15.4460    21.5600    24.7900 
  206.6250    -4.9980     2.3300    75.8890    17.4310    14.6730    16.7870    24.7070 
  206.7500    -4.9720     2.3290    76.8730    17.2540    14.4610    15.6550    24.3980 
  206.8750    -4.8950     2.3220    77.6280    17.5510    14.7610    15.1080    23.8880 
  207.0000    -4.8390     2.3110    75.5360    18.0520    15.4000    15.5060    23.4720 
  207.1250    -4.7060     2.3020    74.8230    18.3570    15.9950    16.0500    23.3760 
  207.2500    -4.5730     2.3010    76.5300    18.2080    16.1800    16.5720    23.6240 
  207.3750    -4.4940     2.3100    78.2810    17.5220    15.8120    17.8160    24.1470 
  207.5000    -4.3200     2.3270    79.1760    16.3710    14.9080    17.7910    24.6950 
  207.6250    -4.1090     2.3450    80.7530    14.9260    13.5590    14.9520    24.8810 
  207.7500    -3.8970     2.3610    82.2570    13.5160    12.1160    12.5820    24.9120 
  207.8750    -3.6260     2.3740    82.1630    12.3960    10.8610    12.5660    24.9140 
  208.0000    -3.3620     2.3820    82.3710    11.7830    10.0080    12.1870    24.9480 
  208.1250    -3.1240     2.3770    84.3070    11.9430     9.7960     9.6640    24.9530 
  208.2500    -2.8230     2.3600    84.4180    12.8060    10.2000     9.6170    24.9220 
  208.3750    -2.5570     2.3380    79.9910    14.3110    11.2150    12.7120    24.8910 
  208.5000    -2.3570     2.3300    73.1520    16.3300    12.7940    17.1390    24.8170 
  208.6250    -2.1680     2.3580    69.4950    18.7430    14.9090    17.6000    24.5950 
  208.7500    -2.0410     2.4130    68.0250    21.3340    17.3210    16.4410    24.3900 
  208.8750    -1.9600     2.4700    65.3880    23.9880    19.8600    17.3980    24.2290 
  209.0000    -1.9050     2.5000    61.5370    26.5640    22.3960    21.7230    24.2210 
  209.1250    -1.9380     2.4780    59.0050    28.7350    24.7050    27.8080    24.4510 
  209.2500    -1.9910     2.4210    59.5970    30.2110    26.4480    32.4600    24.8150 
  209.3750    -2.0300     2.3540    61.2180    30.7980    27.2750    34.3600    25.1250 
  209.5000    -2.1380     2.2990    62.2610    30.5650    27.1330    32.5960    25.3240 
  209.6250    -2.2690     2.2720    62.1320    29.7970    26.3070    29.4260    25.3490 
  209.7500    -2.4170     2.2650    62.9730    28.9410    25.3720    27.7070    25.3160 
  209.8750    -2.6050     2.2680    66.1740    28.1180    24.5270    26.5430    25.2790 
  210.0000    -2.7300     2.2720    69.3170    27.2850    23.7410    29.3750    25.2370 
  210.1250    -2.8510     2.2750    67.5230    26.3610    22.9070    27.6950    25.1860 
  210.2500    -3.0120     2.2790    63.8220    25.4340    22.0730    25.5770    25.1580 
  210.3750    -3.1090     2.2860    63.5620    24.6870    21.3830    23.0120    25.1300 
  210.5000    -3.1890     2.2950    68.0260    24.3280    21.0050    22.0520    25.0880 
  210.6250    -3.2820     2.3010    68.8150    24.6010    21.1850    21.5530    25.0330 
  210.7500    -3.3020     2.3030    66.0270    25.4350    21.9120    26.4980    25.0100 
  210.8750    -3.3620     2.3000    65.3330    26.7260    23.1370    29.0040    25.0150 
  211.0000    -3.5480     2.2940    67.5620    28.2600    24.7260    27.8920    25.0260 
  211.1250    -3.6780     2.2870    66.6840    29.6420    26.4070    28.0990    25.0300 
  211.2500    -3.7910     2.2800    63.8470    30.4450    27.6820    29.7360    25.0030 
  211.3750    -3.9690     2.2770    62.9780    30.3540    28.0820    32.2230    24.9190 
  211.5000    -4.1870     2.2810    63.9220    29.2950    27.3810    33.4520    24.7850 
  211.6250    -4.5260     2.2910    65.4530    27.4600    25.6530    30.4530    24.6260 
  211.7500    -4.8350     2.3000    67.7090    25.5170    23.6210    24.9900    24.5100 
  211.8750    -4.9900     2.3020    70.9090    23.9400    21.8340    19.5960    24.4630 
  212.0000    -5.0650     2.2940    72.2440    23.0120    20.6550    18.0940    24.4840 
  212.1250    -5.1310     2.2790    69.5380    22.8680    20.2930    19.7940    24.5630 
  212.2500    -5.1780     2.2650    66.3820    23.2120    20.5130    20.8520    24.6630 
  212.3750    -5.1700     2.2580    65.8080    23.8350    21.1180    21.6970    24.7580 
  212.5000    -5.0450     2.2610    68.3060    24.5950    21.8990    24.4880    24.8180 
  212.6250    -4.7920     2.2740    69.5300    25.5340    22.7760    25.8490    24.8390 
  212.7500    -4.5830     2.2870    68.9900    26.7690    23.8790    26.4310    24.8100 
  212.8750    -4.4030     2.2940    68.7680    28.3480    25.4000    26.0000    24.7160 
  213.0000    -4.2130     2.2910    68.6030    30.0570    27.2860    26.5550    24.6160 
  213.1250    -4.0100     2.2820    67.8170    31.1930    28.9270    31.3230    24.6640 
  213.2500    -3.7640     2.2790    66.2010    31.1180    29.4870    40.1690    24.8480 
  213.3750    -3.5730     2.2880    64.4870    29.5210    28.3860    45.1850    25.0070 
  213.5000    -3.4220     2.3080    62.9460    26.6000    25.6630    36.2700    25.0780 
  213.6250    -3.2290     2.3310    63.5680    23.0010    21.9870    24.9660    25.0210 
  213.7500    -3.1060     2.3470    68.1240    19.6510    18.4750    19.5050    24.8780 
  213.8750    -3.0670     2.3500    74.6800    17.0570    15.6640    22.1610    24.7300 
  214.0000    -3.0020     2.3420    78.6460    15.4790    13.7760    19.6870    24.7510 
  214.1250    -2.9910     2.3290    77.9360    15.2120    13.0560    15.6160    24.8400 
  214.2500    -3.1360     2.3220    75.2260    16.0650    13.3500    14.4630    24.8930 
  214.3750    -3.3500     2.3280    72.8930    17.9190    14.6370    16.2480    24.8530 
  214.5000    -3.6810     2.3500    72.2580    20.4830    16.8350    21.0140    24.8080 
  214.6250    -4.0870     2.3770    74.3570    23.1660    19.6650    25.8950    24.7000 
  214.7500    -4.3160     2.3970    75.9750    25.2140    22.2720    26.8250    24.4920 
  214.8750    -4.4310     2.4050    72.8090    26.1590    23.8980    25.7290    24.1020 
  215.0000    -4.6390     2.4080    66.8130    25.9330    24.1960    23.5360    23.5950 
  215.1250    -4.9230     2.4140    63.9740    24.8000    23.2870    21.3660    23.1950 
  215.2500    -5.2310     2.4280    62.9890    23.4680    21.9340    20.4550    23.0540 
  215.3750    -5.5290     2.4460    59.8120    22.3780    20.6260    21.3330    23.1830 
  215.5000    -5.7100     2.4620    60.4710    21.8530    19.7280    20.8370    23.6460 
  215.6250    -5.8570     2.4670    70.5850    22.2480    19.6560    19.8840    24.2830 
  215.7500    -6.0860     2.4640    78.8850    23.4260    20.4790    21.1450    24.7470 
  215.8750    -6.3550     2.4580    78.0780    25.0060    22.0920    25.2000    24.8460 
  216.0000    -6.5420     2.4550    73.1190    26.1920    23.8840    30.9100    24.8630 
  216.1250    -6.5480     2.4560    70.9450    25.6740    24.2630    34.2040    24.9150 
  216.2500    -6.3890     2.4530    69.4500    23.2260    22.3440    37.9130    24.8740 
  216.3750    -5.9850     2.4430    67.7850    19.3770    18.6100    30.8430    24.8260 
  216.5000    -5.5240     2.4260    69.4980    15.2190    14.4830    17.4430    24.8450 
  216.6250    -5.0580     2.4120    74.6140    11.9560    11.2980    10.0610    24.9070 
  216.7500    -4.6320     2.4090    81.1040     9.8540     9.2030     8.5820    24.9100 
  216.8750    -4.2900     2.4170    88.7210     8.7610     8.0110     8.7100    24.8230 
  217.0000    -3.9840     2.4300    95.7530     8.3720     7.4750     9.2210    24.8000 
  217.1250    -3.7730     2.4410    99.8210     8.4250     7.4320     8.9650    24.9170 
  217.2500    -3.7880     2.4480   100.7180     8.6150     7.6110     8.7880    25.0050 
  217.3750    -3.9770     2.4550   100.2040     8.8150     7.8620     8.4590    25.0320 
