~V
VERS. 2.00: Ver 2.00
~W
STRT.M 50.0000:
STOP.M 224.0000:
STEP.M 0.1250:
NULL. -999.2500:
UWI. F10153:
~C
DEPT.M :
GR.API :
RML.OHMM :
RI. :
RXO.OHMM :
CALI.CM :
SP.MV :
DEN.GM/CC :
~A
# ...
  117.5000    78.6880     9.3960     7.0710     9.5820    23.3640   -12.4870     2.2150 
  117.6250    80.5690    10.0240     7.4990     9.9930    23.4070   -11.7050     2.2930 
  117.7500    79.0390    11.4100     8.4580    11.4900    23.4920   -10.9470     2.4020 
  117.8750    75.2770    13.9010    10.3030    16.3510    23.6390   -10.2490     2.5180 
  118.0000    73.8810    17.2410    13.0060    23.4180    23.7900    -9.6470     2.6130 
  118.1250    74.1840    20.6720    16.1410    28.0350    23.8730    -9.1750     2.6720 
  118.2500    72.3110    23.3650    19.0060    29.6870    23.8890    -8.8260     2.6990 
  118.3750    68.4150    23.9040    20.2540    30.6420    23.8540    -8.6070     2.6900 
  118.5000    67.3060    22.2730    19.5280    31.6350    23.8090    -8.4690     2.6510 
  118.6250    70.3210    19.3660    17.3710    28.7950    23.7750    -8.3830     2.5870 
  118.7500    75.2780    16.4020    14.6270    21.9310    23.7580    -8.3210     2.5110 
  118.8750    79.5870    13.6360    11.9560    15.6390    23.7350    -8.2480     2.4410 
  119.0000    82.1900    11.1980     9.7170    12.6000    23.6740    -8.1480     2.3890 
  119.1250    84.3720     9.3970     8.0000    10.3420    23.5850    -8.0150     2.3570 
  119.2500    88.7040     8.0970     6.7100     7.7250    23.5040    -7.8640     2.3370 
  119.3750    96.6970     7.3200     5.8890     5.9960    23.4810    -7.7680     2.3240 
  119.5000   102.2710     6.9200     5.4150     5.3340    23.5290    -7.7980     2.3160 
  119.6250   101.4010     6.7990     5.2000     5.1230    23.6290    -7.9680     2.3160 
  119.7500    97.8370     6.8680     5.1670     5.0820    23.7350    -8.2490     2.3220 
  119.8750    97.3040     7.0970     5.2960     5.2020    23.7920    -8.6680     2.3320 
  120.0000    98.6550     7.3950     5.5140     5.4180    23.8110    -9.2120     2.3380 
  120.1250    97.2680     7.7040     5.7620     5.5770    23.8220    -9.8670     2.3370 
  120.2500    92.5040     8.0140     6.0200     5.8370    23.8300   -10.5990     2.3270 
  120.3750    87.0790     8.3580     6.3030     6.2680    23.8440   -11.3820     2.3070 
  120.5000    85.1180     8.7950     6.6440     6.7080    23.8740   -12.1570     2.2780 
  120.6250    85.9760     9.4000     7.0910     7.2380    23.9130   -12.8780     2.2450 
  120.7500    86.1760    10.1740     7.6460     8.0950    23.9410   -13.5330     2.2150 
  120.8750    83.3960    11.0830     8.2970     9.4750    23.9470   -14.0620     2.1990 
  121.0000    79.7900    11.9160     8.9130    10.8260    23.9450   -14.4340     2.1960 
  121.1250    76.9540    12.4000     9.3100    11.8560    23.9380   -14.6270     2.1990 
  121.2500    75.1450    12.4590     9.4210    12.5800    23.9250   -14.6670     2.1990 
  121.3750    75.5120    12.0760     9.2080    12.0440    23.8750   -14.5420     2.1820 
  121.5000    76.4170    11.5990     8.8950    10.8530    23.7330   -14.2830     2.1590 
  121.6250    75.4690    11.3450     8.7050     9.9280    23.5260   -13.8900     2.1570 
  121.7500    73.8950    11.3540     8.6880     9.3610    23.3660   -13.3830     2.1920 
  121.8750    74.3480    11.5670     8.8380     9.8300    23.4650   -12.7840     2.2710 
  122.0000    75.2350    11.7150     8.9860    11.4480    23.8180   -12.1740     2.3550 
  122.1250    75.5550    11.5370     8.9260    12.2040    24.2060   -11.6150     2.3920 
  122.2500    76.7430    11.0020     8.6010    10.7110    24.4460   -11.0930     2.3760 
  122.3750    79.8680    10.1540     7.9910     8.1260    24.4330   -10.5580     2.3150 
  122.5000    83.7250     9.2400     7.2740     6.7840    24.3390   -10.0050     2.2580 
  122.6250    88.7800     8.4440     6.6130     6.2760    24.2920    -9.5130     2.2320 
  122.7500    95.6560     7.8090     6.0640     5.8660    24.2610    -9.1250     2.2330 
  122.8750   101.7590     7.3890     5.6990     5.6690    24.1880    -8.8720     2.2460 
  123.0000   104.5020     7.1430     5.4930     5.6160    24.1100    -8.7020     2.2610 
  123.1250   105.5760     7.0600     5.4280     5.5630    24.0640    -8.5690     2.2770 
  123.2500   106.4210     7.1170     5.4750     5.5240    24.0310    -8.4640     2.2970 
  123.3750   106.7600     7.2990     5.6270     5.6310    23.9770    -8.4240     2.3170 
  123.5000   106.0940     7.5090     5.8140     5.8090    23.8870    -8.4400     2.3290 
  123.6250   105.3470     7.6610     5.9660     5.8530    23.7760    -8.4620     2.3290 
  123.7500   104.8210     7.7290     6.0520     5.7990    23.6720    -8.4740     2.3220 
  123.8750   103.7450     7.6620     6.0280     5.7460    23.6100    -8.4890     2.3170 
  124.0000   102.9800     7.4760     5.9010     5.6210    23.5830    -8.4970     2.3170 
  124.1250   103.5060     7.2230     5.7110     5.4290    23.5800    -8.4820     2.3240 
  124.2500   104.2290     6.9680     5.5070     5.2990    23.6010    -8.4440     2.3320 
  124.3750   102.5750     6.7920     5.3460     5.2770    23.6510    -8.3980     2.3360 
  124.5000    99.3010     6.7330     5.2600     5.2460    23.7060    -8.3820     2.3330 
  124.6250    97.3000     6.7830     5.2550     5.2430    23.7310    -8.4170     2.3240 
  124.7500    97.8590     6.8950     5.3090     5.3680    23.7220    -8.4820     2.3160 
  124.8750   101.1530     7.0180     5.4000     5.4600    23.6980    -8.5260     2.3150 
  125.0000   103.4110     7.0950     5.4880     5.4020    23.6940    -8.5530     2.3200 
  125.1250   101.6890     7.1080     5.5470     5.3230    23.7130    -8.6060     2.3280 
  125.2500    97.7680     7.0800     5.5750     5.3060    23.7460    -8.6990     2.3360 
  125.3750    96.4880     7.0620     5.5930     5.3590    23.7880    -8.7880     2.3390 
  125.5000    98.9210     7.1160     5.6410     5.4210    23.8220    -8.8110     2.3390 
  125.6250   101.3180     7.2820     5.7480     5.5110    23.8350    -8.7620     2.3350 
  125.7500   101.8770     7.5400     5.9060     5.6770    23.8390    -8.6770     2.3260 
  125.8750   101.2150     7.8600     6.0920     5.9130    23.8400    -8.6110     2.3080 
  126.0000   101.6610     8.1520     6.2410     6.0450    23.8330    -8.5900     2.2850 
  126.1250   102.2780     8.3100     6.2810     5.9780    23.8180    -8.5980     2.2650 
  126.2500   100.9260     8.3020     6.1980     5.8360    23.8060    -8.6260     2.2570 
  126.3750    98.2630     8.0770     5.9670     5.7880    23.8030    -8.7130     2.2730 
  126.5000    98.0340     7.7590     5.6830     5.7830    23.8030    -8.8770     2.3080 
  126.6250   100.3850     7.5780     5.5000     5.8080    23.8030    -9.0960     2.3500 
  126.7500   102.3050     7.6930     5.5100     5.9080    23.8060    -9.3370     2.3880 
  126.8750   100.4000     8.4390     5.9210     6.4260    23.8130    -9.5840     2.4050 
  127.0000    94.7070     9.9350     6.8210     7.5640    23.8170    -9.8390     2.3910 
  127.1250    87.8220    12.2160     8.2980    10.1670    23.8230   -10.0940     2.3520 
  127.2500    82.6660    15.0690    10.2740    13.3570    23.8410   -10.3230     2.2990 
  127.3750    81.4170    18.1840    12.6690    15.6900    23.8650   -10.4880     2.2510 
  127.5000    81.4820    20.9670    15.0400    16.9210    23.8690   -10.6000     2.2190 
  127.6250    81.1700    22.9280    16.9180    17.7340    23.8420   -10.6980     2.2060 
  127.7500    81.2990    24.0660    18.1900    18.2710    23.8050   -10.8020     2.2050 
  127.8750    81.8320    24.3530    18.7340    17.9050    23.7770   -10.8770     2.2110 
  128.0000    80.6600    24.1420    18.8070    17.3790    23.7610   -10.8580     2.2230 
  128.1250    78.2170    23.7160    18.6420    17.3310    23.7570   -10.7260     2.2370 
  128.2500    77.0090    23.2750    18.4140    17.3410    23.7700   -10.5240     2.2520 
  128.3750    80.0480    23.1310    18.3570    16.9760    23.8140   -10.2920     2.2670 
  128.5000    83.5050    23.4850    18.6460    16.4520    23.8740   -10.0460     2.2860 
  128.6250    81.1880    24.3630    19.3410    16.4080    23.9230    -9.7610     2.3170 
