~V
VERS. 2.00: Ver 2.00
~W
STRT.M 49.0000:
STOP.M 290.0000:
STEP.M 0.1250:
NULL. -999.2500:
UWI. F10103:
~C
DEPT.M :
DEN.GM/CC :
SP.MV :
GR.API :
RML.OHMM :
RI. :
RXO.OHMM :
CALI.CM :
~A
   49.0000  -999.2500  -999.2500   198.8970  1433.7120  1023.8870  1053.4530   726.7540 
   49.1250  -999.2500  -999.2500   198.8970  1433.7120  1023.8870     0.0000   726.7540 
   49.2500  -999.2500  -999.2500     0.0000     0.0000     0.0000     0.0000     0.0000 
   49.3750  -999.2500  -999.2500     0.0000     0.0000     0.0000     0.0000     0.0000 
   49.5000  -999.2500  -999.2500     0.0000     0.0000     0.0000     0.7220     0.0000 
   49.6250  -999.2500  -999.2500    35.4180     4.2730     0.5170     0.9600    25.3180 
   49.7500  -999.2500  -999.2500    35.5880     4.4120     0.5030     1.0870    25.3570 
   49.8750  -999.2500  -999.2500    35.7060     4.5770     0.4950     1.2570    25.3890 
   50.0000  -999.2500  -999.2500    36.3110     4.7560     0.4950     1.4530    25.4110 
   50.1250  -999.2500  -999.2500    35.9790     4.9090     0.5000     1.4410    25.4210 
   50.2500  -999.2500     0.0000    34.3280     4.9860     0.5070     1.3850    25.4240 
   50.3750  -999.2500     0.0000    33.7950     4.9920     0.5110     1.2620    25.4250 
   50.5000  -999.2500     0.0000    34.4790     4.9300     0.5120     1.1190    25.4260 
   50.6250  -999.2500     0.0000    34.8730     4.8040     0.5120     1.0170    25.4260 
   50.7500  -999.2500     0.0000    36.1920     4.6210     0.5120     0.9610    25.4250 
   50.8750  -999.2500    70.4070    40.5210     4.4220     0.5140     1.0050    25.4240 
   51.0000  -999.2500   141.3160    44.7900     4.2380     0.5160     1.1340    25.4220 
   51.1250     1.9440   142.3600    45.1480     4.0920     0.5170     1.1160    25.4160 
   51.2500     1.9440   143.7560    41.7180     3.9890     0.5150     0.9110    25.4050 
   51.3750     1.9420   145.3860    39.5990     3.9280     0.5080     0.7840    25.3890 
   51.5000     1.9420   147.1710    40.2970     3.9160     0.5010     0.8160    25.3710 
   51.6250     1.9470   149.0560    40.8270     3.9500     0.4970     0.9520    25.3600 
   51.7500     1.9570   150.9620    40.0030     3.9990     0.4980     1.1430    25.3580 
   51.8750     1.9680   152.7930    38.5890     4.0170     0.5010     1.2700    25.3580 
   52.0000     1.9790   154.4750    36.8330     3.9920     0.5000     1.3320    25.3580 
   52.1250     1.9870   155.9310    34.5490     3.9470     0.4880     1.3700    25.3570 
   52.2500     1.9890   157.0610    32.1930     3.9290     0.4670     1.3870    25.3560 
   52.3750     1.9880   157.9570    30.8890     3.9500     0.4430     1.3860    25.3540 
   52.5000     1.9860   158.6210    31.6660     3.9810     0.4260     1.3800    25.3490 
   52.6250     1.9860   158.9940    34.4610     3.9630     0.4190     1.3750    25.3450 
   52.7500     1.9900   159.0390    35.4560     3.8460     0.4210     1.3290    25.3370 
   52.8750     1.9970   158.8150    33.5610     3.6860     0.4260     1.2500    25.3250 
   53.0000     2.0060   158.3550    31.1610     3.5640     0.4310     1.1970    25.3130 
   53.1250     2.0160   157.7320    30.7990     3.5360     0.4320     1.2860    25.3070 
   53.2500     2.0240   157.0230    31.8880     3.6060     0.4290     1.3720    25.3080 
   53.3750     2.0290   156.2600    32.5350     3.6980     0.4250     1.4440    25.3090 
   53.5000     2.0310   155.4980    33.1010     3.7580     0.4220     1.5350    25.3100 
   53.6250     2.0300   154.8380    33.2670     3.7580     0.4200     1.6280    25.3090 
   53.7500     2.0250   154.4370    32.1670     3.7020     0.4190     1.6660    25.3070 
   53.8750     2.0190   154.3490    31.9670     3.6130     0.4170     1.6620    25.3000 
   54.0000     2.0140   154.5590    33.8290     3.4840     0.4140     1.6670    25.2860 
   54.1250     2.0110   155.0050    35.1400     3.3040     0.4110     1.6830    25.2720 
   54.2500     2.0130   155.6150    33.9430     3.0810     0.4120     1.6860    25.2530 
   54.3750     2.0200   156.3140    32.7090     2.8570     0.4180     1.6960    25.2240 
   54.5000     2.0330   157.0660    33.5880     2.6620     0.4280     1.7040    25.1930 
   54.6250     2.0500   157.8260    34.4910     2.5070     0.4400     1.7020    25.1680 
   54.7500     2.0700   158.4730    35.1940     2.3970     0.4510     1.6940    25.1470 
   54.8750     2.0920   158.9080    38.4560     2.3200     0.4590     1.6860    25.1310 
   55.0000     2.1110   159.0890    42.4220     2.2700     0.4640     1.6410    25.1120 
   55.1250     2.1240   159.0110    44.5980     2.2320     0.4680     1.5250    25.0860 
   55.2500     2.1270   158.6310    43.9970     2.1850     0.4730     1.3450    25.0650 
   55.3750     2.1250   157.9960    43.9590     2.1130     0.4800     1.0310    25.0370 
   55.5000     2.1210   157.1280    46.3880     2.0160     0.4890     0.6910    24.9890 
   55.6250     2.1200   156.0960    49.8540     1.9020     0.4990     0.5020    24.9240 
   55.7500     2.1250   154.9980    52.1680     1.7810     0.5080     0.4610    24.8460 
   55.8750     2.1350   153.9390    52.6810     1.6620     0.5160     0.5030    24.8010 
   56.0000     2.1470   152.9760    52.7830     1.5550     0.5220     0.6040    24.7750 
   56.1250     2.1580   152.0970    52.6730     1.4770     0.5280     0.6780    24.7570 
   56.2500     2.1680   151.2800    52.1020     1.4740     0.5330     0.6990    24.7340 
   56.3750     2.1730   150.4570    51.4260     1.5740     0.5370     0.6730    24.7110 
   56.5000     2.1700   149.5670    50.4490     1.8050     0.5390     0.6140    24.6780 
   56.6250     2.1580   148.4960    48.5950     2.1570     0.5380     0.5670    24.6390 
   56.7500     2.1430   147.0160    44.6690     2.5130     0.5360     0.5290    24.6090 
   56.8750     2.1360   145.0300    39.4970     2.6750     0.5340     0.5140    24.5860 
   57.0000     2.1490   142.3510    34.8400     2.4820     0.5320     0.5180    24.5620 
   57.1250     2.1910   138.7750    32.3520     1.8500     0.5290     0.4950    24.5340 
   57.2500     2.2710   133.8390    32.8540     1.0130     0.5150     0.4780    24.5070 
   57.3750     2.3760   127.3500    34.8460     0.4550     0.4900     0.5170    24.4640 
   57.5000     2.4870   118.8430    37.0920     0.2540     0.4730     0.7640    24.3880 
   57.6250     2.5750   107.9430    38.5470     0.3380     0.4980     1.5150    24.2710 
   57.7500     2.5970    94.4160    40.3580     0.7240     0.6470     3.0290    24.1130 
   57.8750     2.5520    79.5860    43.7760     1.3950     0.9840     5.6810    23.9630 
   58.0000     2.4610    64.4820    47.7290     2.3400     1.5780     8.3180    23.8740 
   58.1250     2.3600    49.8220    51.9590     3.4510     2.4520     9.5110    23.8680 
   58.2500     2.2790    36.3340    56.8590     4.4820     3.5640     9.6080    23.9040 
   58.3750     2.2270    24.4110    61.1000     5.1730     4.6830     9.6700    23.9220 
   58.5000     2.2010    14.6000    63.2850     5.4530     5.6060     9.5910    23.9240 
   58.6250     2.1920     7.3450    62.7290     5.5200     6.2490     9.3200    23.9230 
   58.7500     2.1890     3.1100    62.3110     5.6070     6.6490     9.0620    23.9210 
   58.8750     2.1860     0.6690    64.3920     5.7340     6.9020     8.7460    23.9240 
   59.0000     2.1860    -0.8140    68.1190     5.8270     7.0190     8.5390    23.9290 
   59.1250     2.1930    -1.7830    69.1520     5.8340     7.0150     8.3230    23.9380 
   59.2500     2.2110    -2.4070    66.5660     5.7580     6.9190     7.8660    23.9600 
   59.3750     2.2320    -2.8510    67.3990     5.6750     6.8040     7.1270    24.0010 
   59.5000     2.2520    -3.1950    72.1140     5.6460     6.7190     6.7570    24.0510 
   59.6250     2.2650    -3.4500    76.3220     5.7030     6.6970     6.9050    24.0950 
   59.7500     2.2680    -3.6500    75.8700     5.8520     6.7540     7.0730    24.1360 
   59.8750     2.2640    -3.8370    74.1380     6.0490     6.8580     7.1990    24.1680 
   60.0000     2.2570    -4.0200    72.4810     6.2520     6.9670     7.2620    24.2020 
   60.1250     2.2510    -4.2320    70.5220     6.3960     7.0220     7.1680    24.2480 
