~V
VERS. 2.00: Ver 2.00
~W
STRT.M 50.0000:
STOP.M 268.0000:
STEP.M 0.1250:
NULL. -999.2500:
UWI. F10199:
~C
DEPT.M :
GR.API :
RML.OHMM :
RI. :
RXO.OHMM :
CALI.CM :
DEN.GM/CC :
SP.MV :
~A
# ...
   95.0000    56.9220     8.4170     7.4450     7.6980    23.0820     2.2250   -17.6940 
   95.1250    55.0780     8.3300     7.3800     7.7080    23.0750     2.2250   -17.5930 
   95.2500    57.0490     8.2190     7.2910     7.5850    23.0820     2.2220   -17.5540 
   95.3750    61.4600     8.1030     7.1910     7.3980    23.0760     2.2160   -17.5050 
   95.5000    64.4600     8.0010     7.0950     7.2830    23.0530     2.2070   -17.4620 
   95.6250    63.8320     7.9410     7.0240     7.2580    23.0280     2.1980   -17.4300 
   95.7500    61.9120     7.9250     6.9790     7.2790    22.9950     2.1930   -17.4010 
   95.8750    59.2610     7.9380     6.9560     7.3210    22.9670     2.1930   -17.3900 
   96.0000    56.9190     7.9540     6.9370     7.3620    22.9430     2.1960   -17.3890 
   96.1250    57.9840     7.9320     6.8980     7.3510    22.9140     2.1980   -17.3750 
   96.2500    59.9230     7.8600     6.8280     7.2840    22.9000     2.1990   -17.3950 
   96.3750    60.0420     7.7470     6.7320     7.2490    22.9090     2.1990   -17.4650 
   96.5000    59.3890     7.6310     6.6340     7.3190    22.9320     2.2010   -17.5350 
   96.6250    60.6210     7.6020     6.5990     7.4850    22.9820     2.2080   -17.5660 
   96.7500    61.3700     7.7500     6.6940     7.6390    23.0460     2.2200   -17.5690 
   96.8750    61.4880     8.1450     6.9770     7.7020    23.1000     2.2390   -17.5630 
   97.0000    62.5080     8.8010     7.4760     7.6250    23.1540     2.2630   -17.5230 
   97.1250    63.7540     9.6490     8.1670     7.3590    23.2120     2.2890   -17.4830 
   97.2500    64.2010    10.4490     8.8810     7.0500    23.2580     2.3100   -17.4220 
   97.3750    64.2000    10.9780     9.4390     6.8090    23.2980     2.3170   -17.3340 
   97.5000    63.5510    11.0650     9.6780     6.7050    23.3340     2.3060   -17.2850 
   97.6250    61.4540    10.6240     9.4660     6.7430    23.3420     2.2770   -17.3200 
   97.7500    59.8880     9.9090     8.9660     6.8540    23.3350     2.2460   -17.3710 
   97.8750    59.8120     9.1540     8.3540     7.0120    23.3310     2.2200   -17.4390 
   98.0000    59.1930     8.5460     7.7940     7.1700    23.3160     2.2060   -17.5290 
   98.1250    57.1090     8.2040     7.4090     7.2660    23.2870     2.2030   -17.5900 
   98.2500    55.9910     8.0590     7.1810     7.2950    23.2580     2.2040   -17.6640 
   98.3750    56.1740     8.0400     7.0750     7.2860    23.2150     2.2040   -17.7600 
   98.5000    56.2260     8.0790     7.0420     7.3080    23.1650     2.2020   -17.8100 
   98.6250    55.6670     8.1140     7.0390     7.4660    23.1230     2.1980   -17.8300 
   98.7500    55.7050     8.1120     7.0290     7.7070    23.0750     2.1950   -17.8160 
   98.8750    56.2970     8.0660     6.9990     7.9420    23.0290     2.1970   -17.7610 
   99.0000    56.0600     7.9850     6.9500     8.1170    23.0000     2.2030   -17.7250 
   99.1250    55.8190     7.9090     6.9050     8.2080    22.9800     2.2110   -17.7050 
   99.2500    57.5160     7.8950     6.9010     8.1660    22.9620     2.2190   -17.5990 
   99.3750    58.8540     7.9900     6.9770     8.1130    22.9580     2.2280   -17.4030 
   99.5000    57.6060     8.2130     7.1550     8.2290    22.9550     2.2400   -17.1630 
   99.6250    55.7290     8.5310     7.4270     8.5960    22.9460     2.2560   -16.8780 
   99.7500    56.9430     8.8370     7.7140     9.1420    22.9440     2.2690   -16.5250 
   99.8750    59.5360     9.0390     7.9400     9.7490    22.9290     2.2710   -16.1130 
  100.0000    59.1630     9.0730     8.0440    10.1060    22.8870     2.2600   -15.6370 
  100.1250    56.4270     8.9080     7.9710     9.7620    22.8410     2.2410   -15.0070 
  100.2500    56.1950     8.6150     7.7680     9.1260    22.7920     2.2260   -14.3220 
  100.3750    58.7420     8.2310     7.4610     8.8000    22.7470     2.2220   -13.6000 
  100.5000    61.5030     7.7640     7.0670     8.5810    22.7270     2.2320   -12.7930 
  100.6250    63.6790     7.2000     6.5850     8.2580    22.7200     2.2530   -11.9160 
  100.7500    66.5940     6.5900     6.0630     7.7650    22.7140     2.2790   -11.1020 
  100.8750    69.8470     6.0250     5.5660     7.1370    22.7240     2.3050   -10.3670 
  101.0000    72.4400     5.6250     5.1840     6.5170    22.7530     2.3240    -9.6800 
  101.1250    73.4320     5.5170     5.0200     6.1720    22.7970     2.3280    -9.1510 
  101.2500    73.2360     5.6230     5.0310     6.0960    22.8700     2.3180    -8.7740 
  101.3750    72.3630     5.8050     5.1310     6.2740    22.9590     2.3040    -8.5110 
  101.5000    71.2390     5.8940     5.1950     6.4770    23.0470     2.2950    -8.3250 
  101.6250    70.0910     5.7170     5.0800     6.4120    23.1480     2.2970    -8.2180 
  101.7500    72.4750     5.3210     4.7910     5.9190    23.2530     2.3040    -8.2030 
  101.8750    79.6860     4.8470     4.4130     5.2930    23.3410     2.3100    -8.2840 
  102.0000    87.0050     4.4800     4.0820     4.8790    23.4140     2.3080    -8.4840 
  102.1250    87.5980     4.3910     3.9380     4.8470    23.4540     2.2980    -8.7780 
  102.2500    83.9940     4.5470     3.9850     5.1140    23.4530     2.2840    -9.1160 
  102.3750    79.5810     4.8650     4.1870     5.5300    23.4290     2.2720    -9.5260 
  102.5000    76.5100     5.2400     4.4760     5.9330    23.4000     2.2650    -9.9850 
  102.6250    75.9100     5.5710     4.7810     6.2050    23.3760     2.2610   -10.5330 
  102.7500    76.8380     5.8270     5.0510     6.2820    23.3740     2.2590   -11.0960 
  102.8750    77.7420     6.0200     5.2800     6.3600    23.3870     2.2580   -11.6320 
  103.0000    77.8330     6.1880     5.4820     6.5250    23.3740     2.2550   -12.0910 
  103.1250    76.1800     6.3700     5.6770     6.8900    23.3180     2.2500   -12.4540 
  103.2500    70.8650     6.5810     5.8780     7.1590    23.2520     2.2450   -12.7930 
  103.3750    64.3440     6.8180     6.0830     7.0680    23.1950     2.2400   -13.1130 
  103.5000    61.6510     7.0580     6.2740     6.9760    23.1740     2.2350   -13.4580 
  103.6250    64.0000     7.2390     6.4050     7.2340    23.1930     2.2300   -13.8060 
  103.7500    66.4800     7.3110     6.4440     7.7260    23.2170     2.2240   -14.1300 
  103.8750    65.4770     7.2470     6.3730     8.1150    23.2310     2.2170   -14.4070 
  104.0000    62.5370     7.0550     6.2020     8.0140    23.2230     2.2100   -14.6670 
  104.1250    62.9830     6.7870     5.9690     6.9460    23.2100     2.2040   -14.9120 
  104.2500    66.6200     6.5440     5.7500     6.3090    23.2260     2.2020   -15.0240 
  104.3750    69.1510     6.3920     5.5970     6.1630    23.2590     2.2030   -15.0160 
  104.5000    67.6670     6.3620     5.5390     6.2370    23.2910     2.2080   -14.9780 
  104.6250    65.7440     6.4560     5.5880     6.3390    23.3370     2.2140   -14.8820 
  104.7500    67.3670     6.6070     5.6980     6.4380    23.3810     2.2200   -14.7000 
  104.8750    68.8700     6.7680     5.8330     6.5230    23.4100     2.2250   -14.5190 
  105.0000    67.7640     6.9090     5.9630     6.5500    23.4310     2.2290   -14.3310 
  105.1250    67.2020     7.0100     6.0660     6.4950    23.4520     2.2330   -14.1490 
  105.2500    68.0310     7.0770     6.1400     6.4030    23.4550     2.2360   -14.0720 
  105.3750    67.5670     7.1010     6.1780     6.3240    23.4460     2.2410   -14.0620 
  105.5000    64.0120     7.0640     6.1640     6.3500    23.4350     2.2460   -14.0260 
  105.6250    62.4040     6.9320     6.0710     6.3810    23.4320     2.2530   -13.9910 
  105.7500    65.7740     6.7360     5.9200     6.3670    23.4450     2.2610   -13.9830 
  105.8750    71.3110     6.5370     5.7510     6.3000    23.4530     2.2670   -13.9430 
  106.0000    75.2420     6.4130     5.6240     6.1960    23.4350     2.2680   -13.9460 
  106.1250    74.4830     6.4460     5.6030     6.1560    23.4050     2.2600   -13.9650 
