~V
VERS. 2.00: Ver 2.00
~W
STRT.M 50.0000:
STOP.M 207.0000:
STEP.M 0.1250:
NULL. -999.2500:
UWI. F10134:
~C
DEPT.M :
SP.MV :
DEN.GM/CC :
GR.API :
RML.OHMM :
RI. :
RXO.OHMM :
CALI.CM :
~A
# ...
  173.7500     0.0070     2.2940    52.2960     9.7540     8.0310     9.2030    24.9610 
  173.8750     0.0180     2.2850    53.8320     9.7580     7.9880     9.0280    24.9650 
  174.0000    -0.0160     2.2760    53.4490     9.8690     8.0210     8.6570    24.9650 
  174.1250    -0.0830     2.2700    50.8470    10.0990     8.1590     9.4690    24.9610 
  174.2500    -0.1360     2.2720    47.9140    10.4490     8.3970    11.1190    24.9510 
  174.3750    -0.1590     2.2810    46.0930    10.9450     8.7330    13.1160    24.9360 
  174.5000    -0.1360     2.2950    46.0290    11.5680     9.1430    13.4780    24.9250 
  174.6250    -0.0720     2.3060    48.1570    12.1980     9.5520    13.7850    24.9170 
  174.7500     0.0190     2.3110    50.5080    12.6490     9.8580    14.5230    24.9070 
  174.8750     0.1230     2.3090    51.1630    12.8140     9.9900    14.4990    24.8910 
  175.0000     0.2250     2.3040    49.5050    12.6910     9.9320    13.3440    24.8640 
  175.1250     0.3110     2.2930    49.9340    12.3430     9.7110    10.8140    24.7910 
  175.2500     0.3750     2.2770    53.3200    11.9170     9.4260     8.8390    24.7100 
  175.3750     0.4070     2.2590    56.1810    11.5050     9.1400     7.5740    24.6920 
  175.5000     0.4070     2.2430    55.1990    11.1720     8.8950     7.1670    24.7600 
  175.6250     0.3920     2.2340    52.0090    10.9650     8.7130     7.4230    24.8380 
  175.7500     0.3850     2.2260    51.7140    10.8380     8.5790     7.8630    24.8650 
  175.8750     0.4130     2.2150    52.6130    10.7250     8.4720     8.1450    24.8550 
  176.0000     0.4960     2.2010    52.1950    10.5580     8.3700     8.0890    24.8420 
  176.1250     0.6770     2.1930    50.1280    10.2920     8.2490     8.0790    24.7910 
  176.2500     0.9530     2.1970    48.2500     9.9750     8.1070     8.1430    24.6600 
  176.3750     1.3120     2.2110    47.6520     9.6630     7.9500     7.9350    24.4740 
  176.5000     1.7040     2.2280    47.2340     9.3950     7.7880     7.7360    24.3250 
  176.6250     2.0470     2.2370    46.8630     9.2030     7.6380     7.4210    24.2710 
  176.7500     2.2850     2.2440    48.8500     9.0820     7.5200     7.4860    24.2410 
  176.8750     2.3860     2.2550    56.7910     9.0330     7.4470     7.5210    24.2000 
  177.0000     2.3340     2.2730    70.6680     9.0470     7.4180     7.3400    24.1700 
  177.1250     2.0970     2.2940    82.2280     9.1090     7.4170     6.8230    24.1660 
  177.2500     1.7250     2.3100    87.3610     9.1800     7.4200     6.7980    24.1920 
  177.3750     1.2580     2.3210    90.3340     9.2140     7.4250     6.7690    24.2610 
  177.5000     0.7490     2.3270    97.2280     9.1680     7.4360     6.6120    24.3610 
  177.6250     0.2310     2.3240   104.8570     9.0440     7.4550     6.8970    24.4320 
  177.7500    -0.2700     2.3130   105.5500     8.9420     7.4760     7.3520    24.5420 
  177.8750    -0.7480     2.2940    99.1930     8.9560     7.4950     7.7830    24.7840 
  178.0000    -1.1880     2.2710    92.8080     9.1390     7.5190     8.2330    25.1010 
  178.1250    -1.5650     2.2500    92.4670     9.4820     7.5760     8.6010    25.3030 
  178.2500    -1.8760     2.2380    93.3370     9.8750     7.6850     8.3190    25.3540 
  178.3750    -2.1320     2.2410    91.3130    10.2510     7.8460     8.3490    25.3230 
  178.5000    -2.3400     2.2620    87.2270    10.5880     8.0500     8.8460    25.2690 
  178.6250    -2.4940     2.3020    86.8380    10.9280     8.3000     9.4580    25.2240 
  178.7500    -2.6030     2.3510    88.4980    11.3380     8.6030     9.5700    25.2110 
  178.8750    -2.6680     2.3990    88.4790    11.8740     8.9790     9.8560    25.2120 
  179.0000    -2.6860     2.4400    86.3570    12.6000     9.4650    10.6940    25.2140 
  179.1250    -2.6380     2.4700    84.7260    13.6530    10.1520    12.2560    25.2160 
  179.2500    -2.5080     2.4940    84.6670    15.0050    11.0480    13.3280    25.2150 
  179.3750    -2.2740     2.5190    82.7180    16.4690    12.0620    14.3010    25.2120 
  179.5000    -1.9270     2.5460    77.7410    17.5900    12.9180    16.8720    25.2170 
  179.6250    -1.4750     2.5580    75.2680    17.5110    13.0450    19.5530    25.2350 
  179.7500    -0.9620     2.5460    78.2740    16.0690    12.2930    21.4990    25.2540 
  179.8750    -0.4120     2.5090    83.9420    13.6890    10.8950    18.5380    25.2590 
  180.0000     0.1450     2.4550    87.1490    11.2220     9.3450    12.4760    25.2550 
  180.1250     0.6750     2.3970    87.4930     9.5570     8.1700     8.3090    25.2610 
  180.2500     1.1590     2.3480    88.4270     8.8300     7.5110     6.9510    25.2710 
  180.3750     1.5960     2.3160    89.7160     8.8870     7.3450     7.4380    25.2340 
  180.5000     2.0100     2.3060    88.7420     9.3830     7.5400     8.7820    25.1230 
  180.6250     2.4490     2.3240    83.7470     9.8180     7.8640     9.6550    24.9800 
  180.7500     2.9340     2.3610    78.4010     9.7970     8.0230    10.1020    24.8740 
  180.8750     3.4740     2.4060    73.3390     9.2430     7.8780     9.7950    24.8340 
  181.0000     4.0620     2.4420    66.5470     8.3510     7.4540     8.5460    24.8490 
  181.1250     4.6780     2.4590    57.9020     7.4420     6.8930     7.1990    24.8870 
  181.2500     5.2740     2.4580    51.3590     6.7110     6.3620     6.4470    24.9010 
  181.3750     5.8040     2.4420    48.1010     6.1920     5.9170     5.9730    24.8830 
  181.5000     6.2340     2.4170    47.7090     5.8480     5.5660     5.5150    24.8640 
  181.6250     6.5240     2.3950    51.6080     5.6420     5.3180     5.2450    24.7730 
  181.7500     6.6910     2.3840    57.3740     5.5480     5.1600     5.1220    24.8870 
  181.8750     6.7510     2.3890    62.9720     5.6270     5.1170     4.9890    25.0210 
  182.0000     6.7220     2.4050    67.1300     5.9280     5.2180     4.8900    25.0820 
  182.1250     6.6110     2.4200    70.5200     6.4720     5.4910     5.1640    25.0660 
  182.2500     6.4510     2.4220    74.8310     7.1130     5.8690     5.9430    24.9830 
  182.3750     6.2650     2.4070    79.7930     7.6910     6.2710     7.0310    24.8330 
  182.5000     6.0760     2.3800    84.8160     8.0320     6.5880     7.9430    24.6960 
  182.6250     5.9250     2.3540    89.0100     7.9630     6.6800     7.8450    24.6780 
  182.7500     5.8400     2.3390    91.9290     7.5850     6.5510     7.1550    24.7310 
  182.8750     5.8320     2.3390    93.1760     7.0660     6.2780     6.8450    24.7810 
  183.0000     5.9090     2.3500    92.9870     6.6090     5.9770     6.2450    24.8030 
  183.1250     6.0570     2.3650    91.6280     6.4070     5.7600     5.7730    24.8010 
  183.2500     6.2400     2.3770    89.0130     6.4100     5.6500     5.6090    24.8000 
  183.3750     6.4290     2.3810    86.1090     6.4910     5.6190     6.1020    24.8000 
  183.5000     6.6000     2.3790    86.4500     6.5150     5.6150     7.0530    24.8000 
  183.6250     6.7370     2.3730    89.9960     6.4040     5.5770     7.1460    24.8000 
  183.7500     6.8460     2.3700    91.7790     6.2720     5.4940     6.1550    24.8000 
  183.8750     6.9380     2.3690    88.7310     6.2700     5.4100     5.5050    24.8010 
  184.0000     7.0200     2.3700    84.2500     6.4850     5.4050     5.3060    24.8030 
  184.1250     7.0920     2.3790    81.3790     6.9030     5.5720     5.4860    24.7810 
  184.2500     7.1600     2.3980    78.2700     7.3670     5.8720     6.4750    24.7300 
  184.3750     7.2110     2.4240    76.4490     7.7440     6.2090     9.1400    24.6910 
  184.5000     7.2280     2.4440    77.6550     7.9220     6.4450    12.5940    24.7190 
  184.6250     7.1930     2.4400    78.9560     7.8470     6.4760    12.1480    24.8180 
  184.7500     7.1020     2.4140    78.7940     7.7250     6.4160     9.1340    24.9020 
  184.8750     6.9590     2.3810    80.2920     7.8260     6.4410     7.1340    24.9370 
