~V
VERS. 2.00: Ver 2.00
~W
STRT.M 50.0000:
STOP.M 230.0000:
STEP.M 0.1250:
NULL. -999.2500:
UWI. F10167:
~C
DEPT.M :
DEN.GM/CC :
GR.API :
RML.OHMM :
RI. :
RXO.OHMM :
CALI.CM :
SP.MV :
~A
# ...
  106.2500     2.3520    76.8770     8.9630     7.7950    12.4080    22.5710    -6.9900 
  106.3750     2.2860    76.1100     8.6110     7.6620    10.1580    22.4260    -7.9610 
  106.5000     2.2260    77.0450     8.2430     7.4110     8.6220    22.3150    -8.9280 
  106.6250     2.1910    74.2800     8.1410     7.2700     7.8380    22.2830    -9.7960 
  106.7500     2.1850    67.9070     8.3480     7.3400     7.7840    22.4190   -10.5530 
  106.8750     2.2100    63.2310     8.7710     7.6050     7.9810    22.7110   -11.2330 
  107.0000     2.2510    63.5300     9.2310     7.9560     8.0830    23.0360   -11.7840 
  107.1250     2.2860    67.7410     9.4810     8.2130     8.1760    23.0980   -12.0510 
  107.2500     2.2980    69.8180     9.4350     8.2550     8.3060    22.9250   -12.1670 
  107.3750     2.2890    68.7050     9.1180     8.0600     8.2800    22.7450   -12.2250 
  107.5000     2.2690    68.2280     8.6370     7.6860     8.0210    22.6410   -12.1440 
  107.6250     2.2520    69.3770     8.1370     7.2410     7.8190    22.5440   -11.8980 
  107.7500     2.2400    70.5440     7.7470     6.8450     7.7010    22.4350   -11.6520 
  107.8750     2.2290    72.2860     7.5680     6.5830     7.6170    22.3570   -11.3290 
  108.0000     2.2190    73.1500     7.7340     6.5440     7.5460    22.3260   -10.8670 
  108.1250     2.2150    70.3060     8.5070     6.9230     7.6320    22.3460   -10.4680 
  108.2500     2.2250    67.1660     9.9100     7.7980     8.1780    22.4570   -10.1680 
  108.3750     2.2580    67.5030    11.8380     9.2080    10.0330    22.6760    -9.8920 
  108.5000     2.3130    68.3220    13.8950    10.9770    14.3190    23.0720    -9.7360 
  108.6250     2.3780    64.8800    15.1970    12.4870    22.8600    23.5400    -9.8170 
  108.7500     2.4230    60.3740    15.1730    13.0590    24.5680    23.6540    -9.9190 
  108.8750     2.4310    58.4700    13.8470    12.4250    17.8260    23.2230   -10.0270 
  109.0000     2.3990    59.7470    11.8270    10.8770    11.8110    22.7460   -10.2230 
  109.1250     2.3460    64.9760     9.9250     9.0880     9.4650    22.5030   -10.4040 
  109.2500     2.3000    72.0920     8.5380     7.6430     8.5600    22.3440   -10.5020 
  109.3750     2.2710    77.8030     7.7350     6.7030     8.1580    22.1530   -10.6000 
  109.5000     2.2530    80.3800     7.4820     6.2430     7.9360    21.9740   -10.7050 
  109.6250     2.2320    79.4070     7.7170     6.2310     8.0820    21.8710   -10.7030 
  109.7500     2.2050    77.0460     8.2020     6.5020     8.2860    21.8910   -10.7010 
  109.8750     2.1810    74.0400     8.8130     6.9640     8.3280    22.0400   -10.8320 
  110.0000     2.1720    70.4580     9.4170     7.5040     8.5000    22.2610   -11.0530 
  110.1250     2.1860    65.3310     9.8290     7.9600     9.9450    22.5070   -11.3200 
  110.2500     2.2070    61.4030     9.9690     8.2140    11.7500    22.7330   -11.6740 
  110.3750     2.2210    62.1290     9.8290     8.2220    10.8240    22.7060   -12.0750 
  110.5000     2.2210    65.9120     9.4940     8.0260     8.8290    22.5310   -12.4410 
  110.6250     2.2030    67.3580     9.1170     7.7290     8.0150    22.3980   -12.8240 
  110.7500     2.1810    67.1080     8.8430     7.4680     8.0990    22.3500   -13.2760 
  110.8750     2.1610    68.1960     8.7270     7.3110     8.2820    22.3370   -13.6610 
  111.0000     2.1470    69.0180     8.7640     7.2780     8.3440    22.3330   -13.9570 
  111.1250     2.1420    65.0700     8.9090     7.3550     8.4220    22.3400   -14.2620 
  111.2500     2.1440    58.7300     9.0760     7.4770     8.5480    22.3600   -14.5150 
  111.3750     2.1530    55.9230     9.2140     7.6000     8.7510    22.3880   -14.6880 
  111.5000     2.1680    58.7840     9.2910     7.6890     8.9880    22.4240   -14.8570 
  111.6250     2.1840    60.9870     9.2800     7.7120     9.1280    22.4790   -14.9810 
  111.7500     2.1950    59.6300     9.2020     7.6720     9.0530    22.5330   -14.9080 
  111.8750     2.2000    59.6030     9.0810     7.5810     8.8930    22.5740   -14.7530 
  112.0000     2.1980    64.1080     8.9410     7.4580     8.8100    22.5960   -14.6090 
  112.1250     2.1940    69.6980     8.8070     7.3250     8.6130    22.6060   -14.3670 
  112.2500     2.1880    71.1550     8.6970     7.2070     8.4900    22.6070   -14.0970 
  112.3750     2.1810    69.9150     8.6230     7.1180     8.4060    22.5380   -13.8750 
  112.5000     2.1710    68.7140     8.5970     7.0710     8.1510    22.3620   -13.6170 
  112.6250     2.1600    68.3940     8.6320     7.0800     7.7240    22.2360   -13.3230 
  112.7500     2.1540    67.7790     8.7070     7.1330     7.8340    22.4510   -13.1750 
  112.8750     2.1530    65.8970     8.7980     7.2130     8.2140    22.6790   -13.1130 
  113.0000     2.1590    64.2250     8.8740     7.2940     8.5290    22.7890   -13.0380 
  113.1250     2.1700    64.4790     8.8970     7.3440     8.5810    22.7920   -13.0170 
  113.2500     2.1820    65.8910     8.8640     7.3490     8.5810    22.7590   -13.0980 
  113.3750     2.1940    67.3930     8.7870     7.3140     8.5450    22.6850   -13.2310 
  113.5000     2.2020    68.6800     8.6920     7.2510     8.5050    22.5870   -13.4120 
  113.6250     2.2030    69.3780     8.6160     7.1830     8.5090    22.4720   -13.6680 
  113.7500     2.1980    66.8380     8.5950     7.1380     8.5590    22.4080   -13.9120 
  113.8750     2.1940    62.5070     8.6560     7.1430     8.7290    22.3880   -14.0710 
  114.0000     2.2030    62.1760     8.8200     7.2270     8.9970    22.3870   -14.1850 
  114.1250     2.2440    66.2560     9.0990     7.4240     9.0840    22.4110   -14.2910 
  114.2500     2.3110    68.3570     9.4290     7.6970     8.9010    22.4630   -14.3020 
  114.3750     2.3800    66.8310     9.7270     7.9820     8.8430    22.5200   -14.2220 
  114.5000     2.4200    66.2230     9.8960     8.1950     8.8630    22.5390   -14.1580 
  114.6250     2.4060    68.3270     9.8380     8.2310     8.9460    22.5110   -14.0660 
  114.7500     2.3550    69.8100     9.6040     8.1000     9.0500    22.4630   -13.8850 
  114.8750     2.2920    68.7560     9.2770     7.8550     9.1010    22.4550   -13.7410 
  115.0000     2.2410    65.8480     8.9600     7.5780     9.1220    22.4690   -13.6680 
  115.1250     2.2130    63.1840     8.7460     7.3550     9.1060    22.4910   -13.5870 
  115.2500     2.1940    62.4170     8.6390     7.2190     9.1000    22.5160   -13.5180 
  115.3750     2.1790    62.7420     8.6100     7.1620     9.0500    22.5310   -13.4880 
  115.5000     2.1630    63.7890     8.6170     7.1560     9.0340    22.5420   -13.3880 
  115.6250     2.1510    64.5410     8.6140     7.1610     9.0610    22.5620   -13.1710 
  115.7500     2.1470    64.0590     8.5630     7.1360     9.1230    22.5770   -12.9360 
  115.8750     2.1560    64.5300     8.4330     7.0550     9.0700    22.5790   -12.6010 
  116.0000     2.1770    67.0260     8.2130     6.9020     8.9900    22.5790   -12.0790 
  116.1250     2.2080    71.2370     7.9210     6.6780     8.9860    22.6800   -11.4390 
  116.2500     2.2350    76.8490     7.6430     6.4430     8.7560    22.9190   -10.8210 
  116.3750     2.2480    83.0550     7.4590     6.2590     8.0750    23.2080   -10.2080 
  116.5000     2.2440    87.6030     7.4260     6.1810     7.3710    23.2340    -9.6400 
  116.6250     2.2270    86.8270     7.5770     6.2530     7.1830    22.9670    -9.2920 
  116.7500     2.2100    84.2950     7.8220     6.4270     7.3330    22.8150    -9.1220 
  116.8750     2.2030    82.4860     8.0650     6.6400     7.6430    22.7800    -9.0850 
  117.0000     2.2080    80.4230     8.2160     6.8160     7.8310    22.6520    -9.2200 
  117.1250     2.2220    78.9990     8.2000     6.8760     7.9780    22.4550    -9.5190 
  117.2500     2.2340    78.6110     8.0670     6.8320     8.1200    22.3830    -9.7840 
  117.3750     2.2380    78.8050     7.8890     6.7220     8.1260    22.3970   -10.0010 
