~V
VERS. 2.00: Ver 2.00
~W
STRT.M 57.0000:
STOP.M 214.0000:
STEP.M 0.1250:
NULL. -999.2500:
UWI. F10147:
~C
DEPT.M :
SP.MV :
GR.API :
RML.OHMM :
RI. :
RXO.OHMM :
CALI.CM :
DEN.GM/CC :
~A
# ...
  169.5000    -9.5490    87.6440    14.8920    14.2290    10.1410    24.9900     2.4080 
  169.6250    -9.5960    79.9480    17.3140    15.7650    11.8780    25.0130     2.4110 
  169.7500    -9.6480    72.4160    21.5780    18.8810    16.4290    25.0790     2.4070 
  169.8750    -9.6930    67.6880    27.9790    24.0310    26.6290    25.1440     2.3950 
  170.0000    -9.7380    66.0050    35.9480    30.8310    41.7690    25.1760     2.3750 
  170.1250    -9.7840    66.1280    44.1340    38.1380    54.6730    25.1860     2.3490 
  170.2500    -9.8250    66.7860    51.1460    44.6630    57.7850    25.1550     2.3240 
  170.3750    -9.8680    66.9540    56.1530    49.4830    51.7510    25.0560     2.3040 
  170.5000    -9.9140    66.1560    59.9180    53.0470    46.9830    24.9400     2.2930 
  170.6250    -9.9540    65.5500    63.8790    56.5220    51.6910    24.8710     2.2860 
  170.7500    -9.9790    65.7980    68.7780    60.6480    64.7400    24.8560     2.2830 
  170.8750   -10.0120    65.4410    74.0290    65.1540    78.2950    24.8610     2.2830 
  171.0000   -10.0540    64.6480    78.0730    68.8790    85.0830    24.8640     2.2830 
  171.1250   -10.0850    65.7270    79.7010    70.7950    82.5950    24.8570     2.2840 
  171.2500   -10.1030    68.5660    78.8280    70.7120    72.2860    24.8510     2.2860 
  171.3750   -10.1220    69.9730    76.2280    69.1590    59.5640    24.8760     2.2890 
  171.5000   -10.1350    69.1000    72.8560    66.9200    52.5120    24.9050     2.2940 
  171.6250   -10.1440    67.9000    69.0200    64.2700    54.6240    24.9110     2.2980 
  171.7500   -10.1650    67.1310    64.4890    60.9620    60.1790    24.9180     2.3020 
  171.8750   -10.1800    67.0370    59.0410    56.6520    58.7500    24.9260     2.3050 
  172.0000   -10.1870    68.4760    52.9460    51.4730    48.9320    24.9210     2.3110 
  172.1250   -10.2070    71.2200    46.7710    45.9190    38.0990    24.9110     2.3170 
  172.2500   -10.2370    74.0340    41.0940    40.5600    31.8260    24.9080     2.3250 
  172.3750   -10.2650    77.2570    36.6480    36.1300    29.1210    24.9130     2.3340 
  172.5000   -10.3010    80.8200    33.9570    33.1810    26.3580    24.9250     2.3410 
  172.6250   -10.3450    82.2220    33.4420    32.1320    22.9370    24.9350     2.3480 
  172.7500   -10.3860    78.9110    35.6430    33.5040    21.4710    24.9330     2.3520 
  172.8750   -10.4390    72.2550    41.6930    38.4350    28.9370    24.9300     2.3480 
  173.0000   -10.4960    67.0880    52.3820    47.7800    50.5630    24.9340     2.3350 
  173.1250   -10.5430    65.6920    68.1640    61.9810    80.2400    24.9410     2.3150 
  173.2500   -10.5820    65.9520    89.2040    81.0550   102.4170    24.9380     2.2950 
  173.3750   -10.6260    64.5580   115.3240   104.5840   111.7080    24.9120     2.2780 
  173.5000   -10.6590    61.6000   145.2290   131.1500   129.1930    24.8720     2.2670 
  173.6250   -10.6770    59.3090   177.1890   158.9470   177.3890    24.8410     2.2610 
  173.7500   -10.7010    58.1110   208.4430   185.4730   253.5370    24.8490     2.2580 
  173.8750   -10.7200    56.8590   231.4430   205.0010   323.4000    24.9740     2.2560 
  174.0000   -10.7190    55.2010   237.8430   211.6830   347.7450    25.1530     2.2510 
  174.1250   -10.7170    54.4700   224.1940   202.8500   314.8910    25.2430     2.2420 
  174.2500   -10.7220    56.0460   194.5820   180.5690   245.6960    25.2090     2.2270 
  174.3750   -10.7260    59.4870   159.4410   151.5250   173.8530    25.1060     2.2140 
  174.5000   -10.7310    63.1990   128.6940   123.7470   116.2750    24.9940     2.2120 
  174.6250   -10.7390    66.0980   106.6750   102.1660    75.0040    24.9410     2.2260 
  174.7500   -10.7500    67.7320    93.5290    88.2090    51.6380    25.0000     2.2530 
  174.8750   -10.7700    67.1770    88.4580    82.0120    47.8120    25.0950     2.2820 
  175.0000   -10.7960    64.5390    89.4370    81.9210    58.3180    25.1670     2.3020 
  175.1250   -10.8240    61.2380    94.4380    85.9740    74.2920    25.2310     2.3090 
  175.2500   -10.8610    59.1790   102.0460    92.7670    85.8940    25.3040     2.3040 
  175.3750   -10.8950    59.3660   111.0010   101.0560    87.4950    25.3530     2.2950 
  175.5000   -10.9260    60.8710   120.3270   109.8030    87.4780    25.3480     2.2860 
  175.6250   -10.9690    61.9840   129.5920   118.4300    98.0740    25.2870     2.2750 
  175.7500   -11.0140    61.5140   138.6440   126.6650   119.4080    25.1870     2.2620 
  175.8750   -11.0450    59.6850   146.9930   134.0020   136.5450    25.1060     2.2450 
  176.0000   -11.0780    57.6320   153.9290   139.8810   137.8340    25.1040     2.2290 
  176.1250   -11.1210    56.4480   159.0140   143.9850   126.8760    25.1620     2.2190 
  176.2500   -11.1470    56.0580   162.4720   146.5050   116.2490    25.2100     2.2180 
  176.3750   -11.1640    55.3830   165.2700   148.2540   117.9060    25.2270     2.2220 
  176.5000   -11.1970    54.3820   168.5610   150.3070   131.8670    25.2400     2.2260 
  176.6250   -11.2350    53.8940   173.0700   153.4390   151.1890    25.2600     2.2280 
  176.7500   -11.2570    54.7180   179.1300   158.0610   170.1370    25.2720     2.2260 
  176.8750   -11.2740    57.3250   187.0120   164.5020   185.1200    25.2880     2.2210 
  177.0000   -11.3010    60.3480   196.1970   172.3970   197.9140    25.2960     2.2140 
  177.1250   -11.3220    61.1360   205.0180   180.5100   216.6610    25.2860     2.2070 
  177.2500   -11.3440    59.0700   210.7420   186.7820   246.3990    25.2690     2.2030 
  177.3750   -11.3850    56.9180   209.5430   188.0540   269.9780    25.2550     2.2000 
  177.5000   -11.4260    56.4650   200.4090   182.9300   261.3590    25.2470     2.2000 
  177.6250   -11.4510    56.5170   185.4060   172.4050   218.2060    25.2510     2.2050 
  177.7500   -11.4870    56.7400   167.6230   158.6960   164.3630    25.2590     2.2150 
  177.8750   -11.5310    58.7240   149.9960   144.3080   126.8480    25.2570     2.2290 
  178.0000   -11.5650    61.8140   133.9370   130.7810   110.9620    25.2460     2.2430 
  178.1250   -11.6110    63.6520   119.6960   118.5540   106.4270    25.2380     2.2560 
  178.2500   -11.6710    63.9780   107.3860   107.6890   100.6470    25.2340     2.2660 
  178.3750   -11.7150    65.1760    97.5310    98.5120    86.2320    25.2280     2.2770 
  178.5000   -11.7560    68.2140    90.3370    91.2130    70.1280    25.2330     2.2900 
  178.6250   -11.8060    70.9500    85.4650    85.7570    63.6280    25.2400     2.3020 
  178.7500   -11.8470    70.5870    82.1170    81.8850    67.1040    25.2300     2.3080 
  178.8750   -11.8890    66.3910    79.4450    79.0750    69.7750    25.2130     2.3070 
  179.0000   -11.9460    62.7050    77.0450    76.6030    65.0750    25.2090     2.3010 
  179.1250   -12.0040    64.4860    74.9300    73.9660    56.2810    25.2060     2.2980 
  179.2500   -12.0550    70.6230    73.1860    71.0700    48.6480    25.2000     2.3000 
  179.3750   -12.1050    74.1500    71.6640    68.1840    43.7030    25.2330     2.3100 
  179.5000   -12.1520    72.9590    70.0390    65.7630    40.4720    25.2960     2.3230 
  179.6250   -12.1970    71.2780    68.4310    64.2030    38.8360    25.3450     2.3350 
  179.7500   -12.2550    71.9910    67.6070    63.7850    39.0540    25.3450     2.3410 
  179.8750   -12.3150    73.6200    68.4560    64.8630    41.0540    25.2700     2.3380 
  180.0000   -12.3610    74.3310    70.9230    67.5510    44.6280    25.1650     2.3290 
  180.1250   -12.4020    73.7160    74.7780    71.8300    49.6160    25.0870     2.3170 
  180.2500   -12.4470    71.6450    80.1910    77.6690    55.6210    25.0420     2.3070 
  180.3750   -12.4910    68.6680    86.9410    84.9760    62.2730    25.0360     2.3020 
  180.5000   -12.5300    65.7440    94.1060    93.1700    69.7110    25.0670     2.3040 
  180.6250   -12.5620    63.6770   100.9560   101.2720    77.9340    25.1280     2.3060 
