~V
VERS. 2.00: Ver 2.00
~W
STRT.M 52.0000:
STOP.M 322.0000:
STEP.M 0.1250:
NULL. -999.2500:
UWI. F10105:
~C
DEPT.M :
GR.API :
RML.OHMM :
RI. :
RXO.OHMM :
CALI.CM :
DEN.GM/CC :
SP.MV :
~A
# ...
  187.0000    76.5380     6.0490     5.6510     5.9020    25.8360     2.2800    -8.0930 
  187.1250    77.5230     5.9440     5.5470     5.7090    25.8800     2.2810    -8.0300 
  187.2500    79.3840     5.8320     5.4400     5.6390    25.9140     2.2860    -7.9150 
  187.3750    81.3090     5.7230     5.3290     5.9910    25.9180     2.2920    -7.6280 
  187.5000    80.8780     5.6480     5.2320     6.2740    25.8310     2.2990    -7.2240 
  187.6250    79.5000     5.6600     5.1970     6.6920    25.7460     2.3080    -6.8020 
  187.7500    81.6110     5.7730     5.2540     7.0080    25.8970     2.3190    -6.3460 
  187.8750    89.6890     5.9730     5.4100     7.1880    26.2250     2.3290    -5.9040 
  188.0000   100.3430     6.2090     5.6340     6.8880    26.5000     2.3310    -5.5350 
  188.1250   106.3730     6.3830     5.8460     7.0290    26.6530     2.3240    -5.2010 
  188.2500   108.9730     6.4260     5.9550     6.3940    26.7540     2.3170    -4.8630 
  188.3750   109.0230     6.3110     5.9100     6.0650    26.7810     2.3160    -4.5630 
  188.5000   106.0250     6.0650     5.7140     5.9090    26.7420     2.3210    -4.2960 
  188.6250    99.8060     5.7530     5.4210     5.6010    26.7280     2.3260    -4.0700 
  188.7500    95.0040     5.4590     5.1250     5.2460    26.7400     2.3240    -3.8520 
  188.8750    94.0680     5.2180     4.8670     4.8940    26.7320     2.3120    -3.5890 
  189.0000    94.8020     5.0410     4.6590     4.7090    26.7350     2.2970    -3.3100 
  189.1250    94.5200     4.9290     4.5070     4.6880    26.7220     2.2860    -3.0920 
  189.2500    92.4550     4.8620     4.3960     4.7020    26.7360     2.2840    -2.9090 
  189.3750    89.7550     4.8300     4.3190     4.6740    26.7570     2.2900    -2.7810 
  189.5000    89.3460     4.8190     4.2650     4.6400    26.7550     2.3020    -2.7490 
  189.6250    93.0240     4.8170     4.2290     4.7010    26.7140     2.3180    -2.7360 
  189.7500    95.2870     4.8240     4.2060     4.7800    26.6460     2.3330    -2.7270 
  189.8750    94.7430     4.8510     4.2010     4.8500    26.5290     2.3470    -2.8100 
  190.0000    95.9120     4.9140     4.2280     4.8480    26.3910     2.3580    -2.9210 
  190.1250    99.6090     5.0290     4.3020     4.8780    26.3020     2.3670    -2.9380 
  190.2500   100.4120     5.1800     4.4160     5.0210    26.2600     2.3730    -2.9920 
  190.3750    97.1970     5.3370     4.5540     5.3170    26.2540     2.3780    -3.0880 
  190.5000    96.2920     5.4660     4.6840     5.6140    26.2440     2.3820    -3.1430 
  190.6250    99.0860     5.5290     4.7590     5.7620    26.2290     2.3870    -3.2670 
  190.7500    99.2150     5.5370     4.7720     5.7810    26.2490     2.3920    -3.4420 
  190.8750    96.8000     5.5180     4.7420     5.7010    26.2920     2.3940    -3.5630 
  191.0000    95.5380     5.5140     4.7080     5.5280    26.3240     2.3920    -3.6550 
  191.1250    96.5920     5.5630     4.7170     5.3510    26.2560     2.3810    -3.8250 
  191.2500    95.2110     5.6540     4.7750     5.4530    26.1400     2.3620    -4.0160 
  191.3750    91.0520     5.7530     4.8620     5.8500    26.0230     2.3400    -4.1930 
  191.5000    86.7140     5.8150     4.9360     6.3100    25.9390     2.3190    -4.3700 
  191.6250    85.1940     5.7990     4.9510     6.1970    25.9720     2.3050    -4.4860 
  191.7500    87.9620     5.7260     4.9120     5.8320    26.1010     2.2980    -4.5550 
  191.8750    94.4280     5.6340     4.8420     5.6200    26.2530     2.2990    -4.5600 
  192.0000    98.6870     5.5650     4.7740     5.3910    26.3570     2.3060    -4.4930 
  192.1250    95.8650     5.5450     4.7350     5.4150    26.4350     2.3220    -4.3750 
  192.2500    92.1910     5.5540     4.7220     5.4370    26.5060     2.3420    -4.1820 
  192.3750    92.1830     5.5590     4.7180     5.4160    26.5720     2.3600    -3.9060 
  192.5000    94.6810     5.5250     4.6990     5.3620    26.6510     2.3690    -3.6000 
  192.6250    95.6320     5.4360     4.6440     5.2520    26.6790     2.3670    -3.2700 
  192.7500    95.2350     5.3270     4.5610     5.1490    26.6800     2.3570    -2.9310 
  192.8750    94.2550     5.2400     4.4710     5.1510    26.6640     2.3450    -2.6840 
  193.0000    92.3380     5.2110     4.4060     5.1000    26.6510     2.3340    -2.5520 
  193.1250    89.8700     5.2620     4.4020     5.0250    26.6400     2.3270    -2.3420 
  193.2500    89.8870     5.3570     4.4510     5.0890    26.6190     2.3200    -2.0920 
  193.3750    92.8770     5.4500     4.5270     5.3830    26.5980     2.3110    -1.9260 
  193.5000    95.7880     5.4980     4.5940     5.6470    26.5860     2.3010    -1.7380 
  193.6250    94.4910     5.4630     4.6010     5.5010    26.5760     2.2930    -1.5210 
  193.7500    91.9290     5.3700     4.5480     5.1230    26.5780     2.2900    -1.3770 
  193.8750    91.6790     5.2610     4.4600     4.9570    26.6100     2.2940    -1.2390 
  194.0000    93.7000     5.1870     4.3800     4.9540    26.6090     2.3020    -1.0470 
  194.1250    96.4950     5.2070     4.3670     5.0780    26.5060     2.3120    -0.9730 
  194.2500   101.1340     5.3190     4.4360     5.2570    26.3510     2.3210    -1.0010 
  194.3750   107.0710     5.4960     4.5810     5.5280    26.2910     2.3310    -0.9970 
  194.5000   112.6700     5.6870     4.7690     5.6840    26.3730     2.3440    -1.0040 
  194.6250   115.1500     5.8160     4.9410     5.7620    26.4740     2.3560    -1.0980 
  194.7500   114.4270     5.8470     5.0390     5.6800    26.5390     2.3650    -1.1800 
  194.8750   111.8660     5.7700     5.0360     5.5160    26.5380     2.3680    -1.2200 
  195.0000   108.6240     5.6090     4.9340     5.2670    26.5200     2.3640    -1.2630 
  195.1250   106.8670     5.4040     4.7590     4.9500    26.5090     2.3540    -1.2750 
  195.2500   105.0710     5.2090     4.5700     4.7530    26.4930     2.3420    -1.2350 
  195.3750   101.3160     5.0560     4.4030     4.7190    26.4530     2.3320    -1.2000 
  195.5000    95.1680     4.9610     4.2780     4.9620    26.3460     2.3280    -1.2570 
  195.6250    89.7240     4.9310     4.2090     5.4000    26.2190     2.3310    -1.3730 
  195.7500    88.6380     4.9380     4.1820     5.6930    26.0980     2.3370    -1.4570 
  195.8750    91.9220     4.9560     4.1800     5.7040    26.0300     2.3430    -1.5840 
  196.0000    96.2430     4.9690     4.1890     5.5350    26.0080     2.3460    -1.7870 
  196.1250    98.5650     4.9680     4.1950     5.3240    26.0030     2.3470    -1.9770 
  196.2500    98.3550     4.9630     4.1970     5.1710    25.9700     2.3460    -2.1390 
  196.3750    96.9690     4.9750     4.2030     5.0950    25.8850     2.3430    -2.3420 
  196.5000    97.2450     5.0230     4.2300     4.9460    25.7520     2.3370    -2.4710 
  196.6250   100.3290     5.1350     4.3030     4.9650    25.6000     2.3310    -2.5280 
  196.7500   102.3640     5.2970     4.4240     5.2240    25.4500     2.3310    -2.6440 
  196.8750   100.6310     5.4830     4.5800     5.7520    25.3500     2.3410    -2.7360 
  197.0000    95.3300     5.6510     4.7440     6.1650    25.3030     2.3600    -2.7360 
  197.1250    93.5660     5.7440     4.8690     6.1440    25.3930     2.3790    -2.7530 
  197.2500    96.5620     5.7540     4.9270     5.9180    25.6150     2.3920    -2.7330 
  197.3750   100.7020     5.6890     4.9100     5.6360    25.8070     2.3950    -2.6070 
  197.5000   101.5850     5.5770     4.8280     5.4830    25.8820     2.3910    -2.4900 
  197.6250    98.7630     5.4440     4.7060     5.3520    25.8950     2.3870    -2.3910 
  197.7500    98.3120     5.3180     4.5790     5.1810    25.9350     2.3850    -2.2530 
  197.8750   100.2530     5.2080     4.4670     4.9830    26.0020     2.3840    -2.0860 
  198.0000   101.8830     5.1240     4.3810     4.8380    26.0600     2.3820    -1.9100 
  198.1250   103.2280     5.0780     4.3290     4.9060    26.0710     2.3750    -1.7240 
