~V
VERS. 2.00: Ver 2.00
~W
STRT.M 50.0000:
STOP.M 211.0000:
STEP.M 0.1250:
NULL. -999.2500:
UWI. F10140:
~C
DEPT.M :
DEN.GM/CC :
GR.API :
RML.OHMM :
RI. :
RXO.OHMM :
CALI.CM :
SP.MV :
~A
# ...
  162.5000     2.1590    64.7110   161.9030   150.4370   135.5880    33.2610   -18.7310 
  162.6250     2.1640    64.0700   146.1640   137.4270   133.3630    33.2980   -18.3780 
  162.7500     2.1720    65.6140   132.1840   121.4120   127.7170    33.3100   -18.0990 
  162.8750     2.1820    69.0820   121.9050   105.1030   114.6930    33.2840   -17.8770 
  163.0000     2.1950    72.3580   112.7740    90.9160    97.3770    33.2440   -17.7130 
  163.1250     2.2080    72.2750   102.4300    80.7380    77.5580    33.2050   -17.5640 
  163.2500     2.2190    71.2250    93.0540    73.7720    66.6540    33.2000   -17.4150 
  163.3750     2.2270    72.0870    86.2590    68.9750    65.3590    33.2020   -17.3280 
  163.5000     2.2310    73.9600    80.6820    65.1580    69.2860    33.2160   -17.3030 
  163.6250     2.2320    72.6470    75.3150    61.3900    70.2090    33.2240   -17.2990 
  163.7500     2.2340    72.8450    70.1260    57.4910    69.5080    33.2280   -17.2750 
  163.8750     2.2360    77.8370    65.6540    53.9240    67.7230    33.2100   -17.2100 
  164.0000     2.2410    82.0500    62.4820    51.3570    59.8590    33.1460   -17.0630 
  164.1250     2.2490    80.4300    60.9240    50.4130    56.5680    33.1020   -16.8700 
  164.2500     2.2600    76.0890    59.9280    50.4400    54.2890    33.0870   -16.7050 
  164.3750     2.2710    74.0820    58.1680    50.2700    55.8630    33.1160   -16.5800 
  164.5000     2.2800    74.7180    54.4040    48.3640    62.4760    33.1720   -16.4890 
  164.6250     2.2890    74.8170    47.9260    43.3540    60.9600    33.2120   -16.4020 
  164.7500     2.3020    74.6650    40.1950    36.6330    41.1940    33.2420   -16.3110 
  164.8750     2.3200    77.1480    32.7570    29.9760    25.5670    33.2810   -16.2360 
  165.0000     2.3390    84.0770    26.8160    24.6840    18.0300    33.3940   -16.1540 
  165.1250     2.3520    89.8120    23.1060    21.4110    15.4680    33.5630   -16.0060 
  165.2500     2.3570    89.8380    20.9720    19.5360    15.4320    33.8720   -15.7890 
  165.3750     2.3550    87.3060    19.8690    18.5880    16.2850    34.2240   -15.5000 
  165.5000     2.3540    86.3790    19.2980    18.1220    16.9750    34.3000   -15.1360 
  165.6250     2.3600    87.9750    18.9000    17.7690    16.2940    34.2910   -14.7510 
  165.7500     2.3720    90.2180    18.4910    17.3090    15.0400    34.2630   -14.4180 
  165.8750     2.3850    90.9210    18.1000    16.7400    13.6530    34.2060   -14.1310 
  166.0000     2.3890    90.2380    17.8650    16.1780    13.8360    34.1160   -13.9190 
  166.1250     2.3850    89.1900    18.1090    15.8600    13.6230    34.0080   -13.8110 
  166.2500     2.3800    88.4820    19.1290    15.9970    14.2870    33.9200   -13.7680 
  166.3750     2.3810    87.7850    21.3990    16.8530    15.8740    33.8840   -13.7770 
  166.5000     2.3870    87.6580    25.5320    18.7900    18.3900    33.9050   -13.8640 
  166.6250     2.3880    88.1410    33.3240    22.8150    22.6890    33.9870   -14.0500 
  166.7500     2.3750    85.3070    44.1480    29.6740    36.7550    34.0260   -14.2810 
  166.8750     2.3460    80.1580    56.3650    40.2410    79.1420    33.9550   -14.5430 
  167.0000     2.3080    76.3280    69.2920    54.6020   141.4590    33.7760   -14.7870 
  167.1250     2.2710    75.1670    83.5780    70.9870   155.1990    33.5420   -14.9970 
  167.2500     2.2410    75.4840    97.5380    85.1170   150.6470    33.5460   -15.1970 
  167.3750     2.2210    76.3650   108.0870    94.1490   144.5500    33.5800   -15.4130 
  167.5000     2.2120    76.8940   113.8160    97.9780   135.0880    33.5940   -15.6140 
  167.6250     2.2110    75.5120   116.0690    98.5380   129.7720    33.6000   -15.7180 
  167.7500     2.2140    73.7690   117.2540    98.4980   129.9420    33.6200   -15.7410 
  167.8750     2.2190    73.1820   118.0670    98.5650   133.1030    33.6540   -15.7270 
  168.0000     2.2230    72.1290   118.3170    98.6600   136.0490    33.6950   -15.7030 
  168.1250     2.2270    69.7610   117.1010    98.1670   134.0550    33.7160   -15.7240 
  168.2500     2.2310    68.3700   114.0350    96.5950   129.8660    33.6870   -15.8090 
  168.3750     2.2360    69.0440   109.0150    93.7190   126.9800    33.6290   -15.9410 
  168.5000     2.2420    69.9190   102.4080    89.7150   119.7670    33.5480   -16.1000 
  168.6250     2.2490    69.9910    94.8340    85.0870   109.4870    33.5000   -16.2910 
  168.7500     2.2580    70.5420    87.3310    80.5220    99.6660    33.4760   -16.4820 
  168.8750     2.2650    71.9460    80.4180    76.2350    89.7560    33.4890   -16.6330 
  169.0000     2.2700    73.1580    73.9100    72.0570    82.2320    33.5240   -16.7690 
  169.1250     2.2720    73.9800    66.9390    67.3420    78.9810    33.5650   -16.9040 
  169.2500     2.2720    72.8860    59.1060    61.5630    75.5850    33.5940   -17.0260 
  169.3750     2.2720    70.6750    50.6780    54.5010    68.5670    33.6000   -17.1110 
  169.5000     2.2750    69.9920    42.2120    46.4510    57.3670    33.6030   -17.1520 
  169.6250     2.2870    72.5310    34.4050    38.3080    46.3090    33.6030   -17.1880 
  169.7500     2.3050    74.3610    27.7090    31.0200    34.3800    33.5960   -17.2410 
  169.8750     2.3260    74.5220    22.3740    25.0470    25.7310    33.5780   -17.3090 
  170.0000     2.3450    75.1590    18.4480    20.5090    18.6270    33.5430   -17.3510 
  170.1250     2.3620    78.8370    16.0820    17.5440    16.5540    33.5020   -17.3030 
  170.2500     2.3770    83.9520    14.9970    15.8030    15.3450    33.4740   -17.1860 
  170.3750     2.3880    87.7020    15.2730    15.2490    13.2500    33.4710   -17.0550 
  170.5000     2.3920    89.3400    17.1550    15.9970    12.4050    33.4700   -16.9470 
  170.6250     2.3780    88.4400    21.4670    18.7470    15.8560    33.4510   -16.8450 
  170.7500     2.3440    86.5510    28.3600    23.9040    24.7590    33.4220   -16.7320 
  170.8750     2.2990    84.4440    38.0150    32.1380    37.7990    33.3830   -16.6140 
  171.0000     2.2520    82.8060    50.0120    43.6630    56.0360    33.3510   -16.5440 
  171.1250     2.2140    83.4920    62.9050    57.3640    79.3380    33.3690   -16.5390 
  171.2500     2.1880    83.2170    74.2580    69.6510   104.0640    33.4090   -16.5990 
  171.3750     2.1720    79.2960    82.4820    77.8240   114.4740    33.4530   -16.6840 
  171.5000     2.1610    73.6710    87.3570    81.3850   103.9960    33.4680   -16.7420 
  171.6250     2.1550    73.3450    90.0900    81.9160    92.6220    33.4510   -16.7610 
  171.7500     2.1500    76.7270    93.0610    82.4510    91.4950    33.4200   -16.7420 
  171.8750     2.1470    76.1280    97.4210    84.4940    99.8200    33.3780   -16.6820 
  172.0000     2.1440    70.5110   103.2510    88.4560   113.4790    33.3440   -16.5510 
  172.1250     2.1410    65.9540   109.4660    93.7420   124.3150    33.3780   -16.3410 
  172.2500     2.1390    65.2710   114.1650    98.5180   132.1010    33.4540   -16.0480 
  172.3750     2.1360    65.7610   115.7980   101.1460   135.2440    33.5650   -15.7000 
  172.5000     2.1320    65.9270   113.5270   100.4880   132.6550    33.6660   -15.3610 
  172.6250     2.1280    68.6170   107.1570    95.9180   122.8980    33.7170   -15.0740 
  172.7500     2.1250    72.1980    98.7850    89.1100   111.0710    33.7220   -14.8660 
  172.8750     2.1260    74.4540    90.1070    81.5450    94.1110    33.6560   -14.7550 
  173.0000     2.1300    74.3320    82.5940    74.6160    76.3270    33.5950   -14.7600 
  173.1250     2.1360    73.7290    77.6890    69.6800    67.7690    33.5600   -14.8540 
  173.2500     2.1420    72.5710    75.5350    67.0200    65.2390    33.5090   -15.0060 
  173.3750     2.1450    70.2930    76.2930    66.8850    66.7510    33.3990   -15.2250 
  173.5000     2.1440    68.3480    80.0020    69.4430    67.6890    33.2450   -15.4840 
  173.6250     2.1370    70.9310    87.0300    75.2770    70.5710    32.9400   -15.7650 
