~V
VERS. 2.00: Ver 2.00
~W
STRT.M 55.0000:
STOP.M 215.0000:
STEP.M 0.1250:
NULL. -999.2500:
UWI. F10125:
~C
DEPT.M :
GR.API :
RML.OHMM :
RI. :
RXO.OHMM :
CALI.CM :
DEN.GM/CC :
SP.MV :
~A
# ...
  145.0000    64.7760   139.5600   124.1800    35.5950    23.6990     2.2270   -27.4400 
  145.1250    64.4860   141.5600   125.8070    40.9230    23.9030     2.2330   -27.3010 
  145.2500    61.8580   145.3950   129.3950    56.9720    24.6010     2.2410   -27.1710 
  145.3750    59.7510   148.3340   132.7650    85.3480    25.5150     2.2530   -27.0680 
  145.5000    59.9340   146.5510   132.5970   109.7910    26.1450     2.2650   -26.9440 
  145.6250    61.5640   134.6250   123.5110   104.5400    26.3070     2.2670   -26.8590 
  145.7500    63.1410   114.0050   105.7360    96.6390    26.3010     2.2650   -26.8460 
  145.8750    63.7270    89.6830    83.7110    91.9630    26.2420     2.2700   -26.8200 
  146.0000    64.4340    67.9480    63.8040    78.9200    26.1190     2.2870   -26.8030 
  146.1250    68.6540    54.0920    50.9780    52.9610    25.9550     2.3080   -26.7810 
  146.2500    75.0950    48.0380    44.6320    32.3030    25.8770     2.3110   -26.7900 
  146.3750    78.5160    49.7160    44.3500    26.3710    25.8950     2.2900   -26.7940 
  146.5000    75.1140    59.0730    50.2870    41.4740    26.0540     2.2590   -26.8380 
  146.6250    67.8040    77.3210    64.5410    81.1440    26.1840     2.2420   -26.9230 
  146.7500    64.1980   101.8920    86.0190   118.7870    26.2400     2.2360   -26.9960 
  146.8750    64.2640   128.6570   111.4970   131.7410    26.2510     2.2340   -27.0920 
  147.0000    64.6460   150.4500   133.7510   138.9780    26.2510     2.2320   -27.1970 
  147.1250    62.8340   159.2590   143.9220   145.3490    26.2640     2.2320   -27.3220 
  147.2500    61.7440   158.5360   144.3530   140.5660    26.2930     2.2360   -27.4220 
  147.3750    63.0830   153.1430   139.4580   130.4850    26.3280     2.2420   -27.5320 
  147.5000    65.3380   145.6380   131.9780   125.0460    26.3540     2.2490   -27.6350 
  147.6250    66.9510   135.8830   122.3100   121.1970    26.3610     2.2540   -27.7220 
  147.7500    65.7680   124.2130   111.0330   105.3680    26.3700     2.2590   -27.7970 
  147.8750    65.7370   111.7300    99.1240    90.3700    26.3730     2.2620   -27.8530 
  148.0000    69.7230   100.4250    88.2570    82.3590    26.3480     2.2660   -27.9150 
  148.1250    73.5120    93.3970    80.9880    63.9330    26.3060     2.2680   -27.9830 
  148.2500    73.3450    91.8570    78.3070    54.3440    26.3110     2.2650   -28.0550 
  148.3750    70.4490    96.4660    80.8820    60.2580    26.3590     2.2580   -28.1310 
  148.5000    68.4720   107.0460    88.8290    77.9960    26.4000     2.2490   -28.2010 
  148.6250    65.8430   122.7800   101.9600   107.0640    26.3910     2.2440   -28.2810 
  148.7500    62.6370   139.5630   116.9080   126.1090    26.3130     2.2450   -28.3620 
  148.8750    59.4350   153.5080   130.2350   143.0160    26.2380     2.2500   -28.4420 
  149.0000    55.9040   162.0790   139.3110   152.4950    26.2020     2.2530   -28.5110 
  149.1250    54.4320   165.3250   143.5410   140.0430    26.1320     2.2490   -28.5450 
  149.2500    55.6990   166.0440   145.2400   125.7500    26.0000     2.2430   -28.5890 
  149.3750    59.0290   163.9590   144.4490   124.2030    25.8850     2.2370   -28.6010 
  149.5000    62.0010   157.1080   139.7050   139.4210    25.8770     2.2350   -28.6310 
  149.6250    63.1870   143.4450   129.0210   169.9950    26.0040     2.2410   -28.6360 
  149.7500    63.7240   126.3590   114.7980   164.7890    26.1530     2.2530   -28.6490 
  149.8750    63.9380   109.8500   100.2740   112.8210    26.1930     2.2690   -28.6630 
  150.0000    63.7990    97.1390    88.4430    69.3850    26.1350     2.2830   -28.6730 
  150.1250    63.0990    90.3310    81.5270    59.3040    26.0770     2.2890   -28.6910 
  150.2500    64.1150    88.1010    78.6680    66.6040    26.1180     2.2890   -28.6820 
  150.3750    67.8880    89.5770    79.1920    73.6340    26.1280     2.2870   -28.7090 
  150.5000    72.7440    94.0750    82.5080    79.2060    26.0550     2.2870   -28.7270 
  150.6250    74.9870   101.8330    88.6760    82.9250    26.0030     2.2910   -28.7610 
  150.7500    72.6920   112.8530    97.5030    81.1700    25.9130     2.2940   -28.7750 
  150.8750    66.5390   127.7940   109.5690    85.2590    25.8810     2.2960   -28.7840 
  151.0000    60.2210   146.5480   124.9400    98.2470    25.8800     2.2960   -28.7990 
  151.1250    57.6430   166.8950   141.9330   135.5880    25.8480     2.2970   -28.7880 
  151.2500    57.7680   184.1640   156.7040   154.4630    25.6940     2.3010   -28.7770 
  151.3750    57.7800   195.0910   166.5120   160.5810    25.5270     2.3030   -28.7380 
  151.5000    57.6300   199.3320   170.7580   164.9250    25.4920     2.2990   -28.6630 
  151.6250    57.5780   199.4050   171.0250   155.6710    25.6490     2.2880   -28.5650 
  151.7500    57.5870   199.6560   171.0710   143.0170    25.7240     2.2740   -28.4760 
  151.8750    57.2210   201.6780   172.7130   159.9800    25.7230     2.2590   -28.3830 
  152.0000    57.7930   204.8280   175.8950   175.1470    25.7440     2.2490   -28.2710 
  152.1250    59.1180   205.6030   178.0580   162.5730    25.7940     2.2490   -28.1690 
  152.2500    59.6500   200.3380   175.8160   134.3060    25.8020     2.2550   -28.0660 
  152.3750    59.9690   187.2660   167.0520   122.8690    25.7890     2.2590   -27.9730 
  152.5000    60.5060   168.1000   152.3110   139.4640    25.7740     2.2600   -27.9100 
  152.6250    61.4380   147.9700   135.1420   131.4160    25.7410     2.2600   -27.8670 
  152.7500    64.1560   132.0660   120.5100    95.9440    25.6960     2.2610   -27.8390 
  152.8750    68.4120   122.5980   110.9050    70.2490    25.6950     2.2610   -27.8210 
  153.0000    69.6620   120.0970   107.2110    65.3860    25.7830     2.2560   -27.8170 
  153.1250    65.1130   125.2480   110.3440    73.1910    25.9580     2.2450   -27.8380 
  153.2500    62.1060   135.9460   118.7340   104.5030    26.1390     2.2330   -27.8620 
  153.3750    62.9050   150.6190   131.2060   171.0870    26.2400     2.2260   -27.8730 
  153.5000    63.5970   167.3420   146.2150   198.5880    26.2750     2.2250   -27.8650 
  153.6250    60.4630   184.5790   162.7770   165.1490    26.3270     2.2290   -27.8540 
  153.7500    56.8240   201.0990   179.8520   168.7110    26.4220     2.2360   -27.8030 
  153.8750    56.2790   215.0000   195.7820   199.3210    26.4930     2.2520   -27.7210 
  154.0000    57.8740   223.5440   207.8060   257.9820    26.5120     2.2910   -27.6380 
  154.1250    57.5690   223.5980   212.1710   300.1630    26.4510     2.3690   -27.5380 
  154.2500    55.0000   216.7830   209.4030   280.4520    26.3020     2.4750   -27.4510 
  154.3750    52.1030   203.5440   199.8930   220.0100    26.0120     2.5800   -27.3640 
  154.5000    51.6140   182.0580   182.4390   183.3120    25.7680     2.6490   -27.2830 
  154.6250    52.9500   148.2120   152.0520   199.1190    25.6490     2.6580   -27.1830 
  154.7500    55.5180   108.2720   112.7440   251.4350    25.6470     2.6250   -27.1020 
  154.8750    60.6250    71.4270    74.1950   211.2220    25.6170     2.5610   -27.0440 
  155.0000    68.3000    46.5380    45.1560   108.1920    25.5540     2.4810   -26.9760 
  155.1250    79.2970    29.2910    28.7330    49.0790    25.5700     2.4170   -26.9220 
  155.2500    90.4830    19.3970    19.6750    23.1020    25.7240     2.3870   -26.8540 
  155.3750    96.3910    14.4550    15.0810    12.9670    25.8350     2.3840   -26.7940 
  155.5000    95.0390    12.9180    13.2490     9.7370    25.8690     2.3900   -26.7370 
  155.6250    89.2040    14.5080    13.8090    10.3100    25.8340     2.3910   -26.7020 
  155.7500    83.4040    18.7540    16.4860    13.1770    25.8540     2.3860   -26.6570 
  155.8750    78.2140    25.8020    21.6960    20.4390    25.9360     2.3850   -26.6030 
  156.0000    74.3320    35.4980    29.8050    32.8570    26.0120     2.4030   -26.5530 
  156.1250    72.7570    44.0970    40.4630    54.8650    25.9290     2.4510   -26.4840 
