~V
VERS. 2.00: Ver 2.00
~W
STRT.M 60.0000:
STOP.M 241.0000:
STEP.M 0.1250:
NULL. -999.2500:
UWI. F10158:
~C
DEPT.M :
SP.MV :
DEN.GM/CC :
GR.API :
RML.OHMM :
RI. :
RXO.OHMM :
CALI.CM :
~A
# ...
  228.7500    84.0520     2.5210    68.5560    15.6610    15.1440    18.3870    24.4300 
  228.8750    84.1040     2.5040    70.6480    15.7850    15.2140    18.8940    24.4340 
  229.0000    84.1490     2.4900    72.2070    15.8280    15.2550    19.7420    24.4500 
  229.1250    84.2080     2.4860    71.8580    15.7620    15.2590    20.3880    24.4700 
  229.2500    84.2630     2.4840    71.9670    15.6400    15.2420    20.1650    24.4640 
  229.3750    84.3030     2.4690    70.9810    15.5160    15.2200    18.6470    24.4260 
  229.5000    84.3320     2.4310    68.5890    15.4340    15.2000    16.7750    24.3750 
  229.6250    84.3850     2.3800    67.7160    15.4180    15.1890    16.4440    24.3440 
  229.7500    84.4260     2.3420    68.7960    15.4500    15.1920    17.7890    24.3330 
  229.8750    84.4390     2.3360    70.1040    15.5130    15.2170    19.1450    24.3320 
  230.0000    84.4340     2.3730    70.1520    15.5910    15.2700    19.3360    24.3320 
  230.1250    84.3990     2.4380    70.1630    15.6720    15.3470    19.2120    24.3720 
  230.2500    84.3290     2.4930    70.2260    15.7400    15.4150    19.4270    24.5210 
  230.3750    84.2430     2.5190    70.2260    15.7730    15.4430    19.7290    24.6030 
  230.5000    84.1320     2.5180    70.2260    15.7570    15.4050    20.3260    24.6800 
  230.6250    84.0310     2.4990    70.2260    15.6800    15.2880    21.0310    24.7360 
  230.7500    83.9650     2.4780    70.2260    15.5530    15.1190    20.5000    24.7720 
  230.8750    83.9400     2.4630    70.2260    15.3880    14.9190    19.5490    24.7900 
  231.0000    83.9330     2.4540    70.2260    15.2170    14.7220    20.0670    24.7910 
  231.1250    83.9310     2.4500    70.2260    15.1000    14.5770    21.1730    24.7720 
  231.2500    83.9160     2.4490    70.2260    15.0780    14.5170    20.4830    24.7320 
  231.3750    83.8800     2.4540    70.2260    15.1900    14.5710    18.4180    24.6770 
  231.5000    83.8390     2.4670    70.2260    15.4400    14.7520    16.2280    24.6260 
  231.6250    83.7960     2.4890    70.2260    15.7830    15.0400    14.8860    24.6080 
  231.7500    83.7710     2.5070    70.2260    16.1030    15.3410    15.2730    24.6290 
  231.8750    83.7830     2.5110    70.2260    16.3050    15.5690    17.7590    24.6790 
  232.0000    83.8210     2.5020    70.2260    16.3270    15.6520    20.0730    24.7350 
  232.1250    83.8710     2.4840    70.2260    16.1390    15.5400    18.7170    24.7730 
  232.2500    83.9320     2.4640    70.2260    15.8480    15.3040    16.8910    24.7910 
  232.3750    83.9970     2.4480    70.2260    15.5300    15.0080    17.0820    24.7840 
  232.5000    84.0410     2.4400    70.2260    15.2250    14.6880    18.2960    24.7470 
  232.6250    84.0640     2.4430    70.2260    14.9140    14.3400    18.3400    24.5980 
  232.7500    84.0970     2.4510    70.2260    14.5510    13.9420    17.7600    24.3340 
  232.8750    84.1300     2.4600    70.2260    14.1080    13.4810    17.5730    24.3470 
  233.0000    84.1580     2.4690    70.2260    13.6190    12.9880    18.3710    24.3490 
  233.1250    84.1710     2.4870    70.2260    13.1840    12.5500    19.7930    24.3360 
  233.2500    84.1460     2.5120    70.2260    12.8740    12.2260    20.5210    24.3330 
  233.3750    84.0870     2.5380    70.2260    12.6990    12.0300    19.7400    24.3490 
  233.5000    84.0220     2.5530    70.2260    12.6240    11.9370    18.3320    24.3750 
  233.6250    83.9580     2.5420    70.2260    12.6000    11.9080    18.0920    24.3980 
  233.7500    83.8730     2.5120    70.2260    12.5840    11.8970    17.9550    24.4180 
  233.8750    83.7950     2.4720    70.2260    12.5720    11.8930    17.5750    24.4320 
  234.0000    83.7410     2.4310    70.2260    12.5680    11.8940    17.3760    24.4390 
  234.1250    83.7040     2.4070    70.2260    12.5670    11.8990    17.0600    24.4320 
  234.2500    83.7020     2.4090    70.2260    12.5640    11.9020    15.4950    24.4080 
  234.3750    83.7250     2.4330    70.2260    12.5590    11.9020    13.1750    24.3640 
  234.5000    83.7650     2.4610    70.2260    12.5540    11.9020    12.2950    24.3120 
  234.6250    83.8180     2.4560    70.2260    12.5520    11.9030    14.9840    24.2730 
  234.7500    83.8680     2.4180    70.2260    12.5550    11.9070    18.0750    24.2520 
  234.8750    83.9110     2.3710    70.2260    12.5590    11.9100    16.8340    24.2460 
  235.0000    83.9240     2.3460    70.2260    12.5640    11.9130    12.4900    24.2460 
  235.1250    83.9220     2.3680    70.2260    12.5680    11.9140    10.5100    24.2410 
  235.2500    83.9150     2.4180    70.2260    12.5710    11.9150    11.3810    24.2300 
  235.3750    83.9100     2.4620    70.2260    12.5720    11.9160    12.5110    24.2190 
  235.5000    83.9180     2.4760    70.2260    12.5710    11.9160    12.1170    24.2130 
  235.6250    83.9400     2.4630    70.2260    12.6430    11.8950    12.0180    24.2080 
  235.7500    83.9880     2.4430    70.2260    13.3620    11.6880    14.2360    24.1970 
  235.8750    84.0320     2.4260    70.2260    15.3390    11.1390    17.3080    24.1710 
  236.0000    84.0700     2.4140    70.2260    18.3850    10.3620    18.1180    24.1380 
  236.1250    84.1140     2.4100    70.2260    20.8190     9.8370    15.4970    24.1150 
  236.2500    84.1430     2.4150    70.2260    20.8190     9.8370    12.0540    24.1100 
  236.3750    84.1900     2.4320    70.2260    20.8190     9.8370     9.5830    24.1200 
  236.5000    84.2710     2.4570    70.2260    20.8190     9.8370     8.8770    24.1400 
  236.6250    84.3350     2.4730    70.2260    20.8190     9.8370    10.1130    24.1620 
  236.7500    84.3780     2.4740    70.2260    20.8190     9.8370    11.9440    24.1750 
  236.8750    84.4130     2.4680    70.2260    20.8190     9.8370    13.8280    24.1780 
  237.0000    84.4430     2.4630    70.2260    20.8190     9.8370    15.1820    24.1700 
  237.1250    84.4490     2.4670    70.2260    20.8190     9.8370    14.6560    24.1470 
  237.2500    84.4250     2.4810    70.2260    20.8190     9.8370    13.4680    24.1230 
  237.3750    84.3670     2.5010    70.2260    20.8190     9.8370    14.1930    24.1140 
  237.5000    84.2770     2.5220    70.2260    20.8190     9.8370    18.8190    24.1110 
  237.6250    84.1870     2.5270    70.2260    20.8190     9.8370    25.8190    24.0900 
  237.7500    84.1080     2.4850    70.2260    20.8190     9.8370    28.3130    24.0610 
  237.8750    84.0260     2.3890    70.2260    20.8190     9.8370    22.8630    24.0130 
  238.0000    83.9400     2.2640    70.2260    20.8190     9.8370    15.3940    24.0000 
  238.1250    83.8720     2.1660    70.2260    20.8190     9.8370    11.4770    24.0000 
  238.2500    83.8300     2.0260    70.2260    20.8190     9.8370    10.0360    24.0000 
  238.3750    83.8120     1.9810    70.2260    20.8190     9.8370     9.9420    24.0000 
  238.5000    83.8280     1.9620    70.2260    20.8190     9.8370    10.1080    24.0000 
  238.6250    83.8630     1.9550    70.2260    20.8190     9.8370    10.1120    24.0000 
  238.7500    83.9130     1.9530    70.2260    20.8190     9.8370    10.0990    24.0000 
  238.8750    83.9670     1.9530    70.2260    20.8190     9.8370    10.1010    24.0000 
  239.0000    84.0320     1.9540    70.2260    20.8190     9.8370    10.1010    24.0000 
  239.1250    84.0850     1.9540    70.2260    20.8190     9.8370    10.1010    24.0000 
  239.2500    84.1230     1.9540    70.2260    20.8190     9.8370    10.1000    24.0000 
  239.3750    84.1240     1.9550    70.2260    20.8190     9.8370    10.1000    24.0000 
  239.5000    84.1120     1.9570    70.2260    20.8190     9.8370    10.1030    24.0000 
  239.6250  -999.2500     1.9580    70.2260    20.8190     9.8370    10.1100    23.8670 
  239.7500  -999.2500     1.9580    70.2260    20.8190     9.8370     6.0590    23.8670 
  239.8750  -999.2500     1.9580    70.2260    20.8190     9.8370     2.0030    23.8670 
