~V
VERS. 2.00: Ver 2.00
~W
STRT.M 50.0000:
STOP.M 236.0000:
STEP.M 0.1250:
NULL. -999.2500:
UWI. F10180:
~C
DEPT.M :
SP.MV :
GR.API :
RML.OHMM :
RI. :
RXO.OHMM :
CALI.CM :
DEN.GM/CC :
~A
# ...
  207.5000   -13.4030    62.5150    91.2860    78.9700    95.0560    24.7280     2.3890 
  207.6250   -13.1280    65.0890    76.6570    66.8160    84.8080    24.6760     2.4320 
  207.7500   -12.7650    67.5560    64.3610    56.8860    50.5770    24.5220     2.4380 
  207.8750   -12.3860    68.0640    55.8960    50.4670    25.7990    24.3430     2.3970 
  208.0000   -11.9660    68.7870    50.7090    47.1380    25.1110    24.4050     2.3380 
  208.1250   -11.4660    70.1130    48.0090    45.9890    40.5070    24.5900     2.2910 
  208.2500   -10.9990    70.3400    46.2490    45.2100    60.3000    24.7090     2.2730 
  208.3750   -10.5630    71.9180    42.7520    42.0990    65.6610    24.7020     2.2830 
  208.5000   -10.0830    75.6850    36.3750    35.9520    55.8750    24.6570     2.2980 
  208.6250    -9.6130    78.9700    28.0910    27.8490    42.0500    24.6010     2.3050 
  208.7500    -9.1670    79.7370    20.0970    19.8610    26.1330    24.4420     2.3010 
  208.8750    -8.7130    76.8520    14.4360    14.0020    13.6990    24.1780     2.2910 
  209.0000    -8.4310    71.9510    10.4600    10.2560     7.8760    24.1370     2.2830 
  209.1250    -8.2850    65.8610     8.0880     8.1350     6.5920    24.3270     2.2800 
  209.2500    -8.1600    61.5800     7.2460     7.0800     6.6670    24.5170     2.2790 
  209.3750    -8.1340    61.2370     7.1240     6.7080     6.8920    24.5480     2.2800 
  209.5000    -8.2370    61.5120     7.1260     6.5940     6.8710    24.4910     2.2890 
  209.6250    -8.3790    62.7490     7.0830     6.5750     6.5860    24.3100     2.3090 
  209.7500    -8.5620    68.5560     7.0470     6.5940     6.5210    24.0290     2.3400 
  209.8750    -8.8460    77.3510     7.0890     6.6960     7.0290    23.7630     2.3680 
  210.0000    -9.0990    81.2610     7.2140     6.9260     7.6100    23.7820     2.3840 
  210.1250    -9.2920    78.6540     7.4740     7.2890     7.7220    24.0020     2.3810 
  210.2500    -9.4620    77.2920     7.8670     7.7390     8.0150    24.3560     2.3630 
  210.3750    -9.6380    82.3800     8.3380     8.1780     8.3730    24.8600     2.3420 
  210.5000    -9.7570    88.1650     8.7720     8.5100     8.7890    25.3020     2.3300 
  210.6250    -9.8160    92.0390     9.0870     8.6910     9.0570    25.4920     2.3310 
  210.7500    -9.8450    95.8580     9.2460     8.7290     9.0500    25.4590     2.3440 
  210.8750    -9.8530   100.2010     9.2450     8.6590     8.7300    25.3010     2.3590 
  211.0000    -9.7540   102.0710     9.1670     8.5530     8.6300    25.1790     2.3690 
  211.1250    -9.6000   101.6350     9.0550     8.4300     8.7330    25.1940     2.3740 
  211.2500    -9.4890   103.4250     8.9260     8.2830     8.7820    25.2930     2.3770 
  211.3750    -9.3580   108.1520     8.7640     8.0880     8.8610    25.3810     2.3830 
  211.5000    -9.1770   110.9220     8.5560     7.8580     8.9010    25.4310     2.3920 
  211.6250    -9.0510   108.7540     8.3180     7.6490     8.9030    25.3950     2.4020 
  211.7500    -8.9320   105.4560     8.1130     7.5590     8.8540    25.3140     2.4100 
  211.8750    -8.7070   105.5850     8.0930     7.7840     8.8650    25.2650     2.4100 
  212.0000    -8.5590   107.2850     8.3900     8.4380     9.4220    25.2090     2.4000 
  212.1250    -8.4770   106.5080     9.1470     9.6490    11.3190    25.1050     2.3820 
  212.2500    -8.4210   100.8000    10.4900    11.4820    15.5560    24.8810     2.3590 
  212.3750    -8.4150    94.7610    12.5660    13.9210    20.2210    24.4780     2.3360 
  212.5000    -8.4450    91.4300    15.1170    16.5550    22.8630    24.1150     2.3200 
  212.6250    -8.4200    89.3890    17.8090    18.9990    23.9850    23.9420     2.3110 
  212.7500    -8.3810    85.5770    20.2510    20.9760    24.5670    23.8970     2.3090 
  212.8750    -8.4280    81.8450    22.1040    22.4100    25.0310    23.8200     2.3110 
  213.0000    -8.4450    80.1410    23.5210    23.6150    25.1220    23.5390     2.3150 
  213.1250    -8.4010    79.0590    24.7390    24.7940    25.7890    23.3040     2.3190 
  213.2500    -8.2540    77.5750    25.9530    26.0130    28.3630    23.5620     2.3220 
  213.3750    -8.0490    76.2210    27.1990    27.1690    32.4510    24.1470     2.3280 
  213.5000    -7.8170    75.3530    28.3550    28.1210    36.5340    24.6000     2.3410 
  213.6250    -7.5700    74.8910    29.2830    28.7660    37.8800    24.7960     2.3630 
  213.7500    -7.3270    75.7250    29.8850    29.0580    36.2970    24.8410     2.3930 
  213.8750    -7.0470    77.2410    30.0690    28.9820    36.3220    24.8050     2.4280 
  214.0000    -6.7090    77.7160    29.9480    28.6870    38.4050    24.7770     2.4620 
  214.1250    -6.4020    76.5260    29.6180    28.2690    37.8580    24.8070     2.4940 
  214.2500    -6.1790    74.5850    29.1760    27.7900    35.2390    24.8560     2.5220 
  214.3750    -5.9310    73.7950    28.6660    27.2220    34.3400    24.8710     2.5450 
  214.5000    -5.6890    72.1220    28.0600    26.4870    33.8970    24.8670     2.5600 
  214.6250    -5.5230    69.1360    27.2690    25.4890    32.3520    24.8700     2.5700 
  214.7500    -5.3800    67.5530    26.1950    24.1730    29.2210    24.8570     2.5760 
  214.8750    -5.2590    68.9650    24.7460    22.5490    27.2310    24.8420     2.5800 
  215.0000    -5.2150    71.8520    23.0570    20.8370    24.9670    24.8200     2.5770 
  215.1250    -5.1820    74.6110    21.3090    19.2460    22.9080    24.8430     2.5610 
  215.2500    -5.0780    75.9390    19.7170    17.9580    20.8220    24.8770     2.5270 
  215.3750    -5.0110    75.0900    18.5300    17.1600    19.8660    24.9000     2.4720 
  215.5000    -5.0040    73.8060    17.7910    16.8050    19.6450    24.9040     2.4100 
  215.6250    -4.9570    74.2930    17.4980    16.8170    21.6920    24.8820     2.3530 
  215.7500    -4.8630    74.2410    17.5650    17.0320    21.5700    24.8680     2.3110 
  215.8750    -4.7190    71.0420    17.7990    17.1780    19.9390    24.8510     2.2910 
  216.0000    -4.5610    68.0900    17.9070    17.0380    20.7240    24.8520     2.2880 
  216.1250    -4.4080    67.1570    17.7020    16.5350    21.0390    24.8610     2.2950 
  216.2500    -4.3060    68.4930    17.1230    15.7340    18.8860    24.8540     2.3090 
  216.3750    -4.1850    69.3590    16.2420    14.8250    16.1580    24.8590     2.3250 
  216.5000    -4.0170    69.8940    15.3270    14.0590    15.3150    24.8840     2.3390 
  216.6250    -3.8790    72.4560    14.5850    13.5940    15.0880    24.9180     2.3470 
  216.7500    -3.8090    75.0790    14.1690    13.5220    15.4170    24.9440     2.3440 
  216.8750    -3.8040    74.5000    14.2380    13.9310    16.1030    24.8820     2.3290 
  217.0000    -3.8090    71.9680    14.7200    14.6820    17.9830    24.7100     2.3100 
  217.1250    -3.7740    70.6580    15.5380    15.6550    20.7570    24.5030     2.2930 
  217.2500    -3.6610    71.2370    16.5610    16.6870    20.4170    24.4030     2.2820 
  217.3750    -3.5070    68.8980    17.5920    17.5340    19.7250    24.4910     2.2780 
  217.5000    -3.3830    64.1820    18.4030    18.0040    21.4070    24.6900     2.2750 
  217.6250    -3.2530    60.7760    18.8040    17.9690    23.6540    24.7430     2.2730 
  217.7500    -3.0570    63.0420    18.6720    17.4250    23.5780    24.6090     2.2730 
  217.8750    -2.8450    68.9590    17.9750    16.4640    19.6760    24.4550     2.2830 
  218.0000    -2.6640    72.3410    17.0140    15.3570    16.1490    24.4650     2.3060 
  218.1250    -2.5130    74.1080    15.9730    14.2560    14.1600    24.3760     2.3420 
  218.2500    -2.3920    76.2870    14.9400    13.2600    14.2220    24.2560     2.3860 
  218.3750    -2.2610    77.5370    13.9800    12.4430    15.5130    24.3400     2.4280 
  218.5000    -2.1470    76.3570    13.1520    11.7860    13.5580    24.4120     2.4590 
  218.6250    -2.0430    74.3910    12.4920    11.2760    11.3180    24.4050     2.4780 
