~V
VERS. 2.00: Ver 2.00
~W
STRT.M 60.0000:
STOP.M 245.0000:
STEP.M 0.1250:
NULL. -999.2500:
UWI. F10162:
~C
DEPT.M :
SP.MV :
DEN.GM/CC :
GR.API :
RML.OHMM :
RI. :
RXO.OHMM :
CALI.CM :
~A
# ...
  127.5000    -7.4270     2.5970    58.4390    24.5790    22.2340    18.9910    24.3910 
  127.6250    -7.2140     2.6110    56.8270    25.1990    22.8960    23.7040    24.3100 
  127.7500    -6.9580     2.6060    54.7610    25.7560    23.5620    30.3390    24.0950 
  127.8750    -6.7010     2.5780    53.7150    26.1480    24.1010    27.3420    23.7830 
  128.0000    -6.4890     2.5320    54.2970    26.3370    24.4370    21.8020    23.3970 
  128.1250    -6.3510     2.4840    56.5010    26.3370    24.5360    19.7140    23.1170 
  128.2500    -6.2760     2.4500    56.9270    26.2630    24.4960    19.3070    22.9150 
  128.3750    -6.2160     2.4370    53.6980    26.2040    24.4110    18.4400    22.8380 
  128.5000    -6.2560     2.4460    48.8520    26.2240    24.3820    18.6780    22.8710 
  128.6250    -6.3320     2.4760    47.3510    26.3620    24.5010    19.7370    23.0230 
  128.7500    -6.5320     2.5110    49.1470    26.5570    24.7400    20.7950    23.0940 
  128.8750    -6.7410     2.5380    50.4060    26.7320    25.0120    22.0860    23.1100 
  129.0000    -7.0010     2.5490    50.8850    26.8230    25.2110    23.2100    23.1980 
  129.1250    -7.2100     2.5380    52.2520    26.8110    25.2770    23.6000    23.3560 
  129.2500    -7.3930     2.5190    54.6770    26.7790    25.2990    22.8740    23.3730 
  129.3750    -7.6060     2.5040    55.9840    26.7980    25.3700    21.0930    23.4300 
  129.5000    -7.7730     2.5030    55.2280    26.8800    25.5330    21.0860    23.5680 
  129.6250    -7.8890     2.5120    53.9670    26.9300    25.7120    22.9360    23.6640 
  129.7500    -7.9020     2.5230    53.3640    26.8070    25.7400    26.6410    23.7310 
  129.8750    -7.9110     2.5330    54.4900    26.4340    25.5110    26.4180    23.7930 
  130.0000    -7.8790     2.5440    55.8080    25.8390    25.0310    24.5400    23.7900 
  130.1250    -7.8990     2.5570    53.4540    25.1730    24.4070    23.3730    23.7530 
  130.2500    -7.8660     2.5650    50.4020    24.6430    23.8600    23.0460    23.7080 
  130.3750    -7.7280     2.5590    51.2400    24.3580    23.5370    23.7800    23.7570 
  130.5000    -7.6530     2.5330    54.3140    24.3280    23.4840    24.4730    23.8470 
  130.6250    -7.5750     2.4870    53.1840    24.4870    23.6590    22.4280    23.9120 
  130.7500    -7.5100     2.4330    50.0740    24.6850    23.8960    21.0330    23.9140 
  130.8750    -7.4200     2.3810    49.3530    24.8360    24.0910    21.7580    24.0160 
  131.0000    -7.3600     2.3370    51.2220    24.8890    24.1830    21.8110    24.2610 
  131.1250    -7.3140     2.3160    52.0710    24.7940    24.1320    19.7710    24.3580 
  131.2500    -7.3430     2.3210    51.3840    24.5630    23.9530    19.0380    24.2190 
  131.3750    -7.4330     2.3560    50.7670    24.2120    23.6430    19.3220    23.9700 
  131.5000    -7.3470     2.4140    50.8640    23.7860    23.2330    19.6840    23.7350 
  131.6250    -7.2590     2.4780    52.2050    23.3640    22.7910    20.0260    23.6000 
  131.7500    -7.1940     2.5260    53.7600    23.0240    22.3980    20.2240    23.6110 
  131.8750    -7.2040     2.5450    55.4020    22.8190    22.1030    19.1690    23.6780 
  132.0000    -7.2340     2.5360    56.6570    22.7760    21.9420    17.2920    23.7020 
  132.1250    -7.2920     2.5100    57.8270    22.8970    21.9410    15.3120    23.6660 
  132.2500    -7.3930     2.4830    59.4110    23.0820    22.0400    14.0010    23.6480 
  132.3750    -7.5000     2.4620    59.6750    23.2430    22.1760    13.1410    23.6180 
  132.5000    -7.7060     2.4470    56.4240    23.3200    22.2750    13.1630    23.5480 
  132.6250    -7.9090     2.4320    51.9470    23.3170    22.2820    13.5200    23.5160 
  132.7500    -8.1550     2.4180    50.5410    23.3510    22.2640    13.0830    23.6010 
  132.8750    -8.3610     2.4080    53.3890    23.5450    22.3320    12.8890    23.6570 
  133.0000    -8.5910     2.4100    57.5130    23.9810    22.6010    13.1730    23.6780 
  133.1250    -8.7370     2.4320    56.9020    24.6750    23.1650    14.3790    23.8010 
  133.2500    -8.7340     2.4690    53.3440    25.4190    23.8970    17.2220    24.1460 
  133.3750    -8.7060     2.5110    51.8420    25.9550    24.5720    22.3500    24.7120 
  133.5000    -8.6310     2.5430    53.8040    26.0060    24.8700    27.1570    25.2610 
  133.6250    -8.5930     2.5510    55.0860    25.3020    24.3940    26.2230    25.4330 
  133.7500    -8.5110     2.5420    55.2670    24.0560    23.2690    22.1200    25.4580 
  133.8750    -8.3800     2.5260    57.6930    22.5700    21.7860    19.4220    25.4460 
  134.0000    -8.2250     2.5120    61.6280    21.1990    20.3240    17.9920    25.4480 
  134.1250    -8.0690     2.5060    61.4240    20.3060    19.2630    16.9470    25.4230 
  134.2500    -7.9920     2.5000    57.4480    19.9050    18.6660    16.7640    25.3730 
  134.3750    -7.9410     2.4940    53.6940    19.8970    18.4780    16.9950    25.3770 
  134.5000    -7.9850     2.4890    52.5850    20.0980    18.5570    17.4500    25.4790 
  134.6250    -8.0020     2.4970    53.6070    20.2800    18.6910    17.0330    25.5750 
  134.7500    -8.0490     2.5190    54.5600    20.2930    18.6760    16.4100    25.4730 
  134.8750    -8.2800     2.5470    54.6270    20.1180    18.4440    15.7910    25.2160 
  135.0000    -8.6170     2.5620    52.9150    19.8240    18.0570    16.2530    24.9920 
  135.1250    -9.1150     2.5420    49.4460    19.5350    17.6620    16.8040    24.8400 
  135.2500    -9.5590     2.4930    46.2690    19.3340    17.3680    16.4250    24.8200 
  135.3750    -9.8330     2.4360    44.9090    19.2220    17.1900    15.7000    24.8660 
  135.5000    -9.8680     2.4020    45.0220    19.1430    17.0770    16.0450    24.7680 
  135.6250    -9.8760     2.4180    44.9310    18.9990    16.9210    17.3150    24.5810 
  135.7500    -9.8720     2.4670    45.2710    18.7320    16.6480    15.7830    24.3520 
  135.8750    -9.7670     2.5160    46.8810    18.3550    16.2580    14.4260    24.1630 
  136.0000    -9.6290     2.5360    49.1590    17.8980    15.8050    14.5020    24.1470 
  136.1250    -9.3010     2.5110    50.4740    17.2820    15.3540    14.4170    24.2350 
  136.2500    -8.9670     2.4680    52.5720    16.5400    14.9310    13.8080    24.1330 
  136.3750    -8.7470     2.4320    57.3520    15.8330    14.5280    12.6260    23.7560 
  136.5000    -8.6240     2.4170    64.1370    15.3180    14.1380    11.5660    23.3310 
  136.6250    -8.5240     2.4260    67.9520    15.0220    13.7790    10.9040    23.0610 
  136.7500    -8.3710     2.4400    66.0800    14.8310    13.4910    10.0970    22.9680 
  136.8750    -8.1580     2.4500    61.8560    14.7580    13.3110     9.2570    22.9470 
  137.0000    -7.8720     2.4530    61.3330    14.8030    13.2430     8.9230    22.9700 
  137.1250    -7.5410     2.4510    64.1340    14.9290    13.2610     8.8840    22.9930 
  137.2500    -7.2370     2.4540    64.4890    15.0660    13.2970     8.5290    23.0810 
  137.3750    -7.0120     2.4640    62.2230    15.1770    13.3120     8.2880    23.1870 
  137.5000    -6.8480     2.4820    59.2930    15.2460    13.2850     8.4150    23.2310 
  137.6250    -6.7100     2.5020    57.8870    15.2760    13.2110     8.7500    23.2820 
  137.7500    -6.6250     2.5140    57.4130    15.2960    13.1140     9.5380    23.4960 
  137.8750    -6.5200     2.5130    56.8880    15.3340    13.0170    10.8420    24.0310 
  138.0000    -6.3820     2.5010    54.9010    15.4230    12.9490    11.9960    24.9880 
  138.1250    -6.3090     2.4870    51.7140    15.6220    12.9740    12.8810    25.9460 
  138.2500    -6.3320     2.4780    50.6020    15.9500    13.1330    13.9780    26.4240 
  138.3750    -6.4050     2.4750    53.0260    16.4220    13.4590    15.2440    26.4280 
  138.5000    -6.5020     2.4780    59.1680    17.0090    13.9550    16.2460    26.3020 
  138.6250    -6.5900     2.4870    67.1930    17.5940    14.5590    17.1590    26.1990 
