~V
VERS. 2.00: Ver 2.00
~W
STRT.M 49.0000:
STOP.M 290.0000:
STEP.M 0.1250:
NULL. -999.2500:
UWI. F10103:
~C
DEPT.M :
DEN.GM/CC :
SP.MV :
GR.API :
RML.OHMM :
RI. :
RXO.OHMM :
CALI.CM :
~A
# ...
  240.2500     1.9410    -8.4970    40.7250     5.6720     5.3610     4.2440    29.6200 
  240.3750     1.9190    -8.3030    39.6680     5.4130     4.8530     4.3980    30.7820 
  240.5000     1.8950    -8.1530    37.4850     5.5710     4.8570     4.6180    30.9170 
  240.6250     1.8960    -8.0520    38.7260     5.8960     5.1270     4.8840    30.2410 
  240.7500     1.9190    -7.9930    41.4970     6.2220     5.4770     5.0370    29.0870 
  240.8750     1.9450    -7.9740    40.1860     6.4580     5.7670     5.0010    28.5510 
  241.0000     1.9630    -8.0010    36.5180     6.5790     5.9470     4.9890    28.9550 
  241.1250     1.9710    -8.0860    34.9670     6.5910     6.0140     5.0180    29.5190 
  241.2500     1.9700    -8.2420    35.8250     6.5220     5.9870     5.0150    29.7090 
  241.3750     1.9720    -8.4830    37.6110     6.4460     5.9280     4.9430    30.1460 
  241.5000     1.9920    -8.8030    39.7700     6.4020     5.8770     4.9440    30.2750 
  241.6250     2.0400    -9.1820    39.5690     6.4250     5.8580     5.1220    29.1490 
  241.7500     2.1200    -9.6200    35.2600     6.5110     5.9000     5.3490    26.9390 
  241.8750     2.2160   -10.0760    32.2850     6.6290     6.0030     5.5700    25.1010 
  242.0000     2.3030   -10.5220    34.5020     6.7890     6.1570     5.8410    24.2790 
  242.1250     2.3580   -10.9600    38.9780     6.9900     6.3360     6.0580    24.2560 
  242.2500     2.3610   -11.4040    39.8280     7.1930     6.4820     6.1130    24.6020 
  242.3750     2.3280   -11.8350    38.3340     7.3360     6.5400     6.0500    25.0070 
  242.5000     2.2750   -12.2600    37.1380     7.3110     6.4730     5.9680    25.4380 
  242.6250     2.2250   -12.7020    37.0480     7.1310     6.2760     5.9490    25.9150 
  242.7500     2.2050   -13.2130    39.5080     6.7450     5.9730     5.9380    25.6940 
  242.8750     2.2210   -13.8380    44.2800     6.3180     5.6560     5.9150    24.7670 
  243.0000     2.2690   -14.6030    49.3160     5.9380     5.4040     6.1160    23.7590 
  243.1250     2.3320   -15.5090    51.7240     5.6200     5.2950     6.2790    23.1580 
  243.2500     2.3810   -16.5590    50.2140     5.9360     5.4350     6.6680    22.9970 
  243.3750     2.4000   -17.6890    48.4550     6.5660     5.8370     7.4660    22.9610 
  243.5000     2.3890   -18.8170    48.3680     7.4850     6.5080     8.9030    22.8510 
  243.6250     2.3610   -19.8370    49.4650     8.5960     7.4030    10.7640    22.6680 
  243.7500     2.3310   -20.5710    48.5050     9.6790     8.3860    12.1120    22.5140 
  243.8750     2.3050   -20.9290    45.0060    10.4590     9.2070    13.3570    22.3910 
  244.0000     2.2880   -20.8370    41.0980    10.7200     9.6390    15.1940    22.2810 
  244.1250     2.2810   -20.2810    39.8900    10.3660     9.5270    15.7270    22.2180 
  244.2500     2.2860   -19.2520    43.8510     9.4330     8.8160    13.3800    22.2350 
  244.3750     2.3000   -17.9500    49.7750     8.3040     7.8320     9.9870    22.2890 
  244.5000     2.3180   -16.5100    54.5410     7.2790     6.8510     7.8310    22.3550 
  244.6250     2.3350   -15.0790    55.7900     6.5680     6.0840     6.7040    22.4560 
  244.7500     2.3440   -13.7970    54.7340     6.3210     5.6910     6.2410    22.6270 
  244.8750     2.3460   -12.7340    53.4690     6.4330     5.6170     6.2830    22.7780 
  245.0000     2.3430   -11.9400    54.0030     6.7980     5.7990     6.7490    22.8660 
  245.1250     2.3380   -11.4200    57.4310     7.2880     6.1470     7.2300    22.9500 
  245.2500     2.3360   -11.1520    62.0660     7.7540     6.5530     7.4950    23.1660 
  245.3750     2.3380   -11.0250    66.5870     8.0850     6.9000     7.6060    23.3640 
  245.5000     2.3450   -10.9710    71.2440     8.2310     7.1200     7.5100    23.4080 
  245.6250     2.3570   -10.9190    77.6350     8.1970     7.1880     7.3430    23.3110 
  245.7500     2.3700   -10.8210    86.4090     8.0300     7.1090     7.2700    23.2160 
  245.8750     2.3810   -10.6830    92.9090     7.8260     6.9550     7.1840    23.1170 
  246.0000     2.3880   -10.5350    94.4300     7.6320     6.7720     7.0120    23.0150 
  246.1250     2.3910   -10.4000    91.0120     7.4770     6.5930     6.8250    22.9300 
  246.2500     2.3920   -10.2950    85.6460     7.3770     6.4500     6.6850    22.8560 
  246.3750     2.3920   -10.1890    81.7690     7.3270     6.3460     6.6530    22.7850 
  246.5000     2.3920   -10.0880    81.3910     7.3210     6.2810     6.6920    22.7010 
  246.6250     2.3920   -10.0060    87.4900     7.3470     6.2480     6.7580    22.6090 
  246.7500     2.3920    -9.9670    96.5280     7.4090     6.2470     6.8730    22.5270 
  246.8750     2.3900    -9.9720   100.5950     7.5330     6.2940     7.0510    22.5030 
  247.0000     2.3870   -10.0000    99.5270     7.7790     6.4320     7.2360    22.5850 
  247.1250     2.3820   -10.0320    97.0170     8.1960     6.7040     7.5040    22.7400 
  247.2500     2.3770   -10.0680    95.8580     8.7990     7.1440     8.3140    22.8980 
  247.3750     2.3740   -10.0940    92.4480     9.4460     7.6660     9.7760    23.0380 
  247.5000     2.3730   -10.0830    87.7670     9.9880     8.1680    11.6480    23.1620 
  247.6250     2.3730   -10.0230    86.3760    10.3070     8.5470    11.9670    23.2510 
  247.7500     2.3740    -9.9050    89.5930    10.3660     8.7330    10.9650    23.2910 
  247.8750     2.3750    -9.7330    92.6700    10.3440     8.8210     9.8090    23.3220 
  248.0000     2.3780    -9.4890    91.3550    10.3810     8.9130     9.5070    23.3720 
  248.1250     2.3830    -9.1680    86.8190    10.5150     9.0560    10.4200    23.4310 
  248.2500     2.3920    -8.7770    84.4730    10.6090     9.1750    11.5340    23.4690 
  248.3750     2.4030    -8.3610    85.4840    10.4550     9.1200    11.7410    23.4780 
  248.5000     2.4120    -7.9580    87.0860     9.9400     8.7800    10.5860    23.4690 
  248.6250     2.4180    -7.5960    84.5330     9.1050     8.1530     8.7300    23.4410 
  248.7500     2.4190    -7.2850    80.5380     8.1470     7.3700     7.2720    23.3860 
  248.8750     2.4140    -7.0230    81.6060     7.3280     6.6620     6.4110    23.3260 
  249.0000     2.4040    -6.8230    87.2390     6.7720     6.1540     6.0910    23.2910 
  249.1250     2.3940    -6.6810    92.2070     6.4840     5.8770     6.0770    23.2730 
  249.2500     2.3840    -6.5680    90.3810     6.4060     5.8080     6.0400    23.2620 
  249.3750     2.3770    -6.4620    84.1940     6.3900     5.8220     6.1040    23.2640 
  249.5000     2.3720    -6.3690    79.8530     6.3500     5.8360     6.2770    23.2940 
  249.6250     2.3720    -6.2900    82.8260     6.2360     5.7870     6.1320    23.3360 
  249.7500     2.3760    -6.2200    90.8150     6.0400     5.6410     5.7060    23.3790 
  249.8750     2.3820    -6.1710    93.8800     5.8220     5.4440     5.3990    23.3930 
  250.0000     2.3880    -6.1580    89.8770     5.6320     5.2440     5.2690    23.3820 
  250.1250     2.3900    -6.1960    84.8900     5.5190     5.0930     5.2220    23.3480 
  250.2500     2.3860    -6.3040    85.7540     5.5300     5.0400     5.2090    23.3050 
  250.3750     2.3780    -6.4600    86.6850     5.6400     5.0790     5.2810    23.2400 
  250.5000     2.3690    -6.6410    84.4820     5.8180     5.1930     5.5710    23.1560 
  250.6250     2.3620    -6.8210    81.3040     6.0340     5.3660     6.1340    23.0910 
  250.7500     2.3580    -7.0020    80.7070     6.2940     5.6020     6.6800    23.0640 
  250.8750     2.3580    -7.1690    81.9350     6.6260     5.9090     7.1150    23.0500 
  251.0000     2.3580    -7.3150    81.5760     7.0620     6.3040     7.7220    23.0430 
  251.1250     2.3570    -7.4280    78.5520     7.6030     6.7830     9.1910    23.0490 
  251.2500     2.3510    -7.4770    73.4440     8.1960     7.3140    11.0030    23.0650 
  251.3750     2.3430    -7.4730    71.1540     8.7390     7.8190    12.1160    23.0670 
