~V
VERS. 2.00: Ver 2.00
~W
STRT.M 58.0000:
STOP.M 213.0000:
STEP.M 0.1250:
NULL. -999.2500:
UWI. F10138:
~C
DEPT.M :
GR.API :
RML.OHMM :
RI. :
RXO.OHMM :
CALI.CM :
DEN.GM/CC :
SP.MV :
~A
# ...
  181.7500    50.9570   236.9940   212.1980   212.0680    23.5300     2.5630   -24.6930 
  181.8750    49.9430   242.9380   219.1000   258.6150    23.5690     2.5690   -24.5020 
  182.0000    51.9940   242.6010   220.8140   278.0330    23.6120     2.5790   -24.2890 
  182.1250    53.6170   232.8270   215.6110   280.0900    23.6340     2.6040   -24.1050 
  182.2500    52.6470   209.0360   200.1400   284.4880    23.5820     2.6360   -23.9210 
  182.3750    51.6410   167.9490   169.2650   305.2000    23.6040     2.6680   -23.7150 
  182.5000    52.4400   117.0130   124.6030   285.2960    23.6600     2.6940   -23.4990 
  182.6250    53.4020    76.1220    79.8810   196.3130    23.6830     2.6990   -23.2680 
  182.7500    54.4260    45.0250    47.1730    83.4870    23.7080     2.6750   -23.0520 
  182.8750    57.0940    26.5750    27.4500    31.6550    23.6590     2.6130   -22.8550 
  183.0000    58.9260    16.6140    16.9760    14.6010    23.6530     2.5250   -22.6780 
  183.1250    55.3270    12.1270    12.3000    10.5410    23.6670     2.4370   -22.5680 
  183.2500    49.1400    10.0710    10.0290     9.6100    23.5430     2.3770   -22.5180 
  183.3750    44.8480     9.3690     9.0860     9.7180    23.4620     2.3540   -22.5880 
  183.5000    43.8260     9.3780     8.9000     9.8630    22.9280     2.3610   -22.7550 
  183.6250    45.8310     9.7070     9.1490     9.6450    22.6740     2.3840   -22.9850 
  183.7500    48.6220    10.0360     9.5110     9.2170    22.6690     2.4000   -23.3180 
  183.8750    50.1640    10.2260     9.8130     8.8360    22.7350     2.4030   -23.6700 
  184.0000    50.5910    10.2190     9.9480     8.8590    22.7870     2.3940   -24.0340 
  184.1250    51.3070    10.0120     9.8450     9.4330    22.7380     2.3740   -24.3600 
  184.2500    52.3430     9.7080     9.5770     9.3390    22.9000     2.3490   -24.5850 
  184.3750    52.6060     9.4000     9.2210     8.0700    23.1770     2.3250   -24.7560 
  184.5000    53.4140     9.1740     8.8700     6.9950    23.3890     2.3050   -24.8620 
  184.6250    59.1860     9.0890     8.6000     6.8020    23.3810     2.2980   -25.0260 
  184.7500    69.1170     9.0860     8.4070     7.1900    23.4080     2.3000   -25.2360 
  184.8750    78.8110     9.1030     8.2570     7.6850    23.3170     2.3010   -25.5690 
  185.0000    85.5880     9.0870     8.1110     8.1230    23.2510     2.2840   -26.0920 
  185.1250    90.7970     9.0240     7.9460     8.1770    23.3500     2.2360   -26.8210 
  185.2500    96.6820     8.9740     7.7910     8.1210    23.4180     2.1760   -27.8150 
  185.3750   101.2030     9.0010     7.6930     7.9770    23.2330     2.1320   -28.9920 
  185.5000   101.1280     9.1230     7.6810     8.2070    23.2880     2.1250   -30.2700 
  185.6250    97.2720     9.3090     7.7500     8.9500    23.9540     2.1690   -31.5160 
  185.7500    94.6300     9.4940     7.8490     9.2600    24.1150     2.2380   -32.6160 
  185.8750    94.3440     9.6510     7.9470     9.1630    24.0960     2.3040   -33.5280 
  186.0000    93.3590     9.7930     8.0400     8.9650    23.8690     2.3470   -34.1740 
  186.1250    89.3800     9.9780     8.1600     9.2370    23.9550     2.3630   -34.5560 
  186.2500    86.8200    10.2740     8.3520     9.7990    23.8640     2.3710   -34.6210 
  186.3750    84.8210    10.7420     8.6600    10.4110    23.6880     2.3770   -34.3840 
  186.5000    80.5550    11.4090     9.1080    10.9820    23.7770     2.3830   -33.8910 
  186.6250    75.4210    12.2720     9.7030    11.3820    23.6760     2.3930   -33.1590 
  186.7500    74.0250    13.2020    10.3640    12.6690    23.6850     2.4060   -32.3480 
  186.8750    75.4680    14.0500    10.9980    14.8030    23.6900     2.4200   -31.4320 
  187.0000    77.3230    14.6240    11.4660    16.0670    23.7070     2.4340   -30.4760 
  187.1250    81.4480    14.6450    11.5250    14.8890    23.5900     2.4430   -29.4320 
  187.2500    88.4940    14.1010    11.1290    13.0450    23.6340     2.4460   -28.3450 
  187.3750    94.5020    13.0740    10.3270    12.4250    23.6700     2.4390   -27.2300 
  187.5000    96.5410    11.7820     9.2930    11.9770    23.7220     2.4170   -26.1160 
  187.6250    94.9900    10.5600     8.2860    10.7300    23.8770     2.3770   -25.0060 
  187.7500    92.1370     9.6870     7.5190     9.1110    23.9090     2.3330   -23.8960 
  187.8750    88.8320     9.3200     7.1040     7.7670    24.8200     2.3000   -22.9000 
  188.0000    86.1500     9.5350     7.1050     7.7100    25.9100     2.2890   -21.9810 
  188.1250    86.0630    10.4160     7.6170     8.8610    24.8410     2.3070   -21.1590 
  188.2500    87.6670    11.7460     8.5360    10.0340    24.1370     2.3410   -20.3960 
  188.3750    90.3610    13.2640     9.7300    11.1960    23.9650     2.3820   -19.6600 
  188.5000    94.5680    14.5320    10.9100    12.8580    23.8300     2.4190   -18.9390 
  188.6250    97.1860    14.8300    11.5110    14.3070    23.6920     2.4370   -18.2060 
  188.7500    95.1670    14.0290    11.2800    14.8900    23.7050     2.4150   -17.4600 
  188.8750    86.0480    12.4030    10.3150    13.1880    23.7930     2.3300   -16.6010 
  189.0000    73.2450    10.5080     8.9890     9.2050    24.4320     2.1880   -15.6460 
  189.1250    63.2660     8.5950     7.7490     5.7830    27.5510     2.0250   -14.6270 
  189.2500    57.7120     7.5710     6.8130     4.4330    30.8380     1.8840   -13.5850 
  189.3750    54.4040     6.9900     6.2050     4.0610    32.8980     1.7790   -12.5940 
  189.5000    51.9780     6.7260     5.8700     4.0020    35.5090     1.7100   -11.6640 
  189.6250    51.6410     6.6550     5.7380     3.9550    37.4930     1.6690   -10.8690 
  189.7500    51.1510     6.6130     5.6790     3.9260    35.9160     1.6370   -10.1710 
  189.8750    49.6530     6.5270     5.6240     3.8990    38.5720     1.6060    -9.6010 
  190.0000    48.8250     6.3970     5.5510     3.7680    40.7510     1.5770    -9.1530 
  190.1250    51.3690     6.2930     5.4870     3.6010    41.0750     1.5600    -8.8140 
  190.2500    56.3130     6.2820     5.4680     3.5820    40.8260     1.5620    -8.5870 
  190.3750    61.6010     6.3980     5.5220     3.7160    39.5620     1.5990    -8.4340 
  190.5000    64.9580     6.6410     5.6630     4.0030    35.7670     1.6790    -8.3690 
  190.6250    67.4690     6.9760     5.8960     4.4710    30.1020     1.8090    -8.3400 
  190.7500    72.2030     7.3000     6.1550     4.9840    26.5430     1.9550    -8.3740 
  190.8750    78.5420     7.5220     6.3660     5.3440    25.0440     2.0740    -8.4090 
  191.0000    82.1630     7.5720     6.4490     5.5410    24.7870     2.1200    -8.4340 
  191.1250    79.2710     7.4040     6.3310     5.5610    25.2610     2.0560    -8.4230 
  191.2500    73.5900     7.1250     6.0840     5.1350    26.2790     1.9270    -8.3500 
  191.3750    68.6650     6.8620     5.8110     4.5370    29.4020     1.7850    -8.2690 
  191.5000    67.1840     6.7410     5.6240     4.2970    34.9780     1.6720    -8.1630 
  191.6250    67.9600     6.8770     5.6320     4.4730    37.7950     1.6320    -8.0830 
  191.7500    68.1260     7.2190     5.8210     4.9910    33.5740     1.6660    -7.9750 
  191.8750    68.7410     7.6830     6.1440     6.1080    27.4350     1.7680    -7.9090 
  192.0000    71.4100     8.1400     6.5120     8.1140    24.6850     1.9120    -7.8490 
  192.1250    75.2200     8.4450     6.8030     8.9220    24.2140     2.0560    -7.8540 
  192.2500    75.2360     8.6100     6.9830     8.4160    24.0570     2.1680    -7.9300 
  192.3750    72.9990     8.7430     7.1020     7.7160    23.8470     2.2380    -8.0280 
  192.5000    72.3470     8.9880     7.2600     7.6840    23.8330     2.2750    -8.1640 
  192.6250    76.0550     9.5060     7.5890     8.4640    23.9200     2.2930    -8.3400 
  192.7500    79.6280    10.2990     8.1280     9.8900    23.9760     2.3050    -8.5620 
  192.8750    79.3910    11.3060     8.8650    12.8700    23.9970     2.3130    -8.7660 
