~V
VERS. 2.00: Ver 2.00
~W
STRT.M 59.0000:
STOP.M 202.0000:
STEP.M 0.1250:
NULL. -999.2500:
UWI. F10133:
~C
DEPT.M :
GR.API :
RML.OHMM :
RI. :
RXO.OHMM :
CALI.CM :
SP.MV :
DEN.GM/CC :
~A
# ...
  160.2500    70.3240    91.4790    97.4090    98.1170    24.1530   -13.8720     2.3340 
  160.3750    78.7330    72.6550    77.8270    65.7750    24.5010   -14.0610     2.3060 
  160.5000    82.6500    62.7920    67.6420    47.5710    24.8880   -14.3270     2.2650 
  160.6250    79.4720    59.4980    65.0330    47.9250    24.9450   -14.6390     2.2400 
  160.7500    75.8140    58.5300    65.6970    57.4410    24.5530   -14.8350     2.2490 
  160.8750    76.1420    57.2500    66.4420    67.9710    24.0930   -15.0760     2.2820 
  161.0000    81.8390    53.7140    64.1070    55.8440    23.6190   -15.4460     2.3170 
  161.1250    87.6010    47.0390    56.4440    34.2560    23.2970   -15.7870     2.3310 
  161.2500    88.8180    39.1350    46.2950    21.7580    23.2590   -16.1060     2.3270 
  161.3750    88.2270    32.0060    36.8550    18.0490    23.5760   -16.5210     2.3170 
  161.5000    91.5880    27.2360    30.1840    16.7440    24.1010   -16.9790     2.3130 
  161.6250    95.9330    26.2260    27.4380    15.2730    24.6020   -17.3870     2.3240 
  161.7500    94.7880    28.8140    28.1160    15.8460    24.7460   -17.8740     2.3350 
  161.8750    90.1880    35.3880    32.6590    20.0420    24.6970   -18.3890     2.3300 
  162.0000    84.5720    46.5100    42.0530    32.8120    24.7060   -18.8000     2.2990 
  162.1250    77.0700    63.4710    58.4630    54.7200    24.9080   -19.1540     2.2470 
  162.2500    69.8340    84.8030    80.5330    75.7110    25.1860   -19.5300     2.2020 
  162.3750    66.6440   108.2390   105.1830    84.1200    25.2070   -19.9010     2.1780 
  162.5000    68.3460   130.2810   127.3150    92.7800    25.0530   -20.2050     2.1740 
  162.6250    70.1940   146.8130   141.3870   110.1360    25.4560   -20.4680     2.1740 
  162.7500    69.2880   158.4170   148.6320   129.6170    26.1180   -20.7310     2.1680 
  162.8750    66.0200   167.5700   152.1950   145.3190    26.4130   -20.9530     2.1640 
  163.0000    63.2280   174.7720   155.8460   153.4310    26.3790   -21.2020     2.1830 
  163.1250    63.5880   180.5270   163.5930   143.1230    26.1890   -21.5900     2.2500 
  163.2500    64.7800   189.5720   176.3640   121.2320    25.6700   -22.0020     2.3520 
  163.3750    64.1350   205.1450   193.0710    97.7830    24.8340   -22.3460     2.4620 
  163.5000    61.8900   223.5050   210.1650    84.6590    23.8860   -22.7900     2.5540 
  163.6250    60.0330   232.8020   220.2590   109.2090    23.3890   -23.3370     2.6070 
  163.7500    59.6370   228.1640   218.5210   155.0200    23.4340   -23.7920     2.6310 
  163.8750    60.7180   211.3220   204.4120   181.6960    23.7890   -24.2560     2.6440 
  164.0000    63.8760   188.2500   183.1120   193.5920    24.1930   -24.7330     2.6590 
  164.1250    69.5870   166.3190   162.6400   199.8940    24.4200   -25.0410     2.6830 
  164.2500    75.1940   147.5340   146.2710   173.1720    24.4990   -25.2370     2.7110 
  164.3750    77.6890   129.1300   131.5820   137.0170    24.5060   -25.4420     2.7330 
  164.5000    76.2260   107.6720   113.5560   125.3450    24.4910   -25.5400     2.7410 
  164.6250    71.2180    82.4510    88.4100   169.8930    24.4550   -25.4150     2.7210 
  164.7500    65.6510    57.9450    61.6550   167.9020    24.3890   -25.2300     2.6770 
  164.8750    61.4880    38.0280    39.5520    89.7670    24.2470   -24.9480     2.6160 
  165.0000    60.9960    24.2890    24.6950    37.2170    24.0270   -24.5470     2.5450 
  165.1250    63.5660    16.6310    16.6790    17.0290    23.7740   -24.1630     2.4690 
  165.2500    66.3480    12.3220    12.1580    11.2600    23.7580   -23.8880     2.3920 
  165.3750    68.1690    10.0520     9.6670     9.2300    24.1120   -23.6420     2.3180 
  165.5000    69.4650     8.9620     8.3640     8.2920    24.8150   -23.3640     2.2550 
  165.6250    70.7080     8.5810     7.8540     7.7120    25.4120   -23.1310     2.2140 
  165.7500    69.5510     8.4820     7.7140     7.6260    25.5540   -22.9040     2.1960 
  165.8750    65.6790     8.5150     7.7650     7.8370    25.4000   -22.6590     2.2000 
  166.0000    60.8380     8.6000     7.8870     8.1570    25.1350   -22.4080     2.2220 
  166.1250    56.6580     8.6910     7.9950     8.2740    24.8120   -22.1320     2.2540 
  166.2500    54.2830     8.7540     8.0460     8.3030    24.5500   -21.8040     2.2820 
  166.3750    54.7710     8.7710     8.0250     8.1600    24.6070   -21.4350     2.2950 
  166.5000    57.0620     8.7420     7.9480     8.0690    24.8100   -21.0540     2.2880 
  166.6250    56.0260     8.6940     7.8460     8.1800    24.8870   -20.7600     2.2720 
  166.7500    53.4240     8.6890     7.7620     8.2090    24.7990   -20.5580     2.2610 
  166.8750    53.7660     8.6530     7.7200     8.1220    24.5630   -20.3870     2.2660 
  167.0000    58.7390     8.4720     7.7210     8.1270    24.2290   -20.2320     2.2880 
  167.1250    64.6460     8.2010     7.7380     8.2290    24.0170   -20.1330     2.3210 
  167.2500    65.5530     8.0460     7.7320     8.2570    23.8950   -20.0650     2.3560 
  167.3750    62.6120     8.0280     7.6850     8.2440    23.8270   -20.0100     2.3840 
  167.5000    61.3060     8.0140     7.5930     8.0980    23.7710   -20.0200     2.3990 
  167.6250    67.0120     7.9020     7.4370     7.9200    23.7630   -20.1100     2.3910 
  167.7500    76.3200     7.7190     7.2160     7.8750    23.8300   -20.2280     2.3680 
  167.8750    86.1680     7.4650     6.9290     7.9770    23.9970   -20.3550     2.3430 
  168.0000    93.2140     7.1640     6.5900     7.8620    24.2140   -20.5160     2.3300 
  168.1250    88.2310     6.8700     6.2460     7.0800    24.1030   -20.7450     2.3440 
  168.2500    75.2010     6.6380     5.9580     5.9950    23.8050   -21.0140     2.3710 
  168.3750    63.0580     6.5010     5.7610     5.5150    23.5140   -21.2970     2.3950 
  168.5000    56.1370     6.4580     5.6640     5.5840    23.3480   -21.5610     2.3980 
  168.6250    54.6690     6.4790     5.6650     5.8960    23.4530   -21.7870     2.3720 
  168.7500    56.6480     6.4920     5.7070     6.1560    23.8520   -22.0010     2.3340 
  168.8750    59.0730     6.4480     5.7410     6.3120    24.3310   -22.2340     2.3040 
  169.0000    57.1840     6.3360     5.7320     6.0840    24.6300   -22.5150     2.2950 
  169.1250    52.1420     6.1820     5.6680     5.5350    24.6910   -22.8070     2.3120 
  169.2500    50.2290     6.0460     5.5760     5.3120    24.8080   -23.0590     2.3410 
  169.3750    52.1430     5.9640     5.4840     5.2440    24.9120   -23.2790     2.3720 
  169.5000    54.6060     5.9460     5.4140     5.3450    24.9940   -23.4990     2.4000 
  169.6250    55.4320     5.9940     5.3890     5.3390    24.9210   -23.6930     2.4200 
  169.7500    56.7480     6.0940     5.4110     5.3690    24.8550   -23.8230     2.4310 
  169.8750    59.7040     6.2520     5.4880     5.4610    24.7910   -23.9350     2.4310 
  170.0000    63.7440     6.4730     5.6280     5.4740    24.7020   -24.0560     2.4220 
  170.1250    69.0020     6.7550     5.8370     5.4360    24.7020   -24.1360     2.4110 
  170.2500    79.2070     7.0540     6.0760     5.8770    24.7170   -24.1640     2.4070 
  170.3750    94.4760     7.3180     6.2970     6.9970    24.7980   -24.2280     2.4140 
  170.5000   106.1460     7.4990     6.4460     8.0440    24.8730   -24.3810     2.4280 
  170.6250   108.2670     7.5620     6.4780     8.3830    24.8790   -24.5880     2.4400 
  170.7500   110.1450     7.5610     6.4320     7.8990    24.9110   -24.8610     2.4430 
  170.8750   117.1500     7.5690     6.3590     7.4100    25.0500   -25.2400     2.4390 
  171.0000   123.4960     7.6690     6.3290     7.5650    25.2220   -25.6460     2.4290 
  171.1250   120.1300     7.9550     6.4440     7.7900    25.2920   -26.0170     2.4210 
  171.2500   113.8770     8.4230     6.7290     7.9950    25.3010   -26.4160     2.4210 
  171.3750   109.2650     9.0550     7.1870     8.6270    25.2130   -26.7960     2.4300 
