~V
VERS. 2.00: Ver 2.00
~W
STRT.M 50.0000:
STOP.M 294.0000:
STEP.M 0.1250:
NULL. -999.2500:
UWI. F10104:
~C
DEPT.M :
GR.API :
RML.OHMM :
RI. :
RXO.OHMM :
CALI.CM :
DEN.GM/CC :
SP.MV :
~A
# ...
  173.7500    69.5630    14.6650    14.8920    14.7740    24.6170     2.4660   -11.3860 
  173.8750    70.3890    14.0840    14.2130    14.3360    24.9410     2.4590   -11.2300 
  174.0000    69.7970    13.7240    13.7770    13.9830    25.2120     2.4520   -11.1450 
  174.1250    66.5850    13.8400    13.7940    14.2380    25.9950     2.4520   -11.1030 
  174.2500    61.7280    14.5160    14.3170    14.9170    27.0130     2.4610   -11.1070 
  174.3750    60.1890    15.8020    15.4110    16.5550    27.1540     2.4800   -11.1470 
  174.5000    63.8050    17.5850    17.0320    20.6110    26.5430     2.5010   -11.1960 
  174.6250    66.5530    19.3410    18.8170    25.2300    25.8610     2.5150   -11.2440 
  174.7500    63.5520    20.2050    19.9490    28.0090    25.4860     2.5240   -11.2830 
  174.8750    58.4150    19.6050    19.7640    24.6290    25.3350     2.5260   -11.3080 
  175.0000    57.5300    17.7050    18.2290    19.7400    25.6470     2.5200   -11.3080 
  175.1250    64.0400    15.3440    15.9960    16.5740    26.0110     2.5060   -11.3320 
  175.2500    72.0180    13.4000    13.9760    14.4810    26.1230     2.4970   -11.3310 
  175.3750    77.0100    12.1240    12.4980    13.4460    26.0530     2.4940   -11.3340 
  175.5000    77.8530    11.4740    11.5940    12.5960    25.8690     2.4890   -11.3470 
  175.6250    76.3960    11.3660    11.2350    11.9170    26.1600     2.4760   -11.3840 
  175.7500    74.1750    11.5720    11.2040    12.1240    26.5240     2.4660   -11.4240 
  175.8750    71.5390    11.9420    11.3680    12.5490    26.9510     2.4630   -11.4830 
  176.0000    70.7360    12.3300    11.5780    12.7350    26.6760     2.4620   -11.5560 
  176.1250    70.3300    12.6150    11.7050    12.5250    27.1490     2.4610   -11.6260 
  176.2500    67.8980    12.8080    11.7690    12.8740    28.1350     2.4610   -11.7040 
  176.3750    66.0190    12.9990    11.8790    13.3070    29.2350     2.4630   -11.7780 
  176.5000    67.9380    13.3050    12.1680    13.3790    28.9570     2.4660   -11.8570 
  176.6250    72.6580    13.8370    12.7610    13.8710    27.0300     2.4690   -11.9330 
  176.7500    77.0150    14.5070    13.5660    14.9230    26.0750     2.4740   -12.0080 
  176.8750    81.6950    15.1570    14.4240    16.7400    25.9010     2.4830   -12.0470 
  177.0000    86.5610    15.5240    15.0710    19.0520    26.2390     2.4980   -12.0670 
  177.1250    89.4470    15.0870    14.9980    21.6230    26.7500     2.5100   -12.0770 
  177.2500    90.6480    13.7020    13.9930    21.4200    26.5710     2.5060   -12.0800 
  177.3750    90.7750    11.5480    12.1430    18.4620    26.1660     2.4760   -12.0750 
  177.5000    89.7730     9.1220     9.8730    14.9130    25.8460     2.4230   -12.0380 
  177.6250    88.3770     7.0130     7.7310    10.8180    25.3260     2.3640   -11.9980 
  177.7500    89.6710     5.4610     6.0090     7.8270    25.1750     2.3210   -11.9270 
  177.8750    94.9470     4.5200     4.7920     6.2410    25.2410     2.2980   -11.8740 
  178.0000   101.7990     4.1430     4.0730     6.0130    25.0940     2.2920   -11.8270 
  178.1250   105.9730     4.2870     3.8570     6.2970    24.9990     2.2940   -11.7950 
  178.2500   107.2370     4.7320     3.9680     6.3070    25.0060     2.2980   -11.7670 
  178.3750   108.0650     5.3020     4.2790     6.0070    24.8680     2.2980   -11.7660 
  178.5000   111.1720     5.8130     4.6470     5.7380    24.4450     2.2920   -11.8110 
  178.6250   115.0540     6.1340     4.9480     5.7110    24.5360     2.2800   -11.8920 
  178.7500   115.0290     6.3630     5.1840     6.0580    24.9520     2.2650   -12.0530 
  178.8750   110.1120     6.6260     5.4170     6.6700    25.2130     2.2510   -12.2680 
  179.0000   105.4020     6.9840     5.6940     7.6050    25.4400     2.2410   -12.5510 
  179.1250   105.7830     7.4160     6.0120     8.1770    25.8480     2.2420   -12.8580 
  179.2500   107.7850     7.8170     6.3090     8.5140    26.0470     2.2530   -13.1870 
  179.3750   108.5620     8.1080     6.5300     8.6730    26.1160     2.2680   -13.4880 
  179.5000   107.1640     8.2530     6.6550     8.8430    26.2630     2.2800   -13.7490 
  179.6250   104.3540     8.2100     6.6580     9.0030    26.6990     2.2870   -13.9390 
  179.7500   100.8190     7.9990     6.5480     8.6170    26.8810     2.2920   -14.0650 
  179.8750    99.3930     7.6750     6.3420     7.8470    26.6660     2.2980   -14.1490 
  180.0000   103.0530     7.3720     6.1100     7.5270    26.7560     2.3000   -14.1970 
  180.1250   108.1990     7.2990     5.9930     8.1900    27.7270     2.2940   -14.2160 
  180.2500   109.2650     7.4990     6.0670     9.2730    29.2140     2.2880   -14.1830 
  180.3750   105.6570     7.8810     6.3240     9.9610    28.9480     2.2910   -14.0950 
  180.5000   102.6590     8.2590     6.6710    10.1550    28.5450     2.3070   -13.9490 
  180.6250   100.3450     8.3800     6.9280    11.1310    26.5370     2.3320   -13.7750 
  180.7500    97.1410     8.1700     6.9620    12.6240    25.8240     2.3620   -13.5380 
  180.8750    95.5440     7.6310     6.6970    12.7210    25.5180     2.3890   -13.2540 
  181.0000    97.3960     6.8550     6.1310     9.9280    25.2890     2.4000   -12.9070 
  181.1250   104.6570     6.0350     5.3690     7.9740    24.9940     2.3810   -12.5370 
  181.2500   112.7040     5.3690     4.6410     7.3040    25.0000     2.3540   -12.1940 
  181.3750   116.9380     4.9380     4.0840     7.1440    24.8140     2.3410   -11.8920 
  181.5000   115.5400     4.7370     3.7540     7.0920    24.4760     2.3490   -11.6460 
  181.6250   113.0190     4.7350     3.6550     6.9370    24.1380     2.3670   -11.4170 
  181.7500   112.2740     4.8300     3.6700     6.8460    23.9380     2.3790   -11.2350 
  181.8750   109.7030     4.9540     3.7210     6.8050    24.0030     2.3750   -11.0570 
  182.0000   106.2440     5.0300     3.7610     6.6740    24.3550     2.3550   -10.9090 
  182.1250   105.8450     4.9550     3.7620     6.5730    24.9920     2.3350   -10.7450 
  182.2500   106.8890     4.7570     3.7320     6.4750    25.2990     2.3240   -10.5840 
  182.3750   106.9380     4.5170     3.6890     6.3890    25.3620     2.3230   -10.4310 
  182.5000   106.3120     4.2970     3.6480     6.4450    25.2670     2.3260   -10.2950 
  182.6250   107.4270     4.0920     3.5930     6.4570    25.0540     2.3260   -10.1940 
  182.7500   106.6860     3.8550     3.4910     6.2910    24.9210     2.3190   -10.1190 
  182.8750   102.4020     3.5830     3.3230     6.0280    24.9560     2.3020   -10.0750 
  183.0000    97.8960     3.3220     3.0980     5.9490    25.0550     2.2780   -10.0280 
  183.1250    97.4990     3.1640     2.8560     5.8930    25.0210     2.2510   -10.0240 
  183.2500    98.1750     3.1210     2.6410     5.9450    24.9790     2.2260   -10.0110 
  183.3750    96.9490     3.1630     2.4770     5.8370    24.9690     2.2060   -10.0160 
  183.5000    95.1720     3.2480     2.3750     5.5140    24.9300     2.1900   -10.0300 
  183.6250    92.7700     3.3560     2.3430     5.1940    24.8530     2.1810   -10.0530 
  183.7500    86.8800     3.4620     2.3560     5.3300    24.8350     2.1760   -10.0800 
  183.8750    80.7290     3.5600     2.3960     5.7510    25.0050     2.1760   -10.1110 
  184.0000    80.9500     3.6790     2.4560     6.0530    25.2080     2.1810   -10.1720 
  184.1250    88.3110     3.9030     2.5630     6.1660    25.3600     2.1930   -10.2290 
  184.2500    94.5880     4.2540     2.7360     6.2990    25.4810     2.2130   -10.3140 
  184.3750    98.7670     4.6900     2.9760     6.5360    25.4980     2.2380   -10.3980 
  184.5000   102.7900     5.1030     3.2370     6.7930    25.3490     2.2560   -10.4980 
  184.6250   105.6960     5.3550     3.4410     6.7820    25.0350     2.2560   -10.6070 
  184.7500   105.7280     5.5190     3.5850     6.6860    24.9110     2.2450   -10.7490 
  184.8750   104.0020     5.7600     3.7440     6.8500    24.9300     2.2400   -10.9100 
