~V
VERS. 2.00: Ver 2.00
~W
STRT.M 52.0000:
STOP.M 322.0000:
STEP.M 0.1250:
NULL. -999.2500:
UWI. F10105:
~C
DEPT.M :
GR.API :
RML.OHMM :
RI. :
RXO.OHMM :
CALI.CM :
DEN.GM/CC :
SP.MV :
~A
# ...
  108.2500    74.1100    15.8150    13.2750    22.0550    26.4350     2.4340    -4.1110 
  108.3750    71.0540    15.5860    13.6880    22.6420    26.3080     2.4900    -4.6970 
  108.5000    71.8790    14.1310    12.6950    16.4180    26.0000     2.4830    -5.1960 
  108.6250    75.2750    12.0970    10.9200    11.5230    25.5740     2.4110    -5.6830 
  108.7500    76.0960    10.3410     9.2860     9.6200    25.2740     2.3200    -6.1980 
  108.8750    74.2500     9.1920     8.1120     8.9530    25.0750     2.2400    -6.7030 
  109.0000    73.7770     8.6440     7.4400     8.6820    24.9650     2.1860    -7.2610 
  109.1250    78.7890     8.5530     7.2150     8.5820    24.9290     2.1630    -7.7820 
  109.2500    85.7350     8.6230     7.2060     8.4700    24.9190     2.1550    -8.0870 
  109.3750    90.4360     8.7090     7.2830     8.3670    24.9260     2.1530    -8.2080 
  109.5000    91.4720     8.7400     7.3600     8.3210    24.9450     2.1520    -8.2110 
  109.6250    89.9080     8.7000     7.3990     8.2150    24.9780     2.1500    -8.0770 
  109.7500    88.7230     8.6300     7.4140     8.1000    24.9920     2.1450    -7.9730 
  109.8750    89.0460     8.5640     7.4250     7.9670    24.9950     2.1360    -7.9720 
  110.0000    90.1850     8.5310     7.4470     7.8810    24.9940     2.1250    -7.9700 
  110.1250    88.2840     8.5600     7.4910     7.7530    24.9940     2.1160    -8.0100 
  110.2500    84.6310     8.6520     7.5580     7.8350    25.0110     2.1110    -8.1800 
  110.3750    82.7490     8.7980     7.6410     8.0900    25.0610     2.1140    -8.3910 
  110.5000    82.7520     8.9670     7.7240     8.4340    25.1490     2.1240    -8.5990 
  110.6250    82.2860     9.0860     7.7600     8.8690    25.2320     2.1380    -8.8160 
  110.7500    81.8260     9.0830     7.7130     9.0990    25.2610     2.1500    -9.0240 
  110.8750    81.5140     8.9070     7.5440     9.0580    25.2330     2.1570    -9.1580 
  111.0000    80.2560     8.5770     7.2430     8.7290    25.1940     2.1580    -9.2220 
  111.1250    79.4680     8.2690     6.8780     8.4930    25.1770     2.1510    -9.3080 
  111.2500    79.1550     8.3140     6.6700     8.4280    25.1720     2.1420    -9.3760 
  111.3750    79.0030     9.0800     6.8840     8.5110    25.1960     2.1390    -9.4160 
  111.5000    80.0130    10.9150     7.8340     9.1930    25.2830     2.1550    -9.5300 
  111.6250    80.8280    14.1900    10.0880    14.4210    25.4960     2.2100    -9.6480 
  111.7500    78.4230    18.2090    13.6430    35.7780    25.8240     2.2960    -9.6530 
  111.8750    74.5610    21.6260    17.8320    95.0860    26.1600     2.3910    -9.6250 
  112.0000    73.9890    22.7380    20.6050   153.8150    26.3270     2.4610    -9.6100 
  112.1250    77.2910    20.3180    19.2620    71.0090    26.2380     2.4700    -9.4400 
  112.2500    81.3740    16.1590    15.5700    28.4160    25.9730     2.4320    -9.2000 
  112.3750    87.6960    12.1160    11.8100    13.0730    25.7170     2.3700    -8.8810 
  112.5000    96.6260     9.3320     9.0900     8.4110    25.5950     2.3130    -8.4760 
  112.6250   100.0330     8.1200     7.6580     7.4950    25.5610     2.2780    -8.1910 
  112.7500    95.7330     7.8040     7.0370     7.4790    25.5280     2.2570    -8.0600 
  112.8750    87.9410     7.9780     6.9610     7.8570    25.4810     2.2380    -7.9560 
  113.0000    82.4140     8.3260     7.1890     8.3740    25.4520     2.2190    -7.8900 
  113.1250    80.8510     8.5970     7.4880     8.4250    25.4460     2.2010    -8.0320 
  113.2500    80.0690     8.6910     7.6870     8.3140    25.4410     2.1880    -8.2320 
  113.3750    79.2460     8.6080     7.7390     8.1640    25.4200     2.1770    -8.5480 
  113.5000    79.2420     8.4120     7.6520     8.1020    25.3730     2.1650    -8.9750 
  113.6250    81.0030     8.2250     7.4880     8.1800    25.3120     2.1440    -9.3360 
  113.7500    81.4170     8.1730     7.3780     8.4470    25.2530     2.1190    -9.6130 
  113.8750    78.5310     8.3330     7.4230     8.5420    25.2180     2.0970    -9.8630 
  114.0000    73.9850     8.7050     7.6680     8.7700    25.2560     2.0920   -10.0350 
  114.1250    71.9070     9.1910     8.0860    10.6810    25.4220     2.1160    -9.9920 
  114.2500    72.7600     9.5790     8.4920    16.5640    25.6680     2.1560    -9.8040 
  114.3750    75.6030     9.7050     8.6990    26.3960    25.8740     2.1960    -9.5240 
  114.5000    80.7010     9.5020     8.5810    28.1820    25.8760     2.2180    -9.1910 
  114.6250    85.6910     9.0200     8.1440    16.2640    25.5860     2.2120    -8.8360 
  114.7500    86.4830     8.4930     7.6200    10.1760    25.2220     2.1910    -8.5000 
  114.8750    84.4790     8.0790     7.1670     8.3520    25.0020     2.1690    -8.2340 
  115.0000    83.3070     7.8570     6.8750     8.0900    24.9320     2.1550    -8.0260 
  115.1250    83.9220     7.8390     6.7870     8.0510    24.9380     2.1520    -7.9460 
  115.2500    83.0930     7.9220     6.8200     8.0420    24.9820     2.1520    -8.0530 
  115.3750    80.1800     8.0370     6.9120     7.9790    25.0540     2.1510    -8.2540 
  115.5000    77.0420     8.1420     7.0170     8.0060    25.1370     2.1470    -8.5370 
  115.6250    75.8900     8.2180     7.1080     8.1430    25.1840     2.1410    -8.8990 
  115.7500    77.3720     8.2700     7.1700     8.2540    25.2400     2.1340    -9.2000 
  115.8750    80.1120     8.3040     7.1910     8.3290    25.3290     2.1290    -9.4400 
  116.0000    81.3430     8.3130     7.1650     8.2900    25.4670     2.1280    -9.7020 
  116.1250    79.3720     8.2730     7.0730     8.2460    25.5910     2.1340    -9.9270 
  116.2500    77.1840     8.1630     6.9170     8.2060    25.7040     2.1440   -10.1030 
  116.3750    76.8320     7.9710     6.6920     8.2030    25.7570     2.1570   -10.2930 
  116.5000    78.2800     7.7160     6.4100     8.2860    25.7980     2.1670   -10.3740 
  116.6250    78.4850     7.5050     6.1410     8.3710    25.8840     2.1640   -10.2450 
  116.7500    76.9970     7.5180     6.0090     8.4170    25.9680     2.1500   -10.0480 
  116.8750    75.5110     7.9930     6.1660     8.7270    25.9530     2.1360    -9.7950 
  117.0000    73.4210     9.2210     6.8140     9.7160    25.8290     2.1430    -9.4310 
  117.1250    70.9340    11.7700     8.4470    12.1940    25.7750     2.2000    -8.9380 
  117.2500    70.0290    15.7800    11.4280    17.1910    25.9670     2.3000    -8.3620 
  117.3750    70.3010    21.1890    16.2010    25.9830    26.2720     2.4240    -7.7580 
  117.5000    70.1050    27.0590    22.6620    41.9010    26.4870     2.5480    -7.2120 
  117.6250    67.6000    30.6920    28.5440    76.6240    26.5390     2.6440    -6.8420 
  117.7500    65.7350    30.2560    30.0670   106.1110    26.4990     2.6990    -6.7100 
  117.8750    65.5460    25.9140    26.3160    92.9620    26.4130     2.7030    -6.8080 
  118.0000    67.0020    19.7320    20.0500    53.5330    26.2950     2.6470    -7.2060 
  118.1250    69.6540    14.3760    14.5690    26.2140    26.0400     2.5280    -8.0150 
  118.2500    73.2380    10.7820    10.7540    14.3880    25.7640     2.3870    -8.9260 
  118.3750    77.6580     8.7530     8.3830     9.7400    25.6120     2.2590    -9.7490 
  118.5000    80.6190     7.8150     7.0540     8.4410    25.5580     2.1700   -10.5280 
  118.6250    81.0410     7.5900     6.5070     7.9130    25.4890     2.1310   -11.2190 
  118.7500    80.4840     7.6300     6.3530     7.4230    25.4480     2.1180   -11.7830 
  118.8750    78.7590     7.7400     6.3980     7.2200    25.4760     2.1150   -12.2870 
  119.0000    75.9810     7.8160     6.5080     7.2570    25.5260     2.1110   -12.6120 
  119.1250    73.8720     7.8190     6.6020     7.3540    25.5340     2.1060   -12.6600 
  119.2500    75.4050     7.7760     6.6620     7.4050    25.5470     2.1010   -12.6740 
  119.3750    79.1510     7.7140     6.6920     7.3920    25.6000     2.0990   -12.7010 
