~V
VERS. 2.00: Ver 2.00
~W
STRT.M 50.0000:
STOP.M 252.0000:
STEP.M 0.1250:
NULL. -999.2500:
UWI. F10101:
~C
DEPT.M :
DEN.GM/CC :
SP.MV :
GR.API :
RML.OHMM :
RI. :
RXO.OHMM :
CALI.CM :
~A
# ...
  117.5000     2.1500   -14.5520    75.0120     8.2890     6.4220     8.2160    21.6870 
  117.6250     2.1430   -14.4640    72.5200     8.3210     6.4280     7.9900    21.7950 
  117.7500     2.1390   -14.2810    72.9940     8.3350     6.4430     7.6210    21.8170 
  117.8750     2.1420   -14.1070    76.6120     8.2980     6.4440     7.3200    21.7630 
  118.0000     2.1490   -13.8990    80.4810     8.1990     6.4180     7.2120    21.7430 
  118.1250     2.1560   -13.6600    81.9540     8.0540     6.3550     7.1730    21.7780 
  118.2500     2.1600   -13.3960    81.0070     7.9190     6.2840     6.9940    21.7780 
  118.3750     2.1620   -13.1500    79.8250     7.8350     6.2330     6.8200    21.7490 
  118.5000     2.1660   -12.8800    80.8020     7.8250     6.2260     6.7470    21.7250 
  118.6250     2.1710   -12.5530    82.9480     7.9080     6.2740     6.7930    21.7530 
  118.7500     2.1750   -12.2730    83.5930     8.0460     6.3450     6.8600    21.8050 
  118.8750     2.1820   -11.9140    83.0830     8.1700     6.3920     6.7810    21.8520 
  119.0000     2.1970   -11.5620    83.6490     8.1780     6.3550     6.6240    21.9310 
  119.1250     2.2270   -11.1530    84.2420     7.9120     6.1490     6.5220    22.1200 
  119.2500     2.2700   -10.7500    84.0810     7.3820     5.7880     6.4460    22.3160 
  119.3750     2.3160   -10.2920    85.8280     6.7200     5.3440     6.0930    22.4580 
  119.5000     2.3520    -9.9070    90.2980     6.1940     4.9670     5.6150    22.4990 
  119.6250     2.3720    -9.5960    92.9850     6.2220     4.9070     5.2280    22.4580 
  119.7500     2.3880    -9.2700    89.2990     6.9660     5.3050     5.2460    22.4310 
  119.8750     2.4100    -9.0580    82.4780     8.4650     6.2640     6.0600    22.4610 
  120.0000     2.4410    -8.8640    76.9230    10.4910     7.7560     8.2610    22.5640 
  120.1250     2.4770    -8.7750    73.2710    12.2350     9.3730    12.2150    22.6530 
  120.2500     2.4970    -8.7140    71.4030    12.7080    10.2550    13.2180    22.7160 
  120.3750     2.4790    -8.7450    71.9220    11.5990     9.9020    10.5160    22.7880 
  120.5000     2.4240    -8.7480    73.9160     9.5570     8.6040     7.7080    22.9290 
  120.6250     2.3660    -8.7080    75.6880     7.6860     7.1560     6.3980    23.0910 
  120.7500     2.3290    -8.7390    77.4450     6.5170     6.0980     5.8530    23.1520 
  120.8750     2.3120    -8.7230    79.1240     6.0810     5.5510     5.8160    23.0800 
  121.0000     2.3070    -8.7480    78.5390     6.2450     5.4910     6.0220    22.9240 
  121.1250     2.3120    -8.7190    74.0520     6.8560     5.8760     6.1120    22.8230 
  121.2500     2.3240    -8.6810    69.3040     7.5860     6.4650     6.2450    22.6800 
  121.3750     2.3390    -8.5510    68.1050     8.1660     7.0320     6.7630    22.4440 
  121.5000     2.3560    -8.4300    69.9490     8.3520     7.3380     7.2760    22.1910 
  121.6250     2.3720    -8.2930    72.9330     7.9560     7.1510     7.0400    22.1090 
  121.7500     2.3780    -8.0760    76.7810     7.2040     6.6050     6.1200    22.1910 
  121.8750     2.3710    -7.8780    81.5210     6.3610     5.9030     5.6260    22.3760 
  122.0000     2.3620    -7.6430    84.3530     5.6860     5.2640     5.4210    22.6310 
  122.1250     2.3600    -7.4370    81.6330     5.4670     4.9240     5.5500    22.8890 
  122.2500     2.3660    -7.2220    77.4150     5.7650     4.9700     5.6880    23.0940 
  122.3750     2.3790    -7.0750    75.6360     6.5680     5.4440     5.9010    23.1670 
  122.5000     2.4030    -6.8860    74.6260     7.7410     6.2990     6.4540    23.2130 
  122.6250     2.4400    -6.7460    70.8450     9.0280     7.4140     8.1170    23.3670 
  122.7500     2.4820    -6.6600    66.6900    10.1380     8.5360    12.1490    23.5510 
  122.8750     2.5200    -6.5340    65.6400    10.9940     9.5310    14.6130    23.7840 
  123.0000     2.5400    -6.4470    67.0010    11.7710    10.4160    12.4310    24.0740 
  123.1250     2.5410    -6.3490    65.9410    13.1070    11.4450    12.0650    24.6280 
  123.2500     2.5440    -6.2790    61.1520    15.4880    12.8830    16.5620    25.6900 
  123.3750     2.5590    -6.1720    54.7840    18.1000    14.8610    24.0260    25.7660 
  123.5000     2.5760    -6.1360    50.1610    21.1410    17.3150    26.4670    25.8260 
  123.6250     2.5850    -6.0970    50.3350    23.9970    19.8880    23.5990    25.8510 
  123.7500     2.5890    -6.0260    50.4600    26.1460    22.0360    22.5750    25.8080 
  123.8750     2.5940    -6.0000    48.2010    27.4860    23.5070    24.1510    25.6590 
  124.0000     2.5960    -5.9460    45.4270    28.2810    24.4080    26.6560    25.4330 
  124.1250     2.5920    -5.9170    45.7810    28.7760    24.9320    28.1140    25.1600 
  124.2500     2.5850    -5.8790    48.2240    28.9970    25.1780    28.6780    24.8780 
  124.3750     2.5830    -5.8820    50.1030    28.8260    25.0750    26.9720    24.6610 
  124.5000     2.5880    -5.8360    51.1270    28.2710    24.6330    25.3120    24.5540 
  124.6250     2.5990    -5.8330    51.5570    27.4530    23.9470    24.4050    24.5210 
  124.7500     2.6030    -5.8460    52.4540    26.6020    23.2130    23.8940    24.5210 
  124.8750     2.5910    -5.8260    53.0390    25.8430    22.5450    23.1850    24.5370 
  125.0000     2.5620    -5.8240    52.5100    25.2250    22.0050    22.9910    24.5880 
  125.1250     2.5160    -5.7890    50.9600    24.7740    21.6370    21.4600    24.6850 
  125.2500     2.4790    -5.7720    50.6950    24.4680    21.4260    22.5680    24.7480 
  125.3750     2.4750    -5.7100    52.1810    24.3150    21.3770    25.5400    24.7930 
  125.5000     2.5030    -5.7020    53.9890    24.3070    21.4840    24.2600    24.8590 
  125.6250     2.5380    -5.6400    55.2450    24.4790    21.7620    22.4680    24.9690 
  125.7500     2.5590    -5.5430    56.0080    24.8200    22.1850    22.0420    25.1140 
  125.8750     2.5700    -5.5020    55.9400    25.3010    22.7250    22.0260    25.3790 
  126.0000     2.5760    -5.4340    54.8790    25.8180    23.2990    21.7600    25.7040 
  126.1250     2.5820    -5.4080    52.5010    26.1280    23.7000    22.2950    25.9590 
  126.2500     2.5950    -5.3510    49.6890    25.9950    23.7100    22.8470    26.0270 
  126.3750     2.6110    -5.3590    48.4100    25.2610    23.1680    22.0850    25.9300 
  126.5000     2.6210    -5.3240    49.5590    23.9380    22.0640    20.6790    25.8080 
  126.6250     2.6170    -5.2780    50.4370    22.2020    20.5370    19.8540    25.8470 
  126.7500     2.6050    -5.3080    49.5580    20.4550    18.9670    19.5300    25.9700 
  126.8750     2.5900    -5.2930    48.3120    18.9830    17.6190    18.4940    26.0540 
  127.0000     2.5800    -5.3120    47.5340    17.9900    16.6770    16.7530    26.1190 
  127.1250     2.5760    -5.3050    47.0840    17.6840    16.3180    14.5200    26.1170 
  127.2500     2.5770    -5.3330    47.9370    17.9540    16.4650    14.5490    26.0340 
  127.3750     2.5820    -5.3050    50.3340    18.6770    17.0430    16.3920    25.8950 
  127.5000     2.5910    -5.3180    52.3760    19.6290    17.9060    18.7970    25.8100 
  127.6250     2.6010    -5.3510    51.7450    20.4940    18.8070    20.6170    25.7250 
  127.7500     2.6020    -5.3270    50.4570    21.0540    19.5010    20.9780    25.7000 
  127.8750     2.5920    -5.3480    50.6350    21.2780    19.8950    20.7650    25.7070 
  128.0000     2.5780    -5.3420    51.4790    21.2760    20.0310    19.2940    25.7080 
  128.1250     2.5610    -5.3710    51.2810    21.2340    20.0370    17.9110    25.6730 
  128.2500     2.5410    -5.3760    51.1530    21.2970    20.0760    18.1440    25.5680 
  128.3750     2.5220    -5.4440    50.8360    21.4960    20.2080    20.1480    25.4680 
  128.5000     2.5120    -5.4640    49.3700    21.7750    20.4160    22.2370    25.4450 
  128.6250     2.5100    -5.4780    48.9020    22.0070    20.6220    21.4670    25.5020 
