~V
VERS. 2.00: Ver 2.00
~W
STRT.M 50.0000:
STOP.M 236.0000:
STEP.M 0.1250:
NULL. -999.2500:
UWI. F10144:
~C
DEPT.M :
DEN.GM/CC :
GR.API :
RML.OHMM :
RI. :
RXO.OHMM :
CALI.CM :
SP.MV :
~A
# ...
  117.5000     2.2090    75.0630     5.2120     5.3940     5.6930    25.3000   -29.2990 
  117.6250     2.2230    75.6600     5.5850     5.5710     5.3100    25.2360   -29.3520 
  117.7500     2.2580    77.8730     6.1780     5.9160     5.4450    25.1580   -29.3850 
  117.8750     2.3160    78.8380     6.9260     6.3860     5.6990    25.1130   -29.3950 
  118.0000     2.3720    75.9250     7.6520     6.8700     6.8820    25.1090   -29.3910 
  118.1250     2.3900    70.2970     7.9960     7.1180     9.0930    25.1300   -29.3690 
  118.2500     2.3490    68.9420     7.7840     6.9950     9.7030    25.2320   -29.3350 
  118.3750     2.2820    74.7030     7.1280     6.5560     7.3090    25.3550   -29.2960 
  118.5000     2.2210    80.8150     6.4540     6.0550     5.2260    25.3050   -29.2590 
  118.6250     2.1980    78.6090     6.3620     5.8700     5.1460    25.0140   -29.2120 
  118.7500     2.2400    71.3460     7.0890     6.1900     6.4630    24.7530   -29.1590 
  118.8750     2.3270    63.2220     8.7720     7.1320     9.5870    24.6650   -29.1000 
  119.0000     2.4270    55.6910    11.3800     8.7200    15.9420    24.6720   -29.0560 
  119.1250     2.5110    49.9100    14.5710    10.8300    21.9200    24.6660   -29.0380 
  119.2500     2.5580    46.4840    17.4390    12.9150    23.3140    24.6600   -29.0440 
  119.3750     2.5790    46.1420    19.3420    14.5180    20.5900    24.6540   -29.0790 
  119.5000     2.5910    46.9200    20.1790    15.4470    19.2610    24.6480   -29.1490 
  119.6250     2.6040    45.6690    20.3130    15.7990    21.8160    24.6450   -29.2600 
  119.7500     2.6080    43.4250    20.3320    15.9450    22.3440    24.6480   -29.3900 
  119.8750     2.5910    42.1300    20.3670    16.0140    20.9680    24.6500   -29.5200 
  120.0000     2.5550    42.5050    20.3340    16.0060    18.3680    24.6480   -29.6370 
  120.1250     2.5090    44.1860    20.1610    15.8840    16.3840    24.6440   -29.7330 
  120.2500     2.4650    45.7890    19.9830    15.7290    16.6580    24.6450   -29.8020 
  120.3750     2.4340    46.3280    19.9060    15.6160    18.1970    24.6500   -29.8290 
  120.5000     2.4210    46.2500    19.9180    15.5630    18.7230    24.6560   -29.8030 
  120.6250     2.4250    46.2300    19.8560    15.4980    17.2250    24.6590   -29.7170 
  120.7500     2.4360    46.0800    19.5760    15.3320    15.5130    24.6600   -29.5760 
  120.8750     2.4430    46.4710    19.0510    15.0370    14.4680    24.6630   -29.3890 
  121.0000     2.4430    48.0800    18.3960    14.6610    13.9490    24.6690   -29.1490 
  121.1250     2.4420    50.1490    17.8570    14.3300    13.7360    24.6470   -28.8620 
  121.2500     2.4570    50.5760    17.5950    14.1440    13.4810    24.5900   -28.5570 
  121.3750     2.4920    48.4350    17.6560    14.1480    13.7670    24.5120   -28.2490 
  121.5000     2.5360    44.6370    17.9910    14.3300    14.2090    24.4270   -27.9720 
  121.6250     2.5710    42.6330    18.4920    14.6500    14.4130    24.3500   -27.7470 
  121.7500     2.5850    43.6190    18.9640    14.9900    14.6600    24.3340   -27.5740 
  121.8750     2.5850    45.3360    19.2650    15.2500    15.1120    24.4170   -27.4300 
  122.0000     2.5770    45.0540    19.3260    15.3600    15.8250    24.5540   -27.3060 
  122.1250     2.5670    43.9040    19.1590    15.2970    15.8320    24.6440   -27.1690 
  122.2500     2.5570    44.2270    18.9180    15.1530    15.3740    24.6690   -27.0040 
  122.3750     2.5510    45.9160    18.7040    14.9980    14.4920    24.6670   -26.8070 
  122.5000     2.5510    48.0570    18.5630    14.8770    13.9090    24.6690   -26.5870 
  122.6250     2.5530    49.3710    18.4360    14.7670    14.9730    24.6770   -26.3720 
  122.7500     2.5480    49.2610    18.1700    14.5820    16.0360    24.6860   -26.1920 
  122.8750     2.5240    48.8120    17.6780    14.2660    16.1840    24.6900   -26.0670 
  123.0000     2.4860    49.0570    17.0170    13.8500    15.1680    24.6890   -26.0150 
  123.1250     2.4480    49.3100    16.4710    13.4920    13.8480    24.6860   -26.0560 
  123.2500     2.4330    48.3920    16.3380    13.3710    12.4540    24.6830   -26.1620 
  123.3750     2.4480    46.6320    16.7570    13.5810    12.2190    24.6830   -26.3120 
  123.5000     2.4850    45.3070    17.6640    14.1090    13.6900    24.6840   -26.4880 
  123.6250     2.5240    45.5970    18.7620    14.8200    16.8770    24.6860   -26.6770 
  123.7500     2.5450    48.0000    19.5660    15.4240    18.8510    24.6850   -26.8580 
  123.8750     2.5520    50.7180    19.7750    15.7080    17.8840    24.6840   -27.0150 
  124.0000     2.5560    51.1870    19.3640    15.5970    15.5620    24.6820   -27.1410 
  124.1250     2.5620    49.1070    18.5650    15.1630    14.8820    24.6790   -27.2490 
  124.2500     2.5600    47.2090    17.7970    14.6640    14.6660    24.6790   -27.3650 
  124.3750     2.5410    46.6490    17.2790    14.2620    14.2300    24.6790   -27.4890 
  124.5000     2.5080    47.2020    17.0840    14.0460    14.8390    24.6730   -27.6110 
  124.6250     2.4730    48.0430    17.1900    14.0500    16.3620    24.6570   -27.7070 
  124.7500     2.4510    48.9930    17.4340    14.1820    16.3200    24.6360   -27.7600 
  124.8750     2.4420    49.7470    17.7160    14.3810    15.6890    24.6170   -27.7530 
  125.0000     2.4380    49.1090    17.9590    14.5900    15.5460    24.6060   -27.6700 
  125.1250     2.4340    46.5280    18.1080    14.7550    15.6400    24.6050   -27.5190 
  125.2500     2.4340    44.6470    18.2070    14.8840    15.5920    24.5840   -27.3480 
  125.3750     2.4370    45.7030    18.3310    15.0140    15.4210    24.5270   -27.1840 
  125.5000     2.4500    48.2420    18.5520    15.1900    15.1040    24.4970   -27.0610 
  125.6250     2.4690    49.1930    18.9100    15.4470    15.0970    24.5840   -26.9980 
  125.7500     2.4790    48.6140    19.3150    15.7430    15.6050    24.7210   -26.9830 
  125.8750     2.4770    48.3640    19.6540    16.0160    16.6680    24.8080   -27.0000 
  126.0000     2.4700    49.5170    19.8370    16.2030    17.0590    24.8220   -27.0110 
  126.1250     2.4700    51.2060    19.8320    16.2720    17.5670    24.8120   -26.9620 
  126.2500     2.4820    51.5670    19.7340    16.2740    17.0620    24.8110   -26.8500 
  126.3750     2.4910    49.9190    19.6110    16.2490    16.2780    24.8130   -26.6970 
  126.5000     2.4900    49.5560    19.4930    16.2160    15.9510    24.8150   -26.5140 
  126.6250     2.4790    51.6710    19.3560    16.1620    17.3840    24.8140   -26.3350 
  126.7500     2.4690    52.1560    19.1540    16.0610    17.9910    24.8130   -26.1940 
  126.8750     2.4610    49.3240    18.8720    15.9010    17.3760    24.8110   -26.0980 
  127.0000     2.4520    47.1290    18.5350    15.6960    16.2280    24.8100   -26.0570 
  127.1250     2.4380    50.3130    18.1790    15.4640    14.8790    24.8090   -26.0520 
  127.2500     2.4230    54.7530    17.8300    15.2240    14.2450    24.8070   -26.0250 
  127.3750     2.4110    56.8080    17.4930    14.9860    14.2470    24.8040   -25.9390 
  127.5000     2.4090    55.3110    17.1650    14.7530    13.9700    24.8020   -25.7710 
  127.6250     2.4190    51.8730    16.8570    14.5320    13.8610    24.8020   -25.4910 
  127.7500     2.4360    49.3190    16.6080    14.3400    13.6410    24.8010   -25.1190 
  127.8750     2.4530    48.7300    16.4700    14.2100    13.5950    24.7990   -24.6900 
  128.0000     2.4620    49.0830    16.4610    14.1640    13.8530    24.8040   -24.2440 
  128.1250     2.4620    49.7420    16.5660    14.2030    13.5490    24.8150   -23.8540 
  128.2500     2.4600    49.6830    16.7330    14.2930    13.6970    24.8200   -23.5610 
  128.3750     2.4630    47.9790    16.9470    14.4170    14.6840    24.8170   -23.3760 
  128.5000     2.4680    46.2670    17.1870    14.5570    15.3340    24.8140   -23.2920 
  128.6250     2.4690    48.0950    17.3910    14.6750    14.3980    24.8180   -23.2850 
