~V
VERS. 2.00: Ver 2.00
~W
STRT.M 63.0000:
STOP.M 800.0000:
STEP.M 0.1250:
NULL. -999.2500:
UWI. F10168:
~C
DEPT.M :
SP.MV :
GR.API :
RML.OHMM :
RI. :
RXO.OHMM :
CALI.CM :
DEN.GM/CC :
~A
# ...
  108.0000   -15.8420    78.3650     7.2780     7.2530     7.4180    23.2400     2.2810 
  108.1250   -15.9730    80.1210     6.9600     7.0320     6.6600    23.2280     2.2890 
  108.2500   -16.1450    79.8940     6.7590     6.8950     6.2290    23.2300     2.2960 
  108.3750   -16.2840    75.6670     6.7140     6.8430     6.1990    23.1980     2.3000 
  108.5000   -16.3590    70.4150     6.8320     6.8770     6.3640    23.1750     2.3030 
  108.6250   -16.4310    70.4010     7.0920     7.0160     6.4910    23.2950     2.3060 
  108.7500   -16.5160    74.6480     7.3780     7.2150     6.7120    23.4820     2.3100 
  108.8750   -16.6020    77.7660     7.5870     7.3950     6.8300    23.4390     2.3130 
  109.0000   -16.6610    77.6010     7.6430     7.4680     6.6030    23.2520     2.3160 
  109.1250   -16.7170    74.5900     7.5040     7.3690     6.5030    23.0780     2.3220 
  109.2500   -16.7880    71.8070     7.2580     7.1670     6.2960    22.8980     2.3280 
  109.3750   -16.8700    72.8330     6.9850     6.9320     6.1270    22.6330     2.3320 
  109.5000   -16.9600    77.0730     6.7500     6.7160     6.1470    22.4130     2.3320 
  109.6250   -17.0440    80.6640     6.6040     6.5590     6.3960    22.2070     2.3240 
  109.7500   -17.1330    81.7070     6.5630     6.4890     6.5460    22.0020     2.3130 
  109.8750   -17.2360    80.5390     6.6780     6.5610     6.8050    21.8660     2.3020 
  110.0000   -17.3520    77.1080     7.0200     6.8170     7.0850    21.9110     2.2960 
  110.1250   -17.4320    74.3280     7.6650     7.2830     7.0670    22.1530     2.3040 
  110.2500   -17.5060    74.8780     8.4830     7.8530     7.8360    22.4620     2.3260 
  110.3750   -17.6210    75.6850     9.2600     8.4070    10.2020    22.7260     2.3570 
  110.5000   -17.7510    74.7180     9.7390     8.8050    12.1290    22.8960     2.3840 
  110.6250   -17.8370    73.8260     9.7200     8.9010    10.3970    22.9700     2.3870 
  110.7500   -17.9200    73.6940     9.4150     8.7640     8.0840    22.9860     2.3650 
  110.8750   -18.0540    72.6190     9.0600     8.5200     7.5520    22.9520     2.3330 
  111.0000   -18.2390    71.1280     8.8320     8.3080     7.9170    22.8620     2.3070 
  111.1250   -18.4260    72.4920     8.7860     8.2200     8.1800    22.6940     2.3010 
  111.2500   -18.6000    74.1940     8.7890     8.1940     8.3210    22.4980     2.3090 
  111.3750   -18.7800    75.4840     8.7340     8.1510     8.3210    22.3180     2.3190 
  111.5000   -18.9860    75.7640     8.5960     8.0630     8.2770    22.2030     2.3230 
  111.6250   -19.1800    74.0630     8.4520     7.9810     8.2220    22.2640     2.3210 
  111.7500   -19.3190    72.4460     8.4120     7.9770     7.9590    22.4640     2.3190 
  111.8750   -19.4030    71.4170     8.5180     8.0630     8.0590    22.6500     2.3190 
  112.0000   -19.4810    72.1180     8.7420     8.2000     8.7870    22.6850     2.3200 
  112.1250   -19.5590    74.3220     9.0020     8.3310     9.0040    22.6270     2.3180 
  112.2500   -19.5950    75.2750     9.2010     8.4220     8.8330    22.5720     2.3130 
  112.3750   -19.5740    74.2390     9.2810     8.4590     8.7570    22.5370     2.3100 
  112.5000   -19.5310    73.5940     9.2110     8.4200     8.8540    22.5120     2.3120 
  112.6250   -19.5010    76.1530     8.9620     8.2770     8.7810    22.4920     2.3190 
  112.7500   -19.4470    77.8980     8.6050     8.0720     8.4400    22.4440     2.3230 
  112.8750   -19.3360    78.2740     8.2240     7.8620     8.3260    22.3670     2.3230 
  113.0000   -19.1760    78.4060     7.9170     7.7010     8.0180    22.3170     2.3170 
  113.1250   -19.0220    77.9750     7.7870     7.6250     7.5710    22.3530     2.3090 
  113.2500   -18.8810    76.6840     7.8150     7.6090     7.4380    22.4020     2.3000 
  113.3750   -18.7320    75.5480     7.9310     7.6280     7.9090    22.3580     2.2930 
  113.5000   -18.5490    75.1090     8.0340     7.6560     8.7450    22.2400     2.2870 
  113.6250   -18.3810    75.0660     8.0170     7.6460     8.7040    22.1860     2.2830 
  113.7500   -18.2590    75.4660     7.8910     7.5660     7.9350    22.3180     2.2830 
  113.8750   -18.1520    76.1170     7.7200     7.4130     7.2220    22.6530     2.2840 
  114.0000   -17.9870    77.0850     7.5770     7.2300     7.0100    23.0610     2.2860 
  114.1250   -17.7550    78.8610     7.5120     7.0910     7.0590    23.5670     2.2900 
  114.2500   -17.5050    77.5120     7.4950     7.0280     7.0660    24.0330     2.2960 
  114.3750   -17.3030    72.4750     7.4840     7.0270     7.2680    24.3010     2.3030 
  114.5000   -17.1490    68.8020     7.4690     7.0710     7.1950    24.3220     2.3110 
  114.6250   -16.9830    70.7580     7.5040     7.1860     6.9820    24.1700     2.3150 
  114.7500   -16.8260    73.0360     7.6640     7.4030     7.2300    23.9940     2.3140 
  114.8750   -16.7420    72.3190     8.0030     7.7450     7.8040    23.7990     2.3080 
  115.0000   -16.7860    70.2710     8.5310     8.1900     8.5670    23.6470     2.2990 
  115.1250   -16.8980    70.1880     9.2080     8.6860     9.2200    23.6550     2.2890 
  115.2500   -17.0230    71.5670     9.8760     9.1580     9.8280    23.8090     2.2810 
  115.3750   -17.1330    71.7370    10.3730     9.5440    10.3870    24.0130     2.2760 
  115.5000   -17.2480    71.6780    10.5650     9.7730    10.6620    24.1500     2.2750 
  115.6250   -17.3640    72.7710    10.3430     9.7350    10.7610    24.1660     2.2770 
  115.7500   -17.4530    73.6900     9.8920     9.4560    10.3780    24.1060     2.2790 
  115.8750   -17.5110    72.5910     9.4550     9.0130     9.3190    24.0280     2.2780 
  116.0000   -17.5400    71.0380     9.2870     8.5380     8.4200    23.9860     2.2760 
  116.1250   -17.5720    71.5460     9.1300     8.1920     8.0480    24.0120     2.2750 
  116.2500   -17.6310    72.2860     9.0840     8.0340     8.0170    24.0700     2.2790 
  116.3750   -17.7120    71.6480     9.2210     8.0770     8.2110    24.1210     2.2880 
  116.5000   -17.8300    69.9760     9.5710     8.3050     8.7640    24.1450     2.3010 
  116.6250   -18.0080    68.8460    10.0530     8.6760     9.5770    24.1350     2.3130 
  116.7500   -18.2140    69.4760    10.4960     9.0540     9.9150    24.0820     2.3170 
  116.8750   -18.3900    71.5760    10.7440     9.3150     9.8690    23.9350     2.3130 
  117.0000   -18.5290    74.2120    10.6640     9.3570     9.6960    23.6730     2.3000 
  117.1250   -18.6680    75.6080    10.1670     9.1050     9.4760    23.3950     2.2870 
  117.2500   -18.7610    74.9740     9.4620     8.6740     9.3120    23.2730     2.2800 
  117.3750   -18.7620    72.3100     8.7840     8.1980     8.6550    23.3740     2.2810 
  117.5000   -18.6520    70.1910     8.3530     7.8250     7.6600    23.6400     2.2870 
  117.6250   -18.5000    71.3240     8.3760     7.7170     6.8820    23.9130     2.2900 
  117.7500   -18.3700    72.4970     8.7900     7.8730     7.2050    24.0280     2.2860 
  117.8750   -18.2800    72.5140     9.4520     8.2160     8.9700    23.9410     2.2800 
  118.0000   -18.1950    72.8400    10.1050     8.5920    11.2420    23.7260     2.2750 
  118.1250   -18.1180    74.6010    10.3910     8.7960    11.4130    23.5430     2.2790 
  118.2500   -18.1110    76.4370    10.2430     8.7670     9.9730    23.4500     2.2880 
  118.3750   -18.1700    76.0630     9.7740     8.5400     8.4470    23.4220     2.2990 
  118.5000   -18.2360    74.2230     9.1830     8.1980     7.5420    23.4180     2.3080 
  118.6250   -18.2830    73.5860     8.6390     7.8280     7.6530    23.4190     2.3140 
  118.7500   -18.3170    75.1800     8.1910     7.4940     7.4350    23.4170     2.3160 
  118.8750   -18.3290    78.2700     7.8570     7.2360     7.3900    23.4000     2.3170 
  119.0000   -18.3010    80.6350     7.6930     7.1060     6.8510    23.3640     2.3170 
  119.1250   -18.2430    80.8890     7.8470     7.2050     6.5730    23.3180     2.3160 
