~V
VERS. 2.00: Ver 2.00
~W
STRT.M 52.0000:
STOP.M 322.0000:
STEP.M 0.1250:
NULL. -999.2500:
UWI. F10105:
~C
DEPT.M :
GR.API :
RML.OHMM :
RI. :
RXO.OHMM :
CALI.CM :
DEN.GM/CC :
SP.MV :
~A
# ...
  142.0000    81.6750     7.5990     6.4570     7.6480    25.5470     2.1160   -13.3520 
  142.1250    76.6270     7.7680     6.6380     7.7070    25.4870     2.1260   -13.8100 
  142.2500    73.1950     7.9240     6.8170     7.7620    25.5210     2.1380   -14.3350 
  142.3750    71.6920     8.0240     6.9630     7.9350    25.5450     2.1470   -14.7590 
  142.5000    70.5650     8.0120     7.0310     8.1050    25.5250     2.1480   -14.9850 
  142.6250    69.6290     7.8010     6.9310     7.9950    25.5040     2.1440   -14.9700 
  142.7500    72.6820     7.4090     6.6450     7.7600    25.5060     2.1460   -14.6340 
  142.8750    80.6690     6.8930     6.2010     7.3810    25.5220     2.1620   -13.8960 
  143.0000    93.8410     6.3610     5.6880     6.6160    25.5610     2.1920   -12.8400 
  143.1250   108.1640     5.9750     5.2510     5.5630    25.6250     2.2240   -11.5530 
  143.2500   116.2900     5.8030     4.9810     4.9280    25.6560     2.2430   -10.2880 
  143.3750   117.3700     5.8530     4.9120     4.9060    25.5860     2.2430    -9.2350 
  143.5000   115.0160     6.0690     5.0250     5.5650    25.3980     2.2250    -8.4510 
  143.6250   112.8950     6.3820     5.2650     5.9760    25.2400     2.1960    -7.9900 
  143.7500   108.6150     6.6740     5.5680     6.3030    25.1740     2.1640    -7.8070 
  143.8750   103.8110     6.7150     5.7540     6.5110    25.1450     2.1340    -7.9240 
  144.0000    99.9720     6.7070     5.7800     6.4360    25.1560     2.1120    -8.4260 
  144.1250    93.0530     6.7130     5.7880     6.4090    25.2560     2.1010    -9.1800 
  144.2500    85.6750     6.7650     5.8230     6.3890    25.4220     2.0980    -9.8660 
  144.3750    80.7500     6.8580     5.8930     6.5000    25.6070     2.1000   -10.4780 
  144.5000    79.5590     6.9740     5.9830     6.7240    25.7320     2.1050   -11.0280 
  144.6250    80.8920     7.0900     6.0750     6.9740    25.7970     2.1120   -11.4500 
  144.7500    82.3260     7.1890     6.1550     7.1160    25.8480     2.1210   -11.8080 
  144.8750    82.3060     7.2640     6.2160     7.0730    25.8710     2.1340   -12.1420 
  145.0000    81.3140     7.3130     6.2560     6.8050    25.8420     2.1480   -12.3470 
  145.1250    79.8590     7.3480     6.2830     6.7090    25.7510     2.1660   -12.4330 
  145.2500    79.6090     7.3950     6.3170     6.8530    25.6560     2.1870   -12.4360 
  145.3750    81.3960     7.4750     6.3740     7.1840    25.5680     2.2110   -12.2680 
  145.5000    83.4710     7.5980     6.4660     7.4420    25.4750     2.2310   -12.0760 
  145.6250    81.3920     7.7540     6.5910     7.4400    25.4990     2.2320   -12.0570 
  145.7500    76.1600     7.9080     6.7260     7.4780    25.5860     2.2080   -12.1340 
  145.8750    72.7130     8.0310     6.8460     7.7320    25.6250     2.1590   -12.2850 
  146.0000    73.4980     8.1060     6.9330     8.3330    25.5580     2.0990   -12.5690 
  146.1250    74.3910     8.1340     6.9760     8.6030    25.4590     2.0540   -12.9710 
  146.2500    73.3770     8.1450     6.9940     8.2880    25.4670     2.0380   -13.4320 
  146.3750    71.0830     8.1610     7.0070     7.8770    25.5900     2.0480   -13.9570 
  146.5000    68.0020     8.1860     7.0250     7.6210    25.7170     2.0680   -14.5170 
  146.6250    66.3400     8.2040     7.0370     7.7140    25.7250     2.0790   -14.9900 
  146.7500    67.1770     8.1940     7.0300     8.0420    25.6640     2.0740   -15.3680 
  146.8750    69.5230     8.1540     6.9960     8.1930    25.7210     2.0580   -15.7130 
  147.0000    69.6120     8.1000     6.9420     7.8600    26.0110     2.0420   -15.9780 
  147.1250    68.1700     8.0690     6.8980     7.1140    26.3890     2.0360   -16.0410 
  147.2500    69.5560     8.0840     6.8910     6.9730    26.5480     2.0400   -16.0120 
  147.3750    71.0050     8.1440     6.9280     7.7610    26.3110     2.0520   -15.9460 
  147.5000    69.4010     8.2270     6.9960     8.5720    25.9680     2.0700   -15.7680 
  147.6250    65.3110     8.2970     7.0670     8.8680    25.8000     2.0900   -15.5230 
  147.7500    64.1370     8.3340     7.1150     8.9210    25.7780     2.1100   -15.3180 
  147.8750    66.4470     8.3370     7.1300     8.6730    25.7710     2.1250   -15.0720 
  148.0000    68.2690     8.3220     7.1220     7.9360    25.7500     2.1340   -14.8130 
  148.1250    68.8370     8.3050     7.1090     8.1680    25.7550     2.1370   -14.7020 
  148.2500    70.2590     8.2920     7.1000     8.5690    25.7390     2.1350   -14.6960 
  148.3750    71.9710     8.2720     7.0890     8.8710    25.7370     2.1300   -14.7680 
  148.5000    71.6680     8.2300     7.0640     8.8590    25.7440     2.1260   -14.9300 
  148.6250    69.4230     8.1530     7.0090     8.7030    25.7670     2.1290   -15.0620 
  148.7500    71.0050     8.0530     6.9260     8.5610    25.8360     2.1350   -15.1030 
  148.8750    75.8030     7.9500     6.8310     8.5180    25.9370     2.1350   -15.1890 
  149.0000    80.0910     7.8630     6.7460     8.4550    25.9830     2.1230   -15.3000 
  149.1250    81.0350     7.8140     6.6950     8.3520    25.9380     2.0970   -15.2950 
  149.2500    81.1340     7.7960     6.6790     8.1360    25.8350     2.0700   -15.1890 
  149.3750    82.7270     7.8050     6.6910     7.8750    25.6900     2.0570   -15.0640 
  149.5000    83.1070     7.8350     6.7240     7.6440    25.5710     2.0660   -14.9480 
  149.6250    79.3080     7.8830     6.7740     7.5830    25.4850     2.0950   -14.8540 
  149.7500    75.7490     7.9390     6.8350     7.8710    25.4290     2.1290   -14.8440 
  149.8750    75.1360     7.9840     6.8910     8.0920    25.3880     2.1580   -14.8840 
  150.0000    77.4640     7.9940     6.9190     8.3160    25.3850     2.1770   -14.9050 
  150.1250    79.0240     7.9400     6.8820     8.6790    25.4190     2.1840   -14.9050 
  150.2500    78.6760     7.8350     6.7880     8.7780    25.4230     2.1860   -14.9330 
  150.3750    77.5660     7.7010     6.6610     8.3130    25.4030     2.1860   -14.8960 
  150.5000    76.8360     7.5680     6.5350     7.7660    25.4010     2.1870   -14.7820 
  150.6250    75.9720     7.4680     6.4500     7.4850    25.4350     2.1840   -14.8070 
  150.7500    74.4480     7.4080     6.4130     7.7590    25.4580     2.1730   -14.9080 
  150.8750    72.2740     7.3990     6.4110     8.1660    25.4480     2.1540   -14.9270 
  151.0000    71.0180     7.4730     6.4460     8.2800    25.4250     2.1310   -14.9610 
  151.1250    71.4730     7.7100     6.5890     8.1110    25.4310     2.1100   -15.0120 
  151.2500    73.1930     8.1140     6.8930     8.0010    25.4930     2.0960   -14.9640 
  151.3750    74.9580     8.6140     7.3490     8.1250    25.5690     2.0890   -14.8560 
  151.5000    75.0040     9.0320     7.8410     9.1860    25.6650     2.0980   -14.6090 
  151.6250    76.5550     9.0510     8.0770    13.1640    25.7760     2.1340   -13.9130 
  151.7500    82.8080     8.5780     7.8480    16.8300    25.8540     2.1950   -12.8370 
  151.8750    91.1800     7.6940     7.1490    11.9330    25.8690     2.2670   -11.5260 
  152.0000    98.9690     6.6520     6.2050     7.0400    25.8490     2.3310    -9.9920 
  152.1250   104.1880     5.8080     5.3430     5.4010    25.8610     2.3640    -8.4000 
  152.2500   107.4010     5.3450     4.7560     5.1120    25.8760     2.3690    -6.8910 
  152.3750   108.8260     5.3090     4.5250     5.0460    25.8410     2.3550    -5.3830 
  152.5000   108.7920     5.6500     4.6610     5.0530    25.7950     2.3370    -3.9630 
  152.6250   106.6500     6.2520     5.1370     5.2710    25.8010     2.3290    -2.9280 
  152.7500   102.4340     6.8530     5.7400     6.4560    25.8040     2.3340    -2.2740 
  152.8750    97.9910     7.2400     6.2590     8.2460    25.7650     2.3480    -1.9210 
  153.0000    95.2800     7.2720     6.4860     8.4840    25.6740     2.3610    -1.7750 
  153.1250    93.2940     6.9120     6.2890     6.9950    25.5670     2.3560    -1.7960 
