~V
VERS. 2.00: Ver 2.00
~W
STRT.M 50.0000:
STOP.M 233.0000:
STEP.M 0.1250:
NULL. -999.2500:
UWI. F10166:
~C
DEPT.M :
SP.MV :
DEN.GM/CC :
GR.API :
RML.OHMM :
RI. :
RXO.OHMM :
CALI.CM :
~A
   50.0000    90.1310  -999.2500  -999.2500  -999.2500  -999.2500  -999.2500  -999.2500 
   50.1250    89.3810  -999.2500  -999.2500  -999.2500  -999.2500  -999.2500  -999.2500 
   50.2500    88.5110  -999.2500  -999.2500  -999.2500  -999.2500  -999.2500  -999.2500 
   50.3750    87.5920  -999.2500  -999.2500  -999.2500  -999.2500  -999.2500  -999.2500 
   50.5000    86.6920  -999.2500  -999.2500  -999.2500  -999.2500  -999.2500  -999.2500 
   50.6250    85.8350  -999.2500  -999.2500  -999.2500  -999.2500  -999.2500  -999.2500 
   50.7500    85.0000  -999.2500  -999.2500  -999.2500  -999.2500  -999.2500  -999.2500 
   50.8750    84.1870  -999.2500  -999.2500  -999.2500  -999.2500  -999.2500  -999.2500 
   51.0000    83.3990  -999.2500    41.5530     4.7990     1.8170     3.0140    13.9110 
   51.1250    82.6320  -999.2500    41.5530     4.7990     1.8170     3.0140    13.9110 
   51.2500    81.9410  -999.2500    42.4550     4.7540     1.8240     3.0060    13.9110 
   51.3750    81.4120  -999.2500    43.6010     4.7310     1.8360     3.0040    13.9110 
   51.5000    81.1430  -999.2500    43.2320     4.7640     1.8480     2.3440    25.5200 
   51.6250    81.2520  -999.2500    42.6670     4.8870     1.8540     2.3970    25.5050 
   51.7500    81.6810  -999.2500    44.4480     5.0570     1.8530     2.9530    25.5070 
   51.8750    82.3600  -999.2500    48.3630     5.2290     1.8460     5.1050    25.5210 
   52.0000    83.1920     2.1580    51.2660     5.3810     1.8350    11.0260    25.5320 
   52.1250    84.1160     2.1580    52.8180     5.5020     1.8170    13.0750    25.5310 
   52.2500    85.0290     2.0880    54.0320     5.5720     1.7920    11.5350    25.5300 
   52.3750    85.8950     2.0590    53.4680     5.5700     1.7640    10.9660    25.5300 
   52.5000    86.6960     2.0550    50.0460     5.5210     1.7400    10.9630    25.5300 
   52.6250    87.4520     2.0550    46.4270     5.4540     1.7230    10.9830    25.5300 
   52.7500    88.1460     2.0560    45.6700     5.3690     1.7140    11.0530    25.5300 
   52.8750    88.7540     2.0660    46.5160     5.2540     1.7100    11.5960    25.5300 
   53.0000    89.2040     2.0870    46.8680     5.1080     1.7100    12.5590    25.5300 
   53.1250    89.4070     2.1060    45.6700     4.9720     1.7130    13.0880    25.5300 
   53.2500    89.3410     2.1110    44.7110     4.9080     1.7170    12.8030    25.5300 
   53.3750    89.0100     2.1000    45.4250     4.9340     1.7160    12.0690    25.5300 
   53.5000    88.4420     2.0800    47.4360     5.0060     1.7050    11.6880    25.5300 
   53.6250    87.6870     2.0650    50.5860     5.0190     1.6870    12.0610    25.5300 
   53.7500    86.8460     2.0580    53.0020     4.9540     1.6720    12.5680    25.5300 
   53.8750    85.9820     2.0570    53.6980     4.8600     1.6640    12.5500    25.5300 
   54.0000    85.1340     2.0570    52.5440     4.7880     1.6620    11.9040    25.5300 
   54.1250    84.3300     2.0560    50.8720     4.7810     1.6620    11.4890    25.5300 
   54.2500    83.5770     2.0550    50.3640     4.8610     1.6590    11.7350    25.5300 
   54.3750    82.8860     2.0540    50.7460     5.0630     1.6520    12.1380    25.5300 
   54.5000    82.2760     2.0520    51.4270     5.3960     1.6400    12.2470    25.5300 
   54.6250    81.7790     2.0520    50.8920     5.8790     1.6220    12.0700    25.5300 
   54.7500    81.4170     2.0500    48.0050     6.5730     1.5990    11.6720    25.5300 
   54.8750    81.1880     2.0440    44.2620     7.7700     1.5710    11.1350    25.5300 
   55.0000    81.1030     2.0320    43.1530    10.0840     1.5450    10.6440    25.5300 
   55.1250    81.1400     2.0120    45.6480    15.4640     1.5380    10.1760    25.5300 
   55.2500    81.2740     1.9890    47.3130    27.3890     1.5430     9.8550    25.5300 
   55.3750    81.4700     1.9710    47.5530    57.0270     1.5400     9.9630    25.5300 
   55.5000    81.7180     1.9630    48.5360   144.6080     1.5150    10.5150    25.5300 
   55.6250    81.9600     1.9710    49.2700   687.7750     1.4660    10.9270    25.5270 
   55.7500    82.1710     1.9840    45.9420  2394.5420     1.4210    10.6690    25.5230 
   55.8750    82.2980     1.9960    40.0630  3270.6080     1.4120    10.2090    25.5230 
   56.0000    82.3520     2.0080    37.9080  3270.6080     1.4570    10.2660    25.5280 
   56.1250    82.2660     2.0270    42.1230  3270.6080     1.5470    10.9970    25.5300 
   56.2500    82.0860     2.0600    47.2180  3270.6080     1.6450    11.6430    25.5300 
   56.3750    81.8160     2.1010    48.7620  3270.6080     1.7330    11.3160    25.5300 
   56.5000    81.5040     2.1320    46.8290  3270.6080     1.8060     9.9890    25.5300 
   56.6250    81.1800     2.1290    44.4800  3270.6080     1.8600     8.8560    25.5300 
   56.7500    80.8920     2.0970    43.4930  3270.6080     1.9010     8.6360    25.5310 
   56.8750    80.6580     2.0520    42.9390  3270.6080     1.9320     8.8660    25.5280 
   57.0000    80.4670     2.0160    42.7640  3270.6080     1.9430     8.6850    25.5210 
   57.1250    80.3350     2.0070    44.7140  3270.6080     1.9280     8.0960    25.5150 
   57.2500    80.2810     2.0210    48.2050  3270.6080     1.8980     8.1350    25.5180 
   57.3750    80.3000     2.0520    51.6290  3270.6080     1.8570     8.8950    25.5260 
   57.5000    80.4340     2.0860    55.5600  3270.6080     1.8150     9.6710    25.5310 
   57.6250    80.6690     2.1120    59.9880  3270.6080     1.7890    10.1340    25.5300 
   57.7500    81.0180     2.1230    63.2450  2470.2490     1.7760    10.3060    25.5300 
   57.8750    81.4470     2.1200    63.8170   715.6090     1.7650    10.0500    25.5300 
   58.0000    81.9550     2.1080    62.5470   115.6310     1.7370     9.5410    25.5300 
   58.1250    82.5330     2.0980    59.9610    39.4620     1.6800     8.4880    25.5310 
   58.2500    83.1150     2.0940    57.2230    17.2420     1.6120     6.9310    25.5290 
   58.3750    83.6920     2.0930    56.4290     9.2410     1.5570     5.9050    25.5250 
   58.5000    84.1980     2.0920    57.5700     6.1010     1.5360     6.5110    25.5220 
   58.6250    84.5730     2.0850    56.8110     5.1050     1.5590     8.2580    25.5250 
   58.7500    84.7600     2.0740    52.8060     4.8510     1.5970     9.3030    25.5290 
   58.8750    84.7320     2.0610    48.2520     4.8820     1.6270     9.8590    25.5300 
   59.0000    84.4960     2.0540    46.2940     4.9440     1.6360    11.0480    25.5330 
   59.1250    84.0370     2.0650    47.1400     4.9890     1.6300    12.4740    25.5370 
   59.2500    83.4480     2.0970    48.1780     5.1570     1.6280    13.1330    25.5380 
   59.3750    82.7700     2.1400    48.6310     5.7190     1.6360    12.5760    25.5340 
   59.5000    82.0370     2.1720    47.9330     7.0810     1.6470    11.2290    25.5300 
   59.6250    81.3230     2.1610    46.3180    10.0440     1.6460    10.1420    25.5300 
   59.7500    80.6310     2.1160    45.1650    14.6530     1.6340     9.8210    25.5300 
   59.8750    79.9850     2.0600    46.0170    19.1310     1.6200    10.0840    25.5300 
   60.0000    79.3720     2.0160    47.8350    20.0530     1.6200    10.2460    25.5300 
   60.1250    78.8270     1.9990    46.8530    18.6670     1.6570     9.4640    25.5300 
   60.2500    78.3440     1.9980    43.4550    19.9070     1.7280     8.7470    25.5300 
   60.3750    77.9260     2.0020    41.4770    27.2420     1.8200     9.4990    25.5300 
   60.5000    77.5470     2.0040    43.4970    49.0750     1.9090    11.7870    25.5300 
   60.6250    77.2040     2.0030    48.0880   154.6760     1.9690    13.7780    25.5300 
   60.7500    76.8980     2.0020    50.3140   794.3430     1.9980    14.1700    25.5300 
   60.8750    76.6440     2.0030    48.4240  2773.7410     1.9990    13.4480    25.5300 
   61.0000    76.4400     2.0030    45.3880  1640.5700     1.9620    12.8270    25.5300 
   61.1250    76.3110     1.9950    45.8880   295.1360     1.8810    12.8550    25.5300 
