~V
VERS. 2.00: Ver 2.00
~W
STRT.M 56.0000:
STOP.M 352.0000:
STEP.M 0.1250:
NULL. -999.2500:
UWI. F10109:
~C
DEPT.M :
DEN.GM/CC :
SP.MV :
GR.API :
RML.OHMM :
RI. :
RXO.OHMM :
CALI.CM :
~A
# ...
  337.2500     2.3050   -15.0640    74.2380     7.9520     7.7440     7.4490    24.8690 
  337.3750     2.3060   -14.8030    72.2850     7.6290     7.3300     6.6060    24.8840 
  337.5000     2.3130   -14.6170    71.9870     7.5270     7.1320     6.5570    24.8720 
  337.6250     2.3260   -14.5020    72.6400     7.5810     7.1140     6.8030    24.8330 
  337.7500     2.3390   -14.4520    73.1810     7.6780     7.1770     7.0620    24.8120 
  337.8750     2.3490   -14.4800    74.0060     7.7670     7.2690     7.2620    24.8140 
  338.0000     2.3540   -14.5540    75.5270     7.8330     7.3680     7.3480    24.8090 
  338.1250     2.3530   -14.7070    75.2940     7.9190     7.4900     7.2580    24.8200 
  338.2500     2.3460   -14.9430    73.6430     8.0890     7.6740     7.1540    24.8570 
  338.3750     2.3370   -15.2160    72.2310     8.3730     7.9430     7.4220    24.8750 
  338.5000     2.3290   -15.4730    71.3380     8.7410     8.2780     8.0230    24.8470 
  338.6250     2.3230   -15.7160    71.7680     9.0690     8.5880     8.7350    24.7820 
  338.7500     2.3190   -15.9310    74.3300     9.2160     8.7550     9.7550    24.7310 
  338.8750     2.3140   -16.0910    76.7050     9.1020     8.7020    10.9020    24.6630 
  339.0000     2.3090   -16.2090    75.9020     8.7490     8.4330    10.5890    24.6010 
  339.1250     2.3070   -16.2400    73.7570     8.3010     8.0470     8.8710    24.6050 
  339.2500     2.3110   -16.1940    73.4410     7.9660     7.7250     7.4160    24.6440 
  339.3750     2.3220   -16.1080    74.1590     7.8510     7.5710     6.8220    24.6820 
  339.5000     2.3370   -16.0020    74.2990     7.9690     7.6120     7.0320    24.6900 
  339.6250     2.3520   -15.8820    73.1850     8.2490     7.8170     7.5760    24.6710 
  339.7500     2.3590   -15.7650    73.8230     8.5110     8.0450     8.0460    24.6180 
  339.8750     2.3550   -15.6580    76.0250     8.6230     8.1780     8.2960    24.5230 
  340.0000     2.3410   -15.5380    78.2950     8.5100     8.1350     8.2460    24.4470 
  340.1250     2.3240   -15.4090    79.0360     8.1690     7.8800     7.9600    24.4250 
  340.2500     2.3110   -15.2880    78.3650     7.7540     7.5280     7.3800    24.4560 
  340.3750     2.3050   -15.1690    76.6780     7.3930     7.1840     6.7570    24.4950 
  340.5000     2.3050   -15.0530    76.2980     7.1710     6.9320     6.3600    24.4990 
  340.6250     2.3070   -14.9170    76.2980     7.1180     6.8210     6.2880    24.4420 
  340.7500     2.3080   -14.7750    76.2980     7.1490     6.8000     6.4450    24.3960 
  340.8750     2.3100   -14.6330    76.2980     7.1940     6.8180     6.7160    24.3880 
  341.0000     2.3140   -14.4730    76.2980     7.2060     6.8330     6.8310    24.4140 
  341.1250     2.3230   -14.3070    76.2980     7.1800     6.8300     6.6260    24.4340 
  341.2500     2.3360   -14.1580    76.2980     7.1560     6.8280     6.4090    24.4210 
  341.3750     2.3460   -14.0200    76.2980     7.1650     6.8460     6.3780    24.3850 
  341.5000     2.3500   -13.9410    76.2980     7.2120     6.8870     6.6000    24.3530 
  341.6250     2.3470   -13.9550    76.2980     7.2860     6.9420     7.1430    24.3370 
  341.7500     2.3430   -14.0310    76.2980     7.3610     6.9950     7.4640    24.3450 
  341.8750     2.3410   -14.1710    76.2980     7.4260     7.0420     7.1350    24.3710 
  342.0000     2.3450   -14.3800    76.2980     7.4790     7.0840     6.8390    24.3820 
  342.1250     2.3540   -14.6450    76.2980     7.5180     7.1210     6.9900    24.3650 
  342.2500     2.3630   -14.9150    76.2980     7.5440     7.1530     7.3370    24.3340 
  342.3750     2.3660   -15.1760    76.2980     7.5600     7.1790     7.5260    24.3010 
  342.5000     2.3630   -15.3950    76.2980     7.5800     7.2060     7.4570    24.2730 
  342.6250     2.3540   -15.5760    76.2980     7.6220     7.2500     7.2860    24.2630 
  342.7500     2.3390   -15.7060    76.2980     7.6920     7.3130     7.2570    24.2540 
  342.8750     2.3210   -15.7890    76.2980     7.7790     7.3860     7.5630    24.2460 
  343.0000     2.3030   -15.8470    76.2980     7.8510     7.4480     8.0580    24.2660 
  343.1250     2.2910   -15.9220    76.2980     7.8580     7.4590     8.3270    24.2960 
  343.2500     2.2860   -15.9940    76.2980     7.7910     7.4110     8.1850    24.3100 
  343.3750     2.2890   -16.0970    76.2980     7.6630     7.3130     7.8310    24.3070 
  343.5000     2.2960   -16.2190    76.2980     7.5180     7.1960     7.4340    24.3010 
  343.6250     2.3010   -16.3160    76.2980     7.4160     7.0990     6.9560    24.2840 
  343.7500     2.3030   -16.4130    76.2980     7.3740     7.0380     6.7640    24.2770 
  343.8750     2.3060   -16.4890    76.2980     7.3810     7.0000     6.8210    24.2790 
  344.0000     2.3120   -16.5000    76.2980     7.4040     6.9600     6.9660    24.2940 
  344.1250     2.3210   -16.4230    76.2980     7.4010     6.8910     7.0720    24.3040 
  344.2500     2.3300   -16.0680    76.2980     7.3590     6.7990     6.9540    24.3080 
  344.3750     2.3360   -15.7330    76.2980     7.3230     6.7030     6.6630    24.3060 
  344.5000     2.3380   -15.3690    76.2980     7.2770     6.6260     6.2370    24.3060 
  344.6250     2.3390   -14.9800    76.2980     7.2020     6.5830     5.8620    24.3090 
  344.7500     2.3410   -14.5960    76.2980     7.1420     6.5640     5.9440    24.3030 
  344.8750     2.3450   -14.2790    76.2980     7.0920     6.5580     6.2000    24.2810 
  345.0000     2.3500   -14.0450    76.2980     7.0500     6.5560     6.4080    24.2650 
  345.1250     2.3540   -13.9060    76.2980     7.0430     6.5550     6.4950    24.2750 
  345.2500     2.3570   -13.8580    76.2980     7.0350     6.5550     6.5520    24.2980 
  345.3750     2.3580   -13.8540    76.2980     7.0210     6.5560     6.6660    24.2990 
  345.5000     2.3570   -13.8480    76.2980     6.9970     6.5560     6.7880    24.2740 
  345.6250     2.3530   -13.8590    76.2980     6.9670     6.5560     6.7990    24.2570 
  345.7500     2.3470   -13.8770    76.2980     6.9400     6.5550     6.7740    24.2690 
  345.8750     2.3410   -13.8940    76.2980     6.9350     6.5550     6.7060    24.2840 
  346.0000     2.3370   -13.9120    76.2980     6.9340     6.5570     6.6590    24.2760 
  346.1250     2.3370   -13.9230    76.2980     6.9300     6.5620     6.6860    24.2710 
  346.2500     2.3400   -13.9570    76.2980     6.9170     6.5680     6.8120    24.2820 
  346.3750     2.3440   -13.9930    76.2980     6.8960     6.5740     6.9560    24.2800 
  346.5000     2.3480   -14.0570    76.2980     6.8690     6.5750     7.1190    24.2640 
  346.6250     2.3450   -14.1270    76.2980     6.8350     6.5750     7.3650    24.2690 
  346.7500     2.3380   -14.2030    76.2980     6.8300     6.5750     7.8260    24.2600 
  346.8750     2.3300   -14.2700    76.2980     6.8290     6.5750     8.3350    24.2430 
  347.0000     2.3260   -14.3250    76.2980     6.8290     6.5750     8.7560    24.2370 
  347.1250     2.3290   -14.3750    76.2980     6.8290     6.5750     9.1000    24.1830 
  347.2500     2.3360   -14.4140    76.2980     6.8290     6.5750     9.3810    24.1160 
  347.3750     2.3410   -14.4660    76.2980     6.8290     6.5750     9.7200    24.0340 
  347.5000     2.3430   -14.5180    76.2980     6.8290     6.5750     9.6380    23.9990 
  347.6250     2.3410   -14.5830    76.2980     6.8290     6.5750     8.9170    23.9690 
  347.7500     2.3370   -14.6630    76.2980     6.8290     6.5750     8.5310    23.9340 
  347.8750     2.3330   -14.7660    76.2980     6.8290     6.5750     8.8090    23.8460 
  348.0000     2.3240   -14.8700    76.2980     6.8290     6.5750     9.4550    23.6880 
  348.1250     2.3020   -14.9850    76.2980     6.8290     6.5750    10.1390    23.3950 
  348.2500     2.2560   -15.0930    76.2980     6.8290     6.5750    10.4120    22.9700 
  348.3750     2.1800   -15.1710    76.2980     6.8290     6.5750    10.8730    22.4580 
