~V
VERS. 2.00: Ver 2.00
~W
STRT.M 54.0000:
STOP.M 236.0000:
STEP.M 0.1250:
NULL. -999.2500:
UWI. F10195:
~C
DEPT.M :
GR.API :
RML.OHMM :
RI. :
RXO.OHMM :
CALI.CM :
SP.MV :
DEN.GM/CC :
~A
   54.0000  -999.2500  -999.2500  -999.2500  -999.2500  -999.2500     0.0000  -999.2500 
   54.1250  -999.2500  -999.2500  -999.2500  -999.2500  -999.2500     0.0000  -999.2500 
   54.2500  -999.2500  -999.2500  -999.2500  -999.2500  -999.2500    30.6090  -999.2500 
   54.3750  -999.2500  -999.2500  -999.2500  -999.2500  -999.2500   122.6760  -999.2500 
   54.5000  -999.2500  -999.2500  -999.2500  -999.2500  -999.2500   123.2230  -999.2500 
   54.6250  -999.2500  -999.2500  -999.2500  -999.2500  -999.2500   123.7040  -999.2500 
   54.7500  -999.2500  -999.2500  -999.2500  -999.2500  -999.2500   124.0920  -999.2500 
   54.8750  -999.2500  -999.2500  -999.2500  -999.2500  -999.2500   124.3940  -999.2500 
   55.0000  -999.2500  -999.2500  -999.2500  -999.2500  -999.2500   124.6320  -999.2500 
   55.1250  -999.2500  -999.2500  -999.2500  -999.2500  -999.2500   124.8030  -999.2500 
   55.2500  -999.2500  -999.2500  -999.2500  -999.2500  -999.2500   124.9370  -999.2500 
   55.3750  -999.2500  -999.2500  -999.2500  -999.2500  -999.2500   125.0560  -999.2500 
   55.5000  -999.2500  -999.2500  -999.2500  -999.2500  -999.2500   125.1660  -999.2500 
   55.6250  -999.2500  -999.2500  -999.2500  -999.2500  -999.2500   125.2360  -999.2500 
   55.7500  -999.2500  -999.2500  -999.2500  -999.2500  -999.2500   125.2420  -999.2500 
   55.8750  -999.2500  -999.2500  -999.2500  -999.2500  -999.2500   125.1930  -999.2500 
   56.0000  -999.2500  -999.2500  -999.2500  -999.2500  -999.2500   125.1030  -999.2500 
   56.1250  -999.2500  -999.2500  -999.2500  -999.2500  -999.2500   124.9920  -999.2500 
   56.2500  -999.2500  -999.2500  -999.2500  -999.2500  -999.2500   124.8350  -999.2500 
   56.3750  -999.2500  -999.2500  -999.2500  -999.2500  -999.2500   124.6040  -999.2500 
   56.5000  -999.2500  -999.2500  -999.2500  -999.2500  -999.2500   124.3100  -999.2500 
   56.6250  -999.2500  -999.2500  -999.2500  -999.2500  -999.2500   123.9660     1.8170 
   56.7500  -999.2500  -999.2500  -999.2500  -999.2500  -999.2500   123.6340     1.8170 
   56.8750  -999.2500  -999.2500  -999.2500  -999.2500  -999.2500   123.3650     1.8180 
   57.0000  -999.2500  -999.2500  -999.2500  -999.2500  -999.2500   123.1560     1.8180 
   57.1250  -999.2500  -999.2500  -999.2500  -999.2500  -999.2500   122.9900     1.8170 
   57.2500    47.9400    26.3270     0.4500     2.3770    25.2980   122.8300     1.8140 
   57.3750    47.9400    26.3270     0.4500     2.3770    25.2980   122.6730     1.8130 
   57.5000    50.8790    43.8910     0.4620     2.4530    25.2980   122.5200     1.8140 
   57.6250    55.4940   136.9180     0.4730     3.2990    25.2980   122.3670     1.8150 
   57.7500    57.1210   859.2940     0.4730     3.6660    25.2970   122.2160     1.8140 
   57.8750    54.8700   674.0080     0.4720     3.3890    25.2930   122.0230     1.8130 
   58.0000    50.6910   114.7640     0.4760     2.6930    25.2900   121.8010     1.8130 
   58.1250    48.8230    37.9110     0.4900     1.1990    25.2880   121.5560     1.8110 
   58.2500    50.8970    19.7110     0.5090     1.1320    25.2860   121.2200     1.8040 
   58.3750    52.4100    13.2020     0.5250     0.9020    25.2860   120.7770     1.7950 
   58.5000    51.1730    11.8440     0.5310     1.1530    25.2880   120.2200     1.7890 
   58.6250    48.2570    13.7760     0.5320     1.7070    25.2990   119.5960     1.7870 
   58.7500    46.3490    19.5900     0.5390     1.8990    25.3250   118.8530     1.7890 
   58.8750    46.6890    29.5550     0.5540     2.0810    25.3530   117.9970     1.7920 
   59.0000    47.7050    44.1390     0.5730     2.9430    25.3610   117.0040     1.7940 
   59.1250    46.9810    60.9320     0.5830     1.7920    25.3620   115.8980     1.7910 
   59.2500    44.5090    77.4090     0.5720     0.5380    25.3600   114.7870     1.7870 
   59.3750    41.3560    98.8730     0.5500     0.9830    25.3610   113.7680     1.7910 
   59.5000    37.8390   122.4870     0.5290     2.3240    25.3610   112.8990     1.8070 
   59.6250    34.7070   149.1770     0.5220     2.9890    25.3590   112.2110     1.8270 
   59.7500    34.7050   221.7070     0.5320     3.6850    25.3590   111.7660     1.8340 
   59.8750    37.4220   253.9270     0.5400     3.9470    25.3570   111.5430     1.8250 
   60.0000    39.3110   144.5400     0.5270     2.9210    25.3560   111.5630     1.8110 
   60.1250    39.2220    65.5770     0.4890     1.8240    25.3540   111.7470     1.8010 
   60.2500    39.4290    39.4230     0.4460     1.0340    25.3410   111.9150     1.7980 
   60.3750    40.9250    29.2350     0.4250     0.7300    25.3260   112.0010     1.8000 
   60.5000    41.6220    26.5460     0.4400     1.3600    25.3190   111.9900     1.8040 
   60.6250    41.4510    28.6870     0.4800     1.7820    25.3310   111.7960     1.8130 
   60.7500    42.1960    35.6740     0.5190     3.8870    25.3240   111.4310     1.8250 
   60.8750    42.8970    44.7550     0.5370     5.9550    25.3050   110.9450     1.8360 
   61.0000    42.4930    44.5840     0.5380     9.7600    25.2950   110.3300     1.8490 
   61.1250    41.5180    28.4000     0.5290    17.2120    25.2910   109.6110     1.8660 
   61.2500    42.9920    13.1660     0.5160    26.1180    25.2930   108.9470     1.8840 
   61.3750    46.9360     6.3490     0.4990    12.4320    25.2930   108.3170     1.8990 
   61.5000    49.9870     3.8020     0.4760     4.2200    25.2950   107.7050     1.9110 
   61.6250    49.4320     3.0060     0.4480     1.3550    25.2980   107.1030     1.9210 
   61.7500    47.8540     3.0900     0.4240     1.4710    25.3020   106.4420     1.9290 
   61.8750    50.6450     3.4510     0.4080     1.8780    25.3070   105.7350     1.9350 
   62.0000    56.1100     3.5420     0.4030     2.6470    25.3080   104.9100     1.9390 
   62.1250    59.2580     3.0710     0.4100     3.2280    25.3030   103.9290     1.9420 
   62.2500    58.4450     2.4890     0.4300     3.1370    25.2980   102.7030     1.9470 
   62.3750    57.8410     2.1350     0.4530     2.4600    25.2990   101.2030     1.9520 
   62.5000    57.9830     1.7840     0.4680     1.8400    25.3100    99.3240     1.9640 
   62.6250    56.4350     1.0950     0.4540     1.7200    25.3370    96.9340     1.9900 
   62.7500    53.6480     0.4710     0.3850     2.4930    25.3540    93.6780     2.0390 
   62.8750    52.4160     0.1840     0.2810     3.7400    25.3880    89.3110     2.1020 
   63.0000    53.0980     0.0830     0.1760     4.7570    25.4270    83.6070     2.1750 
   63.1250    53.5140     0.0620     0.1010     5.1450    25.4640    76.2800     2.2570 
   63.2500    52.6240     0.0950     0.0810     4.1360    25.4960    66.8530     2.3240 
   63.3750    52.7290     0.1830     0.1240     2.5410    25.6730    55.8820     2.3030 
   63.5000    55.2230     0.3620     0.2540     2.8010    26.5240    43.9770     2.1600 
   63.6250    58.0790     0.6940     0.5250     6.8720    29.3320    31.8520     1.9630 
   63.7500    58.4760     1.3390     1.0670    10.5800    34.2310    20.1800     1.8140 
   63.8750    56.6110     2.3150     1.8860    11.1810    39.0940     9.4220     1.7350 
   64.0000    56.3070     3.3550     2.9160     9.0780    41.5620    -0.1130     1.7150 
   64.1250    59.0560     4.1780     4.0600     7.5140    42.1820    -8.0890     1.7300 
   64.2500    63.1910     4.9950     5.4250     6.5220    40.5240   -13.9330     1.7800 
   64.3750    66.6040     6.2430     7.2170     7.7600    35.9830   -18.1140     1.8790 
   64.5000    69.0570     8.2030     9.5800    13.9820    30.1690   -21.1370     2.0460 
   64.6250    69.9070    10.8570    12.2980    32.1300    26.7290   -23.5310     2.2700 
   64.7500    69.1640    13.1370    14.2810    51.6020    26.0480   -25.5880     2.4620 
   64.8750    69.0310    13.3920    14.5370    47.6110    26.3380   -27.4860     2.5040 
   65.0000    68.3990    11.6660    13.1560    26.6800    27.3600   -29.1730     2.3950 
   65.1250    64.5980     9.4510    11.0840    13.5570    29.1700   -30.6050     2.2410 
