~V
VERS. 2.00: Ver 2.00
~W
STRT.M 55.0000:
STOP.M 251.0000:
STEP.M 0.1250:
NULL. -999.2500:
UWI. F10189:
~C
DEPT.M :
DEN.GM/CC :
SP.MV :
GR.API :
RML.OHMM :
RI. :
RXO.OHMM :
CALI.CM :
~A
# ...
  111.2500     2.1670   -23.2790    62.3480     8.8900     8.3860    12.3870    23.5710 
  111.3750     2.1580   -23.5440    61.3320     7.9310     7.3060    10.9940    23.6150 
  111.5000     2.1620   -23.6940    61.0660     7.5920     6.7680    10.2430    23.7180 
  111.6250     2.1670   -23.7320    62.0870     7.6680     6.6730     9.7200    23.8980 
  111.7500     2.1700   -23.6690    62.5350     7.8650     6.7700     9.4000    24.0850 
  111.8750     2.1700   -23.4970    62.7960     8.0430     6.9190     9.4930    24.2020 
  112.0000     2.1570   -23.2360    64.7880     8.1280     7.0340     9.6790    24.2150 
  112.1250     2.1340   -22.8820    68.1220     8.0830     7.0690     9.8940    24.2250 
  112.2500     2.1220   -22.4520    70.9420     7.9480     7.0340     9.8100    24.2860 
  112.3750     2.1270   -21.9160    72.5820     7.7600     6.9430     9.5920    24.3370 
  112.5000     2.1370   -21.2770    71.3050     7.5820     6.8280     9.5680    24.3240 
  112.6250     2.1380   -20.5140    66.1280     7.5110     6.7380     9.6630    24.2630 
  112.7500     2.1500   -19.6720    61.6110     7.5720     6.7090     9.9010    24.1550 
  112.8750     2.1800   -18.7700    60.9950     7.7350     6.7450    10.0720    24.0120 
  113.0000     2.2150   -17.8040    62.8030     7.9070     6.8080    10.1990    23.9700 
  113.1250     2.2340   -16.7910    65.6280     7.9380     6.8070    10.4050    24.2730 
  113.2500     2.2480   -15.7500    69.7160     7.7840     6.6840    10.6680    24.8240 
  113.3750     2.2780   -14.7140    74.1110     7.4920     6.4490    10.6290    25.1900 
  113.5000     2.3260   -13.7210    78.4380     7.1760     6.1670     9.8100    25.1140 
  113.6250     2.3670   -12.8190    82.6470     6.9520     5.9290     8.6420    24.8240 
  113.7500     2.3760   -12.0060    86.1170     6.8340     5.7720     7.6230    24.6310 
  113.8750     2.3510   -11.2930    89.3040     6.7850     5.6790     7.1230    24.4780 
  114.0000     2.3160   -10.6870    92.5420     6.7380     5.6030     6.8150    24.3860 
  114.1250     2.2970   -10.2050    96.6030     6.6150     5.4850     6.7030    24.4120 
  114.2500     2.2910    -9.8080    98.3440     6.4160     5.3130     6.5310    24.4340 
  114.3750     2.2870    -9.5120    96.1400     6.1730     5.1100     6.2590    24.4330 
  114.5000     2.2830    -9.3140    91.9910     5.9380     4.9150     6.2120    24.4230 
  114.6250     2.2860    -9.2030    91.9570     5.7740     4.7760     6.4090    24.5280 
  114.7500     2.2950    -9.1430    96.5990     5.7000     4.7060     6.7010    24.6570 
  114.8750     2.3080    -9.1160   102.2120     5.7320     4.7080     6.9120    24.6860 
  115.0000     2.3230    -9.1310   104.0850     5.8690     4.7800     6.8860    24.6030 
  115.1250     2.3390    -9.2150   100.8790     6.1060     4.9210     6.9980    24.4610 
  115.2500     2.3550    -9.3750    96.7790     6.3840     5.0960     7.3660    24.2900 
  115.3750     2.3630    -9.5670    93.2860     6.6370     5.2670     7.7950    24.1420 
  115.5000     2.3530    -9.7840    88.1260     6.8000     5.3940     8.0870    24.0260 
  115.6250     2.3120    -9.9940    81.3690     6.8180     5.4370     8.0950    23.9940 
  115.7500     2.2670   -10.1930    80.0500     6.7430     5.4130     7.5770    24.0270 
  115.8750     2.2430   -10.3870    85.4480     6.6450     5.3550     7.1470    24.1140 
  116.0000     2.2420   -10.5770    89.4550     6.5810     5.3030     7.1760    24.1880 
  116.1250     2.2470   -10.7650    86.9200     6.5850     5.2910     7.5770    24.1770 
  116.2500     2.2420   -10.9410    85.1170     6.6290     5.3210     7.8980    24.1230 
  116.3750     2.2330   -11.1110    85.6350     6.6850     5.3780     7.9230    24.0430 
  116.5000     2.2240   -11.2550    84.8710     6.7370     5.4410     8.0500    23.9760 
  116.6250     2.2200   -11.3750    83.1770     6.7850     5.4890     8.3680    24.0020 
  116.7500     2.2230   -11.4870    84.0610     6.8290     5.5130     8.8690    24.0450 
  116.8750     2.2280   -11.5840    86.0450     6.8650     5.5110     9.3290    24.1040 
  117.0000     2.2320   -11.6700    87.3320     6.8930     5.4900     9.1750    24.1370 
  117.1250     2.2320   -11.7550    88.0090     6.9140     5.4580     8.6640    24.0850 
  117.2500     2.2320   -11.8560    85.1550     6.9340     5.4210     8.0470    23.9300 
  117.3750     2.2260   -11.9890    79.4350     6.9530     5.3750     7.7990    23.7970 
  117.5000     2.2170   -12.1580    79.7110     6.9710     5.3190     7.8380    23.7990 
  117.6250     2.2200   -12.3790    89.9070     6.9940     5.2610     7.9450    23.9390 
  117.7500     2.2360   -12.6400    96.7350     7.0350     5.2270     7.9440    24.0070 
  117.8750     2.2540   -12.9240    94.1230     7.1160     5.2500     7.7770    24.0310 
  118.0000     2.2600   -13.2020    86.9290     7.2650     5.3600     7.8020    24.0510 
  118.1250     2.2490   -13.4720    82.5340     7.5070     5.5890     8.4600    24.0770 
  118.2500     2.2290   -13.6930    79.6260     7.7980     5.9020     9.2170    24.1240 
  118.3750     2.2050   -13.8180    77.7870     8.0570     6.2310     9.7860    24.2080 
  118.5000     2.1900   -13.8240    77.3750     8.1790     6.4810    10.0170    24.2720 
  118.6250     2.1970   -13.6460    77.1080     8.0540     6.5200     9.3800    24.2130 
  118.7500     2.2210   -13.3210    77.2280     7.7390     6.3520     8.5590    24.0810 
  118.8750     2.2530   -12.8860    78.0420     7.3270     6.0350     7.5980    23.9450 
  119.0000     2.2820   -12.3900    79.7690     6.9200     5.6640     6.5410    23.9040 
  119.1250     2.2910   -11.8580    82.1340     6.6080     5.3450     5.8200    24.0640 
  119.2500     2.2770   -11.3490    82.7890     6.3930     5.1100     5.6370    24.1020 
  119.3750     2.2590   -10.9100    81.1500     6.2490     4.9490     5.7710    24.0800 
  119.5000     2.2560   -10.5900    80.7990     6.1520     4.8380     6.3440    24.0420 
  119.6250     2.2730   -10.4550    85.7790     6.1570     4.8010     7.1750    24.0300 
  119.7500     2.2930   -10.4770    90.9770     6.3610     4.9000     7.9290    24.0320 
  119.8750     2.3130   -10.6450    92.2720     6.8650     5.2110     8.5680    24.0510 
  120.0000     2.3390   -10.9370    89.8830     7.7010     5.7770     9.3990    24.0730 
  120.1250     2.3710   -11.3530    84.6330     8.7750     6.5850    10.6420    24.0260 
  120.2500     2.3830   -11.8290    78.1420     9.7280     7.4030    11.8260    23.9680 
  120.3750     2.3480   -12.3500    71.3220    10.1980     7.9570    12.5480    23.9280 
  120.5000     2.2720   -12.8910    65.4540    10.0100     8.0430    11.8550    23.9130 
  120.6250     2.2070   -13.4290    62.9480     9.3100     7.6440     9.6500    23.9080 
  120.7500     2.1840   -13.9460    63.2970     8.5880     7.1030     8.5030    23.8950 
  120.8750     2.1980   -14.4410    64.2190     8.1210     6.6620     8.3380    23.8500 
  121.0000     2.2140   -14.8990    64.1600     8.0370     6.4740     8.5490    23.7720 
  121.1250     2.2060   -15.2820    65.7320     8.4030     6.6460     9.3080    23.7040 
  121.2500     2.1840   -15.6310    68.4790     9.0620     7.0920     9.8840    23.7010 
  121.3750     2.1670   -15.9440    68.2950     9.8460     7.7230    10.0100    23.7580 
  121.5000     2.1620   -16.2050    64.7720    10.5130     8.3810    10.1590    23.8050 
  121.6250     2.1680   -16.3940    61.3890    10.7280     8.7970    10.5140    23.7650 
  121.7500     2.1800   -16.5340    59.1740    10.4940     8.8560    10.8990    23.6780 
  121.8750     2.1890   -16.6290    57.7570    10.0190     8.6290    10.8080    23.6570 
  122.0000     2.1920   -16.6690    57.6100     9.5860     8.3080    10.0010    23.7070 
  122.1250     2.1950   -16.6310    59.2850     9.4010     8.0930     9.8420    23.5770 
  122.2500     2.2030   -16.5070    61.3020     9.4020     8.0170    10.2530    23.4160 
  122.3750     2.2120   -16.3330    61.5650     9.4630     8.0210    10.8830    23.4400 
