~V
VERS. 2.00: Ver 2.00
~W
STRT.M 44.0000:
STOP.M 255.0000:
STEP.M 0.1250:
NULL. -999.2500:
UWI. F10191:
~C
DEPT.M :
DEN.GM/CC :
SP.MV :
GR.API :
RML.OHMM :
RI. :
RXO.OHMM :
CALI.CM :
~A
# ...
  111.5000     2.2200   -39.6240    64.5620    10.2050     7.3920     7.2910    23.7980 
  111.6250     2.2590   -39.5840    66.3480     9.9250     7.1530     7.0930    23.8130 
  111.7500     2.2940   -39.5260    69.7370     9.6770     6.9500     7.0340    23.8180 
  111.8750     2.3050   -39.3900    72.7830     9.4870     6.8100     7.3190    23.8250 
  112.0000     2.2810   -39.1600    73.4610     9.3980     6.7540     7.8410    23.8330 
  112.1250     2.2320   -38.8790    73.0540     9.4630     6.8120     8.4060    23.8740 
  112.2500     2.1820   -38.5100    73.2110     9.6490     6.9640     8.7600    23.9260 
  112.3750     2.1460   -38.0400    73.2980     9.9140     7.1900     8.7340    23.9690 
  112.5000     2.1350   -37.4880    72.6330    10.2170     7.4630     8.4460    23.9910 
  112.6250     2.1460   -36.8480    70.8770    10.5300     7.7550     8.4950    23.9990 
  112.7500     2.1600   -36.0750    69.0560    10.7890     8.0160     8.7990    24.0230 
  112.8750     2.1710   -35.1680    67.4080    10.8830     8.1680     9.1770    24.1150 
  113.0000     2.1850   -34.1490    66.9860    10.6850     8.1160     9.4130    24.3080 
  113.1250     2.2050   -33.0610    70.2140    10.0670     7.7460     9.0940    24.4950 
  113.2500     2.2260   -31.9550    75.2830     9.1810     7.1470     7.9980    24.5500 
  113.3750     2.2490   -30.9170    82.8610     8.2280     6.4430     6.2560    24.4500 
  113.5000     2.2750   -30.0230    93.4810     7.4190     5.7820     4.7950    24.3010 
  113.6250     2.2890   -29.2140   104.0660     6.9420     5.3030     4.5260    24.1980 
  113.7500     2.2800   -28.5370   108.5470     6.7590     5.0190     4.6840    24.2420 
  113.8750     2.2530   -28.0970   106.5050     6.8080     4.9210     4.7680    24.4820 
  114.0000     2.2210   -27.8500   102.1900     6.9910     4.9670     4.7970    24.8650 
  114.1250     2.1850   -27.7560    97.7450     7.1980     5.1040     4.9070    25.0930 
  114.2500     2.1580   -27.8440    93.4980     7.3460     5.2440     5.0770    25.0290 
  114.3750     2.1600   -27.9880    91.0090     7.4160     5.3480     5.3730    24.6840 
  114.5000     2.2020   -28.1430    90.7680     7.4450     5.4150     5.5830    24.1530 
  114.6250     2.2700   -28.3900    93.5170     7.5150     5.4910     5.6060    23.8390 
  114.7500     2.3260   -28.6650    98.0540     7.6870     5.6240     5.5190    23.7490 
  114.8750     2.3590   -28.8710   100.3770     7.9740     5.8260     5.6680    23.7810 
  115.0000     2.3840   -29.0590    97.6080     8.3240     6.0680     6.2740    23.8400 
  115.1250     2.3950   -29.2400    91.5180     8.5870     6.2600     6.6080    23.8580 
  115.2500     2.3750   -29.3490    87.1610     8.6490     6.3260     5.9780    23.7720 
  115.3750     2.3270   -29.4710    85.5670     8.4920     6.2440     5.2630    23.5490 
  115.5000     2.2870   -29.5590    86.7190     8.2190     6.0680     5.0570    23.2900 
  115.6250     2.2760   -29.5390    88.2530     8.0760     5.9430     5.1820    23.1620 
  115.7500     2.2790   -29.5010    86.8170     8.2610     6.0140     5.4100    23.1260 
  115.8750     2.2910   -29.4400    86.5480     8.8410     6.3500     5.7360    23.1220 
  116.0000     2.3160   -29.3330    88.9080     9.7320     6.9240     6.3820    23.1310 
  116.1250     2.3560   -29.1990    88.8580    10.6620     7.5840     8.4460    23.1970 
  116.2500     2.3860   -29.0400    86.5130    11.2330     8.0550    11.2110    23.3380 
  116.3750     2.3720   -28.8770    87.0850    11.1890     8.1310    10.8100    23.4760 
  116.5000     2.3170   -28.7350    90.0240    10.5710     7.7840     7.8940    23.5130 
  116.6250     2.2680   -28.6120    89.9320     9.7180     7.1780     6.6310    23.3920 
  116.7500     2.2480   -28.5030    89.1940     9.0080     6.5920     6.3510    23.1670 
  116.8750     2.2440   -28.4770    88.7290     8.5560     6.1490     6.3490    22.9290 
  117.0000     2.2500   -28.4670    85.5290     8.3560     5.8980     6.2580    22.7940 
  117.1250     2.2730   -28.5060    81.1840     8.4240     5.8880     6.3150    22.7610 
  117.2500     2.3080   -28.6470    78.4650     8.7750     6.1090     6.4420    22.7570 
  117.3750     2.3450   -28.7780    76.5540     9.5020     6.6040     6.9850    22.7550 
  117.5000     2.3780   -28.9730    75.7320    10.6150     7.3890     8.8310    22.7610 
  117.6250     2.4230   -29.3110    78.6040    11.8910     8.3670    12.9590    22.7710 
  117.7500     2.4750   -29.6780    81.9280    12.8120     9.1870    15.9470    22.7580 
  117.8750     2.4900   -30.0550    82.9190    12.9520     9.5050    14.9860    22.7000 
  118.0000     2.4240   -30.4990    81.5870    12.2290     9.1770    11.7050    22.6200 
  118.1250     2.3090   -30.8990    79.5070    11.0070     8.3680     8.8670    22.5750 
  118.2500     2.2260   -31.2410    77.8380     9.9300     7.5350     7.5850    22.5500 
  118.3750     2.1900   -31.5230    77.3210     9.2660     6.9020     7.0730    22.5770 
  118.5000     2.1820   -31.6890    77.7520     9.0330     6.5390     7.0410    22.6420 
  118.6250     2.1870   -31.7050    78.7090     9.0970     6.4220     7.0200    22.6900 
  118.7500     2.1980   -31.5890    81.5270     9.1930     6.3980     6.9480    22.7420 
  118.8750     2.2140   -31.3630    85.4250     9.1990     6.3810     6.8100    22.8200 
  119.0000     2.2290   -31.0490    88.5390     9.1080     6.3380     6.7580    22.8900 
  119.1250     2.2330   -30.6980    88.9430     8.9910     6.2850     6.5930    22.9460 
  119.2500     2.2330   -30.3530    86.6580     8.9020     6.2400     6.2050    23.0190 
  119.3750     2.2350   -30.0350    83.9040     8.8260     6.1940     5.9780    23.0990 
  119.5000     2.2450   -29.7360    83.8430     8.7130     6.1250     6.1570    23.1710 
  119.6250     2.2610   -29.4720    87.3660     8.5000     5.9990     6.4640    23.2150 
  119.7500     2.2790   -29.3150    90.4710     8.2230     5.8380     6.3630    23.2490 
  119.8750     2.2880   -29.2130    92.0420     7.9820     5.7000     6.2580    23.2640 
  120.0000     2.2810   -29.1750    93.3130     7.9120     5.6690     6.3220    23.2680 
  120.1250     2.2550   -29.2450    92.3040     8.1870     5.8650     6.4220    23.2740 
  120.2500     2.2200   -29.2850    86.4940     8.7940     6.2970     6.6120    23.2920 
  120.3750     2.1900   -29.3470    78.0220     9.6330     6.9210     7.0490    23.3460 
  120.5000     2.1750   -29.4490    72.8790    10.4760     7.6020     8.0500    23.4720 
  120.6250     2.1700   -29.4890    71.5620    10.9370     8.0680     8.9430    23.7120 
  120.7500     2.1700   -29.4310    69.1900    10.8560     8.1520     8.8960    23.9880 
  120.8750     2.1790   -29.3820    67.2280    10.2960     7.8520     7.7950    24.1570 
  121.0000     2.2000   -29.2910    70.5350     9.5080     7.3110     6.4110    24.2020 
  121.1250     2.2260   -29.1300    79.6650     8.8010     6.7350     5.7340    24.1680 
  121.2500     2.2480   -29.0500    87.8710     8.3030     6.2580     5.4410    24.1160 
  121.3750     2.2630   -28.9820    91.4500     7.9890     5.9060     5.3390    24.0950 
  121.5000     2.2680   -28.9000    90.6600     7.7710     5.6520     5.2260    24.1280 
  121.6250     2.2680   -28.9110    86.6780     7.6060     5.4870     5.1800    24.1850 
  121.7500     2.2740   -29.0310    83.5930     7.5800     5.4450     5.2790    24.2440 
  121.8750     2.2920   -29.1200    83.1550     7.8630     5.6210     5.6440    24.2750 
  122.0000     2.3250   -29.2110    82.2910     8.6060     6.1180     6.1300    24.2750 
  122.1250     2.3740   -29.2830    77.7650     9.9570     7.0820     7.7140    24.2340 
  122.2500     2.4250   -29.2570    72.6850    11.6920     8.4250    10.5450    24.1300 
  122.3750     2.4500   -29.1810    68.8660    13.4520     9.9660    14.5850    23.9610 
  122.5000     2.4290   -29.0340    65.7520    14.7320    11.3520    15.5820    23.7880 
  122.6250     2.3670   -28.7840    62.8730    14.9700    12.0650    13.2490    23.7950 
