~V
VERS. 2.00: Ver 2.00
~W
STRT.M 63.0000:
STOP.M 308.0000:
STEP.M 0.1250:
NULL. -999.2500:
UWI. F10102:
~C
DEPT.M :
DEN.GM/CC :
SP.MV :
GR.API :
RML.OHMM :
RI. :
RXO.OHMM :
CALI.CM :
~A
# ...
  288.0000     2.5730    -0.8670    48.3180    13.3390    11.5770    13.0040    24.1580 
  288.1250     2.5730    -0.6700    48.7210    13.7490    11.9010    13.3000    23.7700 
  288.2500     2.5770    -0.5560    49.4520    14.2110    12.3120    11.8640    23.3880 
  288.3750     2.5840    -0.3990    49.5180    14.6480    12.7570    12.5160    23.2910 
  288.5000     2.5880    -0.1590    47.8210    14.9910    13.1470    15.5130    23.6080 
  288.6250     2.5860     0.0630    45.5850    15.1830    13.4100    16.6400    24.0460 
  288.7500     2.5800     0.2210    45.1990    15.1750    13.4920    14.6630    24.2500 
  288.8750     2.5760     0.3500    47.3020    14.9060    13.3320    12.4130    24.2690 
  289.0000     2.5760     0.4700    48.8120    14.4390    12.9870    12.9140    24.3520 
  289.1250     2.5800     0.6000    48.6370    13.8370    12.5150    13.0620    24.4320 
  289.2500     2.5850     0.7260    47.1460    13.1760    11.9760    11.4270    24.4270 
  289.3750     2.5860     0.7860    46.3060    12.5400    11.4300    10.1800    24.3690 
  289.5000     2.5820     0.8060    47.6230    11.9830    10.9300     9.7120    24.3740 
  289.6250     2.5720     0.8350    48.6180    11.5360    10.5110     9.2850    24.3600 
  289.7500     2.5540     0.8740    47.2990    11.2010    10.1820     8.1600    24.3210 
  289.8750     2.5300     0.8310    45.6110    10.9660     9.9350     7.1540    24.2970 
  290.0000     2.5060     0.6950    46.4300    10.7580     9.7210     6.4970    24.2500 
  290.1250     2.4870     0.5780    48.9650    10.5180     9.5030     6.1180    24.0980 
  290.2500     2.4780     0.5470    51.6900    10.2080     9.2540     6.0290    23.8130 
  290.3750     2.4780     0.6030    54.2020     9.8190     8.9630     6.6670    23.5800 
  290.5000     2.4840     0.6980    54.3740     9.4070     8.6530     7.5280    23.4710 
  290.6250     2.4910     0.7800    52.3400     9.0280     8.3560     7.5860    23.4300 
  290.7500     2.4980     0.8560    50.4290     8.7330     8.1000     7.3070    23.4780 
  290.8750     2.5060     1.0640    49.3460     8.5970     7.9190     6.9830    23.7610 
  291.0000     2.5130     1.3390    48.8880     8.6410     7.8300     6.9280    24.1710 
  291.1250     2.5130     1.4900    49.2560     8.9000     7.8790     6.9700    24.3840 
  291.2500     2.5020     1.5640    49.8910     9.3870     8.1200     7.1810    24.4370 
  291.3750     2.4830     1.6080    48.0370    10.0820     8.6240     7.6440    24.5070 
  291.5000     2.4680     1.5270    44.7330    10.8100     9.3000     8.4430    24.5680 
  291.6250     2.4690     1.3500    42.2330    11.3700     9.9790    10.0940    24.5900 
  291.7500     2.4880     1.2130    40.9780    11.5570    10.4110    12.6470    24.5680 
  291.8750     2.5190     1.1530    41.9890    11.2090    10.3250    15.2810    24.5480 
  292.0000     2.5460     1.1050    44.4240    10.5660     9.8690    14.5540    24.4470 
  292.1250     2.5630     1.0670    45.3690     9.9400     9.3040    11.4360    24.3040 
  292.2500     2.5720     0.9660    44.7210     9.6510     8.9060     9.0000    24.2090 
  292.3750     2.5780     0.7950    44.5460     9.9980     8.9370    10.0130    24.2180 
  292.5000     2.5840     0.6800    45.2560    10.8800     9.4070    12.2030    24.2590 
  292.6250     2.5920     0.6150    45.3350    12.1310    10.2760    13.1240    24.2080 
  292.7500     2.6010     0.4790    43.8540    13.5100    11.4120    13.0050    24.1800 
  292.8750     2.6030     0.2300    43.6950    14.7390    12.5870    13.3410    24.1930 
  293.0000     2.5960    -0.0040    45.4970    15.6940    13.5710    13.9620    24.2030 
  293.1250     2.5800    -0.1460    46.1720    16.3670    14.2910    14.6060    24.2410 
  293.2500     2.5630    -0.2230    43.5520    16.8190    14.7910    15.3560    24.3320 
  293.3750     2.5590    -0.2620    41.4500    17.0950    15.1290    16.1140    24.4900 
  293.5000     2.5710    -0.2660    41.8910    17.2470    15.3620    16.5850    24.5500 
  293.6250     2.5910    -0.2710    41.7620    17.2720    15.4760    16.6900    24.5790 
  293.7500     2.6060    -0.2480    40.8010    17.1850    15.4740    16.5320    24.5790 
  293.8750     2.5980    -0.1720    40.8100    17.0490    15.4060    16.6760    24.5380 
  294.0000     2.5660    -0.0810    40.9160    16.9660    15.3760    17.4290    24.5820 
  294.1250     2.5230    -0.0230    40.4380    16.9860    15.4380    18.8900    24.6030 
  294.2500     2.4860     0.0910    41.5750    17.0860    15.5820    18.4670    24.5290 
  294.3750     2.4760     0.2850    43.2710    17.1420    15.7180    18.4150    24.3660 
  294.5000     2.4920     0.3870    42.6470    17.0260    15.7260    16.1770    24.2810 
  294.6250     2.5230     0.4330    40.7200    16.6810    15.5300    15.0660    24.2370 
  294.7500     2.5520     0.5040    39.9160    16.1340    15.1370    14.0150    24.1690 
  294.8750     2.5660     0.5690    41.7930    15.4880    14.6310    12.7060    24.0860 
  295.0000     2.5690     0.5130    43.8020    14.8920    14.1590    11.0890    24.0700 
  295.1250     2.5680     0.3980    43.5970    14.4320    13.7900    10.3600    24.1990 
  295.2500     2.5740     0.2880    41.1260    14.1350    13.5390    11.0250    24.4230 
  295.3750     2.5890     0.1940    38.0800    13.9780    13.3740    12.2640    24.6110 
  295.5000     2.6060     0.1340    36.4410    13.8570    13.2160    12.4510    24.6800 
  295.6250     2.6190     0.0830    36.8180    13.7040    13.0180    12.2910    24.7030 
  295.7500     2.6220     0.0230    38.7230    13.4870    12.7640    11.4450    24.6950 
  295.8750     2.6140    -0.0210    40.3080    13.2010    12.4560    10.8200    24.6640 
  296.0000     2.5970    -0.0140    41.0580    12.8770    12.1280    10.6360    24.7020 
  296.1250     2.5690     0.0310    42.2870    12.5330    11.7920     9.5920    24.7780 
  296.2500     2.5340     0.0910    43.4830    12.1930    11.4570     8.3090    24.8110 
  296.3750     2.5020     0.1470    43.3170    11.9100    11.1420     7.5780    24.7510 
  296.5000     2.4870     0.2110    43.5210    11.7350    10.8840     7.7370    24.7110 
  296.6250     2.4950     0.2810    45.2930    11.7160    10.7370     8.0550    24.6950 
  296.7500     2.5250     0.3130    47.8030    11.8730    10.7530     8.4410    24.6990 
  296.8750     2.5640     0.2380    49.2350    12.2180    10.9800     8.6930    24.6800 
  297.0000     2.5920     0.1030    49.0210    12.6710    11.3570     9.2860    24.5980 
  297.1250     2.6050    -0.0350    47.6520    13.1680    11.8220    10.1890    24.4690 
  297.2500     2.6050    -0.2050    46.1700    13.6440    12.3060    11.5910    24.4190 
  297.3750     2.6010    -0.4380    46.2010    14.0320    12.7360    13.0540    24.4610 
  297.5000     2.6000    -0.6490    47.8510    14.3020    13.0720    14.4160    24.4920 
  297.6250     2.6030    -0.7810    49.1080    14.4170    13.2700    14.5570    24.4710 
  297.7500     2.6060    -0.8830    49.2520    14.3350    13.2770    14.1590    24.3020 
  297.8750     2.6050    -0.9600    49.2520    13.9860    12.9990    14.1640    24.0470 
  298.0000     2.6000    -0.9290    49.2520    13.4280    12.4830    13.1970    24.0090 
  298.1250     2.5910    -0.8150    49.2520    12.7350    11.7970    11.0250    24.2310 
  298.2500     2.5800    -0.7410    49.2520    12.0050    11.0500     9.7340    24.3920 
  298.3750     2.5680    -0.6980    49.2520    11.3550    10.3600     9.4260    24.4460 
  298.5000     2.5570    -0.6460    49.2520    10.8470     9.7960     8.6390    24.4690 
  298.6250     2.5490    -0.6390    49.2520    10.5180     9.3950     7.9360    24.4560 
  298.7500     2.5450    -0.6610    49.2520    10.3850     9.1900     7.5370    24.4200 
  298.8750     2.5420    -0.7260    49.2520    10.4650     9.2300     7.7250    24.4080 
  299.0000     2.5380    -0.8460    49.2520    10.6580     9.4390     9.0810    24.3880 
  299.1250     2.5310    -0.9940    49.2520    10.8560     9.7170    11.6440    24.3480 
