~V
VERS. 2.00: Ver 2.00
~W
STRT.M 49.0000:
STOP.M 251.0000:
STEP.M 0.1250:
NULL. -999.2500:
UWI. F10165:
~C
DEPT.M :
GR.API :
RML.OHMM :
RI. :
RXO.OHMM :
CALI.CM :
SP.MV :
DEN.GM/CC :
~A
# ...
  217.7500    57.8920     9.0340     8.3550     9.0770    25.3320   -21.3240     2.3360 
  217.8750    51.1610     8.2820     7.6890     8.4770    25.3100   -21.1750     2.3190 
  218.0000    47.0930     7.6760     7.1610     8.5750    25.2650   -21.0110     2.3010 
  218.1250    45.0260     7.2450     6.8000     8.1020    25.1380   -20.8640     2.2840 
  218.2500    43.8390     6.9960     6.6210     7.3050    25.0120   -20.7450     2.2760 
  218.3750    43.0640     6.9500     6.6580     6.7900    24.8680   -20.6460     2.2830 
  218.5000    42.9820     7.0910     6.8990     6.7550    24.6910   -20.5590     2.3010 
  218.6250    44.3610     7.3460     7.2490     7.5380    24.4940   -20.4850     2.3150 
  218.7500    48.1450     7.5450     7.5110     8.2920    24.3150   -20.4260     2.3220 
  218.8750    54.4530     7.5580     7.5390     8.1090    24.1820   -20.3770     2.3220 
  219.0000    59.9490     7.2860     7.3400     7.4860    24.0950   -20.3170     2.3190 
  219.1250    62.3580     6.8590     6.9560     6.8180    24.0730   -20.2520     2.3100 
  219.2500    65.0040     6.5000     6.5950     6.2730    24.1430   -20.2100     2.2870 
  219.3750    70.4910     6.3510     6.3730     6.3540    24.3280   -20.1850     2.2530 
  219.5000    76.0670     6.4560     6.3440     6.7750    24.6320   -20.1440     2.2210 
  219.6250    78.4250     6.7900     6.5230     7.5340    24.9010   -20.0680     2.2180 
  219.7500    78.9870     7.1970     6.8130     8.2520    25.0170   -19.9890     2.2430 
  219.8750    80.1340     7.5550     7.1200     8.7930    24.9770   -19.9440     2.2770 
  220.0000    83.1310     7.7810     7.3610     9.0390    24.9130   -19.9230     2.2980 
  220.1250    88.4830     7.8450     7.4750     8.5990    24.9260   -19.8620     2.2970 
  220.2500    93.8450     7.8320     7.4980     8.6270    24.9850   -19.7670     2.2950 
  220.3750    96.2100     7.8040     7.4740     8.8360    24.9970   -19.6900     2.3010 
  220.5000    96.1970     7.8060     7.4460     9.1680    24.9680   -19.6650     2.3100 
  220.6250    96.4800     7.8700     7.4510     9.3850    24.9360   -19.6830     2.3130 
  220.7500    98.3280     7.9780     7.4890     9.3790    24.9050   -19.6810     2.3100 
  220.8750   100.8470     8.1050     7.5440     9.3180    24.8930   -19.6360     2.3070 
  221.0000   101.7120     8.2210     7.5950     9.2650    24.8910   -19.5880     2.3080 
  221.1250    97.5690     8.2830     7.6220     9.3950    24.8910   -19.5820     2.3150 
  221.2500    92.6590     8.2850     7.6230     9.5930    24.8910   -19.5710     2.3250 
  221.3750    91.2360     8.2400     7.6050     9.8190    24.8910   -19.5170     2.3370 
  221.5000    92.7460     8.1920     7.5900    10.0560    24.8910   -19.4220     2.3510 
  221.6250    91.5370     8.2160     7.6220     9.9570    24.8890   -19.3170     2.3580 
  221.7500    86.8000     8.3450     7.7270     9.8040    24.8870   -19.2270     2.3570 
  221.8750    82.6550     8.5700     7.9060     9.9060    24.8810   -19.1360     2.3540 
  222.0000    82.5880     8.8300     8.1190    10.3350    24.8650   -19.0300     2.3550 
  222.1250    84.4730     8.9840     8.2610    10.8100    24.8340   -18.9170     2.3570 
  222.2500    84.8370     8.9190     8.2400    10.8080    24.8200   -18.8030     2.3550 
  222.3750    85.2820     8.5950     8.0190    10.0720    24.8170   -18.6840     2.3480 
  222.5000    87.0690     8.0640     7.6320     8.5430    24.8090   -18.5540     2.3380 
  222.6250    88.1440     7.4690     7.1740     7.2260    24.7870   -18.4190     2.3270 
  222.7500    87.0240     6.9670     6.7610     6.8160    24.7560   -18.2860     2.3190 
  222.8750    84.4180     6.6190     6.4470     6.7040    24.7380   -18.1580     2.3100 
  223.0000    81.5900     6.4220     6.2420     6.5160    24.7260   -18.0060     2.2990 
  223.1250    81.8660     6.3370     6.1390     6.3260    24.7110   -17.8200     2.2910 
  223.2500    84.0320     6.2900     6.0840     6.2050    24.7180   -17.6630     2.2900 
  223.3750    83.4700     6.2450     6.0440     6.1600    24.7240   -17.5690     2.2950 
  223.5000    77.9210     6.1860     5.9970     6.0710    24.7180   -17.5150     2.2990 
  223.6250    74.1100     6.0990     5.9190     6.0240    24.7090   -17.4540     2.2930 
  223.7500    76.5840     5.9800     5.8130     5.8680    24.7350   -17.3770     2.2820 
  223.8750    81.2330     5.8310     5.6850     5.7010    24.7710   -17.3270     2.2700 
  224.0000    83.2170     5.6680     5.5480     5.5310    24.7770   -17.3190     2.2590 
  224.1250    80.6090     5.5090     5.4110     5.3590    24.7670   -17.3150     2.2500 
  224.2500    76.8180     5.3730     5.2810     5.3510    24.7830   -17.2920     2.2430 
  224.3750    74.7170     5.2750     5.1700     5.3850    24.8060   -17.2600     2.2420 
  224.5000    75.7870     5.2350     5.1030     5.3170    24.8170   -17.2270     2.2480 
  224.6250    78.8540     5.3010     5.1280     5.1730    24.8170   -17.1950     2.2550 
  224.7500    78.8440     5.4910     5.2590     5.2560    24.8170   -17.1590     2.2650 
  224.8750    74.6990     5.8130     5.5010     5.8600    24.8170   -17.1210     2.2750 
  225.0000    69.1760     6.2350     5.8320     6.8260    24.8170   -17.1000     2.2830 
  225.1250    64.6400     6.6860     6.2040     7.3800    24.8170   -17.1080     2.2920 
  225.2500    61.3210     7.0790     6.5470     6.8430    24.8170   -17.1080     2.3080 
  225.3750    57.4900     7.3700     6.8210     6.3560    24.8170   -17.0830     2.3310 
  225.5000    53.7980     7.5670     7.0210     6.6460    24.8160   -17.0560     2.3550 
  225.6250    53.5560     7.7220     7.1710     8.1210    24.8150   -17.0610     2.3770 
  225.7500    56.8710     7.9080     7.3250     9.9130    24.8150   -17.0670     2.3930 
  225.8750    60.9120     8.1560     7.5150    10.2020    24.8120   -17.0360     2.4010 
  226.0000    63.1840     8.4760     7.7490     9.7020    24.7910   -16.9690     2.4010 
  226.1250    64.9030     8.8600     8.0300     9.3270    24.6940   -16.9140     2.3930 
  226.2500    66.2670     9.2620     8.3320     8.9010    24.5270   -16.9020     2.3830 
  226.3750    65.1540     9.6460     8.6370     8.9040    24.4110   -16.9120     2.3750 
  226.5000    62.6700     9.9840     8.9220     9.3670    24.4750   -16.8880     2.3690 
  226.6250    60.3990    10.2530     9.1640    10.0620    24.6300   -16.8200     2.3600 
  226.7500    59.7240    10.4690     9.3650    10.7810    24.7210   -16.7840     2.3520 
  226.8750    61.4180    10.6420     9.5280    11.4490    24.7670   -16.8060     2.3480 
  227.0000    64.6030    10.7870     9.6660    12.6160    24.8150   -16.8500     2.3570 
  227.1250    64.8360    10.9100     9.7890    13.6640    24.8170   -16.8620     2.3780 
  227.2500    61.7690    11.0200     9.9060    13.8370    24.8150   -16.8370     2.3950 
  227.3750    60.2560    11.1100    10.0140    12.5100    24.8180   -16.8090     2.4020 
  227.5000    63.0820    11.1760    10.1070    12.0750    24.8380   -16.8110     2.4010 
  227.6250    65.2840    11.2040    10.1710    12.2330    24.8690   -16.8120     2.3940 
  227.7500    64.6810    11.2010    10.2040    12.4770    24.8820   -16.7860     2.3820 
  227.8750    65.2390    11.1770    10.2130    12.4950    24.8850   -16.7480     2.3700 
  228.0000    67.7490    11.1500    10.2140    11.8030    24.8830   -16.7230     2.3620 
  228.1250    66.5250    11.1390    10.2290    11.1590    24.8750   -16.7170     2.3620 
  228.2500    61.6700    11.1440    10.2620    11.0720    24.8630   -16.7200     2.3690 
  228.3750    58.0060    11.1590    10.3050    11.4850    24.8680   -16.7330     2.3810 
  228.5000    58.2210    11.1670    10.3440    11.8150    24.8770   -16.7550     2.3950 
  228.6250    59.6550    11.1370    10.3570    11.2510    24.8500   -16.7770     2.4020 
  228.7500    60.6500    11.0580    10.3290    10.2340    24.7600   -16.7820     2.3950 
  228.8750    61.8030    10.9310    10.2560     9.9390    24.6610   -16.7630     2.3770 
