~V
VERS. 2.00: Ver 2.00
~W
STRT.M 56.0000:
STOP.M 352.0000:
STEP.M 0.1250:
NULL. -999.2500:
UWI. F10109:
~C
DEPT.M :
DEN.GM/CC :
SP.MV :
GR.API :
RML.OHMM :
RI. :
RXO.OHMM :
CALI.CM :
~A
# ...
  146.0000     2.3630    -6.2900    83.3900     6.7100     5.9720     6.5570    25.1200 
  146.1250     2.3650    -6.3190    80.4220     7.3200     6.4350     8.0740    25.0520 
  146.2500     2.3410    -6.5790    73.0520     7.9460     7.0060     9.8720    24.8540 
  146.3750     2.3030    -7.0800    66.8320     8.4430     7.5500    11.1220    24.5620 
  146.5000     2.2640    -7.7930    63.5950     8.7260     7.9620    11.4540    24.2840 
  146.6250     2.2330    -8.6000    60.6460     8.7590     8.1700    11.8380    24.0530 
  146.7500     2.2100    -9.3400    57.6790     8.6490     8.2310    11.0400    23.9000 
  146.8750     2.1930    -9.9660    57.1110     8.4710     8.1930    10.1330    23.8010 
  147.0000     2.1820   -10.4110    58.0570     8.2780     8.0930     9.7100    23.7480 
  147.1250     2.1770   -10.6020    56.2720     8.0960     7.9420     9.8430    23.7390 
  147.2500     2.1760   -10.5920    54.5220     7.9370     7.7670     9.7160    23.8000 
  147.3750     2.1770   -10.3970    55.7490     7.8090     7.5910     9.1810    23.9210 
  147.5000     2.1800   -10.0240    59.3920     7.7210     7.4380     8.5780    24.0160 
  147.6250     2.1840    -9.5100    62.6150     7.6750     7.3190     8.2270    24.0530 
  147.7500     2.1890    -8.9200    64.4300     7.6220     7.1970     8.0640    24.1130 
  147.8750     2.1950    -8.2310    64.9240     7.4930     7.0150     7.8870    24.2810 
  148.0000     2.2060    -7.4630    66.9340     7.2170     6.7140     7.6130    24.5150 
  148.1250     2.2270    -6.6510    71.9250     6.7430     6.2550     7.2580    24.7090 
  148.2500     2.2570    -5.8450    75.7600     6.1850     5.7250     6.7520    24.8610 
  148.3750     2.2950    -5.1260    77.1620     5.7130     5.2580     6.0510    24.9880 
  148.5000     2.3360    -4.5650    78.6610     5.5430     5.0140     5.3010    25.0940 
  148.6250     2.3800    -4.2400    81.3400     5.9700     5.2290     5.1380    25.1690 
  148.7500     2.4230    -4.1560    79.8750     6.9740     5.9290     5.8110    25.2170 
  148.8750     2.4560    -4.3590    71.9830     8.4210     7.0740     7.5700    25.2350 
  149.0000     2.4650    -4.8360    62.4190     9.9880     8.4740    10.4190    25.2150 
  149.1250     2.4330    -5.6330    58.2520    11.1200     9.7280    14.8450    25.1810 
  149.2500     2.3740    -6.6520    58.5500    11.4800    10.4440    18.8180    25.1290 
  149.3750     2.3110    -7.7630    59.1780    11.0460    10.4530    17.6330    25.0130 
  149.5000     2.2670    -8.8490    58.8300    10.1710     9.9350    12.9710    24.8510 
  149.6250     2.2650    -9.8110    58.7270     9.4350     9.3350    11.0010    24.7480 
  149.7500     2.2960   -10.6360    60.3070     9.1190     8.9760    10.5470    24.7030 
  149.8750     2.3440   -11.3190    63.2770     9.1700     8.8890    10.6010    24.6570 
  150.0000     2.3820   -11.8780    64.5220     9.3680     8.9600    10.7930    24.5910 
  150.1250     2.3840   -12.2670    61.5300     9.4330     8.9990    11.0130    24.4820 
  150.2500     2.3520   -12.5240    59.6650     9.2470     8.8710    10.9520    24.3620 
  150.3750     2.3040   -12.7060    61.6320     8.8480     8.5640    10.6520    24.2950 
  150.5000     2.2610   -12.8240    63.8870     8.3670     8.1590    10.4760    24.2900 
  150.6250     2.2340   -12.8750    64.9610     7.9730     7.7900    10.4900    24.2840 
  150.7500     2.2180   -12.8730    66.1670     7.7420     7.5440    10.1790    24.2530 
  150.8750     2.2100   -12.8160    66.1470     7.6820     7.4470     9.6150    24.2280 
  151.0000     2.2030   -12.6870    63.7280     7.7600     7.4850     9.1630    24.2090 
  151.1250     2.1980   -12.4990    61.2040     7.9160     7.6110     9.7380    24.1610 
  151.2500     2.1990   -12.2420    60.9800     8.0450     7.7320    10.2270    24.1050 
  151.3750     2.2080   -11.8560    61.5040     8.0630     7.7700    10.3540    24.0870 
  151.5000     2.2280   -11.3740    60.1650     7.9090     7.6620    10.1020    24.0930 
  151.6250     2.2550   -10.8840    60.9010     7.5430     7.3550     9.6030    24.1020 
  151.7500     2.2800   -10.4160    63.6810     7.0640     6.9250     8.6800    24.1310 
  151.8750     2.2970    -9.9740    66.4310     6.5810     6.4570     7.4340    24.1460 
  152.0000     2.3010    -9.6120    67.1020     6.2090     6.0520     6.4850    24.0720 
  152.1250     2.2890    -9.4210    66.9170     6.0790     5.8300     6.0710    23.8880 
  152.2500     2.2670    -9.4290    67.2030     6.1820     5.8110     6.0760    23.6630 
  152.3750     2.2430    -9.6780    65.9700     6.4770     5.9840     6.3680    23.4030 
  152.5000     2.2200   -10.1580    63.3090     6.8800     6.2960     6.9090    23.1400 
  152.6250     2.2040   -10.8080    60.3160     7.2760     6.6620     7.6360    22.9950 
  152.7500     2.1950   -11.5310    57.5810     7.5690     6.9810     8.5950    22.9460 
  152.8750     2.1880   -12.2750    55.4140     7.7190     7.1980     9.2420    22.9290 
  153.0000     2.1830   -12.9820    53.8090     7.7440     7.3070     9.2820    22.9170 
  153.1250     2.1780   -13.5710    52.0720     7.7230     7.3520     9.1940    22.8990 
  153.2500     2.1770   -14.0180    51.9860     7.7860     7.4370     9.3760    22.8390 
  153.3750     2.1790   -14.3190    55.0410     8.0320     7.6490     9.4690    22.7420 
  153.5000     2.1820   -14.4850    57.9300     8.5040     8.0380     9.4710    22.6870 
  153.6250     2.1850   -14.5460    56.1130     9.1650     8.6000     9.4480    22.8070 
  153.7500     2.1850   -14.5580    51.2810     9.8150     9.1890     9.5000    23.1380 
  153.8750     2.1840   -14.5540    47.8810    10.2650     9.6430     9.6770    23.5390 
  154.0000     2.1830   -14.5290    47.8380    10.3620     9.8130     9.9320    23.7460 
  154.1250     2.1830   -14.4880    50.5150     9.9970     9.5630    10.1020    23.6840 
  154.2500     2.1840   -14.4410    54.8860     9.3600     9.0330    10.2900    23.6040 
  154.3750     2.1840   -14.3990    58.7950     8.6590     8.3980    10.4930    23.6050 
  154.5000     2.1820   -14.3550    60.7700     8.1060     7.8440    10.6410    23.6810 
  154.6250     2.1830   -14.2900    60.3130     7.9180     7.5660    10.7140    23.8220 
  154.7500     2.1960   -14.2320    58.3120     8.0950     7.5970    10.8850    23.9940 
  154.8750     2.2270   -14.1500    55.4880     8.5760     7.9180    11.4050    24.1730 
  155.0000     2.2730   -14.0400    54.1100     9.2140     8.4320    12.5570    24.3380 
  155.1250     2.3140   -13.9580    55.8070     9.7670     8.9630    14.9090    24.5230 
  155.2500     2.3280   -13.8990    57.7490    10.0250     9.3020    19.0270    24.7140 
  155.3750     2.3100   -13.8270    57.9820     9.8770     9.3150    22.2090    24.8250 
  155.5000     2.2710   -13.7560    56.9370     9.3500     8.9770    16.6580    24.8000 
  155.6250     2.2320   -13.7110    58.2890     8.6110     8.3790    11.9030    24.7160 
  155.7500     2.2070   -13.6630    61.6910     7.9370     7.7620    10.2390    24.6680 
  155.8750     2.1920   -13.6300    64.7070     7.4710     7.2650     9.8200    24.6450 
  156.0000     2.1820   -13.6240    65.5780     7.2520     6.9510     9.5720    24.6460 
  156.1250     2.1750   -13.6180    64.0200     7.2520     6.8420     9.5600    24.6690 
  156.2500     2.1700   -13.6320    61.2490     7.3430     6.8540     9.7010    24.6660 
  156.3750     2.1690   -13.6950    58.1740     7.4520     6.9310     9.6600    24.6420 
  156.5000     2.1690   -13.7820    57.8200     7.5280     7.0190     9.7300    24.6420 
  156.6250     2.1670   -13.8400    61.4840     7.5360     7.0670     9.8470    24.6560 
  156.7500     2.1610   -13.8760    65.2160     7.4890     7.0620     9.9660    24.6600 
  156.8750     2.1520   -13.9010    66.4060     7.4160     7.0140     9.8090    24.6680 
  157.0000     2.1420   -13.9230    64.3680     7.3510     6.9490     9.4950    24.6900 
  157.1250     2.1330   -13.9670    60.3260     7.3280     6.9000     9.5480    24.6710 
