~V
VERS. 2.00: Ver 2.00
~W
STRT.M 53.0000:
STOP.M 246.0000:
STEP.M 0.1250:
NULL. -999.2500:
UWI. F10192:
~C
DEPT.M :
DEN.GM/CC :
GR.API :
RML.OHMM :
RI. :
RXO.OHMM :
CALI.CM :
SP.MV :
~A
# ...
  131.7500     2.4110    49.8960    19.8230    20.0650    17.0670    24.3710   -13.3900 
  131.8750     2.4200    53.5510    19.1570    19.3470    16.9200    24.5990   -13.4150 
  132.0000     2.4270    58.3170    18.7490    18.8500    17.2500    24.7440   -13.4600 
  132.1250     2.4230    60.8650    18.5610    18.5730    17.7600    24.7790   -13.5250 
  132.2500     2.4040    60.7230    18.5380    18.4880    17.4750    24.8800   -13.5650 
  132.3750     2.3840    59.2130    18.6000    18.5100    17.1190    24.9900   -13.5740 
  132.5000     2.3780    56.1870    18.7060    18.5940    17.5660    24.9440   -13.5790 
  132.6250     2.3900    51.5520    18.7770    18.6720    18.2200    24.7070   -13.5990 
  132.7500     2.4140    48.6940    18.6410    18.5930    18.6140    24.5300   -13.6110 
  132.8750     2.4400    51.6520    18.2320    18.2680    18.5410    24.6380   -13.6050 
  133.0000     2.4600    58.0730    17.6080    17.7170    17.6430    24.9550   -13.5710 
  133.1250     2.4730    62.9410    16.9610    17.0890    15.9600    25.2810   -13.4950 
  133.2500     2.4770    62.7910    16.5870    16.6410    14.4540    25.3600   -13.3830 
  133.3750     2.4770    59.2470    16.5890    16.5010    13.6500    25.2810   -13.2960 
  133.5000     2.4750    54.7730    16.9300    16.6770    14.3130    25.1210   -13.2420 
  133.6250     2.4680    50.9170    17.4420    17.0660    16.2660    24.9100   -13.2200 
  133.7500     2.4440    49.9270    17.8380    17.4480    18.1740    24.8080   -13.2430 
  133.8750     2.4020    51.0750    17.9070    17.5920    19.0290    24.9280   -13.3150 
  134.0000     2.3600    52.0110    17.6060    17.4050    18.2940    25.1170   -13.4190 
  134.1250     2.3440    52.7370    17.0710    16.9640    16.7620    25.1510   -13.5380 
  134.2500     2.3640    51.9040    16.5810    16.4970    15.6630    24.8390   -13.6990 
  134.3750     2.3970    48.3590    16.3480    16.2280    15.2820    24.3740   -13.8670 
  134.5000     2.4200    44.6520    16.4240    16.2420    15.3700    24.0770   -14.0300 
  134.6250     2.4290    43.2940    16.7390    16.5110    15.6030    23.9990   -14.1970 
  134.7500     2.4340    44.4560    17.1290    16.9140    16.3140    24.0310   -14.3970 
  134.8750     2.4410    47.9560    17.3830    17.2430    16.5110    23.9750   -14.6000 
  135.0000     2.4500    53.6170    17.3580    17.3400    15.9140    23.8260   -14.8030 
  135.1250     2.4530    57.9000    16.9830    17.1040    14.9410    23.6750   -15.0020 
  135.2500     2.4500    56.1560    16.2670    16.5050    14.6720    23.6680   -15.1640 
  135.3750     2.4460    54.4740    15.4090    15.7230    14.4120    23.7460   -15.2950 
  135.5000     2.4460    57.1460    14.5330    14.8760    14.0220    23.7950   -15.4130 
  135.6250     2.4510    60.3930    13.7030    14.0370    13.4480    23.7410   -15.4970 
  135.7500     2.4590    60.7780    12.9520    13.2510    12.6850    23.5740   -15.5350 
  135.8750     2.4620    61.8580    12.3080    12.5570    12.0980    23.3830   -15.5760 
  136.0000     2.4550    62.0070    11.8540    12.0330    11.2140    23.2080   -15.6220 
  136.1250     2.4410    57.8920    11.6870    11.7720    10.2120    23.0150   -15.6740 
  136.2500     2.4260    53.3190    11.8920    11.8690     9.5820    22.8910   -15.7580 
  136.3750     2.4140    54.5810    12.3330    12.2280     9.3350    22.8220   -15.8840 
  136.5000     2.4080    59.4270    12.8710    12.7420     9.6520    22.7230   -16.0480 
  136.6250     2.4070    62.5460    13.3510    13.2660    10.4780    22.5380   -16.2540 
  136.7500     2.4030    64.9770    13.6450    13.6390    10.7070    22.2770   -16.4700 
  136.8750     2.3950    69.1100    13.8250    13.8580    10.2820    22.2260   -16.6630 
  137.0000     2.3860    74.2150    14.0270    14.0190    10.6620    22.3980   -16.8460 
  137.1250     2.3760    78.0950    14.3640    14.2340    11.6720    22.6630   -17.0350 
  137.2500     2.3620    78.8350    14.8640    14.5770    12.0950    22.8960   -17.2470 
  137.3750     2.3430    77.8960    15.3900    14.9790    12.4250    23.1570   -17.4380 
  137.5000     2.3190    76.6850    15.8070    15.3310    13.2820    23.4870   -17.5830 
  137.6250     2.2940    76.2420    16.0420    15.5450    14.4180    23.7950   -17.6820 
  137.7500     2.2830    78.4930    16.1360    15.6170    15.6230    24.0090   -17.7280 
  137.8750     2.2930    82.0800    16.2530    15.6800    16.5480    24.2400   -17.7370 
  138.0000     2.3140    83.6660    16.5020    15.8360    17.1640    24.4940   -17.7230 
  138.1250     2.3290    82.8350    16.9360    16.1490    18.2330    24.6500   -17.6760 
  138.2500     2.3300    82.4080    17.5680    16.6590    18.9960    24.6340   -17.5870 
  138.3750     2.3330    83.1140    18.2800    17.2760    20.2030    24.4800   -17.4800 
  138.5000     2.3490    81.9900    18.9600    17.8980    21.2720    24.2430   -17.3740 
  138.6250     2.3770    79.0840    19.5070    18.4240    21.7760    23.9740   -17.2670 
  138.7500     2.4010    78.8300    19.8440    18.7640    21.5880    23.7770   -17.1810 
  138.8750     2.4110    80.3020    20.0370    18.9590    20.5960    23.7860   -17.1260 
  139.0000     2.4090    79.0050    20.1680    19.0760    19.6120    24.0120   -17.0810 
  139.1250     2.4030    72.4970    20.3400    19.2020    19.6400    24.2270   -17.0230 
  139.2500     2.3990    68.2450    20.7270    19.4740    20.4640    24.2370   -16.9170 
  139.3750     2.4010    70.7830    21.4600    20.0060    21.6720    24.0850   -16.7790 
  139.5000     2.4050    76.1710    22.6440    20.9100    23.2110    23.8810   -16.6170 
  139.6250     2.4020    79.2860    24.2390    22.2140    25.0900    23.7020   -16.4490 
  139.7500     2.3920    78.3480    25.9030    23.7280    26.5340    24.0640   -16.2720 
  139.8750     2.3880    74.5450    26.9870    24.8940    30.6720    24.8270   -16.0890 
  140.0000     2.3930    68.6250    26.9620    25.1640    36.9710    25.6200   -15.9330 
  140.1250     2.3880    63.8850    25.7080    24.3040    38.1490    26.2210   -15.8320 
  140.2500     2.3530    64.6080    23.6740    22.5890    31.0810    26.9300   -15.8110 
  140.3750     2.3060    69.0970    21.7970    20.8470    22.8690    27.4080   -15.8290 
  140.5000     2.2730    73.4900    20.5510    19.5250    20.3180    27.2780   -15.8750 
  140.6250     2.2630    74.3070    20.0350    18.7800    21.2250    26.9200   -15.9550 
  140.7500     2.2690    72.7690    20.0880    18.5810    21.4770    26.5440   -16.0550 
  140.8750     2.2720    72.1360    20.2440    18.5840    19.7880    26.2080   -16.1590 
  141.0000     2.2710    72.6930    20.2390    18.5640    18.5380    25.9040   -16.2400 
  141.1250     2.2850    73.2990    20.0330    18.4370    19.0280    25.5840   -16.2840 
  141.2500     2.3260    75.3480    19.8630    18.3370    19.2390    24.9660   -16.2730 
  141.3750     2.3740    76.3660    20.0110    18.4720    19.3850    24.1980   -16.2510 
  141.5000     2.4120    74.7520    20.5760    18.9470    19.3590    23.6140   -16.2050 
  141.6250     2.4400    71.8380    21.4530    19.7160    21.0070    23.4960   -16.1380 
  141.7500     2.4600    70.7110    22.2830    20.5240    23.0050    23.9610   -16.0610 
  141.8750     2.4630    70.3080    22.6150    20.9650    24.5020    24.6880   -15.9940 
  142.0000     2.4360    67.9260    22.0910    20.6690    24.5780    25.3110   -15.9500 
  142.1250     2.3840    64.1790    20.5290    19.3860    23.5250    25.7000   -15.9420 
  142.2500     2.3210    64.0400    17.9430    17.0590    21.2830    25.8860   -15.9930 
  142.3750     2.2640    68.3120    14.9750    14.3090    17.4440    25.9590   -16.0800 
  142.5000     2.2270    71.7730    12.1270    11.6280    14.2700    25.8240   -16.2220 
  142.6250     2.2150    71.6050     9.7630     9.3560    11.0950    25.3090   -16.3940 
  142.7500     2.2200    73.1260     8.1770     7.7420     7.7170    24.4920   -16.5970 
  142.8750     2.2270    78.6780     7.2390     6.6800     6.6520    23.9920   -16.8240 
