~V
VERS. 2.00: Ver 2.00
~W
STRT.M 52.0000:
STOP.M 326.0000:
STEP.M 0.1250:
NULL. -999.2500:
UWI. F10108:
~C
DEPT.M :
DEN.GM/CC :
SP.MV :
GR.API :
RML.OHMM :
RI. :
RXO.OHMM :
CALI.CM :
~A
# ...
  142.0000     2.2040   -15.1460    60.7050     7.9760     7.1320     8.1290    24.7310 
  142.1250     2.2130   -15.3900    59.2370     8.2480     7.3150     8.3330    24.9450 
  142.2500     2.2340   -15.6590    59.8170     8.6340     7.5980     8.7120    25.1070 
  142.3750     2.2630   -15.9110    60.6700     9.0280     7.9160     9.2530    25.2200 
  142.5000     2.2900   -16.1140    59.1470     9.3080     8.1790     9.7710    25.2840 
  142.6250     2.2970   -16.2710    54.2420     9.3310     8.2660     9.9590    25.2660 
  142.7500     2.2810   -16.3870    51.3130     9.1100     8.1580     9.8310    25.1560 
  142.8750     2.2530   -16.4460    51.7980     8.7200     7.8900     9.2420    24.9790 
  143.0000     2.2250   -16.4730    51.1470     8.2890     7.5510     8.5890    24.7890 
  143.1250     2.2080   -16.4530    47.9320     7.9620     7.2520     8.2240    24.6540 
  143.2500     2.2000   -16.4080    46.2630     7.7790     7.0500     8.1010    24.5800 
  143.3750     2.1950   -16.3620    47.1630     7.7240     6.9510     8.2280    24.5320 
  143.5000     2.1900   -16.3290    49.6230     7.7480     6.9300     8.5260    24.4820 
  143.6250     2.1850   -16.2990    52.3180     7.7970     6.9500     8.7320    24.4370 
  143.7500     2.1790   -16.2580    54.9200     7.8350     6.9770     8.8190    24.4270 
  143.8750     2.1720   -16.2190    56.2180     7.8530     7.0030     8.8010    24.4450 
  144.0000     2.1640   -16.1580    55.8030     7.8530     7.0270     8.7180    24.4580 
  144.1250     2.1580   -16.0890    54.8010     7.8450     7.0510     8.5010    24.4430 
  144.2500     2.1570   -16.0170    55.8700     7.8450     7.0760     8.3830    24.4220 
  144.3750     2.1610   -15.9280    58.9210     7.8640     7.1000     8.3970    24.4190 
  144.5000     2.1740   -15.8140    61.1460     7.8950     7.1240     8.4850    24.4410 
  144.6250     2.1970   -15.6580    61.4690     7.9180     7.1430     8.5460    24.4560 
  144.7500     2.2240   -15.4770    62.6620     7.9100     7.1520     8.5540    24.4460 
  144.8750     2.2480   -15.2850    64.8040     7.8560     7.1440     8.5630    24.4210 
  145.0000     2.2560   -15.1090    65.6420     7.7590     7.1160     8.4930    24.4110 
  145.1250     2.2410   -14.9460    62.7150     7.6390     7.0650     8.3160    24.4270 
  145.2500     2.2130   -14.7760    58.4620     7.5340     7.0060     8.1700    24.4310 
  145.3750     2.1860   -14.6000    56.8440     7.4630     6.9500     8.0860    24.4060 
  145.5000     2.1700   -14.4410    59.8740     7.4300     6.9070     7.9860    24.3730 
  145.6250     2.1700   -14.3060    65.5700     7.4190     6.8810     7.8160    24.3810 
  145.7500     2.1800   -14.1920    69.9950     7.4070     6.8610     7.6530    24.4200 
  145.8750     2.1940   -14.0920    70.9160     7.3870     6.8360     7.5290    24.4660 
  146.0000     2.2080   -14.0090    68.2680     7.3630     6.7970     7.4910    24.4870 
  146.1250     2.2160   -13.9450    66.2280     7.3580     6.7430     7.4970    24.4810 
  146.2500     2.2190   -13.9080    67.3940     7.3950     6.6880     7.4610    24.4750 
  146.3750     2.2160   -13.9000    69.8490     7.4380     6.6500     7.4810    24.4910 
  146.5000     2.2060   -13.9140    71.5990     7.4950     6.6440     7.5240    24.5200 
  146.6250     2.1930   -13.9750    71.4670     7.5780     6.6850     7.5720    24.5300 
  146.7500     2.1800   -14.0620    70.3330     7.6430     6.7610     7.6580    24.5160 
  146.8750     2.1720   -14.1570    69.5640     7.7000     6.8630     7.7480    24.5060 
  147.0000     2.1700   -14.2320    67.9630     7.7810     6.9740     7.8250    24.5170 
  147.1250     2.1760   -14.2770    64.6430     7.8450     7.0830     7.8330    24.5180 
  147.2500     2.1860   -14.2940    62.1140     7.9170     7.1820     7.8050    24.4720 
  147.3750     2.1960   -14.2980    62.8220     7.9650     7.2720     7.7950    24.3850 
  147.5000     2.2040   -14.2740    65.0440     8.0470     7.3490     7.8950    24.2920 
  147.6250     2.2070   -14.1880    67.1510     8.1620     7.4050     8.0930    24.2170 
  147.7500     2.2070   -14.0490    69.9620     8.2810     7.4360     8.2030    24.1410 
  147.8750     2.2040   -13.8560    70.2370     8.3720     7.4350     8.0840    24.0290 
  148.0000     2.2000   -13.6350    67.1090     8.4160     7.4050     7.8740    23.8710 
  148.1250     2.1980   -13.4280    66.3710     8.4220     7.3600     7.6160    23.6930 
  148.2500     2.2020   -13.2340    68.8750     8.4640     7.3510     7.3780    23.5310 
  148.3750     2.2140   -13.0280    69.4890     8.6500     7.4530     7.2730    23.3860 
  148.5000     2.2380   -12.8010    67.1490     9.1100     7.7700     7.2880    23.2320 
  148.6250     2.2750   -12.5420    67.1030    10.0360     8.4720     7.6520    23.0680 
  148.7500     2.3210   -12.2750    69.4080    11.3890     9.5620     8.5180    22.9160 
  148.8750     2.3670   -12.0330    70.1620    13.0530    10.9840    10.0120    22.8150 
  149.0000     2.4050   -11.8380    68.6980    14.7960    12.5760    12.1130    22.7790 
  149.1250     2.4260   -11.6770    68.0430    16.2370    14.0320    14.4700    22.7760 
  149.2500     2.4330   -11.5240    68.0030    17.1580    15.0970    15.9460    22.7750 
  149.3750     2.4320   -11.3900    67.3790    17.5270    15.6750    14.5230    22.7930 
  149.5000     2.4310   -11.2750    65.7670    17.5230    15.8640    12.4870    22.8580 
  149.6250     2.4340   -11.1870    63.4600    17.4810    15.9250    12.7790    22.9910 
  149.7500     2.4420   -11.1310    62.2520    17.6940    16.1460    14.1310    23.1340 
  149.8750     2.4520   -11.0950    63.1850    18.2560    16.6500    16.0160    23.2530 
  150.0000     2.4650   -11.0630    64.7280    19.1120    17.4290    17.9460    23.3500 
  150.1250     2.4780   -11.0470    64.0310    20.0550    18.3530    18.2640    23.4410 
  150.2500     2.4900   -11.0570    63.5210    20.7870    19.1590    18.8640    23.5230 
  150.3750     2.4950   -11.0770    64.0440    21.0930    19.6410    20.7230    23.5710 
  150.5000     2.4900   -11.1220    65.2350    20.8660    19.6650    23.0590    23.5830 
  150.6250     2.4740   -11.1930    66.2120    20.1170    19.1750    22.0270    23.6100 
  150.7500     2.4540   -11.2620    67.6100    19.1870    18.4390    18.2700    23.7210 
  150.8750     2.4370   -11.3310    68.6690    18.3440    17.6870    15.8070    23.9430 
  151.0000     2.4260   -11.3940    68.5660    17.7750    17.0990    15.0020    24.2430 
  151.1250     2.4220   -11.4260    66.2500    17.5590    16.7850    15.3130    24.5560 
  151.2500     2.4210   -11.4290    63.6670    17.5250    16.6560    16.1660    24.8390 
  151.3750     2.4170   -11.4090    62.9990    17.5330    16.6270    17.1640    25.0740 
  151.5000     2.4110   -11.3560    63.3030    17.5020    16.6340    17.9660    25.2220 
  151.6250     2.4050   -11.2720    61.4360    17.4430    16.6660    19.2460    25.2170 
  151.7500     2.4020   -11.1690    59.5480    17.4290    16.7470    19.7440    25.0790 
  151.8750     2.4020   -11.0540    60.4410    17.5100    16.9080    19.7810    24.8540 
  152.0000     2.4040   -10.9330    63.4660    17.6960    17.1560    19.7260    24.6060 
  152.1250     2.4060   -10.8250    65.7570    17.9600    17.4770    19.5340    24.4010 
  152.2500     2.4080   -10.7310    66.9040    18.2370    17.8090    19.6960    24.2680 
  152.3750     2.4150   -10.6490    65.8170    18.4930    18.1150    20.5490    24.2190 
  152.5000     2.4270   -10.5860    62.9900    18.7230    18.3820    21.2300    24.2450 
  152.6250     2.4420   -10.5350    62.4790    18.9610    18.6390    20.8570    24.3300 
  152.7500     2.4520   -10.5030    63.5420    19.2650    18.9440    20.3850    24.4580 
  152.8750     2.4550   -10.4800    64.0870    19.6470    19.3060    20.3990    24.6330 
  153.0000     2.4520   -10.4590    63.6130    20.0400    19.6670    20.3470    24.8290 
  153.1250     2.4500   -10.4010    62.7500    20.2660    19.8670    21.4170    25.0150 
