~V
VERS. 2.00: Ver 2.00
~W
STRT.M 50.0000:
STOP.M 236.0000:
STEP.M 0.1250:
NULL. -999.2500:
UWI. F10180:
~C
DEPT.M :
SP.MV :
GR.API :
RML.OHMM :
RI. :
RXO.OHMM :
CALI.CM :
DEN.GM/CC :
~A
# ...
  218.7500    -1.9760    72.3620    11.9850    10.8960    10.5260    24.4620     2.4860 
  218.8750    -1.8890    69.8830    11.6270    10.6320    10.8790    24.6710     2.4850 
  219.0000    -1.7610    67.9490    11.3650    10.4320    10.8730    24.9100     2.4770 
  219.1250    -1.6740    66.1130    11.1630    10.2630    10.6480    25.0360     2.4640 
  219.2500    -1.6540    65.6820    10.9910    10.1090    10.6330    25.0920     2.4450 
  219.3750    -1.6710    68.3500    10.8340     9.9750    10.6100    25.1010     2.4250 
  219.5000    -1.6400    70.2470    10.7000     9.8830    10.2530    24.9440     2.4050 
  219.6250    -1.6050    66.8030    10.6150     9.8570    10.1970    24.4210     2.3880 
  219.7500    -1.6140    60.9880    10.6000     9.9010    10.4340    23.6010     2.3780 
  219.8750    -1.6570    61.9200    10.6660     9.9890    10.6870    23.3740     2.3780 
  220.0000    -1.6970    66.8530    10.7550    10.0540    10.7220    24.0560     2.3890 
  220.1250    -1.6820    69.5340    10.8140    10.0530    10.9060    24.7430     2.4080 
  220.2500    -1.6070    69.1010    10.8000     9.9780    11.0940    25.0070     2.4290 
  220.3750    -1.5830    69.1050    10.7020     9.8590    11.1220    25.0230     2.4430 
  220.5000    -1.6030    70.9310    10.5780     9.7490    11.4750    25.0470     2.4480 
  220.6250    -1.6190    72.2940    10.4680     9.6600    11.7870    25.0330     2.4510 
  220.7500    -1.5870    72.4810    10.3780     9.5720    12.1770    25.0180     2.4580 
  220.8750    -1.5450    73.4740    10.2790     9.4480    12.3620    24.9950     2.4750 
  221.0000    -1.5400    74.8700    10.1440     9.3010    12.1100    24.9550     2.4940 
  221.1250    -1.5350    74.1220     9.9900     9.1760    11.7280    24.9080     2.5080 
  221.2500    -1.5130    70.5430     9.8680     9.1310    11.3970    24.8890     2.5150 
  221.3750    -1.3970    67.8880     9.8590     9.2210    11.4500    24.8710     2.5170 
  221.5000    -1.2680    67.3540     9.9720     9.4100    11.8130    24.8500     2.5210 
  221.6250    -1.1640    66.3570    10.1820     9.6360    12.7410    24.8590     2.5310 
  221.7500    -1.0900    65.6390    10.4180     9.8090    13.7410    24.8870     2.5430 
  221.8750    -1.0230    67.2330    10.5570     9.8080    13.4210    24.9160     2.5440 
  222.0000    -0.9390    69.3910    10.5240     9.6260    12.4670    24.9390     2.5340 
  222.1250    -0.9250    70.4520    10.3040     9.3040    11.2210    24.9440     2.5180 
  222.2500    -0.9620    69.4490     9.9500     8.9270    10.4230    24.9380     2.5070 
  222.3750    -1.0280    67.6970     9.5600     8.6050     9.1280    24.9170     2.5100 
  222.5000    -1.0730    65.6230     9.2430     8.4020    10.2210    24.9040     2.5210 
  222.6250    -1.0980    63.6930     9.0550     8.3280    12.8660    24.8880     2.5280 
  222.7500    -1.1230    63.3040     9.0000     8.3450    13.6620    24.9020     2.5250 
  222.8750    -1.1800    63.9450     9.0310     8.3660    11.9690    24.9280     2.5160 
  223.0000    -1.2510    64.0180     9.0400     8.3020    11.1030    24.9740     2.5100 
  223.1250    -1.2660    63.1660     8.9540     8.1210     9.9980    25.0020     2.5110 
  223.2500    -1.2440    62.3240     8.7440     7.8420     7.8800    25.0420     2.5050 
  223.3750    -1.2320    62.1540     8.4340     7.5370     6.2760    25.1000     2.4720 
  223.5000    -1.2540    62.3500     8.1230     7.2920     5.4860    25.1420     2.4100 
  223.6250    -1.3010    63.4660     7.8850     7.1600     5.3630    25.1040     2.3370 
  223.7500    -1.3320    64.0250     7.7690     7.1580     5.6630    25.2710     2.2820 
  223.8750    -1.2580    61.4600     7.8100     7.2900     6.2080    25.4600     2.2790 
  224.0000    -1.1300    59.0500     7.9630     7.4960     6.6670    25.4880     2.3220 
  224.1250    -1.0580    59.8830     8.1870     7.7340     6.9190    25.3060     2.3870 
  224.2500    -1.0500    62.2610     8.4370     7.9610     7.1440    25.1430     2.4440 
  224.3750    -1.0430    61.7280     8.6600     8.1280     7.2860    25.0980     2.4590 
  224.5000    -0.9790    60.0140     8.8230     8.2300     7.1620    25.1140     2.4370 
  224.6250    -0.8700    59.9680     8.9190     8.2860     6.9270    25.1560     2.4000 
  224.7500    -0.8150    62.3260     8.9720     8.3380     6.7300    25.2340     2.3770 
  224.8750    -0.8360    64.7950     9.0340     8.4330     6.8120    25.3450     2.3970 
  225.0000    -0.8650    66.3450     9.1420     8.5700     7.1530    25.4840     2.4500 
  225.1250    -0.8230    66.4590     9.2900     8.7170     7.6440    25.4820     2.5140 
  225.2500    -0.7210    63.8890     9.4420     8.8340     8.1220    25.3270     2.5590 
  225.3750    -0.6580    60.2740     9.5460     8.8820     8.6150    25.2760     2.5600 
  225.5000    -0.6330    60.2440     9.5850     8.8760     8.7710    25.4430     2.5280 
  225.6250    -0.6380    61.1030     9.5720     8.8470     8.4750    25.7820     2.4870 
  225.7500    -0.6000    61.1030     9.5410     8.8370     8.0370    26.1760     2.4570 
  225.8750    -0.4920    61.1030     9.5470     8.9010     7.8710    26.2060     2.4510 
  226.0000    -0.4080    61.1030     9.6280     9.0460     7.8710    26.1460     2.4580 
  226.1250    -0.3650    61.1030     9.7930     9.2560     7.8600    25.9800     2.4680 
  226.2500    -0.3240    61.1030    10.0210     9.4890     7.6850    25.6440     2.4800 
  226.3750    -0.2860    61.1030    10.2600     9.6830     7.3970    25.2690     2.4950 
  226.5000    -0.2370    61.1030    10.4490     9.7940     7.0480    25.0950     2.5100 
  226.6250    -0.1180    61.1030    10.5480     9.8000     6.8330    25.0870     2.5160 
  226.7500     0.0180    61.1030    10.5340     9.6930     6.6080    25.0900     2.5040 
  226.8750     0.1020    61.1030    10.3880     9.4830     6.4280    25.0660     2.4760 
  227.0000     0.1620    61.1030    10.1600     9.2410     6.3170    25.0940     2.4580 
  227.1250     0.2530    61.1030     9.9080     9.0280     6.4380    25.1460     2.4630 
  227.2500     0.3270    61.1030     9.6960     8.9020     6.9020    25.0640     2.4890 
  227.3750     0.4070    61.1030     9.6030     8.9100     7.6670    24.9230     2.5060 
  227.5000     0.4780    61.1030     9.6300     9.0140     8.1770    24.8750     2.4900 
  227.6250     0.4930    61.1030     9.7500     9.1590     8.3540    24.8950     2.4450 
  227.7500     0.5210    61.1030     9.9050     9.2890     8.3160    24.9440     2.3940 
  227.8750     0.5420    61.1030    10.0260     9.3610     7.9050    24.9980     2.3740 
  228.0000     0.6220    61.1030    10.0920     9.3940     7.5650    25.0470     2.3920 
  228.1250     0.6980    61.1030    10.1230     9.4190     7.5980    25.0380     2.4340 
  228.2500     0.7300    61.1030    10.1500     9.4600     7.7740    25.0060     2.4780 
  228.3750     0.7970    61.1030    10.2000     9.5240     7.7740    24.9670     2.5000 
  228.5000     0.9110    61.1030    10.2690     9.5930     8.0890    24.9390     2.4990 
  228.6250     1.0300    61.1030    10.3400     9.6490     8.5560    24.9150     2.4850 
  228.7500     1.0990    61.1030    10.3940     9.6790     8.6110    24.9060     2.4710 
  228.8750     1.1170    61.1030    10.4170     9.6900     8.3970    24.9180     2.4690 
  229.0000     1.0920    61.1030    10.4300     9.7170     8.5200    24.9220     2.4810 
  229.1250     1.0320    61.1030    10.4640     9.7880     9.5750    24.9240     2.4990 
  229.2500     1.0050    61.1030    10.5480     9.9090    11.2240    24.9090     2.5130 
  229.3750     0.9510    61.1030    10.6850    10.0460    10.4490    24.9060     2.5160 
  229.5000     0.8470    61.1030    10.8230    10.1480     9.6660    24.8940     2.5120 
  229.6250     0.7230    61.1030    10.9200    10.1970     9.9690    24.8660     2.5080 
  229.7500     0.5750    61.1030    10.9630    10.2160    11.6850    24.8480     2.5060 
  229.8750     0.4800    61.1030    10.9800    10.2440    13.3250    24.8580     2.5060 
