~V
VERS. 2.00: Ver 2.00
~W
STRT.M 63.0000:
STOP.M 308.0000:
STEP.M 0.1250:
NULL. -999.2500:
UWI. F10102:
~C
DEPT.M :
DEN.GM/CC :
SP.MV :
GR.API :
RML.OHMM :
RI. :
RXO.OHMM :
CALI.CM :
~A
# ...
   74.2500     2.2240   -29.0300    70.8120     8.3010     6.1790     9.5920    23.8170 
   74.3750     2.1960   -30.0210    69.6690     8.5090     6.3330    10.0630    24.1180 
   74.5000     2.1600   -31.1200    69.3890     8.6960     6.4920    10.6980    24.4050 
   74.6250     2.1250   -32.2330    70.0180     8.8120     6.6150    11.1970    24.7510 
   74.7500     2.0970   -33.2400    70.5290     8.8280     6.6730    11.3090    25.2580 
   74.8750     2.0850   -34.0430    69.6360     8.7280     6.6430    11.0930    25.6010 
   75.0000     2.0850   -34.6520    68.0370     8.5620     6.5530    10.8390    25.4430 
   75.1250     2.0930   -35.0070    66.9270     8.3700     6.4300    10.4340    24.9690 
   75.2500     2.1020   -35.2010    67.4660     8.1910     6.3010     9.7110    24.4660 
   75.3750     2.1100   -35.3440    70.1260     8.0620     6.1960     8.9750    24.0800 
   75.5000     2.1160   -35.3890    71.9450     7.9880     6.1280     8.6360    23.8480 
   75.6250     2.1200   -35.4380    71.1210     7.9600     6.0990     8.4280    23.7090 
   75.7500     2.1230   -35.5890    68.0090     7.9600     6.0980     8.7840    23.5610 
   75.8750     2.1240   -35.8330    66.2870     7.9620     6.1060     9.4130    23.5230 
   76.0000     2.1250   -36.0890    67.5340     7.9470     6.1050     9.8750    23.7480 
   76.1250     2.1280   -36.3770    70.6330     7.9060     6.0870     9.9900    24.1600 
   76.2500     2.1320   -36.7360    73.3830     7.8420     6.0540     9.9340    24.4120 
   76.3750     2.1370   -36.9560    74.0900     7.7680     6.0150     9.8580    24.5010 
   76.5000     2.1420   -37.0750    72.0690     7.7050     5.9840     9.7190    24.5310 
   76.6250     2.1440   -37.1940    69.5800     7.6690     5.9710     9.5740    24.5500 
   76.7500     2.1420   -37.2470    69.0900     7.6710     5.9800     9.5150    24.5630 
   76.8750     2.1370   -37.2810    70.6120     7.7210     6.0180     9.5880    24.5960 
   77.0000     2.1330   -37.3550    71.2300     7.7990     6.0750     9.9400    24.6400 
   77.1250     2.1340   -37.3320    71.0470     7.8880     6.1430    10.2750    24.6830 
   77.2500     2.1400   -37.1490    70.3500     7.9590     6.2090    10.2940    24.6850 
   77.3750     2.1460   -36.9470    68.5760     7.9650     6.2390    10.3920    24.6830 
   77.5000     2.1520   -36.5720    67.6580     7.8910     6.2130    10.6910    24.6920 
   77.6250     2.1590   -35.8790    69.7800     7.7450     6.1230    10.8980    24.6580 
   77.7500     2.1750   -34.8560    72.9970     7.5740     5.9870    10.6900    24.5720 
   77.8750     2.1990   -33.3820    73.8220     7.4940     5.8740     9.5580    24.4730 
   78.0000     2.2200   -31.5300    73.3800     7.6020     5.8720     8.5890    24.3760 
   78.1250     2.2270   -29.2980    74.1060     7.9500     6.0380     8.8370    24.3330 
   78.2500     2.2210   -26.7430    75.2930     8.5080     6.3860     9.5010    24.2990 
   78.3750     2.2120   -24.1280    76.8390     9.1320     6.8650    10.3320    24.2590 
   78.5000     2.2140   -21.8520    78.1250     9.5830     7.3040    10.7980    24.2910 
   78.6250     2.2220   -20.1070    79.4180     9.6930     7.5440    10.2130    24.3310 
   78.7500     2.2250   -18.8400    81.0380     9.4110     7.4930     9.3500    24.2660 
   78.8750     2.2170   -17.8790    81.9220     8.8140     7.1500     8.5650    24.1020 
   79.0000     2.2100   -17.1110    80.8830     8.1610     6.7000     8.4380    23.9820 
   79.1250     2.2160   -16.7370    79.1220     7.6220     6.2760     8.0190    23.8990 
   79.2500     2.2380   -16.8490    80.1000     7.2970     5.9690     6.8820    23.7880 
   79.3750     2.2580   -17.4080    83.0480     7.2590     5.8510     6.1080    23.7220 
   79.5000     2.2590   -18.2480    82.0560     7.4500     5.9020     6.1600    23.7070 
   79.6250     2.2390   -19.0980    77.3970     7.8230     6.1060     7.1300    23.7910 
   79.7500     2.2100   -19.9250    73.7680     8.2990     6.4280     8.1560    24.0800 
   79.8750     2.1890   -21.1230    73.8650     8.7560     6.8020     8.4820    24.5760 
   80.0000     2.1780   -22.6340    72.9590     9.0870     7.1290     8.5650    24.9250 
   80.1250     2.1740   -24.2480    70.0960     9.2500     7.3440     8.7110    25.0010 
   80.2500     2.1710   -25.8860    67.7590     9.2630     7.4260     9.0190    24.9390 
   80.3750     2.1660   -27.3010    67.4950     9.1840     7.3900     8.9330    24.8660 
   80.5000     2.1630   -28.3090    67.3710     9.0880     7.3040     8.8190    24.8110 
   80.6250     2.1640   -29.0390    66.2680     8.9940     7.2010     8.9080    24.7830 
   80.7500     2.1680   -29.5110    64.0740     8.8930     7.0960     9.1830    24.7960 
   80.8750     2.1690   -29.5460    61.1010     8.7690     6.9870     9.3300    24.8200 
   81.0000     2.1590   -29.3140    58.9350     8.6600     6.8710     9.2070    24.7320 
   81.1250     2.1350   -28.8170    60.2580     8.6560     6.7890     8.7560    24.4290 
   81.2500     2.1050   -27.9820    65.2570     8.8710     6.8320     8.2490    24.0080 
   81.3750     2.1040   -26.7570    69.2660     9.4240     7.1390     8.2420    23.6630 
   81.5000     2.1520   -25.1500    69.0180    10.1890     7.6800     8.8160    23.4560 
   81.6250     2.2420   -23.1910    68.2550    10.9350     8.3390    10.5840    23.3580 
   81.7500     2.3390   -21.0410    71.2350    11.3430     8.8690    13.8480    23.3430 
   81.8750     2.3890   -18.8680    76.7020    11.0280     8.8610    15.5070    23.3110 
   82.0000     2.3830   -16.7380    82.0480    10.1040     8.2840    11.2190    23.2080 
   82.1250     2.3410   -14.6680    87.8210     8.8640     7.3520     7.8330    23.0650 
   82.2500     2.2980   -12.6940    93.4570     7.6990     6.3870     6.5830    22.8820 
   82.3750     2.2820   -11.0330    98.5030     7.0220     5.7010     5.8940    22.7510 
   82.5000     2.2850    -9.9320   103.6570     6.9010     5.3910     5.3970    22.7290 
   82.6250     2.2940    -9.4750   106.9220     7.2960     5.4720     5.1840    22.7890 
   82.7500     2.2970    -9.6550   102.8680     8.0560     5.8950     5.3540    22.9640 
   82.8750     2.2870   -10.3100    93.2180     8.9100     6.5430     6.2480    23.4050 
   83.0000     2.2690   -11.0020    88.0100     9.5130     7.1390     7.6570    24.0070 
   83.1250     2.2520   -11.6570    89.0650     9.6550     7.4530     8.8790    24.4700 
   83.2500     2.2420   -12.3670    91.1170     9.3250     7.3740     9.1380    24.6200 
   83.3750     2.2400   -13.1070    89.8050     8.7550     6.9970     8.1880    24.6170 
   83.5000     2.2370   -13.7790    87.8630     8.3690     6.6550     6.9020    24.6510 
   83.6250     2.2370   -14.2110    86.6260     8.4120     6.5720     6.7850    24.6950 
   83.7500     2.2590   -14.1120    84.9940     8.9280     6.8440     8.3750    24.6830 
   83.8750     2.3280   -13.5360    82.8110     9.7620     7.4530     9.4530    24.6350 
   84.0000     2.4240   -13.0760    81.7610    10.5140     8.1310    11.4820    24.6500 
   84.1250     2.5070   -12.9640    82.4920    10.8950     8.6060    14.9220    24.5960 
   84.2500     2.5350   -13.2000    84.9140    10.7860     8.6710    12.9510    24.4410 
   84.3750     2.4840   -13.7100    88.8850    10.2800     8.3170     9.3550    24.2830 
   84.5000     2.3920   -14.2440    90.4360     9.7310     7.8580     8.1400    24.1530 
   84.6250     2.2980   -14.7700    86.8100     9.3350     7.4740     8.6640    24.0160 
   84.7500     2.2280   -15.3390    79.5550     9.1320     7.2250     9.3390    23.8490 
   84.8750     2.1970   -15.8630    76.4920     9.0560     7.1040     9.3450    23.5990 
   85.0000     2.1940   -16.2110    78.9470     8.9900     7.0300     9.0250    23.2760 
   85.1250     2.2080   -16.3330    82.6350     8.9150     6.9620     8.3470    23.0240 
   85.2500     2.2270   -16.3620    84.3110     8.8830     6.9210     7.4400    23.0690 
   85.3750     2.2380   -16.4700    83.9290     8.9850     6.9800     6.9470    23.5130 
