~V
VERS. 2.00: Ver 2.00
~W
STRT.M 49.0000:
STOP.M 245.0000:
STEP.M 0.1250:
NULL. -999.2500:
UWI. F10179:
~C
DEPT.M :
DEN.GM/CC :
GR.API :
RML.OHMM :
RI. :
RXO.OHMM :
CALI.CM :
SP.MV :
~A
# ...
  217.7500     2.3800    92.8840    14.7630    12.5120    13.6980    23.6050   -26.1030 
  217.8750     2.3720    90.2170    13.4320    11.4330    14.0150    23.6020   -25.7550 
  218.0000     2.3520    82.7780    11.8730    10.2200    13.9170    23.5950   -25.3750 
  218.1250     2.3390    74.7120    10.3980     9.0420    13.2780    23.5940   -24.9410 
  218.2500     2.3440    70.4470     9.2420     8.0360    10.9440    23.5900   -24.4640 
  218.3750     2.3620    69.4260     8.4520     7.3490     8.2690    23.6160   -23.9720 
  218.5000     2.3780    69.4120     7.9950     6.9520     7.3580    23.6760   -23.4610 
  218.6250     2.3860    70.9270     7.8270     6.8060     7.1140    23.6860   -22.9230 
  218.7500     2.3910    73.0070     7.8880     6.8600     7.0800    23.6740   -22.3730 
  218.8750     2.4000    72.8390     8.1130     7.0550     7.0790    23.6340   -21.7880 
  219.0000     2.4120    68.4710     8.3790     7.2860     7.1290    23.5920   -21.1470 
  219.1250     2.4230    62.6840     8.6190     7.4950     7.2250    23.5160   -20.4940 
  219.2500     2.4290    59.1670     8.8010     7.6530     7.3160    23.3570   -19.8610 
  219.3750     2.4290    60.2910     8.9070     7.7450     7.3550    23.2310   -19.2620 
  219.5000     2.4300    62.5930     8.9460     7.7790     7.5110    23.3250   -18.7020 
  219.6250     2.4330    63.4210     8.9240     7.7600     7.6640    23.5060   -18.1930 
  219.7500     2.4360    63.4480     8.8570     7.7020     7.6900    23.6070   -17.7390 
  219.8750     2.4360    64.4550     8.7670     7.6240     7.5260    23.6940   -17.3780 
  220.0000     2.4330    66.2610     8.6890     7.5550     7.3420    23.7380   -17.0970 
  220.1250     2.4280    67.8920     8.6430     7.5160     7.1670    23.7140   -16.8560 
  220.2500     2.4210    69.6280     8.6420     7.5150     7.1230    23.6860   -16.6250 
  220.3750     2.4170    70.2050     8.6920     7.5580     7.3280    23.6540   -16.4150 
  220.5000     2.4180    69.6270     8.7720     7.6280     7.5700    23.5920   -16.2420 
  220.6250     2.4260    69.5100     8.8640     7.7080     7.6560    23.5820   -16.1000 
  220.7500     2.4360    69.6470     8.9460     7.7790     7.5660    23.6460   -16.0050 
  220.8750     2.4380    70.2330     9.0030     7.8280     7.4290    23.6800   -15.9750 
  221.0000     2.4290    72.4590     9.0460     7.8660     7.3540    23.6700   -16.0180 
  221.1250     2.4150    74.5600     9.1010     7.9140     7.3490    23.6670   -16.1400 
  221.2500     2.4060    74.6550     9.1950     7.9950     7.4240    23.6670   -16.3430 
  221.3750     2.4120    71.6930     9.3530     8.1330     7.6250    23.6430   -16.6460 
  221.5000     2.4260    69.4160     9.5510     8.3050     7.9010    23.6150   -16.9940 
  221.6250     2.4400    71.7040     9.7540     8.4820     8.1200    23.5900   -17.3980 
  221.7500     2.4500    78.6000     9.9270     8.6320     8.0900    23.6000   -17.8470 
  221.8750     2.4550    83.4820    10.0320     8.7230     7.8500    23.6030   -18.3180 
  222.0000     2.4590    81.7930    10.0720     8.7590     7.7780    23.6110   -18.7820 
  222.1250     2.4600    78.1270    10.0610     8.7480     7.8980    23.5940   -19.2510 
  222.2500     2.4560    77.6660    10.0160     8.7100     8.1610    23.5510   -19.7420 
  222.3750     2.4500    79.2830     9.9570     8.6580     7.9610    23.5250   -20.2340 
  222.5000     2.4480    77.9610     9.9020     8.6100     7.5710    23.5190   -20.7040 
  222.6250     2.4490    71.9480     9.8610     8.5740     7.3470    23.4840   -21.1290 
  222.7500     2.4510    65.0100     9.8350     8.5520     7.4390    23.4170   -21.5200 
  222.8750     2.4540    63.0510     9.8240     8.5420     7.5500    23.4190   -21.8890 
  223.0000     2.4590    66.0470     9.8180     8.5370     7.5830    23.4500   -22.2360 
  223.1250     2.4610    70.4070     9.8050     8.5260     7.6990    23.4880   -22.5460 
  223.2500     2.4550    74.4890     9.7660     8.4920     7.8480    23.5680   -22.8170 
  223.3750     2.4390    79.0650     9.6790     8.4170     7.9580    23.6390   -23.0450 
  223.5000     2.4200    81.4630     9.5490     8.3030     8.2250    23.6960   -23.2480 
  223.6250     2.4020    80.7620     9.3910     8.1660     8.6660    23.7400   -23.4470 
  223.7500     2.3850    78.0370     9.2270     8.0230     9.0640    23.7400   -23.6310 
  223.8750     2.3760    74.0670     9.0740     7.8910     9.5270    23.6760   -23.7840 
  224.0000     2.3770    68.5460     8.9270     7.7630     9.2230    23.6280   -23.9190 
  224.1250     2.3890    62.5620     8.7730     7.6290     8.6930    23.6330   -24.0540 
  224.2500     2.4030    60.6790     8.6110     7.4880     8.4200    23.6450   -24.1890 
  224.3750     2.4100    65.1110     8.4580     7.3550     8.1770    23.6330   -24.3180 
  224.5000     2.4090    70.4700     8.3380     7.2500     8.2640    23.6050   -24.4560 
  224.6250     2.4050    74.9460     8.2610     7.1840     8.1620    23.5790   -24.5800 
  224.7500     2.4030    77.3390     8.2290     7.1550     7.5260    23.5820   -24.6550 
  224.8750     2.4050    74.5960     8.2300     7.1560     7.2550    23.6240   -24.6860 
  225.0000     2.4060    69.5910     8.2470     7.1710     7.1820    23.6230   -24.6810 
  225.1250     2.4100    67.9510     8.2750     7.1960     7.2290    23.5820   -24.6160 
  225.2500     2.4170    71.6460     8.3140     7.2300     7.4540    23.5170   -24.4930 
  225.3750     2.4210    74.7650     8.3570     7.2670     7.9200    23.4570   -24.3260 
  225.5000     2.4110    75.2160     8.3810     7.2880     7.8600    23.4680   -24.1340 
  225.6250     2.3910    74.8500     8.3630     7.2730     7.9110    23.4710   -23.9380 
  225.7500     2.3780    72.7710     8.2950     7.2130     7.9790    23.3800   -23.7570 
  225.8750     2.3910    68.4760     8.1810     7.1140     7.9550    23.4060   -23.5960 
  226.0000     2.4130    63.9740     8.0540     7.0030     8.0100    23.5530   -23.4380 
  226.1250     2.4210    61.4810     7.9320     6.8970     7.5490    23.6570   -23.2660 
  226.2500     2.4080    62.1340     7.8220     6.8020     7.0260    23.6730   -23.0700 
  226.3750     2.3960    63.2000     7.7110     6.7060     6.5940    23.6360   -22.8450 
  226.5000     2.4000    62.3300     7.5870     6.5970     6.0910    23.6450   -22.6070 
  226.6250     2.4120    60.9570     7.4540     6.4820     5.7230    23.6150   -22.3610 
  226.7500     2.4210    61.1670     7.3420     6.3840     5.5630    23.5300   -22.1140 
  226.8750     2.4220    62.6470     7.3080     6.3550     5.9060    23.5170   -21.8400 
  227.0000     2.4210    63.3810     7.3720     6.4110     6.1510    23.5560   -21.5450 
  227.1250     2.4180    64.9320     7.5180     6.5370     6.3600    23.6430   -21.2450 
  227.2500     2.4110    67.2710     7.6860     6.6830     6.5390    23.7680   -20.9320 
  227.3750     2.3910    67.0560     7.7830     6.7680     6.6210    23.8640   -20.5560 
  227.5000     2.3700    64.5240     7.7750     6.7610     6.6540    23.8660   -20.0910 
  227.6250     2.3590    62.7570     7.6800     6.6790     6.4240    23.8500   -19.5580 
  227.7500     2.3690    63.3880     7.5580     6.5730     5.9540    23.8070   -19.0060 
  227.8750     2.3950    64.1780     7.4780     6.5030     5.2450    23.7100   -18.4870 
  228.0000     2.4230    63.9700     7.4570     6.4850     5.2750    23.5820   -18.0370 
  228.1250     2.4450    62.6080     7.4800     6.5040     5.3360    23.5480   -17.6880 
  228.2500     2.4580    61.1050     7.5120     6.5320     5.6050    23.6000   -17.4280 
  228.3750     2.4610    61.9910     7.5290     6.5470     5.7070    23.6420   -17.2560 
  228.5000     2.4540    64.2610     7.5510     6.5660     5.7150    23.6490   -17.1730 
  228.6250     2.4380    64.9760     7.6050     6.6130     5.6860    23.6240   -17.1720 
  228.7500     2.4180    63.0350     7.7090     6.7040     5.8130    23.5750   -17.1800 
  228.8750     2.4060    61.8650     7.8610     6.8360     5.8680    23.4840   -17.1090 
