~V
VERS. 2.00: Ver 2.00
~W
STRT.M 56.0000:
STOP.M 352.0000:
STEP.M 0.1250:
NULL. -999.2500:
UWI. F10109:
~C
DEPT.M :
DEN.GM/CC :
SP.MV :
GR.API :
RML.OHMM :
RI. :
RXO.OHMM :
CALI.CM :
~A
# ...
   78.5000     2.2440    -9.7060    69.8110     9.6510     7.9350     8.8240    22.8780 
   78.6250     2.2650    -9.6220    71.5550     9.6020     7.9380     8.8800    22.9170 
   78.7500     2.2650    -9.5270    72.0320     9.3730     7.7840     8.9270    22.9550 
   78.8750     2.2500    -9.3900    71.0260     9.0230     7.4990     8.8540    23.0140 
   79.0000     2.2340    -9.2080    68.8290     8.6490     7.1580     8.7590    23.0840 
   79.1250     2.2290    -8.9930    65.9870     8.3700     6.8630     8.7500    23.1500 
   79.2500     2.2340    -8.7340    66.2440     8.2260     6.6740     8.7630    23.2210 
   79.3750     2.2430    -8.4480    69.8710     8.2260     6.6190     8.7300    23.3090 
   79.5000     2.2480    -8.1770    72.5630     8.3750     6.7130     8.8010    23.4170 
   79.6250     2.2450    -7.9070    70.7590     8.7200     6.9980     9.1410    23.5470 
   79.7500     2.2360    -7.5890    68.7790     9.2630     7.4650     9.5730    23.6860 
   79.8750     2.2230    -7.2720    68.2760    10.0020     8.1120     9.9940    23.8090 
   80.0000     2.2080    -6.9590    66.3930    10.8630     8.8900    10.4370    23.9010 
   80.1250     2.1910    -6.5810    63.1220    11.6330     9.6520    10.9090    23.9000 
   80.2500     2.1790    -6.1420    61.7100    12.0580    10.1820    11.2280    23.8020 
   80.3750     2.1780    -5.6370    63.7870    11.9470    10.2910    11.2330    23.6470 
   80.5000     2.1900    -5.0600    67.7340    11.2550     9.8880    10.8070    23.5360 
   80.6250     2.2170    -4.3870    71.3370    10.1000     9.0050    10.0080    23.5450 
   80.7500     2.2440    -3.6700    75.3220     8.8720     7.9670     9.1110    23.6380 
   80.8750     2.2610    -2.9560    79.9930     7.8200     6.9980     7.9100    23.8050 
   81.0000     2.2580    -2.2850    83.3170     7.0660     6.2350     6.4200    24.0650 
   81.1250     2.2380    -1.7080    81.2150     6.6760     5.7690     5.7390    24.4050 
   81.2500     2.2150    -1.2300    75.9050     6.5800     5.5640     5.7170    24.7090 
   81.3750     2.2040    -0.8750    72.9550     6.8030     5.6390     5.9600    24.8490 
   81.5000     2.2190    -0.6460    73.1440     7.4190     6.0450     6.2480    24.8350 
   81.6250     2.2710    -0.5650    73.3370     8.5680     6.9070     6.6770    24.7610 
   81.7500     2.3440    -0.6200    72.9780    10.1130     8.1500     7.5380    24.6750 
   81.8750     2.4160    -0.7890    71.7700    11.8190     9.6320     9.5070    24.5620 
   82.0000     2.4570    -1.0530    70.8810    13.2930    11.0620    12.8190    24.4170 
   82.1250     2.4370    -1.4200    71.7390    13.9160    11.9120    17.0030    24.2060 
   82.2500     2.3810    -1.8360    72.9700    13.5210    11.9120    18.3880    23.8670 
   82.3750     2.3180    -2.2470    71.9250    12.2450    11.0630    15.5290    23.3970 
   82.5000     2.2730    -2.6350    68.6960    10.5490     9.7070    11.2940    22.9460 
   82.6250     2.2590    -3.0120    67.3590     9.0610     8.3690     9.5300    22.7680 
   82.7500     2.2620    -3.3700    68.0490     8.0990     7.3760     8.6360    22.7860 
   82.8750     2.2720    -3.7000    70.8950     7.7070     6.8120     7.9480    22.8880 
   83.0000     2.2790    -4.0150    74.2980     7.8080     6.6590     7.3930    23.0140 
   83.1250     2.2820    -4.2920    72.6880     8.3390     6.9130     7.7770    23.0910 
   83.2500     2.2870    -4.5550    67.2500     9.1180     7.4410     9.3400    23.0760 
   83.3750     2.2990    -4.8680    64.4710    10.0400     8.1640    10.2090    22.9930 
   83.5000     2.3210    -5.2130    66.0620    10.9920     8.9870    10.0440    22.9200 
   83.6250     2.3490    -5.5520    65.0280    11.8320     9.7850     9.9490    22.8860 
   83.7500     2.3680    -5.9030    60.4070    12.4640    10.4460    10.6580    22.8900 
   83.8750     2.3680    -6.2810    57.9250    12.8170    10.8890    11.7200    22.9520 
   84.0000     2.3450    -6.6520    58.6780    12.8560    11.0630    12.6600    23.0400 
   84.1250     2.3050    -6.9760    58.1760    12.5660    10.9260    11.6960    23.0720 
   84.2500     2.2640    -7.2950    56.4430    12.0950    10.5920    10.6400    23.0710 
   84.3750     2.2310    -7.6060    57.6450    11.5700    10.1660     9.9100    23.0380 
   84.5000     2.2090    -7.8930    61.3630    11.1060     9.7520     9.5810    22.9750 
   84.6250     2.1970    -8.1670    63.9510    10.7950     9.4390     9.5280    22.9450 
   84.7500     2.1940    -8.3860    65.3860    10.6220     9.2310     9.4380    22.9500 
   84.8750     2.1980    -8.5180    66.5710    10.5610     9.1160     9.3460    22.9600 
   85.0000     2.2050    -8.5770    65.5790    10.5740     9.0700     9.3270    22.9860 
   85.1250     2.2120    -8.5770    62.2900    10.6170     9.0680     9.3620    23.0500 
   85.2500     2.2160    -8.5240    61.7590    10.6430     9.0680     9.3360    23.1170 
   85.3750     2.2160    -8.4290    64.3000    10.6250     9.0450     9.2780    23.1670 
   85.5000     2.2130    -8.3150    65.6240    10.5520     8.9810     9.2580    23.2460 
   85.6250     2.2090    -8.1760    62.8930    10.4280     8.8690     9.2270    23.3340 
   85.7500     2.2060    -8.0600    58.9850    10.2970     8.7400     9.1520    23.3890 
   85.8750     2.2070    -8.0130    56.3350    10.2050     8.6290     9.0670    23.4140 
   86.0000     2.2120    -8.0140    56.4680    10.1990     8.5790     8.9430    23.4310 
   86.1250     2.2280    -8.0660    58.8030    10.3070     8.6230     8.8460    23.4270 
   86.2500     2.2520    -8.1780    60.3540    10.4700     8.7240     8.8790    23.4170 
   86.3750     2.2770    -8.3380    59.6890    10.6060     8.8220     9.0130    23.4230 
   86.5000     2.2930    -8.5120    57.7660    10.6370     8.8520     9.1240    23.4400 
   86.6250     2.2860    -8.6850    57.7500    10.4990     8.7460     9.1410    23.4440 
   86.7500     2.2630    -8.8650    59.0240    10.2550     8.5390     8.8920    23.4510 
   86.8750     2.2340    -9.0070    59.9490     9.9940     8.2950     8.5490    23.4650 
   87.0000     2.2080    -9.0650    59.6650     9.8030     8.0850     8.3730    23.4530 
   87.1250     2.1920    -9.0590    59.0900     9.7540     7.9790     8.5500    23.4240 
   87.2500     2.1810    -9.0190    58.5720     9.8130     7.9700     8.7670    23.4210 
   87.3750     2.1750    -8.9170    56.4420     9.9330     8.0300     8.9100    23.4240 
   87.5000     2.1710    -8.7800    54.3590    10.0610     8.1230     8.9580    23.4080 
   87.6250     2.1710    -8.6940    56.1140    10.1550     8.2130     9.0520    23.3960 
   87.7500     2.1760    -8.6430    59.2890    10.2180     8.2890     9.1580    23.4240 
   87.8750     2.1840    -8.6100    60.2010    10.2660     8.3540     9.1400    23.4690 
   88.0000     2.1940    -8.6210    58.1920    10.3140     8.4120     9.0310    23.5230 
   88.1250     2.2040    -8.6760    56.2010    10.3680     8.4630     9.2440    23.5680 
   88.2500     2.2110    -8.7590    55.8540    10.4160     8.5000     9.5510    23.5510 
   88.3750     2.2150    -8.9050    57.3320    10.4500     8.5190     9.7420    23.4640 
   88.5000     2.2160    -9.0880    59.2220    10.4720     8.5260     9.8390    23.3370 
   88.6250     2.2170    -9.2260    57.7210    10.5060     8.5380     9.6730    23.2140 
   88.7500     2.2180    -9.3400    55.1860    10.5740     8.5760     9.5310    23.0980 
   88.8750     2.2200    -9.4600    56.4680    10.6830     8.6460     9.4420    22.9660 
   89.0000     2.2230    -9.5820    60.4450    10.8140     8.7370     9.4750    22.8890 
   89.1250     2.2240    -9.7180    60.7180    10.9230     8.8200     9.6950    23.0200 
   89.2500     2.2230    -9.8510    58.1630    10.9710     8.8640     9.8610    23.3460 
   89.3750     2.2190    -9.9350    55.7420    10.9350     8.8510     9.9800    23.5740 
   89.5000     2.2130    -9.9870    55.7700    10.8160     8.7790    10.0540    23.6540 
   89.6250     2.2060   -10.0380    58.6680    10.6390     8.6570    10.0970    23.6510 
