~V
VERS. 2.00: Ver 2.00
~W
STRT.M 58.0000:
STOP.M 228.0000:
STEP.M 0.1250:
NULL. -999.2500:
UWI. F10151:
~C
DEPT.M :
SP.MV :
GR.API :
RML.OHMM :
RI. :
RXO.OHMM :
CALI.CM :
DEN.GM/CC :
~A
# ...
  148.0000   -11.3040    64.4710   117.2260   104.6660   118.4270    25.0990     2.2010 
  148.1250   -11.1740    60.4530   120.2410   107.4720   129.8160    25.2810     2.2160 
  148.2500   -11.0730    59.9170   122.6610   110.3570   146.7270    25.3410     2.2300 
  148.3750   -10.9770    62.7920   122.8170   112.1500   152.8520    25.3610     2.2420 
  148.5000   -10.8870    64.0810   118.2950   110.7110   142.6230    25.7020     2.2530 
  148.6250   -10.8230    63.3640   106.2370   102.2360   126.3970    26.6800     2.2670 
  148.7500   -10.7660    65.1150    89.0570    87.4790   106.7580    28.1050     2.2870 
  148.8750   -10.7320    71.6140    70.4590    69.9690    83.2870    27.4210     2.3100 
  149.0000   -10.6630    81.7580    54.1680    54.1330    67.2750    26.1180     2.3320 
  149.1250   -10.5720    91.0110    42.9410    43.1610    44.5770    25.3990     2.3430 
  149.2500   -10.4870    94.6230    36.0350    36.3990    27.3410    25.3940     2.3430 
  149.3750   -10.4160    90.4180    32.6050    32.9920    20.9870    25.2560     2.3320 
  149.5000   -10.3940    82.0310    31.4860    31.8650    26.7810    25.2440     2.3160 
  149.6250   -10.3460    76.3420    31.2420    31.7740    34.4040    25.3160     2.3000 
  149.7500   -10.3810    75.9420    30.4040    31.1470    34.0450    25.3150     2.2890 
  149.8750   -10.4260    79.7180    28.3180    29.0670    28.1950    25.2930     2.2860 
  150.0000   -10.5220    82.6660    25.0800    25.5310    35.1420    25.2970     2.2950 
  150.1250   -10.7260    83.5170    21.6110    21.7070    32.0900    25.2740     2.3140 
  150.2500   -10.9740    85.5580    19.1830    18.9640    21.9360    25.1970     2.3290 
  150.3750   -11.3140    87.6790    18.7130    17.9060    13.8350    25.1520     2.3300 
  150.5000   -11.7200    87.4680    20.9240    18.9560    12.6430    25.2000     2.3140 
  150.6250   -12.2280    83.8170    27.1250    23.4030    16.5650    25.2700     2.2900 
  150.7500   -12.7970    79.8230    36.9190    31.7560    31.0480    25.2990     2.2740 
  150.8750   -13.3900    76.7120    49.2580    44.0940    60.4820    25.2950     2.2730 
  151.0000   -13.9380    74.2610    61.8550    58.3860    87.6990    25.2650     2.2810 
  151.1250   -14.4070    71.1240    71.0590    69.4010    84.3670    25.3010     2.2750 
  151.2500   -14.8030    66.3040    75.5020    74.3580    76.9750    25.3830     2.2380 
  151.3750   -15.0980    63.7300    75.7350    74.1900    73.8480    25.5180     2.1690 
  151.5000   -15.2770    66.2980    73.6690    71.6030    77.6120    25.6870     2.0890 
  151.6250   -15.3540    70.4220    71.2300    68.6850    87.2550    25.8170     2.0370 
  151.7500   -15.3160    71.0340    69.1320    66.0240    89.4290    25.7900     2.0290 
  151.8750   -15.2000    69.4650    67.1820    63.4500    76.1290    25.5800     2.0570 
  152.0000   -15.0340    68.4110    65.0870    60.7380    59.2810    25.0960     2.1000 
  152.1250   -14.7970    69.7030    62.7490    57.8740    54.6280    24.8020     2.1360 
  152.2500   -14.5690    73.4130    60.4270    55.2130    52.5950    24.6040     2.1590 
  152.3750   -14.3460    76.6380    58.3750    53.0930    44.4360    24.5170     2.1770 
  152.5000   -14.1810    75.9310    56.7000    51.6040    38.9150    24.5900     2.1950 
  152.6250   -14.0180    72.7700    55.3070    50.6000    38.5480    24.8210     2.2170 
  152.7500   -13.9220    70.4640    53.9410    49.6820    44.8750    25.0720     2.2430 
  152.8750   -13.9460    69.1240    52.5440    48.6930    51.2010    25.1690     2.2710 
  153.0000   -14.0720    70.4160    51.2640    47.7170    48.9580    25.1730     2.2940 
  153.1250   -14.3300    75.0200    50.4540    47.0870    39.9840    25.1760     2.3010 
  153.2500   -14.6010    77.8920    50.1880    46.9270    35.7410    25.1110     2.2910 
  153.3750   -14.9060    75.4280    50.2950    47.1360    36.5460    25.0290     2.2700 
  153.5000   -15.2390    70.4460    50.3960    47.3870    36.4800    24.8830     2.2520 
  153.6250   -15.5830    68.9050    50.0710    47.1880    40.8650    24.7150     2.2500 
  153.7500   -15.9180    70.8220    49.5090    46.5670    39.2300    24.5690     2.2550 
  153.8750   -16.2100    74.0600    49.3780    46.0990    34.9260    24.5230     2.2550 
  154.0000   -16.4690    75.0060    50.6480    46.6850    32.8100    24.6020     2.2410 
  154.1250   -16.7050    73.9590    54.6810    49.6740    32.4640    24.9570     2.2120 
  154.2500   -16.9080    74.6550    61.2950    55.2880    35.3200    25.6250     2.1830 
  154.3750   -17.0690    75.0290    69.5400    63.0560    42.3580    26.4470     2.1670 
  154.5000   -17.1680    71.9900    77.4160    71.2230    56.2310    27.0710     2.1650 
  154.6250   -17.2210    66.8120    81.8520    76.4360    68.8430    26.9380     2.1800 
  154.7500   -17.1840    65.6940    82.1430    77.3280    76.9030    26.2960     2.2020 
  154.8750   -17.0800    70.0040    79.2610    74.6420    77.0860    25.6110     2.2250 
  155.0000   -16.9370    75.7460    75.4230    70.6430    67.7490    24.9680     2.2450 
  155.1250   -16.7130    78.0360    73.3220    68.0930    51.5280    24.9840     2.2550 
  155.2500   -16.5270    76.1710    73.9600    68.0650    43.4910    25.2760     2.2570 
  155.3750   -16.3460    72.1000    77.3410    70.6140    41.8360    25.3380     2.2530 
  155.5000   -16.1940    68.4000    82.9080    75.3250    47.2010    25.2940     2.2480 
  155.6250   -16.0770    67.1290    89.9810    81.6800    63.7820    25.2740     2.2440 
  155.7500   -16.0500    67.7700    97.4340    88.5940    83.7130    25.2520     2.2420 
  155.8750   -16.0850    68.9070   104.4730    95.3600    94.7350    25.2360     2.2400 
  156.0000   -16.1300    69.4860   110.2310   101.1990    92.5140    25.2600     2.2380 
  156.1250   -16.2710    69.2650   113.3900   104.7510    97.6790    25.2940     2.2350 
  156.2500   -16.4280    67.7120   113.9710   105.7390   105.3350    25.3260     2.2300 
  156.3750   -16.5800    66.7940   112.6650   104.6620   125.0150    25.3420     2.2250 
  156.5000   -16.7580    68.3140   110.9800   102.9310   120.7070    25.3130     2.2210 
  156.6250   -16.9720    69.2610   111.0700   102.7030    99.3360    25.2980     2.2210 
  156.7500   -17.1840    67.3340   113.7270   105.0280    97.6120    25.2740     2.2250 
  156.8750   -17.4150    65.6510   118.5460   109.7730   113.8950    25.2760     2.2330 
  157.0000   -17.6230    67.1710   123.9470   115.5990   131.6410    25.2930     2.2420 
  157.1250   -17.7810    68.4310   127.1140   119.8300   146.5980    25.3170     2.2490 
  157.2500   -17.9370    66.7030   126.5730   120.5500   146.7120    25.2810     2.2520 
  157.3750   -18.1070    65.4540   122.4290   117.4290   125.5410    25.0920     2.2500 
  157.5000   -18.2380    67.2980   116.3220   111.9590    98.9500    24.6760     2.2440 
  157.6250   -18.3130    68.2100   110.9480   106.8750    92.0660    24.3780     2.2300 
  157.7500   -18.3730    65.6970   108.1250   104.1380    96.2450    24.2960     2.2110 
  157.8750   -18.3690    63.9290   108.3800   104.4300    94.3280    24.3430     2.1890 
  158.0000   -18.4050    66.2190   111.1730   107.5240    92.8790    24.4210     2.1690 
  158.1250   -18.4030    70.2840   114.9070   112.1350    94.7410    24.5240     2.1610 
  158.2500   -18.4050    71.6050   117.2870   115.6850   104.0170    24.5850     2.1660 
  158.3750   -18.3770    70.5240   117.0370   116.4930   106.1070    24.5630     2.1810 
  158.5000   -18.3730    69.4650   114.1870   114.2130   107.8260    24.6060     2.2020 
  158.6250   -18.5150    71.0140   110.3560   110.0990   105.8590    24.7330     2.2210 
  158.7500   -18.6710    72.8660   108.3370   107.1630    94.2410    24.7940     2.2350 
  158.8750   -18.9410    70.7320   110.2760   107.8620    86.9780    24.9270     2.2420 
  159.0000   -19.3210    64.9390   117.5860   113.8320    92.0240    25.3050     2.2430 
  159.1250   -19.7490    61.1480   131.5590   126.6030    99.0140    25.9100     2.2390 
