~V
VERS. 2.00: Ver 2.00
~W
STRT.M 50.0000:
STOP.M 284.0000:
STEP.M 0.1250:
NULL. -999.2500:
UWI. F10107:
~C
DEPT.M :
DEN.GM/CC :
SP.MV :
GR.API :
RML.OHMM :
RI. :
RXO.OHMM :
CALI.CM :
~A
# ...
  151.2500     2.4310    -5.3670    57.9890    23.9340    23.3350    22.6390    23.4860 
  151.3750     2.4510    -5.2780    59.0590    23.5560    22.9850    23.2840    23.2550 
  151.5000     2.4670    -5.2280    62.5840    23.1680    22.5910    22.5720    23.0010 
  151.6250     2.4730    -5.1970    64.8790    22.8600    22.2310    20.1720    22.9170 
  151.7500     2.4730    -5.1710    62.9500    22.7140    21.9910    18.9320    22.9710 
  151.8750     2.4700    -5.1380    58.4960    22.7640    21.9200    18.6250    23.0950 
  152.0000     2.4660    -5.0980    53.2460    22.9580    22.0040    18.6040    23.1560 
  152.1250     2.4590    -5.0370    48.7310    23.1270    22.1340    18.3480    23.0760 
  152.2500     2.4460    -4.9470    48.7400    23.0860    22.1390    18.0070    23.0320 
  152.3750     2.4310    -4.8190    52.5150    22.7570    21.9210    17.0150    23.1630 
  152.5000     2.4230    -4.6700    55.3040    22.1900    21.4880    16.9190    23.2900 
  152.6250     2.4260    -4.5200    54.4980    21.5360    20.9440    17.5220    23.1370 
  152.7500     2.4390    -4.3760    54.2060    20.9740    20.4500    16.9700    22.6000 
  152.8750     2.4540    -4.2380    55.2950    20.5800    20.0870    15.9650    21.8180 
  153.0000     2.4640    -4.1080    56.9350    20.3580    19.8720    15.0070    21.3420 
  153.1250     2.4650    -3.9900    60.6620    20.2620    19.7750    15.2590    21.3780 
  153.2500     2.4580    -3.8790    66.2380    20.1870    19.7030    16.5520    21.8060 
  153.3750     2.4480    -3.7890    69.5750    20.0530    19.5810    18.2050    22.1100 
  153.5000     2.4380    -3.7280    67.1230    19.8040    19.3540    19.1600    22.2050 
  153.6250     2.4300    -3.6920    60.9470    19.4170    18.9970    19.2430    22.1830 
  153.7500     2.4250    -3.6760    55.6750    18.9750    18.5800    19.2750    22.1420 
  153.8750     2.4200    -3.6800    53.3010    18.5670    18.1820    19.2760    22.1060 
  154.0000     2.4140    -3.6990    53.8420    18.2670    17.8720    18.2450    22.1120 
  154.1250     2.4070    -3.7380    56.5030    18.1270    17.7050    16.9050    22.1270 
  154.2500     2.4000    -3.8000    58.9270    18.0890    17.6370    16.6470    22.1360 
  154.3750     2.3950    -3.8870    59.3550    18.0920    17.6190    18.0630    22.1510 
  154.5000     2.3930    -3.9900    59.2330    18.0820    17.5990    20.0650    22.1770 
  154.6250     2.3910    -4.1110    61.2570    18.0360    17.5500    20.2170    22.2020 
  154.7500     2.3890    -4.2540    64.0770    18.0010    17.5000    18.4300    22.2770 
  154.8750     2.3870    -4.4210    63.5360    18.0430    17.5060    17.5340    22.5110 
  155.0000     2.3890    -4.6150    59.1190    18.2160    17.6230    16.2790    22.9650 
  155.1250     2.3930    -4.8260    55.8620    18.5440    17.8890    15.9580    23.3590 
  155.2500     2.3970    -5.0280    55.5610    18.9330    18.2340    16.1560    23.4800 
  155.3750     2.3950    -5.1980    56.2900    19.2970    18.5860    16.7360    23.4880 
  155.5000     2.3870    -5.3250    57.8410    19.5780    18.8830    17.0350    23.4830 
  155.6250     2.3770    -5.4080    59.2700    19.7640    19.0980    17.5210    23.4940 
  155.7500     2.3730    -5.4540    58.9370    19.9340    19.2830    17.9360    23.5090 
  155.8750     2.3770    -5.4730    57.7750    20.1510    19.4920    17.9620    23.4610 
  156.0000     2.3850    -5.4700    56.9720    20.4290    19.7490    17.9630    23.2890 
  156.1250     2.3900    -5.4570    57.1190    20.6940    20.0020    17.8940    23.1390 
  156.2500     2.3900    -5.4490    56.6860    20.8090    20.1400    17.8130    23.1090 
  156.3750     2.3850    -5.4410    56.8690    20.6630    20.0550    17.7740    23.1110 
  156.5000     2.3780    -5.4320    58.9110    20.2050    19.6890    17.5560    23.1420 
  156.6250     2.3760    -5.4150    60.3960    19.4670    19.0440    16.4690    23.2000 
  156.7500     2.3780    -5.3860    60.2620    18.6710    18.3130    15.0510    23.3130 
  156.8750     2.3810    -5.3370    58.9170    18.0080    17.6650    14.9150    23.4250 
  157.0000     2.3840    -5.2660    58.5310    17.6220    17.2390    15.5210    23.4950 
  157.1250     2.3870    -5.1730    58.4020    17.6260    17.1540    15.8500    23.5020 
  157.2500     2.3920    -5.0750    57.3700    17.9070    17.3370    15.9280    23.4970 
  157.3750     2.4010    -4.9940    56.4880    18.3300    17.6860    16.2910    23.3980 
  157.5000     2.4120    -4.9450    56.8050    18.7380    18.0670    16.6710    23.1580 
  157.6250     2.4210    -4.9380    58.7600    18.9790    18.3290    16.1840    22.8760 
  157.7500     2.4240    -4.9690    60.5440    19.0640    18.4460    16.2230    22.7050 
  157.8750     2.4240    -5.0280    61.7470    19.0950    18.4860    16.8710    22.6490 
  158.0000     2.4230    -5.1030    62.6440    19.2380    18.5890    17.0430    22.6360 
  158.1250     2.4230    -5.1840    62.1210    19.6960    18.9440    16.9120    22.6390 
  158.2500     2.4230    -5.2550    60.3090    20.4490    19.5710    17.5700    22.7250 
  158.3750     2.4170    -5.3090    58.4750    21.3710    20.3930    19.7140    22.9400 
  158.5000     2.4070    -5.3420    58.9260    22.2260    21.2250    22.3710    23.1980 
  158.6250     2.3970    -5.3540    60.0640    22.6460    21.7390    21.9600    23.3600 
  158.7500     2.3960    -5.3540    59.9810    22.4830    21.7450    20.2980    23.2960 
  158.8750     2.4040    -5.3600    60.3170    21.7240    21.1860    19.1870    23.1410 
  159.0000     2.4200    -5.3910    62.3810    20.5280    20.1760    18.3400    23.0630 
  159.1250     2.4330    -5.4590    64.0110    19.1840    18.9630    16.7430    23.1960 
  159.2500     2.4410    -5.5660    63.5240    18.0160    17.8680    15.9830    23.4020 
  159.3750     2.4430    -5.7110    62.2660    17.2010    17.0670    15.6080    23.4790 
  159.5000     2.4440    -5.8780    61.6610    16.8100    16.6410    14.9470    23.4200 
  159.6250     2.4450    -6.0580    60.2500    16.8620    16.6320    14.1600    23.3650 
  159.7500     2.4470    -6.2440    57.9640    17.1510    16.8760    14.1250    23.3310 
  159.8750     2.4460    -6.4310    56.1260    17.5160    17.2350    14.6530    23.2860 
  160.0000     2.4430    -6.6110    55.1650    17.8180    17.5740    15.3310    23.2000 
  160.1250     2.4370    -6.7550    55.4860    17.9600    17.7780    15.6730    23.1050 
  160.2500     2.4290    -6.8430    56.2470    17.9960    17.8640    15.3740    23.0340 
  160.3750     2.4230    -6.8650    56.0620    18.0100    17.8940    14.9730    23.0090 
  160.5000     2.4200    -6.8220    54.8870    18.0830    17.9430    14.4390    23.0050 
  160.6250     2.4200    -6.7070    55.3540    18.2600    18.0600    14.0370    22.9920 
  160.7500     2.4210    -6.5320    56.9030    18.4780    18.2040    14.4500    22.9380 
  160.8750     2.4220    -6.3010    58.5200    18.6610    18.3140    15.2790    22.8180 
  161.0000     2.4220    -6.0180    60.2530    18.7530    18.3370    15.9190    22.6620 
  161.1250     2.4200    -5.7110    63.4370    18.7460    18.2580    16.0070    22.5050 
  161.2500     2.4160    -5.4240    65.4860    18.7450    18.1670    15.4680    22.3850 
  161.3750     2.4150    -5.1780    64.4340    18.8890    18.1880    14.4620    22.2630 
  161.5000     2.4170    -4.9900    62.0050    19.3160    18.4560    14.0490    22.1370 
  161.6250     2.4250    -4.8600    61.8830    20.2000    19.1440    14.6240    22.0110 
  161.7500     2.4370    -4.7530    62.9080    21.5080    20.2490    15.3020    22.0360 
  161.8750     2.4510    -4.6480    63.4830    23.1940    21.7580    16.6480    22.3130 
  162.0000     2.4700    -4.5320    63.6720    25.1320    23.5840    19.0210    22.8160 
  162.1250     2.4950    -4.3940    64.1630    27.0550    25.5280    22.3180    23.1420 
  162.2500     2.5270    -4.2320    63.7850    28.5760    27.2230    25.6870    23.2410 
  162.3750     2.5610    -4.0550    63.6110    29.3080    28.2820    30.2740    23.2480 
