~V
VERS. 2.00: Ver 2.00
~W
STRT.M 50.0000:
STOP.M 246.0000:
STEP.M 0.1250:
NULL. -999.2500:
UWI. F10164:
~C
DEPT.M :
GR.API :
RML.OHMM :
RI. :
RXO.OHMM :
CALI.CM :
SP.MV :
DEN.GM/CC :
~A
# ...
   72.5000    90.9900     7.0260     5.7590     8.1870    25.3560   -20.6910     2.3370 
   72.6250   101.0610     6.6660     5.4740     7.0860    24.8570   -19.5100     2.3410 
   72.7500   103.4680     6.4160     5.2330     6.6040    24.5670   -18.3010     2.3300 
   72.8750    97.7020     6.2850     5.0610     6.6090    24.4080   -17.0970     2.3180 
   73.0000    90.3890     6.2380     4.9580     6.7320    24.3210   -15.9540     2.3120 
   73.1250    90.9220     6.2320     4.9070     6.7640    24.3020   -14.9720     2.3060 
   73.2500    95.7360     6.2360     4.8800     6.7120    24.3370   -14.1840     2.2910 
   73.3750    97.5180     6.2580     4.8720     6.6320    24.4800   -13.6070     2.2680 
   73.5000    95.1810     6.3200     4.8880     6.6370    24.6780   -13.2500     2.2400 
   73.6250    93.0590     6.4470     4.9440     6.8000    24.7080   -13.1330     2.2110 
   73.7500    90.6480     6.6260     5.0400     7.0020    24.6210   -13.2260     2.1860 
   73.8750    87.7810     6.8420     5.1740     7.1600    24.6010   -13.5530     2.1670 
   74.0000    87.3980     7.0820     5.3400     7.3080    24.6610   -14.1540     2.1590 
   74.1250    89.9000     7.3370     5.5320     7.5260    24.7090   -15.0680     2.1650 
   74.2500    89.8340     7.5940     5.7320     7.8560    24.4610   -16.1800     2.1810 
   74.3750    86.8530     7.8350     5.9240     8.3190    24.1760   -17.4250     2.2000 
   74.5000    84.6700     8.0330     6.0860     8.8580    24.1330   -18.7250     2.2130 
   74.6250    84.8680     8.1530     6.1940     9.2890    24.1330   -19.9580     2.2140 
   74.7500    83.0660     8.2020     6.2480     9.5230    24.1370   -21.0690     2.2050 
   74.8750    86.0830     8.2040     6.2610     9.6160    24.1510   -21.9780     2.1940 
   75.0000    98.3890     8.1890     6.2530     9.6420    24.2460   -22.5950     2.1890 
   75.1250   111.9850     8.1870     6.2480     9.6350    24.2620   -22.8590     2.1930 
   75.2500   110.6490     8.1980     6.2560     9.6720    24.2670   -22.9090     2.1970 
   75.3750    97.4640     8.2060     6.2730     9.8670    24.2670   -22.8180     2.1940 
   75.5000    87.5870     8.1870     6.2840    10.0940    24.2730   -22.5830     2.1800 
   75.6250    86.7010     8.1160     6.2710     9.9990    24.3210   -22.2320     2.1660 
   75.7500    86.5300     8.0040     6.2350     9.6940    24.4530   -21.8560     2.1660 
   75.8750    81.8380     7.8770     6.1890     9.5010    24.5360   -21.5310     2.1860 
   76.0000    76.9900     7.7720     6.1550     9.5110    24.9240   -21.2340     2.2170 
   76.1250    78.9200     7.7320     6.1590     9.5670    24.7520   -20.9350     2.2390 
   76.2500    84.2800     7.7410     6.1930     9.6150    24.5480   -20.6050     2.2410 
   76.3750    86.0220     7.7540     6.2280     9.6560    24.4410   -20.2340     2.2270 
   76.5000    82.7210     7.7000     6.2140     9.6680    24.4400   -19.8420     2.2120 
   76.6250    80.7970     7.5100     6.0880     9.6510    24.4360   -19.3330     2.2130 
   76.7500    83.1190     7.2220     5.8650     9.4020    24.1820   -18.7070     2.2300 
   76.8750    86.4650     6.9150     5.5960     8.5070    24.1620   -17.9990     2.2520 
   77.0000    88.8250     6.6840     5.3520     7.1190    24.2670   -17.2970     2.2650 
   77.1250    89.5380     6.6200     5.2180     6.3190    24.3770   -16.7600     2.2530 
   77.2500    88.1850     6.7160     5.2070     6.5590    24.3970   -16.4090     2.2190 
   77.3750    85.1050     6.9950     5.3320     7.5220    24.4000   -16.0760     2.1740 
   77.5000    83.3010     7.5600     5.6300     8.3930    24.4000   -15.6550     2.1370 
   77.6250    85.5490     8.7770     6.2830     8.5520    24.5990   -15.2550     2.1450 
   77.7500    87.6970    10.8950     7.4770     8.8290    25.0820   -14.7950     2.2090 
   77.8750    87.1800    14.0540     9.4440    10.6560    25.0850   -14.2010     2.3290 
   78.0000    85.3650    17.9100    12.2070    16.1250    25.1460   -13.5310     2.4780 
   78.1250    83.0640    21.0290    15.0590    30.3770    25.1840   -12.6750     2.6060 
   78.2500    81.9510    21.7980    16.6050    51.6360    25.2900   -11.5780     2.6710 
   78.3750    83.4330    19.6180    15.9790    53.6050    25.3910   -10.4440     2.6620 
   78.5000    89.1350    15.3820    13.4420    28.4870    25.3600    -9.4170     2.5970 
   78.6250    98.4150    11.0390    10.2440    13.5080    25.0700    -8.4790     2.5130 
   78.7500   106.5400     7.9180     7.6320     7.5250    24.7830    -7.7150     2.4480 
   78.8750   113.3600     6.1190     5.8860     5.4760    24.7270    -7.1470     2.4150 
   79.0000   124.7720     5.2570     4.8630     4.9470    24.9820    -6.6460     2.4070 
   79.1250   138.6670     4.9770     4.3940     4.6250    25.1590    -6.2860     2.4060 
   79.2500   144.1890     4.9440     4.2150     4.3880    25.2900    -6.1220     2.3990 
   79.3750   138.3870     5.0700     4.2370     4.3440    25.3500    -6.0800     2.3890 
   79.5000   128.4140     5.3330     4.4090     4.3890    25.3280    -6.2380     2.3820 
   79.6250   118.1870     5.7380     4.7170     4.6070    25.2970    -6.7560     2.3820 
   79.7500   105.3130     6.2160     5.1030     5.0310    25.2910    -7.4830     2.3770 
   79.8750    92.8480     6.6790     5.5070     5.6500    25.2810    -8.4200     2.3560 
   80.0000    81.9760     7.0320     5.8530     6.2510    25.2140    -9.6010     2.3180 
   80.1250    77.4700     7.1920     6.0540     6.5700    25.2340   -10.8410     2.2670 
   80.2500    90.2400     7.2110     6.1180     6.6640    25.3860   -12.0300     2.2210 
   80.3750   109.6270     7.1660     6.0840     6.6820    25.6010   -13.2050     2.1890 
   80.5000   111.1470     7.1380     6.0150     6.6400    25.6960   -14.2760     2.1740 
   80.6250    89.1810     7.1870     5.9700     6.6490    25.7570   -15.0330     2.1740 
   80.7500    72.7420     7.2890     5.9660     6.8010    25.9430   -15.5820     2.1820 
   80.8750    71.4610     7.4020     5.9870     6.9510    26.2020   -15.9160     2.1910 
   81.0000    74.6390     7.4860     6.0090     7.0270    26.3430   -16.0210     2.1960 
   81.1250    75.5320     7.5080     6.0010     7.1850    26.3480   -16.0260     2.1930 
   81.2500    75.6500     7.4830     5.9620     7.3500    26.3420   -16.0430     2.1850 
   81.3750    74.5570     7.4400     5.9020     7.3310    26.3840   -15.9730     2.1770 
   81.5000    71.6980     7.4200     5.8530     7.1830    26.4340   -15.7830     2.1700 
   81.6250    69.0390     7.4850     5.8600     7.1070    26.4760   -15.6380     2.1650 
   81.7500    69.6560     7.6510     5.9450     7.0470    26.4890   -15.5240     2.1620 
   81.8750    73.1060     7.8980     6.1050     7.0950    26.4870   -15.4460     2.1610 
   82.0000    74.5800     8.1530     6.2970     7.4690    26.3870   -15.4540     2.1640 
   82.1250    75.8370     8.2590     6.4180     8.2140    26.0570   -15.3990     2.1730 
   82.2500    91.7430     8.1210     6.3750     8.8730    25.6330   -15.1730     2.1910 
   82.3750   115.6380     7.7420     6.1400     8.9980    25.3710   -14.8560     2.2150 
   82.5000   125.2700     7.2390     5.7660     8.2280    25.3760   -14.4470     2.2430 
   82.6250   114.4260     6.8450     5.3960     6.7010    25.5070   -13.9600     2.2670 
   82.7500   103.6670     6.7270     5.1740     5.3710    25.5380   -13.5430     2.2800 
   82.8750    98.8220     6.9390     5.1740     4.9820    25.3900   -13.2090     2.2810 
   83.0000    91.3290     7.4220     5.4060     5.8190    25.2420   -12.9760     2.2720 
   83.1250    81.7930     8.0100     5.8170     7.5630    25.1740   -12.9680     2.2580 
   83.2500    76.3760     8.4700     6.2400     8.9890    25.0690   -13.1100     2.2450 
   83.3750    74.2310     8.6660     6.5460     9.4580    24.9110   -13.3440     2.2320 
   83.5000    75.9190     8.5720     6.6560     9.3110    24.7420   -13.7270     2.2210 
   83.6250    80.3000     8.2780     6.5640     9.0770    24.6570   -14.1600     2.2130 
