~V
VERS. 2.00: Ver 2.00
~W
STRT.M 55.0000:
STOP.M 248.0000:
STEP.M 0.1250:
NULL. -999.2500:
UWI. F10184:
~C
DEPT.M :
SP.MV :
GR.API :
RML.OHMM :
RI. :
RXO.OHMM :
CALI.CM :
DEN.GM/CC :
~A
# ...
  178.7500    -9.0410    78.7490    42.3760    40.6130    45.7600    24.7920     2.3110 
  178.8750    -9.0670    75.2470    48.7730    46.1230    65.2660    24.8540     2.2980 
  179.0000    -9.1240    71.0330    56.6820    53.6310    69.5250    24.9020     2.2910 
  179.1250    -9.1590    69.1710    64.3130    61.3070    69.0540    24.9220     2.2840 
  179.2500    -9.2550    68.0440    70.6090    67.5500    69.3140    24.9090     2.2730 
  179.3750    -9.3880    66.1520    76.2580    72.6450    70.2250    24.8650     2.2610 
  179.5000    -9.4590    64.5990    83.1890    78.3690    70.5140    24.7970     2.2510 
  179.6250    -9.5340    64.2620    94.2370    87.5280    73.1710    24.7910     2.2430 
  179.7500    -9.6520    62.4440   110.2750   101.2190    81.6420    24.7900     2.2310 
  179.8750    -9.6780    58.8830   131.8040   119.9640   103.0430    24.6950     2.2140 
  180.0000    -9.7530    55.6070   158.1070   142.9210   179.9070    24.4600     2.2000 
  180.1250    -9.8180    54.2150   171.9780   166.5790   242.6030    24.3260     2.1980 
  180.2500    -9.7530    54.7290   192.7080   185.3180   231.3950    24.1900     2.2030 
  180.3750    -9.7190    56.8400   203.5760   195.0780   200.4550    23.9570     2.2040 
  180.5000    -9.7590    59.5580   202.8140   194.6670   187.3360    23.7290     2.1990 
  180.6250    -9.6800    61.4080   191.8590   185.2120   190.3210    23.7210     2.1950 
  180.7500    -9.5790    62.1600   176.9510   171.9130   180.4800    23.9290     2.1980 
  180.8750    -9.5150    61.5980   161.5450   157.6810   158.5460    24.3030     2.2040 
  181.0000    -9.3690    61.1620   148.1040   144.7250   135.1480    24.6380     2.2070 
  181.1250    -9.2630    61.4780   139.2360   135.5860   123.6570    24.7300     2.2010 
  181.2500    -9.1920    61.2370   135.2520   130.8970   119.5390    24.7300     2.1900 
  181.3750    -9.0420    58.8300   136.1290   130.7720   117.5220    24.7830     2.1810 
  181.5000    -8.8800    55.5540   141.1940   134.6520   116.3980    24.9280     2.1760 
  181.6250    -8.7890    56.1420   149.2580   141.5830   130.0520    25.0450     2.1750 
  181.7500    -8.6390    59.4040   157.4770   149.0040   141.4120    25.0840     2.1760 
  181.8750    -8.5360    60.6240   163.4420   154.7190   145.2510    25.0880     2.1810 
  182.0000    -8.4780    58.5560   165.0850   156.6890   149.4010    25.0800     2.1880 
  182.1250    -8.2540    57.0990   160.3610   152.7010   141.3250    25.0400     2.1930 
  182.2500    -8.0630    57.1470   150.7030   143.8400   131.3540    25.0380     2.1950 
  182.3750    -7.9770    57.4840   137.8880   131.7390   129.3270    25.0630     2.2000 
  182.5000    -7.7940    58.1720   124.2790   118.6620   126.0750    25.0470     2.2080 
  182.6250    -7.5610    60.3890   112.6310   107.1100   114.1520    24.9690     2.2190 
  182.7500    -7.4010    61.1100   104.1670    98.3460    96.6150    24.8910     2.2330 
  182.8750    -7.1220    59.4250    99.2060    92.8810    83.5620    24.8360     2.2480 
  183.0000    -6.8240    59.5480    97.3980    90.5950    80.2490    24.7320     2.2600 
  183.1250    -6.6720    62.7140    98.0570    91.0040    86.9150    24.5760     2.2730 
  183.2500    -6.4520    63.1500    99.3350    92.2310    92.2950    24.4670     2.2980 
  183.3750    -6.1450    58.1310    99.7200    92.7160    93.9530    24.4160     2.3420 
  183.5000    -5.9390    53.1080    97.5670    90.9000    88.2360    24.4030     2.4090 
  183.6250    -5.7290    54.3710    90.1900    84.3580    81.6830    24.3220     2.5000 
  183.7500    -5.4600    58.5500    77.5050    72.8210    76.5250    24.1800     2.5920 
  183.8750    -5.3110    60.2190    61.2170    57.6010    66.3120    24.0790     2.6520 
  184.0000    -5.1340    58.2990    44.7610    41.9560    50.9050    24.0420     2.6620 
  184.1250    -4.8970    57.5790    31.9020    29.6940    32.3290    24.0660     2.6310 
  184.2500    -4.7650    57.4470    22.2210    21.3690    17.9460    24.2280     2.5800 
  184.3750    -4.6270    55.4740    16.3290    16.3830    11.1520    24.4070     2.5160 
  184.5000    -4.4320    52.3870    14.0040    13.7820     9.8420    24.4610     2.4660 
  184.6250    -4.3350    51.0670    13.5330    12.9770    10.6850    24.3940     2.4710 
  184.7500    -4.2310    50.7420    14.1510    13.2330    12.3540    24.3710     2.5270 
  184.8750    -4.1090    50.6660    15.4820    14.2540    13.5650    24.4040     2.6010 
  185.0000    -4.0840    52.3160    16.9950    15.6280    14.2240    24.4250     2.6570 
  185.1250    -4.0280    54.0590    17.8170    16.5890    16.0680    24.4130     2.6780 
  185.2500    -3.9530    52.8350    17.4640    16.5510    19.0680    24.3630     2.6780 
  185.3750    -4.0020    50.8640    15.9590    15.4140    20.9270    24.2470     2.6640 
  185.5000    -4.0600    50.7110    13.8370    13.6000    18.2290    24.1670     2.6400 
  185.6250    -4.0340    51.9620    11.9660    11.8440    13.5440    24.1780     2.6120 
  185.7500    -4.1090    51.9780    10.8600    10.6450    11.4880    24.2400     2.5870 
  185.8750    -4.1660    50.1530    10.6390    10.1530    12.0840    24.2790     2.5680 
  186.0000    -4.1400    47.5020    11.2190    10.3580    12.3100    24.2910     2.5560 
  186.1250    -4.2360    43.8280    12.4260    11.2020    14.4480    24.2920     2.5540 
  186.2500    -4.3230    40.2940    13.6900    12.2480    17.8700    24.3170     2.5620 
  186.3750    -4.3000    38.1050    14.4630    13.0080    21.6850    24.3720     2.5810 
  186.5000    -4.3290    38.3510    14.3210    13.0290    20.0630    24.4240     2.5950 
  186.6250    -4.4070    40.9110    13.1360    12.1050    17.3610    24.4610     2.5840 
  186.7500    -4.4240    43.8520    11.5650    10.7780    14.2100    24.5250     2.5520 
  186.8750    -4.5050    45.4720    10.1560     9.5190    11.8260    24.6480     2.5090 
  187.0000    -4.6100    44.2680     9.2720     8.6420     9.3140    24.8080     2.4550 
  187.1250    -4.6670    43.2420     9.1130     8.3370     8.1900    24.8330     2.3960 
  187.2500    -4.7810    44.2660     9.4360     8.4620     9.7180    24.6490     2.3640 
  187.3750    -4.9320    45.1480     9.9970     8.8690    13.6480    24.4630     2.3830 
  187.5000    -5.0190    44.2890    10.5110     9.3550    14.9870    24.3780     2.4460 
  187.6250    -5.1600    42.1500    10.6790     9.6570    11.4210    24.3620     2.5200 
  187.7500    -5.3120    42.7890    10.4880     9.6710     9.1310    24.3230     2.5590 
  187.8750    -5.3600    45.4140    10.0420     9.4110     8.7870    24.2790     2.5470 
  188.0000    -5.4650    47.7820     9.4790     8.9540     9.6800    24.2470     2.5050 
  188.1250    -5.5570    49.0860     8.8880     8.3590     9.8910    24.2840     2.4710 
  188.2500    -5.5290    50.8800     8.2960     7.6980     9.7800    24.4080     2.4520 
  188.3750    -5.5340    53.6150     7.7240     7.0240     8.8710    24.6060     2.4380 
  188.5000    -5.6240    55.0920     7.2350     6.4220     7.0510    24.8240     2.4200 
  188.6250    -5.6250    54.2050     6.9500     6.0160     6.0140    24.8680     2.3960 
  188.7500    -5.6420    52.9590     6.8930     5.8290     6.2690    24.7990     2.3710 
  188.8750    -5.7600    51.0540     7.0470     5.8500     7.5300    24.7670     2.3610 
  189.0000    -5.8250    48.3930     7.3310     6.0320     8.5220    24.8070     2.3710 
  189.1250    -5.9410    46.4380     7.6370     6.3130     8.3520    24.8460     2.3860 
  189.2500    -6.1340    46.8140     7.9020     6.6180     7.9570    24.7660     2.3850 
  189.3750    -6.2760    48.5010     8.1480     6.9320     8.0010    24.6620     2.3640 
  189.5000    -6.4120    49.2820     8.4550     7.2830     8.2370    24.6070     2.3290 
  189.6250    -6.5990    49.5760     8.9680     7.7600     8.9420    24.5690     2.3000 
  189.7500    -6.7410    51.8860     9.7300     8.4180    10.1010    24.5050     2.3030 
  189.8750    -6.8650    54.8310    10.7060     9.2620    11.1630    24.4540     2.3400 
