~V
VERS. 2.00: Ver 2.00
~W
STRT.M 55.0000:
STOP.M 239.0000:
STEP.M 0.1250:
NULL. -999.2500:
UWI. F10186:
~C
DEPT.M :
GR.API :
RML.OHMM :
RI. :
RXO.OHMM :
CALI.CM :
DEN.GM/CC :
SP.MV :
~A
# ...
  167.5000    61.0400   117.3200   115.9230   132.8370    24.5910     2.2290   -13.7520 
  167.6250    64.5030   102.3820   101.8520   103.8230    24.5850     2.2370   -13.4120 
  167.7500    64.1540    89.6920    89.0810    83.7620    24.5930     2.2550   -12.9860 
  167.8750    64.0290    81.2110    79.8500    77.1320    24.6280     2.2770   -12.5840 
  168.0000    67.3230    77.4430    75.0520    72.5760    24.7010     2.2970   -12.2570 
  168.1250    70.2090    78.5350    75.0640    66.3140    24.8350     2.3050   -11.9690 
  168.2500    70.2610    82.8740    78.3540    64.9980    24.9810     2.3010   -11.6990 
  168.3750    70.3450    89.6800    84.1520    66.5780    25.0570     2.2880   -11.4560 
  168.5000    70.7300    98.3310    91.8060    71.7790    24.9620     2.2720   -11.1950 
  168.6250    66.9240   108.6590   101.0130    89.2850    24.7310     2.2570   -10.9830 
  168.7500    62.0470   120.2980   111.2730   102.3660    24.5590     2.2400   -10.8560 
  168.8750    61.3230   133.1140   122.4030   112.6750    24.4930     2.2210   -10.7570 
  169.0000    63.6760   146.4650   133.9120   122.4020    24.5340     2.2020   -10.6460 
  169.1250    64.3620   158.3380   144.2630   139.8230    24.5740     2.1900   -10.5600 
  169.2500    64.1500   166.4790   151.6080   156.1900    24.5880     2.1890   -10.4660 
  169.3750    63.8510   169.1430   154.3920   169.6640    24.5680     2.1990   -10.3850 
  169.5000    61.8640   165.9530   152.0810   177.1810    24.5170     2.2130   -10.3470 
  169.6250    58.1500   157.6650   145.0050   172.4070    24.4710     2.2230   -10.2870 
  169.7500    55.8920   146.7520   135.4160   154.5710    24.4790     2.2260   -10.1570 
  169.8750    55.4440   133.6010   123.9170   133.5560    24.5300     2.2230   -10.0000 
  170.0000    55.8390   118.0530   110.4480   119.2160    24.5630     2.2170    -9.8520 
  170.1250    57.5610   100.6770    95.2000   120.7160    24.6020     2.2170    -9.7160 
  170.2500    59.6070    83.8940    80.0540   136.1470    24.6070     2.2290    -9.5750 
  170.3750    59.7710    69.5170    66.6690   118.8850    24.5500     2.2530    -9.3910 
  170.5000    57.0340    58.2110    55.8860    81.3530    24.4880     2.2800    -9.2110 
  170.6250    54.8180    49.8880    47.8870    66.0040    24.4890     2.2960    -9.1210 
  170.7500    56.5920    43.2140    41.5130    74.4810    24.5310     2.2990    -9.0620 
  170.8750    61.4980    37.6190    36.2090    81.2050    24.5320     2.2940    -8.9840 
  171.0000    67.2460    32.8980    31.7630    61.6630    24.5050     2.2910    -8.9120 
  171.1250    73.1140    29.2580    28.3730    37.8020    24.4590     2.2980    -8.9020 
  171.2500    76.8550    26.6390    25.9490    27.3110    24.4200     2.3110    -8.9580 
  171.3750    76.8880    25.0070    24.4250    23.9380    24.3930     2.3220    -9.0280 
  171.5000    74.5250    24.2070    23.6420    21.6140    24.3870     2.3270    -9.0470 
  171.6250    73.5360    24.0460    23.4230    22.0510    24.4080     2.3270    -9.0570 
  171.7500    73.3470    24.1140    23.4020    22.5580    24.4370     2.3270    -9.1260 
  171.8750    72.8340    24.1740    23.3470    21.7790    24.4580     2.3280    -9.2040 
  172.0000    73.2080    24.0230    23.0530    20.0300    24.4710     2.3320    -9.2360 
  172.1250    73.9150    23.3890    22.2570    19.9810    24.4770     2.3380    -9.2420 
  172.2500    73.6140    22.2490    20.9530    20.9470    24.4920     2.3440    -9.2720 
  172.3750    71.0130    20.7500    19.2810    20.8940    24.4910     2.3500    -9.2940 
  172.5000    69.1260    19.2850    17.5980    19.3540    24.4810     2.3580    -9.3400 
  172.6250    72.5490    18.6540    16.5470    16.7600    24.4390     2.3650    -9.4080 
  172.7500    76.9500    19.4550    16.5790    14.9010    24.4230     2.3690    -9.4800 
  172.8750    78.1510    22.1640    18.0830    15.5470    24.4400     2.3640    -9.5650 
  173.0000    75.9030    26.9390    21.3280    20.0200    24.4810     2.3480    -9.6630 
  173.1250    73.3720    33.6160    26.5520    29.4310    24.4860     2.3240    -9.7810 
  173.2500    70.4690    40.8160    32.8440    43.0740    24.4890     2.3000    -9.9130 
  173.3750    65.4710    47.2220    39.1210    59.6040    24.5200     2.2840   -10.0640 
  173.5000    62.0120    51.6710    44.0840    70.1810    24.5560     2.2810   -10.2000 
  173.6250    63.1360    53.3270    46.3900    67.0070    24.5660     2.2860   -10.2460 
  173.7500    66.2030    53.2030    46.6170    57.4890    24.5790     2.2920   -10.2730 
  173.8750    68.1030    52.0700    45.5120    50.6800    24.5950     2.2920   -10.3420 
  174.0000    66.9600    50.2030    43.5140    52.2900    24.6130     2.2850   -10.4080 
  174.1250    65.2760    47.2280    40.5000    57.1150    24.6250     2.2760   -10.3950 
  174.2500    65.5450    43.2850    36.7260    59.2590    24.6350     2.2720   -10.3770 
  174.3750    66.9220    38.9780    32.7420    54.0660    24.6300     2.2760   -10.3730 
  174.5000    67.0550    35.3490    29.3780    41.4100    24.5960     2.2870   -10.3470 
  174.6250    68.7230    33.8140    27.6830    33.5660    24.5580     2.2980   -10.3510 
  174.7500    73.0540    34.6100    27.8020    31.6630    24.5390     2.3020   -10.3680 
  174.8750    75.0360    37.5390    29.6740    33.9540    24.5410     2.2950   -10.3480 
  175.0000    71.9190    41.8040    32.8400    39.9730    24.5670     2.2820   -10.3040 
  175.1250    67.1430    45.7790    36.2260    48.1390    24.5890     2.2690   -10.2720 
  175.2500    64.3880    47.6610    38.2870    56.3090    24.5680     2.2630   -10.1910 
  175.3750    61.8620    46.3020    37.8500    60.3280    24.5090     2.2650   -10.1010 
  175.5000    60.0050    41.6630    34.5890    58.5260    24.4730     2.2770   -10.0230 
  175.6250    61.7490    34.9720    29.3710    50.1780    24.4530     2.2990    -9.9240 
  175.7500    65.6670    28.5300    24.2040    37.6400    24.4310     2.3220    -9.7850 
  175.8750    70.2800    23.4330    20.0210    25.3590    24.3970     2.3430    -9.6650 
  176.0000    71.9500    19.9530    17.0590    17.7700    24.3620     2.3570    -9.5960 
  176.1250    72.5730    18.0270    15.3030    15.4250    24.3160     2.3630    -9.5000 
  176.2500    75.3710    16.9900    14.2870    14.3630    24.2770     2.3620    -9.3820 
  176.3750    78.5890    16.5150    13.7860    13.7440    24.2870     2.3590    -9.2740 
  176.5000    79.0820    16.3680    13.6260    13.3490    24.3270     2.3550    -9.1990 
  176.6250    77.8580    16.4430    13.7160    13.2140    24.3230     2.3560    -9.1030 
  176.7500    77.1730    16.6690    13.9550    13.3030    24.3190     2.3600    -8.9860 
  176.8750    75.4680    17.0450    14.3170    13.5860    24.3220     2.3670    -8.8590 
  177.0000    73.8100    17.5440    14.7670    14.1160    24.3640     2.3740    -8.7600 
  177.1250    72.9300    17.9500    15.2250    14.7650    24.4310     2.3770    -8.6970 
  177.2500    69.9720    18.1660    15.5860    15.4380    24.4940     2.3760    -8.6130 
  177.3750    67.7170    18.0970    15.7780    16.2440    24.4740     2.3730    -8.4880 
  177.5000    71.3410    17.6230    15.7740    17.3140    24.4180     2.3670    -8.3690 
  177.6250    76.0380    17.3100    15.5950    17.7340    24.3640     2.3620    -8.3290 
  177.7500    74.8620    17.2800    15.3640    17.0600    24.3820     2.3580    -8.3140 
  177.8750    71.6080    17.5830    15.2120    16.3590    24.4730     2.3540    -8.2810 
  178.0000    70.9880    18.4310    15.3220    16.9660    24.4520     2.3520    -8.2100 
  178.1250    70.5250    20.3570    16.0670    18.6950    24.2200     2.3470    -8.1940 
  178.2500    68.4870    23.5120    17.7040    19.6620    24.0290     2.3370    -8.2440 
  178.3750    67.8010    27.6470    20.5700    21.2090    24.0510     2.3200    -8.3040 
  178.5000    67.9820    33.4540    24.9530    25.7370    24.2380     2.2950    -8.3510 
  178.6250    63.9760    40.6100    31.0640    36.1160    24.4880     2.2700    -8.3740 
