~V
VERS. 2.00: Ver 2.00
~W
STRT.M 55.0000:
STOP.M 215.0000:
STEP.M 0.1250:
NULL. -999.2500:
UWI. F10125:
~C
DEPT.M :
GR.API :
RML.OHMM :
RI. :
RXO.OHMM :
CALI.CM :
DEN.GM/CC :
SP.MV :
~A
# ...
  122.5000    90.8390     7.1180     5.3520     5.7920    16.4580     2.2320   -17.4240 
  122.6250    85.4820     7.1880     5.4860     5.8150    16.6130     2.2380   -17.3980 
  122.7500    85.1930     7.0280     5.4770     5.5140    17.3120     2.2250   -17.3630 
  122.8750    87.4000     6.6530     5.3260     5.1270    18.7460     2.2140   -17.3410 
  123.0000    86.4440     6.1320     5.0710     4.8820    20.7890     2.2190   -17.3190 
  123.1250    87.9430     5.5870     4.7720     4.7400    22.1760     2.2450   -17.2930 
  123.2500    96.5480     5.1440     4.4970     4.5900    23.0440     2.2730   -17.2360 
  123.3750   106.0030     4.8680     4.2830     4.4770    23.5960     2.2940   -17.1790 
  123.5000   110.4490     4.7700     4.1560     4.3400    23.8870     2.3080   -17.1040 
  123.6250   106.6990     4.8440     4.1430     4.4210    24.0030     2.3180   -17.0350 
  123.7500    99.4150     5.0160     4.2150     4.5830    24.0330     2.3240   -16.9970 
  123.8750    94.4280     5.2290     4.3450     4.8130    24.0490     2.3230   -16.9540 
  124.0000    96.2110     5.4230     4.4880     4.7080    24.0870     2.3180   -16.9200 
  124.1250   100.2160     5.5380     4.5930     4.3390    24.2260     2.3130   -16.8650 
  124.2500    99.6310     5.5790     4.6430     4.1220    24.4680     2.3080   -16.8190 
  124.3750    96.2860     5.5680     4.6520     4.5640    24.7830     2.3040   -16.7860 
  124.5000    94.4610     5.5300     4.6440     5.0180    25.0850     2.3020   -16.7910 
  124.6250    94.9990     5.4750     4.6360     5.0640    25.2380     2.3030   -16.8120 
  124.7500    94.5320     5.4110     4.6280     4.9300    25.3140     2.3030   -16.8240 
  124.8750    93.9360     5.3540     4.6220     4.9310    25.3420     2.3030   -16.8490 
  125.0000    95.5850     5.3330     4.6270     4.9420    25.3660     2.3060   -16.8690 
  125.1250    98.2140     5.4330     4.6780     4.9690    25.4020     2.3080   -16.9140 
  125.2500    96.1100     5.7200     4.8220     5.2350    25.4210     2.2990   -16.9750 
  125.3750    89.6980     6.2190     5.0970     5.7040    25.4260     2.2830   -17.0310 
  125.5000    84.1680     6.8490     5.4880     6.3940    25.4310     2.2680   -17.0570 
  125.6250    82.5670     7.3600     5.8760     6.6420    25.4420     2.2590   -17.0810 
  125.7500    80.9980     7.5010     6.0790     7.1360    25.4440     2.2540   -17.1080 
  125.8750    80.2630     7.1890     5.9910     7.3830    25.4140     2.2530   -17.1170 
  126.0000    84.1530     6.6060     5.6690     6.7710    25.3630     2.2570   -17.1290 
  126.1250    94.5610     6.1550     5.3380     5.5190    25.3380     2.2670   -17.1320 
  126.2500   104.4300     6.0930     5.2000     5.0280    25.3310     2.2840   -17.1280 
  126.3750   106.0720     6.4420     5.3110     5.8180    25.3290     2.3040   -17.1200 
  126.5000    99.4680     7.0240     5.6120     7.9090    25.3060     2.3140   -17.1280 
  126.6250    93.2080     7.4500     5.9040     9.9570    25.2600     2.2940   -17.1260 
  126.7500    94.0750     7.4240     5.9680     8.3950    25.2400     2.2620   -17.1120 
  126.8750    98.7360     6.9520     5.7550     6.2350    25.2350     2.2480   -17.1160 
  127.0000   101.2680     6.3540     5.4240     5.2710    25.2000     2.2620   -17.1320 
  127.1250   100.2780     6.2130     5.3050     5.3720    25.1210     2.2920   -17.1760 
  127.2500    96.5090     6.8910     5.6310     5.7850    24.9800     2.3200   -17.2140 
  127.3750    89.4760     8.6140     6.5630     6.8900    24.7240     2.3550   -17.2430 
  127.5000    80.6480    11.4540     8.2290     9.2610    24.4430     2.4070   -17.2720 
  127.6250    72.9480    15.3550    10.8010    14.3760    24.2540     2.4670   -17.3170 
  127.7500    69.7640    19.5110    13.9110    19.2830    24.0710     2.5120   -17.3990 
  127.8750    71.7140    23.0090    16.9480    21.7710    23.8960     2.5340   -17.4720 
  128.0000    76.6800    25.0630    19.1410    22.0340    23.7990     2.5390   -17.5210 
  128.1250    78.3550    25.4210    19.9730    21.2570    23.8650     2.5400   -17.5490 
  128.2500    75.9190    25.1550    20.0780    20.0380    23.9560     2.5460   -17.5930 
  128.3750    72.6580    25.0770    20.0410    19.6630    23.9090     2.5550   -17.6510 
  128.5000    70.6920    25.6200    20.2410    21.2000    23.6510     2.5600   -17.7090 
  128.6250    70.1890    26.8280    20.8270    22.3790    23.0950     2.5620   -17.7590 
  128.7500    71.5290    28.2260    21.6040    22.6290    22.4250     2.5650   -17.7780 
  128.8750    74.9340    29.3790    22.3380    22.8550    22.1580     2.5680   -17.7980 
  129.0000    77.8650    29.9410    22.7950    23.1180    22.6620     2.5640   -17.8290 
  129.1250    78.0840    29.7270    22.7900    22.5340    23.5700     2.5430   -17.8660 
  129.2500    75.1470    29.0810    22.4700    21.1180    24.2550     2.5140   -17.8990 
  129.3750    69.8340    28.3060    22.0060    19.4590    24.6790     2.4870   -17.9140 
  129.5000    65.4030    27.6270    21.5600    18.5040    24.8670     2.4740   -17.9200 
  129.6250    65.6200    27.1240    21.2190    19.3060    24.9050     2.4730   -17.9210 
  129.7500    68.0640    26.6310    20.9080    19.8100    24.9440     2.4730   -17.9380 
  129.8750    68.5310    25.9620    20.5010    19.6410    25.0970     2.4690   -17.9490 
  130.0000    64.8770    25.0120    19.8980    19.4070    25.3550     2.4590   -17.9550 
  130.1250    59.6290    23.8170    19.0770    18.7880    25.5370     2.4520   -17.9720 
  130.2500    56.4790    22.6390    18.2110    17.1860    25.5690     2.4570   -17.9880 
  130.3750    57.0280    21.7110    17.4780    15.2320    25.4930     2.4730   -18.0370 
  130.5000    58.3010    21.1850    17.0200    14.3310    25.3980     2.4900   -18.1000 
  130.6250    60.9440    21.1720    16.9660    14.5180    25.3820     2.4980   -18.1860 
  130.7500    66.4000    21.5380    17.2460    15.2270    25.3840     2.4990   -18.2620 
  130.8750    72.7130    22.1820    17.7890    15.9840    25.3520     2.4970   -18.3420 
  131.0000    74.3550    22.9870    18.4890    16.9470    25.2670     2.4920   -18.4470 
  131.1250    71.1720    23.8480    19.2360    18.1340    25.1990     2.4870   -18.5430 
  131.2500    71.4430    24.7060    19.9620    19.3320    25.1490     2.4900   -18.6360 
  131.3750    75.9870    25.5340    20.6520    20.3770    25.0270     2.5030   -18.7150 
  131.5000    78.5180    26.2420    21.2500    21.0290    24.8740     2.5200   -18.7880 
  131.6250    76.5410    26.5340    21.5360    21.1100    24.7240     2.5300   -18.8450 
  131.7500    76.0320    26.1930    21.3300    20.7790    24.6850     2.5300   -18.9060 
  131.8750    77.8840    25.1410    20.5590    20.4570    24.6850     2.5200   -18.9850 
  132.0000    77.6520    23.5390    19.3460    19.8940    24.5180     2.5060   -19.0430 
  132.1250    75.5120    21.7330    17.9660    17.9240    24.2060     2.4980   -19.1010 
  132.2500    75.2840    20.0980    16.7120    15.1650    23.8280     2.5000   -19.1580 
  132.3750    76.8740    18.7980    15.7050    14.0440    23.7050     2.5090   -19.2110 
  132.5000    78.4440    17.8870    14.9860    14.1010    23.9680     2.5170   -19.2740 
  132.6250    78.1440    17.4800    14.6400    13.7200    24.6690     2.5150   -19.3390 
  132.7500    75.6750    17.6040    14.6770    12.8330    25.3410     2.5000   -19.4040 
  132.8750    74.1610    18.3250    15.1500    12.6840    25.7830     2.4710   -19.4470 
  133.0000    75.7570    19.5750    16.0520    13.8620    26.0250     2.4340   -19.5100 
  133.1250    77.6750    21.0410    17.2580    16.4860    25.9760     2.4110   -19.5700 
  133.2500    78.0690    22.0880    18.3060    19.3430    25.7390     2.4100   -19.6350 
  133.3750    79.2610    22.1600    18.6920    20.6340    25.5540     2.4290   -19.7050 
  133.5000    82.3870    21.0420    18.1140    19.0670    25.5710     2.4560   -19.7780 
  133.6250    82.0670    19.0220    16.7070    15.9000    25.7140     2.4770   -19.8670 
