~V
VERS. 2.00: Ver 2.00
~W
STRT.M 63.0000:
STOP.M 800.0000:
STEP.M 0.1250:
NULL. -999.2500:
UWI. F10168:
~C
DEPT.M :
SP.MV :
GR.API :
RML.OHMM :
RI. :
RXO.OHMM :
CALI.CM :
DEN.GM/CC :
~A
# ...
  501.7500    -3.2170    68.0440     8.7590     8.4760     8.7820    23.9430     2.4090 
  501.8750    -3.5340    68.6130     8.9540     8.4850     8.7970    23.9210     2.4340 
  502.0000    -3.9180    66.2150     9.1220     8.4840     8.9510    23.8960     2.4570 
  502.1250    -4.3700    64.7850     9.2030     8.4730     9.2460    23.8930     2.4660 
  502.2500    -4.9000    64.2440     9.1770     8.4350     9.3140    23.9440     2.4550 
  502.3750    -5.5240    62.8850     9.0620     8.3590     8.7610    24.0450     2.4260 
  502.5000    -6.2870    62.3950     8.9270     8.2700     7.9770    24.1150     2.3890 
  502.6250    -7.1930    64.1860     8.9220     8.2630     7.6630    23.9470     2.3550 
  502.7500    -8.2460    64.3550     9.1640     8.4430     8.9450    23.6080     2.3310 
  502.8750    -9.4360    59.7590     9.7350     8.9080    10.2620    23.2350     2.3190 
  503.0000   -10.7910    53.8390    10.6630     9.7250    11.5920    22.9360     2.3200 
  503.1250   -12.2530    52.6070    11.9530    10.9440    13.5350    22.7500     2.3300 
  503.2500   -13.7600    54.7750    13.4150    12.3770    15.8370    22.6440     2.3400 
  503.3750   -15.2220    54.8860    14.8220    13.7790    17.3490    22.5850     2.3440 
  503.5000   -16.5130    53.4430    15.8680    14.8260    18.2320    22.5310     2.3390 
  503.6250   -17.5690    56.0860    16.1250    15.0920    18.6660    22.4810     2.3310 
  503.7500   -18.3550    61.6280    15.6420    14.6160    17.6940    22.4790     2.3250 
  503.8750   -18.8410    65.6960    14.6560    13.6160    15.1680    22.5340     2.3210 
  504.0000   -18.9710    64.7130    13.5550    12.4560    12.2690    22.6000     2.3150 
  504.1250   -18.8420    59.7530    12.7640    11.5540    11.3050    22.6090     2.3050 
  504.2500   -18.5290    55.8430    12.4280    11.0830    12.0760    22.5620     2.2950 
  504.3750   -18.1520    55.4850    12.5640    11.0600    13.6960    22.5070     2.2880 
  504.5000   -17.8330    57.6900    13.0940    11.4040    14.2770    22.4680     2.2850 
  504.6250   -17.6210    60.4650    13.8850    11.9900    15.0010    22.4370     2.2810 
  504.7500   -17.5410    61.9630    14.6870    12.6390    16.3560    22.4260     2.2710 
  504.8750   -17.6390    60.0520    15.3450    13.2720    17.7860    22.4640     2.2550 
  505.0000   -17.8970    55.6350    15.7810    13.8610    18.5010    22.5610     2.2360 
  505.1250   -18.2190    54.0190    15.9710    14.3680    18.7160    22.7020     2.2140 
  505.2500   -18.5360    55.1130    16.0130    14.7500    18.9870    22.8640     2.1840 
  505.3750   -18.7870    54.9390    15.9660    14.9530    18.5310    23.0150     2.1420 
  505.5000   -18.8960    52.8640    15.8700    14.9540    17.4120    23.1190     2.0910 
  505.6250   -18.8930    51.9120    15.7270    14.7510    16.8360    23.1640     2.0460 
  505.7500   -18.7850    52.3030    15.5380    14.4450    16.4050    23.1820     2.0250 
  505.8750   -18.5550    52.3550    15.3200    14.1260    15.7480    23.1880     2.0390 
  506.0000   -18.2280    52.5540    15.1250    13.8920    14.3030    23.1890     2.0820 
  506.1250   -17.8800    53.4870    15.0620    13.8650    16.1730    23.2010     2.1330 
  506.2500   -17.5550    54.5180    15.1980    14.0730    16.9620    23.2240     2.1670 
  506.3750   -17.2670    53.8480    15.5530    14.5010    18.7470    23.2350     2.1750 
  506.5000   -17.0350    51.3720    16.0400    15.0400    20.3990    23.1970     2.1630 
  506.6250   -16.8120    49.3770    16.3800    15.4150    21.3050    23.1150     2.1530 
  506.7500   -16.5340    48.2970    16.2910    15.3690    21.8820    23.0330     2.1650 
  506.8750   -16.1500    49.5980    15.6490    14.7900    22.2510    22.9670     2.2020 
  507.0000   -15.6050    55.6190    14.5560    13.7790    21.4820    22.9350     2.2530 
  507.1250   -14.8990    65.1960    13.2950    12.6030    18.0470    22.9580     2.2990 
  507.2500   -14.0180    73.5950    12.1860    11.5680    13.4150    23.0070     2.3260 
  507.3750   -12.9700    78.2760    11.3560    10.7920    11.2090    23.0690     2.3370 
  507.5000   -11.7540    79.9920    10.8140    10.2710    11.2400    23.2190     2.3440 
  507.6250   -10.4550    79.7070    10.5290     9.9430    10.5970    23.7230     2.3640 
  507.7500    -9.1660    77.8010    10.3770     9.6960     9.7710    24.3310     2.3960 
  507.8750    -7.9470    74.1140    10.2900     9.4900     9.3950    24.5830     2.4260 
  508.0000    -6.8830    67.7540    10.2050     9.3230     9.5200    24.4230     2.4360 
  508.1250    -5.9850    60.9660    10.0420     9.1990     9.4880    24.1490     2.4100 
  508.2500    -5.2600    58.6630     9.7620     9.0770     8.9910    24.0900     2.3620 
  508.3750    -4.7180    61.4270     9.3730     8.9060     8.5840    24.1780     2.3130 
  508.5000    -4.3590    65.4510     8.9360     8.6490     8.3240    24.3220     2.2770 
  508.6250    -4.1290    65.2270     8.5770     8.3310     7.7140    24.3570     2.2630 
  508.7500    -3.9990    63.2260     8.3880     8.0620     6.9900    24.1700     2.2650 
  508.8750    -3.9610    63.9140     8.4140     7.9540     6.5530    23.8340     2.2850 
  509.0000    -3.9900    67.0780     8.6620     8.0860     6.8280    23.5910     2.3200 
  509.1250    -4.0560    67.4950     9.1230     8.4930     7.7990    23.5890     2.3690 
  509.2500    -4.1490    63.7720     9.6690     9.0170     8.9580    23.6830     2.4160 
  509.3750    -4.2540    59.7810    10.1720     9.4890     9.7170    23.7550     2.4450 
  509.5000    -4.3700    58.3470    10.5030     9.7580    10.1800    23.7930     2.4460 
  509.6250    -4.4920    60.0260    10.5840     9.7550    10.3900    23.8140     2.4170 
  509.7500    -4.6190    62.2040    10.5860     9.6770    10.6980    23.8330     2.3800 
  509.8750    -4.7490    63.1700    10.7770     9.7960    10.9250    23.8440     2.3570 
  510.0000    -4.8720    62.3080    11.4920    10.4250    11.3240    23.8460     2.3680 
  510.1250    -4.9530    59.6760    13.2260    12.0070    12.9720    23.8470     2.4220 
  510.2500    -4.9840    56.4080    15.9760    14.5090    15.7820    23.8520     2.4970 
  510.3750    -4.9620    53.3690    19.3450    17.5940    21.7730    23.8480     2.5660 
  510.5000    -4.8770    54.1290    22.1760    20.3530    34.9830    23.8330     2.6070 
  510.6250    -4.7390    59.3370    22.4360    21.1300    55.5770    23.8360     2.6060 
  510.7500    -4.5520    62.3460    20.1230    19.6430    51.0670    23.8790     2.5780 
  510.8750    -4.3150    60.7060    16.5080    16.6550    26.5700    23.8860     2.5340 
  511.0000    -4.0410    58.5880    13.0910    13.4030    13.4700    23.7170     2.4830 
  511.1250    -3.7750    60.2810    10.8190    10.9170     9.9450    23.3820     2.4300 
  511.2500    -3.5370    62.7770     9.4970     9.2880     8.3110    23.0210     2.3830 
  511.3750    -3.3330    63.7820     8.8450     8.3490     7.4390    22.7560     2.3490 
  511.5000    -3.1800    63.4970     8.5800     7.8570     7.1210    22.6590     2.3320 
  511.6250    -3.0670    62.8740     8.4830     7.6160     7.3070    22.7850     2.3320 
  511.7500    -2.9770    63.2090     8.4120     7.4810     7.3240    23.0770     2.3430 
  511.8750    -2.8990    64.7000     8.3690     7.4550     6.8630    23.4660     2.3590 
  512.0000    -2.8260    65.9750     8.3950     7.5750     6.4430    23.8430     2.3790 
  512.1250    -2.7680    64.5890     8.5360     7.8680     6.2430    24.0400     2.3980 
  512.2500    -2.7100    60.9580     8.7380     8.2330     6.6140    24.1060     2.4110 
  512.3750    -2.6490    58.0300     8.9190     8.5570     7.7550    24.1020     2.4140 
  512.5000    -2.5710    58.9380     9.0010     8.7410     9.1040    24.0760     2.4060 
  512.6250    -2.4930    62.9010     8.9410     8.7300     9.1040    24.0450     2.3940 
  512.7500    -2.4290    65.4200     8.8320     8.6320     8.4860    24.0220     2.3900 
  512.8750    -2.3740    65.3170     8.7700     8.5590     7.7520    24.0100     2.3980 
