~V
VERS. 2.00: Ver 2.00
~W
STRT.M 52.0000:
STOP.M 233.0000:
STEP.M 0.1250:
NULL. -999.2500:
UWI. F10175:
~C
DEPT.M :
GR.API :
RML.OHMM :
RI. :
RXO.OHMM :
CALI.CM :
DEN.GM/CC :
SP.MV :
~A
# ...
  175.7500    45.0620     5.7100     4.8200     5.3240    24.8240     2.4040    -3.6780 
  175.8750    45.2820     5.7070     4.7850     5.2120    25.0150     2.4100    -3.4690 
  176.0000    44.1050     5.7250     4.7630     5.2650    24.9430     2.4160    -3.1280 
  176.1250    42.5110     5.7660     4.7590     5.2850    24.8860     2.4200    -2.6650 
  176.2500    43.5500     5.8220     4.7650     5.3420    25.0570     2.4210    -2.1280 
  176.3750    46.8760     5.8830     4.7740     5.3380    25.2260     2.4210    -1.6350 
  176.5000    48.2320     5.9390     4.7810     5.2760    25.1260     2.4200    -1.2650 
  176.6250    46.1480     5.9850     4.7840     5.3420    24.8740     2.4180    -1.1300 
  176.7500    45.5790     6.0260     4.7890     5.3640    24.7310     2.4120    -1.2000 
  176.8750    48.4810     6.0750     4.8050     5.3770    24.6250     2.4030    -1.4540 
  177.0000    53.5880     6.1530     4.8450     5.3550    24.6240     2.3970    -1.9050 
  177.1250    59.8490     6.3020     4.9340     5.4890    24.5780     2.3990    -2.6180 
  177.2500    68.7480     6.5390     5.0930     5.7400    24.5640     2.4110    -3.5710 
  177.3750    77.8960     6.8710     5.3310     5.8390    24.4760     2.4270    -4.6940 
  177.5000    84.3940     7.2720     5.6370     5.9240    24.5180     2.4420    -5.8970 
  177.6250    87.6730     7.6790     5.9700     6.3630    24.8700     2.4450    -7.1070 
  177.7500    89.6670     8.0110     6.2510     7.2570    25.2350     2.4370    -8.2650 
  177.8750    90.9060     8.2090     6.4180     7.7630    25.2990     2.4220    -9.3940 
  178.0000    91.1470     8.2530     6.4410     7.6450    25.1800     2.4100   -10.4840 
  178.1250    94.6840     8.1510     6.3220     7.2850    25.2300     2.4030   -11.4800 
  178.2500   100.3120     7.9890     6.1390     6.9610    25.4040     2.3980   -12.3500 
  178.3750   102.9870     7.8320     5.9520     6.9460    25.4990     2.3880   -13.0850 
  178.5000    99.0800     7.7310     5.8110     7.2480    25.4440     2.3690   -13.7380 
  178.6250    92.7690     7.7360     5.7610     7.2280    25.4570     2.3480   -14.3720 
  178.7500    91.1810     7.8370     5.8010     7.0740    25.5360     2.3350   -15.0260 
  178.8750    93.0660     8.0200     5.9250     7.3800    25.5800     2.3310   -15.6650 
  179.0000    93.8000     8.2610     6.1180     7.8920    25.4780     2.3350   -16.2360 
  179.1250    90.5920     8.5310     6.3590     8.3110    25.3620     2.3440   -16.6960 
  179.2500    88.6880     8.7960     6.6140     8.4830    25.3030     2.3560   -17.1090 
  179.3750    91.6300     9.0380     6.8630     8.6260    25.2680     2.3720   -17.4780 
  179.5000    95.9630     9.2450     7.0890     8.7600    25.1820     2.3900   -17.7950 
  179.6250    96.5200     9.4050     7.2720     9.0380    25.0830     2.4020   -18.0310 
  179.7500    94.2760     9.5190     7.4130     9.4880    25.0030     2.4030   -18.1210 
  179.8750    91.3640     9.5790     7.5030     9.5810    24.9830     2.3960   -18.0420 
  180.0000    88.1390     9.5660     7.5350     9.0750    24.9850     2.3870   -17.7950 
  180.1250    86.8690     9.4280     7.4700     8.8680    25.0080     2.3830   -17.3560 
  180.2500    89.9440     9.1440     7.2900     8.8250    25.0200     2.3850   -16.7050 
  180.3750    93.5880     8.7030     6.9720     8.6360    25.0260     2.3880   -15.8150 
  180.5000    95.1160     8.1270     6.5260     8.0890    25.1810     2.3900   -14.6960 
  180.6250    94.5470     7.4800     6.0010     7.4760    25.4760     2.3890   -13.3270 
  180.7500    90.9500     6.8710     5.4940     6.6220    25.5080     2.3920   -11.8850 
  180.8750    84.4730     6.3790     5.0750     5.8390    24.8970     2.4040   -10.4900 
  181.0000    77.3940     6.0450     4.7840     5.3810    24.5740     2.4310    -9.2030 
  181.1250    70.6690     5.8800     4.6380     5.4320    24.8610     2.4640    -8.0350 
  181.2500    62.9200     5.7980     4.5740     5.5500    25.1830     2.4810    -6.9810 
  181.3750    57.1170     5.7340     4.5400     5.3710    25.3900     2.4640    -6.0380 
  181.5000    55.7360     5.6390     4.4890     4.9770    25.3770     2.4130    -5.1850 
  181.6250    54.7160     5.5020     4.4020     4.5610    25.2970     2.3480    -4.4360 
  181.7500    50.1710     5.3720     4.3110     4.2900    25.4000     2.3030    -3.7360 
  181.8750    45.7110     5.3000     4.2610     4.3250    25.6160     2.2920    -3.0450 
  182.0000    45.4560     5.3270     4.2910     4.5560    25.6560     2.3110    -2.3580 
  182.1250    50.0740     5.4670     4.4260     4.9140    25.4150     2.3420    -1.7760 
  182.2500    56.0960     5.6550     4.6190     5.2180    25.1440     2.3700    -1.3460 
  182.3750    61.9510     5.8260     4.8110     5.5890    25.0390     2.3910    -1.0900 
  182.5000    66.5720     5.9210     4.9400     5.9470    25.0490     2.4060    -1.0190 
  182.6250    69.4640     5.8970     4.9460     5.8210    25.0600     2.4150    -1.1040 
  182.7500    71.5160     5.7970     4.8620     5.4980    25.0350     2.4170    -1.3000 
  182.8750    73.5870     5.6730     4.7410     5.2690    24.9890     2.4150    -1.5690 
  183.0000    75.8800     5.5810     4.6400     5.1730    24.8920     2.4130    -1.9180 
  183.1250    80.2490     5.5610     4.6060     5.2320    24.7770     2.4140    -2.2870 
  183.2500    87.4090     5.5890     4.6240     5.4190    24.7510     2.4180    -2.6330 
  183.3750    94.3620     5.6270     4.6620     5.6080    24.8530     2.4220    -2.9500 
  183.5000    96.1090     5.6320     4.6760     5.7580    24.7820     2.4260    -3.2440 
  183.6250    91.7160     5.5690     4.6260     5.7140    24.7150     2.4270    -3.5690 
  183.7500    89.7550     5.4600     4.5250     5.5500    24.6600     2.4250    -3.9140 
  183.8750    92.9580     5.3420     4.4050     5.3400    24.6610     2.4230    -4.2730 
  184.0000    96.8810     5.2610     4.3080     5.0940    24.6750     2.4210    -4.6030 
  184.1250    95.5440     5.2720     4.2880     5.0740    24.6960     2.4200    -4.8990 
  184.2500    91.5060     5.3670     4.3520     5.3510    24.6750     2.4170    -5.1500 
  184.3750    88.3730     5.5230     4.4840     5.6690    24.6870     2.4140    -5.3760 
  184.5000    88.2520     5.6950     4.6490     5.9980    24.7540     2.4090    -5.5800 
  184.6250    90.0320     5.8320     4.7950     6.4240    24.8280     2.4040    -5.7430 
  184.7500    90.0100     5.9250     4.9010     6.6950    24.8970     2.3990    -5.8810 
  184.8750    88.2330     6.0040     4.9810     6.4370    24.9300     2.3940    -5.9940 
  185.0000    87.5460     6.1220     5.0860     6.2730    24.9670     2.3880    -6.0850 
  185.1250    87.8460     6.3570     5.2890     6.5760    25.0050     2.3800    -6.1830 
  185.2500    87.1730     6.7200     5.6110     7.2060    25.0220     2.3740    -6.2920 
  185.3750    84.9860     7.1900     6.0500     8.0710    25.0250     2.3690    -6.4340 
  185.5000    83.5200     7.7130     6.5690     9.3400    25.0250     2.3680    -6.5960 
  185.6250    81.9370     8.1940     7.0780     9.7030    25.0170     2.3720    -6.7350 
  185.7500    80.4180     8.5670     7.4780     9.7310    24.9870     2.3780    -6.8250 
  185.8750    80.8190     8.8000     7.7210     9.9210    24.9490     2.3850    -6.8630 
  186.0000    82.4090     8.9040     7.8120    10.3210    24.9350     2.3930    -6.8670 
  186.1250    85.2250     8.9000     7.7920     9.7810    24.9480     2.4000    -6.8400 
  186.2500    87.5910     8.8390     7.7330     8.9090    24.9400     2.4050    -6.8450 
  186.3750    88.0470     8.7420     7.6520     8.8280    24.9600     2.4080    -6.8740 
  186.5000    87.0200     8.6410     7.5600     9.7540    24.9760     2.4060    -6.9190 
  186.6250    88.2660     8.6380     7.5210    10.3590    24.9700     2.4030    -7.0210 
  186.7500    90.9300     8.8910     7.6430    10.4920    24.9550     2.4010    -7.2330 
  186.8750    91.7510     9.6070     8.0710     9.4930    24.9590     2.3980    -7.5370 
