~V
VERS. 2.00: Ver 2.00
~W
STRT.M 64.0000:
STOP.M 235.0000:
STEP.M 0.1250:
NULL. -999.2500:
UWI. F10178:
~C
DEPT.M :
GR.API :
RML.OHMM :
RI. :
RXO.OHMM :
CALI.CM :
DEN.GM/CC :
SP.MV :
~A
# ...
  187.7500    91.6410     7.1040     6.1540     7.0270    25.2650     2.4530    -8.0680 
  187.8750    91.2740     7.0050     6.0570     6.6210    25.1770     2.4450    -8.2330 
  188.0000    88.4410     6.9220     5.9720     6.4060    25.0040     2.4440    -8.4970 
  188.1250    86.3260     6.8730     5.9160     6.5140    24.9530     2.4490    -8.7100 
  188.2500    86.6640     6.8570     5.8890     6.6900    24.9580     2.4560    -8.8150 
  188.3750    87.8970     6.8640     5.8880     6.8050    24.9390     2.4610    -8.8470 
  188.5000    89.7520     6.8840     5.9060     6.8190    24.9260     2.4610    -8.8880 
  188.6250    90.0970     6.9270     5.9490     7.1760    24.9240     2.4550    -9.0070 
  188.7500    88.2090     7.0180     6.0320     7.1700    24.9220     2.4430    -9.1410 
  188.8750    86.3580     7.1940     6.1890     6.8810    24.9120     2.4280    -9.2420 
  189.0000    85.2860     7.4830     6.4510     7.0650    24.9110     2.4130    -9.3430 
  189.1250    85.7560     7.9190     6.8490     7.7170    24.9210     2.4020    -9.5180 
  189.2500    86.9880     8.4650     7.3530     8.6990    24.9080     2.3950    -9.7150 
  189.3750    87.5840     9.0930     7.9330    10.0190    24.8990     2.3920    -9.8830 
  189.5000    86.2940     9.7530     8.5450    10.8540    24.8960     2.3910    -9.9970 
  189.6250    84.3130    10.3670     9.1150    11.0240    24.8950     2.3920   -10.1040 
  189.7500    83.8180    10.8600     9.5790    11.5290    24.8960     2.3920   -10.2920 
  189.8750    84.1580    11.1820     9.8890    12.9600    24.8990     2.3940   -10.5320 
  190.0000    84.0450    11.3270    10.0290    14.1720    24.9090     2.3990   -10.7210 
  190.1250    83.9300    11.3540    10.0340    13.0430    24.9240     2.4040   -10.8850 
  190.2500    84.5420    11.4460    10.0520    12.3110    24.9410     2.4070   -11.0380 
  190.3750    86.2770    11.8110    10.2450    12.1010    24.9700     2.4060   -11.1350 
  190.5000    87.5130    12.6900    10.7960    12.5130    24.9980     2.3990   -11.2280 
  190.6250    85.9330    14.5000    12.0460    14.8320    25.0090     2.3880   -11.3000 
  190.7500    84.2180    17.3690    14.1650    17.2140    25.0240     2.3770   -11.3360 
  190.8750    85.4240    21.4400    17.4010    21.4910    25.0210     2.3670   -11.3830 
  191.0000    87.1450    26.6810    21.9290    28.3400    24.9980     2.3590   -11.4650 
  191.1250    82.3330    32.8320    27.8160    40.0120    24.9620     2.3540   -11.5460 
  191.2500    73.8350    39.0340    34.2350    52.8850    24.9440     2.3570   -11.6180 
  191.3750    66.5540    44.5940    40.3450    61.4210    24.8400     2.3680   -11.7530 
  191.5000    62.0110    49.1210    45.4780    64.8730    24.6580     2.3840   -11.9450 
  191.6250    59.6490    52.6290    49.3920    61.9990    24.6180     2.3910   -12.2100 
  191.7500    60.0100    55.6500    52.7780    59.3400    24.7320     2.3800   -12.5190 
  191.8750    62.7930    57.9960    55.8010    62.4730    24.8130     2.3500   -12.8910 
  192.0000    64.1190    58.6160    57.5590    66.8470    24.8300     2.3100   -13.3550 
  192.1250    62.8400    55.4580    55.5550    65.9950    24.8230     2.2780   -13.8390 
  192.2500    63.4190    48.7400    49.3630    65.3330    24.8550     2.2600   -14.1690 
  192.3750    68.2130    39.8460    40.3310    65.4160    24.8870     2.2580   -14.3600 
  192.5000    74.0100    30.9350    31.0970    50.6230    24.9100     2.2670   -14.5470 
  192.6250    79.1420    24.2540    24.3220    29.8270    24.7910     2.2830   -14.8080 
  192.7500    82.5810    20.2410    20.2680    21.5910    24.7090     2.3020   -15.0950 
  192.8750    82.8680    18.9320    18.6580    21.9990    24.6480     2.3200   -15.3050 
  193.0000    79.8940    20.2160    19.3750    21.4000    24.6200     2.3330   -15.5150 
  193.1250    75.9270    25.1020    23.3930    30.6450    24.6200     2.3350   -15.8190 
  193.2500    73.5890    34.3310    31.0820    52.8030    24.6090     2.3270   -16.2840 
  193.3750    72.0350    47.9750    42.8020    75.0590    24.5980     2.3120   -16.9020 
  193.5000    69.8900    64.0910    57.6580    80.5010    24.6070     2.2950   -17.5460 
  193.6250    66.5110    79.0350    72.4650    80.2640    24.6150     2.2810   -18.0080 
  193.7500    64.1330    90.6950    83.6830    85.7740    24.5610     2.2710   -18.3640 
  193.8750    64.2770    99.0580    90.6440    92.8340    24.5550     2.2650   -18.6860 
  194.0000    65.0430   105.2800    95.1380   104.6640    24.6930     2.2610   -18.8150 
  194.1250    63.0720   111.2150    99.2940   110.8880    24.8700     2.2570   -18.7850 
  194.2500    60.3720   118.1090   104.0810   115.8880    25.1370     2.2500   -18.7510 
  194.3750    59.2320   126.2870   109.8190   125.1730    25.4370     2.2420   -18.6650 
  194.5000    59.1850   135.6780   116.7100   140.8710    25.0780     2.2350   -18.5270 
  194.6250    58.5580   145.4880   124.7090   154.3490    25.0260     2.2340   -18.4370 
  194.7500    58.1990   153.4900   132.3730   174.8370    25.2210     2.2360   -18.3640 
  194.8750    59.9610   156.9120   137.3370   192.0070    25.2370     2.2360   -18.2990 
  195.0000    62.6670   153.5550   136.9910   185.8580    25.1150     2.2300   -18.3350 
  195.1250    63.4400   142.4570   129.3790   170.9810    25.0050     2.2180   -18.2950 
  195.2500    64.1520   127.5710   117.5740   161.3940    25.0990     2.2100   -18.1300 
  195.3750    65.5290   112.1050   104.5210   123.8920    25.3070     2.2100   -18.0370 
  195.5000    67.0780    98.3510    92.5710    88.8170    25.6940     2.2180   -18.0660 
  195.6250    67.7460    87.7050    83.2880    83.2370    25.0370     2.2300   -18.1500 
  195.7500    67.6360    79.5580    76.2480    86.3320    24.7330     2.2420   -18.2580 
  195.8750    67.4330    73.4280    70.9850    82.8990    24.6610     2.2520   -18.3320 
  196.0000    66.9560    68.9410    67.1350    70.7090    24.6970     2.2610   -18.3090 
  196.1250    67.9060    66.2570    64.8430    66.5350    24.6680     2.2710   -18.3650 
  196.2500    69.4670    65.3070    64.0980    68.6670    24.7700     2.2800   -18.5460 
  196.3750    68.7710    66.2970    65.1940    66.4550    25.0540     2.2870   -18.6410 
  196.5000    66.3830    69.1880    68.3040    60.4100    25.0580     2.2890   -18.5590 
  196.6250    64.2040    73.5080    73.2030    71.9920    24.9280     2.2830   -18.3190 
  196.7500    62.6850    77.7570    78.2640    95.3300    24.7560     2.2690   -18.0050 
  196.8750    61.6420    80.6680    81.9660   108.9710    24.8460     2.2490   -17.7290 
  197.0000    62.8860    81.4160    83.2100   106.6900    25.0520     2.2320   -17.6110 
  197.1250    66.0610    79.7350    81.4590    97.7280    25.1890     2.2400   -17.6360 
  197.2500    66.3730    76.9580    78.2340    86.3810    25.2230     2.2810   -17.7610 
  197.3750    62.1360    74.2010    74.9440    89.9680    25.1480     2.3440   -18.0830 
  197.5000    56.9150    72.3020    72.6270   121.6940    24.9550     2.4000   -18.5650 
  197.6250    55.0830    71.9090    71.9170   109.0740    24.6640     2.4050   -19.1570 
  197.7500    57.5640    72.9150    72.6380    71.8830    24.4860     2.3600   -19.8380 
  197.8750    60.5470    75.3200    74.7820    62.3640    24.3970     2.2860   -20.5760 
  198.0000    60.6480    79.0620    78.2890    74.3000    24.3870     2.2170   -21.2630 
  198.1250    60.7100    84.0660    83.1570    94.9980    24.5170     2.1800   -21.7060 
  198.2500    63.6400    89.6460    88.7500   102.1430    24.7500     2.1670   -21.8950 
  198.3750    65.4530    95.2030    94.4250   108.6960    24.9640     2.1670   -21.9590 
  198.5000    64.1170   100.1890    99.4990   108.7190    25.0390     2.1710   -22.0200 
  198.6250    62.9110   104.0980   103.3630   105.6600    24.9930     2.1770   -22.0760 
  198.7500    61.9570   106.9980   106.1300   110.0030    25.0030     2.1830   -22.1160 
  198.8750    60.1350   108.8950   107.8480   124.1000    25.1140     2.1880   -22.0550 
