~V
VERS. 2.00: Ver 2.00
~W
STRT.M 52.0000:
STOP.M 224.0000:
STEP.M 0.1250:
NULL. -999.2500:
UWI. F10155:
~C
DEPT.M :
SP.MV :
GR.API :
RML.OHMM :
RI. :
RXO.OHMM :
CALI.CM :
DEN.GM/CC :
~A
   52.0000   274.9990  -999.2500  -999.2500  -999.2500  -999.2500  -999.2500     2.0830 
   52.1250   274.9990  -999.2500  -999.2500  -999.2500  -999.2500  -999.2500     2.1030 
   52.2500   274.9990  -999.2500  -999.2500  -999.2500  -999.2500  -999.2500     2.1160 
   52.3750   274.9990  -999.2500  -999.2500  -999.2500  -999.2500  -999.2500     2.1130 
   52.5000   274.9990  -999.2500  -999.2500  -999.2500  -999.2500  -999.2500     2.0950 
   52.6250   274.9990  -999.2500  -999.2500  -999.2500  -999.2500  -999.2500     2.0770 
   52.7500   274.9990  -999.2500  -999.2500  -999.2500  -999.2500  -999.2500     2.0670 
   52.8750   274.9990  -999.2500  -999.2500  -999.2500  -999.2500  -999.2500     2.0720 
   53.0000   274.9990  -999.2500  -999.2500  -999.2500  -999.2500  -999.2500     2.0870 
   53.1250   274.9990  -999.2500  -999.2500  -999.2500  -999.2500  -999.2500     2.1040 
   53.2500   274.9990  -999.2500  -999.2500  -999.2500  -999.2500  -999.2500     2.1210 
   53.3750   274.9990  -999.2500  -999.2500  -999.2500  -999.2500  -999.2500     2.1350 
   53.5000   274.9990  -999.2500  -999.2500  -999.2500  -999.2500  -999.2500     2.1480 
   53.6250   274.9990  -999.2500  -999.2500  -999.2500  -999.2500  -999.2500     2.1600 
   53.7500   274.9990  -999.2500  -999.2500  -999.2500  -999.2500  -999.2500     2.1730 
   53.8750   274.9990  -999.2500  -999.2500  -999.2500  -999.2500  -999.2500     2.1850 
   54.0000   274.9990  -999.2500  -999.2500  -999.2500  -999.2500  -999.2500     2.1980 
   54.1250   274.9990  -999.2500  -999.2500  -999.2500  -999.2500  -999.2500     2.2120 
   54.2500   274.9990  -999.2500  -999.2500  -999.2500  -999.2500  -999.2500     2.2260 
   54.3750   274.9990  -999.2500  -999.2500  -999.2500  -999.2500  -999.2500     2.2410 
   54.5000   274.9990  -999.2500  -999.2500  -999.2500  -999.2500  -999.2500     2.2550 
   54.6250   274.9990  -999.2500  -999.2500  -999.2500  -999.2500  -999.2500     2.2670 
   54.7500   274.9990  -999.2500  -999.2500  -999.2500  -999.2500  -999.2500     2.2710 
   54.8750   274.9990  -999.2500  -999.2500  -999.2500  -999.2500  -999.2500     2.2610 
   55.0000   274.9990  -999.2500  -999.2500  -999.2500  -999.2500  -999.2500     2.2300 
   55.1250   274.9990  -999.2500  -999.2500  -999.2500  -999.2500  -999.2500     2.1830 
   55.2500   274.9990  -999.2500  -999.2500  -999.2500  -999.2500  -999.2500     2.1280 
   55.3750   273.6020  -999.2500  -999.2500  -999.2500  -999.2500  -999.2500     2.0760 
   55.5000   269.9600  -999.2500  -999.2500  -999.2500  -999.2500  -999.2500     2.0390 
   55.6250   266.2650  -999.2500  -999.2500  -999.2500  -999.2500  -999.2500     2.0200 
   55.7500   261.3250  -999.2500  -999.2500  -999.2500  -999.2500  -999.2500     2.0150 
   55.8750   252.6140    47.5940     9.9740     1.2420     1.6250    25.8130     2.0190 
   56.0000   241.4500    47.5940     9.9740     1.2420     1.6250    25.8130     2.0260 
   56.1250   230.3930    47.7230     9.8570     1.2490     1.6400    25.8130     2.0320 
   56.2500   219.1270    49.1450     9.5370     1.2620     1.6720    25.8130     2.0400 
   56.3750   209.2660    50.4890     9.2180     1.2670     1.6920    25.8130     2.0540 
   56.5000   201.3960    49.3200     8.9450     1.2660     1.7040    25.8130     2.0720 
   56.6250   191.3200    48.3330     8.7180     1.2600     1.7190    25.8130     2.0860 
   56.7500   180.4880    49.5940     8.5310     1.2530     1.7370    25.8130     2.0910 
   56.8750   171.7850    51.9990     8.3800     1.2450     1.7580    25.8130     2.0830 
   57.0000   163.9430    53.1580     8.2790     1.2360     1.7810    25.8130     2.0660 
   57.1250   154.8840    53.3440     8.2440     1.2230     1.7880    25.8130     2.0500 
   57.2500   144.9500    52.9940     8.2760     1.2010     1.7870    25.8120     2.0430 
   57.3750   134.0600    53.1830     8.2630     1.1600     1.7860    25.8100     2.0480 
   57.5000   122.5450    53.6920     7.7650     1.0660     1.7930    25.8120     2.0660 
   57.6250   112.5880    53.7770     6.5200     0.8910     1.8050    25.8130     2.1020 
   57.7500   103.8030    52.8160     4.6910     0.6400     1.8260    25.8120     2.1730 
   57.8750    95.5380    51.4830     2.8270     0.3840     1.8620    25.8110     2.2950 
   58.0000    86.9570    51.2340     1.5590     0.2060     1.8910    25.8000     2.4550 
   58.1250    77.3710    50.3620     0.8900     0.1070     1.8230    25.7720     2.5930 
   58.2500    66.5240    49.4690     0.6670     0.0740     1.6490    25.7260     2.6510 
   58.3750    54.4780    51.2210     0.7860     0.1100     1.7800    25.7940     2.6010 
   58.5000    41.8330    57.9850     1.3210     0.2670     2.7040    26.3290     2.4560 
   58.6250    29.4290    65.8240     2.2660     0.5960     4.3230    27.4930     2.2890 
   58.7500    17.6480    70.8890     3.5090     1.1560     5.4540    29.0630     2.1520 
   58.8750     6.7800    72.8080     4.6850     1.9250     5.5730    30.9310     2.0690 
   59.0000    -2.5160    74.8850     5.2980     2.7290     5.2950    31.9610     2.0460 
   59.1250    -9.9930    77.7540     5.4360     3.4100     5.3550    31.7900     2.0540 
   59.2500   -15.3880    80.1290     5.4570     3.9960     5.5730    30.3970     2.0690 
   59.3750   -18.8360    80.9700     5.6850     4.5770     5.8280    28.9920     2.0840 
   59.5000   -20.8790    81.6000     6.2140     5.1890     6.0030    28.2940     2.1020 
   59.6250   -22.4190    82.3820     6.8190     5.7500     6.0850    27.6660     2.1320 
   59.7500   -23.6710    83.0100     7.2910     6.1530     6.4290    26.4490     2.1710 
   59.8750   -24.6700    84.6440     7.4950     6.3160     7.2560    25.0730     2.2060 
   60.0000   -25.3490    87.3790     7.3970     6.2190     8.4990    24.0600     2.2170 
   60.1250   -25.7510    88.3700     7.1780     6.0080     8.6040    23.5740     2.2100 
   60.2500   -25.8710    88.1670     6.9780     5.7870     8.2000    23.3710     2.1980 
   60.3750   -25.7310    88.4360     6.8860     5.6310     8.1090    23.3180     2.1910 
   60.5000   -25.4240    88.3840     6.9620     5.6000     8.2990    23.3260     2.1920 
   60.6250   -25.0680    87.3670     7.1630     5.6820     8.1610    23.3400     2.1950 
   60.7500   -24.6580    86.5200     7.4260     5.8360     7.7180    23.3500     2.1960 
   60.8750   -24.0960    86.4950     7.6660     5.9920     7.3640    23.3520     2.1960 
   61.0000   -23.2230    85.4870     7.7700     6.0590     7.8790    23.2550     2.1950 
   61.1250   -22.0820    84.8690     7.7030     6.0050     8.2780    23.1330     2.1960 
   61.2500   -20.8180    90.2630     7.4800     5.8330     7.1690    23.1900     2.2000 
   61.3750   -19.6200   100.8000     7.1660     5.5830     5.7590    23.3890     2.2050 
   61.5000   -18.6170   109.1460     6.8590     5.3290     5.6480    23.5860     2.2130 
   61.6250   -17.7610   109.1890     6.6280     5.1290     5.8480    23.6830     2.2230 
   61.7500   -17.0590   103.2410     6.4800     4.9980     5.3230    23.7200     2.2360 
   61.8750   -16.5880    99.1510     6.3910     4.9270     4.8200    23.6290     2.2540 
   62.0000   -16.4860   100.3960     6.3340     4.9010     4.8420    23.5840     2.2750 
   62.1250   -16.7590   102.7740     6.3100     4.9040     4.9270    23.8050     2.2890 
   62.2500   -17.3590   103.0790     6.3630     4.9650     4.7400    24.2290     2.2910 
   62.3750   -18.1310   100.8030     6.5640     5.1390     5.0380    24.4650     2.2780 
   62.5000   -18.8890    95.6380     7.0050     5.5170     6.0740    24.4240     2.2560 
   62.6250   -19.5350    89.1210     7.6330     6.0810     7.7190    24.2680     2.2360 
   62.7500   -20.0170    84.4620     8.3230     6.7550     8.3490    24.0910     2.2220 
   62.8750   -20.2860    82.4900     8.8560     7.3600     8.6350    23.8770     2.2160 
   63.0000   -20.2400    83.5770     8.9210     7.5740     9.4270    23.6780     2.2180 
   63.1250   -19.7720    89.8580     8.5150     7.3190     9.4400    23.5580     2.2290 
