~V
VERS. 2.00: Ver 2.00
~W
STRT.M 57.0000:
STOP.M 214.0000:
STEP.M 0.1250:
NULL. -999.2500:
UWI. F10147:
~C
DEPT.M :
SP.MV :
GR.API :
RML.OHMM :
RI. :
RXO.OHMM :
CALI.CM :
DEN.GM/CC :
~A
# ...
   79.5000   -11.2020    71.0860    11.5630    10.5700     9.1360    21.1070     2.2490 
   79.6250   -11.4540    70.0390     9.9640     9.1460     7.7890    21.0160     2.1900 
   79.7500   -11.6750    67.5660     8.9580     8.0960     7.3180    20.9910     2.1480 
   79.8750   -11.8510    64.9390     8.5430     7.5070     7.1220    20.9870     2.1240 
   80.0000   -11.9930    63.5410     8.5110     7.2500     7.0130    21.0190     2.1140 
   80.1250   -12.1010    63.0970     8.6650     7.1660     6.9470    21.0800     2.1110 
   80.2500   -12.1760    62.7390     8.8960     7.1570     6.9150    21.1320     2.1120 
   80.3750   -12.2240    62.8180     9.1210     7.1690     6.9200    21.1580     2.1120 
   80.5000   -12.2570    63.8060     9.2900     7.1810     6.9750    21.1750     2.1110 
   80.6250   -12.2760    64.7900     9.3810     7.1860     7.0820    21.1960     2.1100 
   80.7500   -12.2810    64.3660     9.3860     7.1800     7.2140    21.2040     2.1090 
   80.8750   -12.2770    62.9220     9.3030     7.1520     7.2870    21.1970     2.1100 
   81.0000   -12.2550    61.7750     9.1570     7.0980     7.2330    21.1940     2.1110 
   81.1250   -12.2190    61.3780     8.9880     7.0150     7.0640    21.2120     2.1130 
   81.2500   -12.1660    61.4120     8.8350     6.9060     6.8470    21.2540     2.1170 
   81.3750   -12.0940    61.6270     8.7290     6.7890     6.6710    21.2860     2.1230 
   81.5000   -12.0050    61.5470     8.6740     6.6920     6.5850    21.2990     2.1310 
   81.6250   -11.8960    60.7030     8.6640     6.6360     6.5910    21.3010     2.1400 
   81.7500   -11.7750    59.9650     8.6900     6.6280     6.6790    21.3050     2.1490 
   81.8750   -11.6580    60.7650     8.7380     6.6600     6.8190    21.3060     2.1560 
   82.0000   -11.5390    61.4480     8.7870     6.7040     6.9310    21.2820     2.1580 
   82.1250   -11.4130    59.8720     8.8130     6.7340     6.9370    21.2370     2.1540 
   82.2500   -11.2840    57.4180     8.8050     6.7390     6.8400    21.1970     2.1440 
   82.3750   -11.1490    57.5650     8.7740     6.7180     6.7250    21.1620     2.1340 
   82.5000   -11.0100    60.4760     8.7380     6.6800     6.6660    21.1300     2.1290 
   82.6250   -10.8670    63.1360     8.7140     6.6410     6.6690    21.1140     2.1320 
   82.7500   -10.7110    64.0910     8.7120     6.6050     6.7110    21.1130     2.1430 
   82.8750   -10.5330    64.2890     8.7330     6.5780     6.7500    21.1110     2.1570 
   83.0000   -10.3530    65.2100     8.7770     6.5610     6.7310    21.1010     2.1710 
   83.1250   -10.1720    67.2290     8.8420     6.5530     6.6320    21.1140     2.1830 
   83.2500    -9.9870    68.6990     8.9250     6.5560     6.5100    21.1550     2.1890 
   83.3750    -9.8070    68.4990     9.0060     6.5660     6.4650    21.1950     2.1890 
   83.5000    -9.6300    68.0390     9.0400     6.5680     6.5020    21.2290     2.1860 
   83.6250    -9.4610    69.4120     8.9840     6.5450     6.5370    21.2860     2.1830 
   83.7500    -9.3070    72.6340     8.8110     6.4790     6.4980    21.4010     2.1840 
   83.8750    -9.1690    75.7820     8.5220     6.3530     6.3750    21.6010     2.1910 
   84.0000    -9.0380    78.1710     8.1790     6.1830     6.2160    21.8410     2.2000 
   84.1250    -8.9260    80.8030     7.8750     6.0140     6.0670    22.0120     2.2080 
   84.2500    -8.8430    83.8910     7.7040     5.9020     5.9470    22.0620     2.2120 
   84.3750    -8.7860    84.9610     7.7610     5.9210     5.9210    21.9980     2.2090 
   84.5000    -8.7530    82.8990     8.0430     6.0940     6.0880    21.8500     2.2000 
   84.6250    -8.7330    79.7780     8.4440     6.3860     6.4570    21.7150     2.1880 
   84.7500    -8.7130    77.7180     8.8040     6.7140     6.8620    21.7300     2.1730 
   84.8750    -8.6790    77.3310     8.9300     6.9450     7.0250    21.9940     2.1630 
   85.0000    -8.6380    78.9580     8.7720     6.9850     6.8340    22.4820     2.1650 
   85.1250    -8.5910    82.6710     8.4210     6.8220     6.4000    23.0110     2.1780 
   85.2500    -8.5380    87.4250     8.0080     6.5120     5.9170    23.3640     2.2010 
   85.3750    -8.4920    92.1440     7.6590     6.1470     5.5730    23.4530     2.2320 
   85.5000    -8.4560    96.1860     7.4270     5.8170     5.3950    23.4240     2.2680 
   85.6250    -8.4440    98.3310     7.3130     5.5750     5.3060    23.4380     2.3030 
   85.7500    -8.4650    97.1230     7.3110     5.4420     5.2700    23.5570     2.3340 
   85.8750    -8.5380    92.8720     7.4250     5.4310     5.3190    23.7720     2.3540 
   86.0000    -8.6600    88.8050     7.6300     5.5310     5.4660    23.9590     2.3580 
   86.1250    -8.8150    88.6240     7.8860     5.7240     5.6790    23.9600     2.3460 
   86.2500    -9.0030    90.9220     8.1600     6.0020     5.9210    23.7420     2.3190 
   86.3750    -9.2050    88.7380     8.4450     6.3580     6.1920    23.4060     2.2880 
   86.5000    -9.4190    81.6390     8.7600     6.7700     6.4770    22.9240     2.2600 
   86.6250    -9.6320    76.2660     9.1210     7.1980     6.7090    22.3080     2.2400 
   86.7500    -9.8300    77.1760     9.5170     7.5910     6.8370    21.8260     2.2280 
   86.8750   -10.0010    81.0950     9.8790     7.8780     6.9200    21.6170     2.2220 
   87.0000   -10.1470    82.6280    10.1150     8.0230     7.0390    21.5630     2.2170 
   87.1250   -10.2640    80.9880    10.1550     8.0270     7.1580    21.5650     2.2100 
   87.2500   -10.3450    78.1570     9.9910     7.9180     7.1830    21.6160     2.1960 
   87.3750   -10.3940    76.2180     9.6720     7.7370     7.1070    21.6880     2.1750 
   87.5000   -10.4080    75.3780     9.3100     7.5380     7.0110    21.7520     2.1480 
   87.6250   -10.3980    74.8040     9.0120     7.3640     6.9490    21.7880     2.1200 
   87.7500   -10.3790    74.0960     8.8270     7.2360     6.9270    21.8000     2.0990 
   87.8750   -10.3400    73.8650     8.7590     7.1690     6.9470    21.8070     2.0870 
   88.0000   -10.2720    74.4420     8.7640     7.1520     6.9920    21.8310     2.0820 
   88.1250   -10.1840    74.6040     8.8020     7.1610     7.0230    21.8840     2.0810 
   88.2500   -10.0730    73.7400     8.8490     7.1750     7.0250    21.9550     2.0820 
   88.3750    -9.9390    72.7240     8.8700     7.1580     7.0300    22.0790     2.0860 
   88.5000    -9.7860    73.4580     8.8160     7.0790     7.0530    22.2890     2.0980 
   88.6250    -9.6100    77.5850     8.6540     6.9150     7.0300    22.5960     2.1190 
   88.7500    -9.4220    84.5690     8.3730     6.6650     6.8510    23.0440     2.1490 
   88.8750    -9.2520    90.5590     7.9870     6.3550     6.4670    23.6610     2.1860 
   89.0000    -9.1110    92.7620     7.5630     6.0400     6.0210    24.2100     2.2210 
   89.1250    -9.0050    92.7120     7.1990     5.7830     5.7090    24.4650     2.2510 
   89.2500    -8.9460    92.8760     7.0020     5.6320     5.6060    24.4810     2.2730 
   89.3750    -8.9290    92.3590     7.0980     5.6370     5.6860    24.3700     2.2790 
   89.5000    -8.9680    89.0160     7.4930     5.7940     5.9220    24.1230     2.2660 
   89.6250    -9.0570    83.1620     8.0540     6.0570     6.3850    23.7390     2.2360 
   89.7500    -9.1700    77.3310     8.5900     6.3570     7.1670    23.4380     2.1990 
   89.8750    -9.2950    73.9370     8.9320     6.6300     8.0970    23.3980     2.1710 
   90.0000    -9.4170    73.6150     9.1420     6.8950     8.6650    23.5300     2.1670 
   90.1250    -9.5230    75.4960     9.4920     7.2720     8.5630    23.7740     2.1850 
   90.2500    -9.6080    77.6250    10.3190     7.9530     8.4040    24.1430     2.2210 
   90.3750    -9.6810    76.4430    11.9480     9.1830    11.1150    24.4350     2.2680 
   90.5000    -9.7370    72.3860    14.2310    10.9420    19.0840    24.4860     2.3200 
   90.6250    -9.7900    69.4170    16.4870    12.8310    29.3140    24.3250     2.3670 
