~V
VERS. 2.00: Ver 2.00
~W
STRT.M 49.0000:
STOP.M 243.0000:
STEP.M 0.1250:
NULL. -999.2500:
UWI. F10196:
~C
DEPT.M :
SP.MV :
DEN.GM/CC :
GR.API :
RML.OHMM :
RI. :
RXO.OHMM :
CALI.CM :
~A
   49.0000    69.2370  -999.2500    50.6720     1.4700     0.3530     3.7590    24.9780 
   49.1250    68.4720  -999.2500    49.5690     1.5040     0.3650     4.1420    24.7600 
   49.2500    68.1010  -999.2500    50.4270     1.5370     0.3760     4.2700    24.5680 
   49.3750    67.9910  -999.2500    51.1770     1.5690     0.3790     3.7940    24.6990 
   49.5000    68.0330  -999.2500    49.5930     1.5900     0.3760     3.3680    25.0060 
   49.6250    68.0960  -999.2500    47.9060     1.5840     0.3710     3.1420    25.2200 
   49.7500    68.1220  -999.2500    48.2850     1.5330     0.3680     2.9830    25.2720 
   49.8750    68.1790  -999.2500    47.7250     1.4460     0.3670     3.0720    25.2770 
   50.0000    68.2360  -999.2500    44.8880     1.3440     0.3690     3.1990    25.2760 
   50.1250    68.2130  -999.2500    41.8130     1.2540     0.3720     3.2410    25.2740 
   50.2500    68.0330  -999.2500    41.3970     1.2030     0.3740     3.6340    25.2730 
   50.3750    67.7130  -999.2500    42.9440     1.1840     0.3720     4.4330    25.2700 
   50.5000    67.3160  -999.2500    44.3910     1.1830     0.3660     5.1090    25.2690 
   50.6250    66.9390  -999.2500    45.6250     1.1890     0.3580     4.9770    25.2720 
   50.7500    66.6690  -999.2500    45.9210     1.2070     0.3530     4.5620    25.2730 
   50.8750    66.4850  -999.2500    45.7000     1.2330     0.3500     4.6000    25.2710 
   51.0000    66.3920  -999.2500    46.0790     1.2560     0.3500     4.7200    25.2570 
   51.1250    66.3850  -999.2500    47.0920     1.2600     0.3510     4.5040    25.2280 
   51.2500    66.4570  -999.2500    46.9080     1.2410     0.3530     4.4040    25.2180 
   51.3750    66.5290  -999.2500    45.5180     1.2150     0.3570     4.3060    25.2230 
   51.5000    66.5280  -999.2500    43.7670     1.1960     0.3580     4.0730    25.2400 
   51.6250    66.4170  -999.2500    42.5670     1.1840     0.3560     3.9550    25.2570 
   51.7500    66.1740  -999.2500    40.3100     1.1710     0.3510     4.0420    25.2530 
   51.8750    65.8530  -999.2500    38.6600     1.1530     0.3460     4.3260    25.2320 
   52.0000    65.4780  -999.2500    39.1190     1.1310     0.3440     4.3200    25.2120 
   52.1250    65.0520     2.0510    40.7110     1.1070     0.3420     3.9440    25.2060 
   52.2500    64.6430     2.0510    40.7000     1.0930     0.3380     3.8650    25.2060 
   52.3750    64.3810     2.0760    40.4430     1.1020     0.3320     3.7770    25.2020 
   52.5000    64.3300     2.0800    40.7810     1.1370     0.3260     3.4680    25.1930 
   52.6250    64.4860     2.0610    40.6460     1.1840     0.3250     3.1200    25.1720 
   52.7500    64.8580     2.0280    40.4680     1.2150     0.3280     2.6920    25.1270 
   52.8750    65.3560     2.0040    41.1560     1.2160     0.3310     2.1950    25.0770 
   53.0000    65.9590     2.0010    42.6160     1.1870     0.3330     1.8520    25.0490 
   53.1250    66.6970     2.0140    44.0270     1.1360     0.3330     1.8020    25.0950 
   53.2500    67.5160     2.0320    44.0120     1.0700     0.3340     2.0410    25.1360 
   53.3750    68.3030     2.0430    42.8630     0.9990     0.3340     2.5290    25.1360 
   53.5000    69.0060     2.0440    41.5170     0.9340     0.3340     2.9990    25.1050 
   53.6250    69.5910     2.0350    41.4830     0.8810     0.3310     2.8910    25.0680 
   53.7500    70.0550     2.0220    41.7750     0.8400     0.3280     2.3510    25.0240 
   53.8750    70.4770     2.0090    41.8510     0.8020     0.3270     1.8740    24.8790 
   54.0000    70.8570     1.9970    43.1110     0.7710     0.3300     1.3850    24.5160 
   54.1250    71.1800     1.9900    44.5620     0.7570     0.3340     0.9470    24.0060 
   54.2500    71.4620     1.9850    44.7050     0.7650     0.3360     0.7230    23.7720 
   54.3750    71.7570     1.9790    45.4220     0.7850     0.3350     0.7010    24.0080 
   54.5000    72.0890     1.9770    46.8650     0.8020     0.3340     0.8880    24.4050 
   54.6250    72.5180     1.9840    46.6180     0.8020     0.3320     1.2890    24.7270 
   54.7500    73.0630     2.0000    44.5930     0.7770     0.3310     1.5200    24.8320 
   54.8750    73.6690     2.0210    44.6800     0.7440     0.3310     1.1830    24.6650 
   55.0000    74.3170     2.0470    46.0610     0.7250     0.3320     0.9190    24.1190 
   55.1250    75.0710     2.0730    46.4300     0.7270     0.3360     0.9570    23.2130 
   55.2500    76.0060     2.1000    48.5030     0.7440     0.3440     1.0980    22.6420 
   55.3750    77.0490     2.1270    55.2640     0.7520     0.3520     1.1450    22.4440 
   55.5000    78.1190     2.1530    63.5590     0.7420     0.3570     1.1610    22.4330 
   55.6250    79.0760     2.1710    66.4470     0.7150     0.3580     1.1280    22.4850 
   55.7500    79.7050     2.1730    62.0670     0.6860     0.3580     0.9910    22.6330 
   55.8750    80.0350     2.1650    58.1040     0.6650     0.3580     0.7820    22.8790 
   56.0000    80.1960     2.1560    57.6090     0.6580     0.3580     0.6730    23.1810 
   56.1250    80.2190     2.1510    57.8480     0.6610     0.3590     0.6550    23.4620 
   56.2500    80.1360     2.1470    57.7130     0.6700     0.3610     0.7200    23.6500 
   56.3750    80.0310     2.1390    58.2500     0.6760     0.3660     0.6560    23.6310 
   56.5000    79.9580     2.1300    57.0340     0.6680     0.3720     0.5200    23.6620 
   56.6250    80.0130     2.1200    52.7360     0.6390     0.3740     0.4130    23.8490 
   56.7500    80.2910     2.1190    53.3050     0.5990     0.3680     0.3860    24.0820 
   56.8750    80.7040     2.1400    59.3390     0.5700     0.3590     0.4030    24.3010 
   57.0000    81.1250     2.1940    62.0340     0.5640     0.3510     0.4320    24.5700 
   57.1250    81.4310     2.2770    56.9640     0.5860     0.3490     0.4600    24.7300 
   57.2500    81.4450     2.3590    50.8280     0.6320     0.3520     0.5020    24.6780 
   57.3750    81.1170     2.3990    47.9520     0.6780     0.3570     0.6100    24.4610 
   57.5000    80.3870     2.3700    45.6750     0.7080     0.3620     0.8260    24.0990 
   57.6250    79.2290     2.2790    42.2550     0.7060     0.3640     1.1620    23.6490 
   57.7500    77.5810     2.1800    41.8310     0.6530     0.3590     1.4830    23.2790 
   57.8750    75.4460     2.1340    45.9000     0.5510     0.3400     1.6300    23.1240 
   58.0000    72.6870     2.1540    51.5210     0.4090     0.3020     1.6250    23.1520 
   58.1250    69.1350     2.2230    55.2020     0.2630     0.2500     1.5380    23.2640 
   58.2500    64.3090     2.3010    56.1170     0.1640     0.1970     1.4040    23.4270 
   58.3750    58.1860     2.3620    55.8160     0.1180     0.1590     1.2210    23.6410 
   58.5000    50.8000     2.4070    54.9070     0.1250     0.1470     1.0570    23.8740 
   58.6250    42.2810     2.4240    55.0070     0.2000     0.1770     1.0630    24.1360 
   58.7500    33.0050     2.3580    57.4190     0.4140     0.3060     1.7120    24.6380 
   58.8750    23.6120     2.2680    60.1590     0.8580     0.6040     3.7100    24.9150 
   59.0000    14.4430     2.2240    63.1520     1.7010     1.2030     6.8340    24.2350 
   59.1250     5.8510     2.2410    67.9740     3.0780     2.2350     9.5170    23.0820 
   59.2500    -1.4990     2.2840    75.6390     4.5710     3.6020     8.5400    22.5340 
   59.3750    -7.4080     2.2910    82.1190     5.2860     4.7460     7.8960    22.7660 
   59.5000   -11.8250     2.2660    85.2650     5.3180     5.4460     7.0930    23.3550 
   59.6250   -14.8690     2.2400    86.2870     5.2440     5.8630     6.9950    23.7640 
   59.7500   -16.8150     2.2260    86.4650     5.3780     6.2130     8.3610    23.7700 
   59.8750   -18.2310     2.2120    86.4840     5.6430     6.5580    10.2280    23.7570 
   60.0000   -19.2890     2.1950    87.0810     5.9020     6.8390    10.2950    23.8300 
   60.1250   -20.0980     2.1780    87.7640     6.0300     6.9770     8.6640    23.9080 
