~V
VERS. 2.00: Ver 2.00
~W
STRT.M 50.0000:
STOP.M 294.0000:
STEP.M 0.1250:
NULL. -999.2500:
UWI. F10104:
~C
DEPT.M :
GR.API :
RML.OHMM :
RI. :
RXO.OHMM :
CALI.CM :
DEN.GM/CC :
SP.MV :
~A
# ...
   95.0000    77.1590    11.4480     9.1360    14.7850    24.2420     2.2260   -24.3480 
   95.1250    77.1540    10.7200     8.8640    11.2160    24.3190     2.2080   -23.8950 
   95.2500    75.7850     9.5920     8.2620     9.3580    24.4400     2.1580   -23.3110 
   95.3750    73.7820     8.5870     7.6030     8.7510    24.7560     2.1130   -22.5940 
   95.5000    74.0000     8.0250     7.1100     8.4910    25.5460     2.0940   -21.7070 
   95.6250    75.0290     7.8990     6.8730     8.3280    26.1430     2.0990   -20.5540 
   95.7500    76.9990     7.8380     6.7400     8.2180    26.4120     2.1110   -19.1870 
   95.8750    81.7960     7.6070     6.5610     8.0550    26.3680     2.1290   -17.6370 
   96.0000    89.3010     7.1260     6.2360     7.6250    25.8820     2.1590   -15.9720 
   96.1250    99.3120     6.4590     5.7440     6.6990    25.9730     2.2050   -14.2980 
   96.2500   111.8080     5.7880     5.1950     5.7070    26.4160     2.2560   -12.7350 
   96.3750   124.0450     5.2370     4.6900     5.1710    26.8540     2.3000   -11.3450 
   96.5000   132.3300     4.8990     4.3150     4.9480    27.2800     2.3270   -10.1690 
   96.6250   134.7840     4.8680     4.1350     4.9410    27.4870     2.3400    -9.3320 
   96.7500   135.1600     5.0740     4.0850     4.9450    27.5530     2.3500    -8.7910 
   96.8750   135.5650     5.4000     4.0980     4.9310    27.6790     2.3590    -8.5470 
   97.0000   135.4540     5.7150     4.1220     4.9010    27.7570     2.3650    -8.5660 
   97.1250   134.2550     5.9570     4.1790     4.9400    27.7510     2.3640    -8.8210 
   97.2500   134.1430     6.2180     4.3400     5.1230    27.6770     2.3590    -9.2440 
   97.3750   135.6860     6.6480     4.6840     5.4730    27.2770     2.3560    -9.8140 
   97.5000   134.4180     7.4670     5.2970     5.7700    26.3170     2.3600   -10.5460 
   97.6250   123.6170     9.1250     6.4180     6.7360    25.3100     2.3800   -11.4810 
   97.7500   106.5030    11.8120     8.2250     9.7470    25.0720     2.4150   -12.6030 
   97.8750    88.5070    15.4790    10.8010    17.7040    25.7030     2.4590   -13.8900 
   98.0000    74.4980    19.2640    13.7060    28.1990    26.7750     2.4890   -15.3140 
   98.1250    67.4130    20.4180    15.2210    27.5400    27.2900     2.4530   -16.8090 
   98.2500    65.7560    18.0120    14.3550    17.2090    27.3340     2.3570   -18.2940 
   98.3750    67.0090    14.0120    11.9890    12.0760    27.2040     2.2430   -19.7200 
   98.5000    69.9730    10.7930     9.6790    10.5930    27.1140     2.1570   -21.0410 
   98.6250    72.5570     9.3850     8.3710    10.3470    27.2020     2.1210   -22.1650 
   98.7500    71.7340     9.1600     7.8750    10.3360    27.1930     2.1120   -23.0750 
   98.8750    69.7080     9.5970     7.8930    10.6400    27.2470     2.1130   -23.7510 
   99.0000    69.6540    10.2260     8.1250    11.0770    27.2950     2.1110   -24.1810 
   99.1250    72.0370    10.6620     8.3260    11.2820    27.3470     2.1070   -24.3870 
   99.2500    72.9720    10.8330     8.4100    11.2170    27.2230     2.1040   -24.4320 
   99.3750    72.4610    10.8280     8.4040    11.1200    26.9150     2.1000   -24.3260 
   99.5000    73.3750    10.7530     8.3520    10.9140    26.2090     2.0930   -24.0790 
   99.6250    76.5530    10.6510     8.2860    10.4260    25.4780     2.0840   -23.7280 
   99.7500    78.9600    10.5180     8.2170    10.1330    25.3830     2.0770   -23.3230 
   99.8750    79.4320    10.3610     8.1400     9.6420    25.9470     2.0790   -22.9180 
  100.0000    80.8130    10.2300     8.0610     9.1490    26.4500     2.0920   -22.5610 
  100.1250    85.5730    10.2220     8.0130     9.0220    26.6290     2.1140   -22.2750 
  100.2500    88.9240    10.3510     8.0160     9.2080    26.6270     2.1350   -22.0770 
  100.3750    87.6570    10.5590     8.0640     9.3250    26.6250     2.1510   -21.9800 
  100.5000    84.4600    10.7200     8.1180     9.2980    26.6270     2.1610   -21.9960 
  100.6250    81.4060    10.6810     8.1270     9.2800    26.8190     2.1590   -22.0600 
  100.7500    78.7450    10.4570     8.0810     9.3880    27.9610     2.1410   -22.1490 
  100.8750    77.8590    10.1350     7.9980     9.9100    29.9560     2.1100   -22.2240 
  101.0000    78.5350     9.8140     7.9100    10.7680    29.7280     2.0770   -22.2600 
  101.1250    78.1310     9.5980     7.8290    11.0900    27.2110     2.0540   -22.2250 
  101.2500    75.7270     9.5100     7.7520    10.9280    25.4900     2.0390   -22.1240 
  101.3750    73.0450     9.5250     7.6760    10.7300    25.0690     2.0300   -21.9490 
  101.5000    72.4920     9.5750     7.6070    10.0850    25.1860     2.0260   -21.7190 
  101.6250    74.5960     9.5960     7.5650     9.5870    24.2020     2.0360   -21.4690 
  101.7500    76.9990     9.5850     7.5630     9.1950    23.7100     2.0580   -21.2070 
  101.8750    78.9560     9.5750     7.6120     8.9880    23.6100     2.0830   -20.9450 
  102.0000    80.9860     9.6030     7.7210     8.9430    23.7530     2.1010   -20.6590 
  102.1250    83.6730     9.6700     7.8840     9.0910    23.9190     2.1050   -20.3480 
  102.2500    85.3750     9.6770     8.0320     9.2930    24.2300     2.1030   -19.9730 
  102.3750    85.4940     9.5150     8.0690     9.4940    24.4510     2.1030   -19.5110 
  102.5000    84.1930     9.1380     7.9090     9.2610    24.8100     2.1040   -18.9150 
  102.6250    83.0130     8.5740     7.5010     8.7070    24.9210     2.1050   -18.1250 
  102.7500    85.4800     7.9350     6.9420     8.3020    25.0120     2.1150   -17.2100 
  102.8750    91.4550     7.2680     6.3070     7.7320    25.0690     2.1400   -16.2360 
  103.0000    98.7460     6.6240     5.6710     6.6060    25.1540     2.1790   -15.3280 
  103.1250   107.1850     6.1720     5.1590     5.5710    25.2920     2.2230   -14.6040 
  103.2500   113.9550     6.0980     4.8930     5.3560    25.2470     2.2560   -14.0960 
  103.3750   115.9220     6.5950     4.9990     5.7800    25.2860     2.2660   -13.8500 
  103.5000   112.5860     7.8190     5.5870     6.6850    25.4300     2.2570   -13.9020 
  103.6250   105.7220    10.0200     6.8650     8.0390    25.7320     2.2460   -14.3010 
  103.7500    98.1180    13.0580     8.8130    10.0650    25.7700     2.2550   -14.9800 
  103.8750    89.2140    16.6550    11.3650    14.5910    25.3460     2.2950   -15.8800 
  104.0000    79.8010    19.9480    14.0830    29.1280    25.0390     2.3590   -16.9130 
  104.1250    74.6410    20.8340    15.6240    39.4870    24.8990     2.3990   -17.9740 
  104.2500    75.2230    18.7020    15.1110    27.7760    25.0360     2.3680   -18.9920 
  104.3750    77.9120    14.9230    12.9670    15.2920    25.4100     2.2800   -19.9190 
  104.5000    78.8470    11.5210    10.4890    10.9820    25.6480     2.1900   -20.6990 
  104.6250    77.5990     9.6770     8.7870    10.0100    25.6170     2.1410   -21.3280 
  104.7500    77.5420     9.0270     7.9450     9.8220    25.6140     2.1210   -21.8050 
  104.8750    78.9170     9.1570     7.7650     9.7030    25.6670     2.1120   -22.1080 
  105.0000    80.4710     9.6440     7.9520     9.6830    25.7610     2.1000   -22.2210 
  105.1250    79.5640    10.1100     8.2200     9.6020    25.7190     2.0850   -22.1190 
  105.2500    76.5240    10.3820     8.3960     9.5840    25.9730     2.0670   -21.8530 
  105.3750    74.9410    10.4670     8.4640     9.6340    26.1670     2.0480   -21.4580 
  105.5000    76.3280    10.4340     8.4460     9.6490    25.6400     2.0310   -20.9600 
  105.6250    78.2050    10.3390     8.3370     9.3860    24.8680     2.0330   -20.4020 
  105.7500    78.6080    10.2050     8.1510     9.0460    24.2590     2.0500   -19.8100 
  105.8750    79.4150     9.9950     7.9010     8.6680    24.0650     2.0720   -19.2190 
  106.0000    81.5010     9.6940     7.6250     8.2090    24.0810     2.0860   -18.6850 
  106.1250    83.4080     9.3880     7.3870     7.7870    24.1650     2.0970   -18.2540 
