~V
VERS. 2.00: Ver 2.00
~W
STRT.M 62.0000:
STOP.M 275.0000:
STEP.M 0.1250:
NULL. -999.2500:
UWI. F10141:
~C
DEPT.M :
GR.API :
RML.OHMM :
RI. :
RXO.OHMM :
CALI.CM :
DEN.GM/CC :
SP.MV :
~A
# ...
  185.7500    51.5140   293.3920   266.0780   279.9790    25.3320     2.2110   -21.9880 
  185.8750    54.6360   303.0370   276.2260   286.5920    25.3370     2.2210   -21.7560 
  186.0000    57.0550   310.8760   285.5080   274.4350    25.3360     2.2240   -21.5350 
  186.1250    56.4350   319.1070   295.5590   254.7550    25.3350     2.2180   -21.3230 
  186.2500    52.5930   330.0450   308.3380   279.6960    25.3340     2.2080   -21.1040 
  186.3750    49.0690   342.2290   322.8510   299.5720    25.3340     2.2000   -20.8740 
  186.5000    47.4510   347.3740   332.2750   363.3380    25.3390     2.2010   -20.6440 
  186.6250    48.8540   325.2860   318.9340   431.2170    25.3610     2.2180   -20.5280 
  186.7500    52.8660   273.5050   277.4350   407.5310    25.3920     2.2490   -20.5390 
  186.8750    57.0650   207.2690   217.3550   327.0800    25.4040     2.2900   -20.5750 
  187.0000    60.4260   147.1750   157.3650   188.0590    25.3680     2.3310   -20.5460 
  187.1250    64.1020   106.4020   113.5830    88.6630    25.2930     2.3570   -20.4510 
  187.2500    68.1430    81.1910    85.7530    45.4120    25.2360     2.3600   -20.3700 
  187.3750    70.1020    67.6380    70.6240    34.9050    25.2100     2.3430   -20.3420 
  187.5000    68.9590    62.2020    64.4060    40.3580    25.2470     2.3180   -20.4260 
  187.6250    67.1850    62.6770    64.6480    54.8230    25.2790     2.2980   -20.5790 
  187.7500    66.3460    65.6840    67.8110    75.9980    25.2570     2.2900   -20.6330 
  187.8750    67.4160    69.1680    71.8220    90.9840    25.2020     2.2910   -20.6140 
  188.0000    70.0000    71.5030    74.9090    85.8400    25.1460     2.2930   -20.6020 
  188.1250    70.6490    71.7820    75.8580    66.4030    25.1310     2.2910   -20.6470 
  188.2500    68.6700    70.9070    75.3360    59.7010    25.1620     2.2850   -20.7530 
  188.3750    65.7960    69.7900    74.1860    61.9150    25.1950     2.2790   -20.8740 
  188.5000    64.7030    69.0610    73.1030    65.2320    25.2070     2.2770   -20.9110 
  188.6250    65.9580    68.8570    72.3450    72.7050    25.2050     2.2790   -20.8440 
  188.7500    66.9400    68.7680    71.6290    72.4690    25.2020     2.2840   -20.8190 
  188.8750    66.7100    68.6900    70.8570    70.4450    25.2030     2.2860   -20.8740 
  189.0000    65.5090    68.9430    70.3170    71.2870    25.2050     2.2860   -20.9810 
  189.1250    64.1140    70.3960    70.8290    73.5360    25.2050     2.2840   -21.0820 
  189.2500    63.8310    73.6150    72.9690    76.9340    25.2040     2.2820   -21.1600 
  189.3750    65.7710    79.1270    77.2910    78.9240    25.2120     2.2790   -21.1950 
  189.5000    68.9540    87.1320    84.0550    88.4770    25.2340     2.2740   -21.1910 
  189.6250    70.1340    97.4710    93.1540    99.4750    25.2570     2.2690   -21.1460 
  189.7500    68.1220   108.4650   102.9530   111.7550    25.2670     2.2650   -21.1070 
  189.8750    64.4930   118.3200   111.7280   121.1500    25.2690     2.2610   -21.1210 
  190.0000    62.4700   125.2260   117.7900   125.8980    25.2690     2.2580   -21.1770 
  190.1250    63.4450   127.5640   119.6590   129.2900    25.2690     2.2530   -21.2040 
  190.2500    64.9410   126.6030   118.4820   127.6750    25.2690     2.2490   -21.1980 
  190.3750    64.8650   123.7180   115.4850   122.5330    25.2690     2.2460   -21.2400 
  190.5000    64.3800   120.2960   111.9120   117.0470    25.2690     2.2470   -21.3390 
  190.6250    64.7950   117.6420   108.9400   113.0050    25.2670     2.2500   -21.4470 
  190.7500    65.0330   116.2660   107.0860   109.2380    25.2550     2.2530   -21.5040 
  190.8750    64.6120   116.1620   106.3900   107.3460    25.2280     2.2550   -21.4760 
  191.0000    63.7800   116.9650   106.5600   110.1840    25.2010     2.2570   -21.4160 
  191.1250    62.2840   118.0370   107.0810   113.3020    25.1760     2.2630   -21.4160 
  191.2500    61.4290   118.5220   107.2270   112.2300    25.1520     2.2740   -21.4400 
  191.3750    61.4740   117.7180   106.3980   109.0760    25.1460     2.2870   -21.4070 
  191.5000    61.4010   115.2900   104.2520   108.2660    25.1650     2.2970   -21.3460 
  191.6250    59.6660   111.6280   100.9860   112.9150    25.2090     2.2980   -21.3180 
  191.7500    59.2970   108.3620    97.9070   110.0540    25.2290     2.2910   -21.2760 
  191.8750    60.5690   106.9320    96.2560   100.9210    25.1870     2.2800   -21.1700 
  192.0000    61.4830   108.4190    97.0210    90.4690    25.0960     2.2710   -20.9600 
  192.1250    60.7850   113.7190   101.0710    95.6040    25.0110     2.2670   -20.6890 
  192.2500    60.2800   121.2240   107.1040   119.5030    25.0200     2.2690   -20.3810 
  192.3750    59.8020   128.3350   112.9880   154.1400    25.0960     2.2730   -20.0450 
  192.5000    58.7060   131.2880   115.6670   165.7700    25.1690     2.2770   -19.6820 
  192.6250    58.5280   125.6580   111.4170   153.6790    25.1920     2.2790   -19.2730 
  192.7500    60.6560   113.4170   101.4110   139.5640    25.1770     2.2840   -18.9070 
  192.8750    62.3710    98.1700    88.3120   112.2670    25.1280     2.3000   -18.6400 
  193.0000    63.9840    78.2050    75.1720    84.5940    25.0710     2.3310   -18.4610 
  193.1250    68.0250    67.2900    64.5380    66.1020    25.0260     2.3710   -18.2820 
  193.2500    71.2580    59.5720    56.8360    60.8870    25.0170     2.3980   -18.0890 
  193.3750    69.2550    55.0410    52.0840    56.2950    25.0180     2.3990   -17.9170 
  193.5000    62.7510    53.4630    50.0470    48.3640    24.9990     2.3780   -17.7870 
  193.6250    58.2230    54.6490    50.5640    45.4750    24.9480     2.3590   -17.7290 
  193.7500    57.8580    57.1360    52.3560    51.6030    24.9420     2.3620   -17.6750 
  193.8750    59.4610    59.6170    54.3000    62.4820    25.0120     2.3850   -17.5780 
  194.0000    61.0980    60.8300    55.3000    65.4420    25.1080     2.4070   -17.4500 
  194.1250    61.4450    59.8320    54.5110    56.0440    25.1240     2.4040   -17.3900 
  194.2500    61.7610    57.4610    52.5410    44.7390    25.1110     2.3790   -17.4430 
  194.3750    62.8120    54.8090    50.2450    38.2690    25.0820     2.3460   -17.5640 
  194.5000    65.0690    52.8780    48.4630    41.7890    25.0360     2.3200   -17.6960 
  194.6250    68.5380    52.3940    47.8610    47.0890    25.0030     2.3090   -17.7840 
  194.7500    69.6020    53.1050    48.3040    48.2400    24.9710     2.3040   -17.8190 
  194.8750    67.8260    54.7140    49.5590    47.7520    24.9280     2.2970   -17.8220 
  195.0000    64.9010    56.7220    51.2000    49.1570    24.9160     2.2920   -17.8360 
  195.1250    63.2510    57.9610    52.2160    54.1820    24.9540     2.2970   -17.8410 
  195.2500    62.2560    57.0280    51.3620    60.0420    24.9900     2.3170   -17.8190 
  195.3750    61.8530    52.9580    47.7600    61.4570    25.0070     2.3500   -17.7540 
  195.5000    63.3290    46.0660    41.7000    54.4970    25.0270     2.3830   -17.6610 
  195.6250    66.2180    38.1520    34.8210    38.2790    25.0660     2.4000   -17.5980 
  195.7500    69.6260    31.4060    28.9930    25.4270    25.0930     2.3980   -17.6400 
  195.8750    72.7750    26.6630    24.8510    20.0340    25.0810     2.3860   -17.7920 
  196.0000    74.5430    23.9300    22.3650    20.5690    25.0750     2.3750   -17.9980 
  196.1250    74.3490    22.9620    21.3860    24.6660    25.1330     2.3760   -18.1920 
  196.2500    72.2280    22.9430    21.3250    26.7950    25.1720     2.3800   -18.3590 
  196.3750    70.4200    23.5170    21.9400    25.8080    25.1780     2.3810   -18.5570 
  196.5000    70.4130    24.4860    23.0600    22.1400    25.1880     2.3760   -18.8050 
  196.6250    69.9770    25.6650    24.5220    27.0000    25.1970     2.3690   -19.0700 
  196.7500    67.4070    26.6160    25.9010    33.9410    25.2070     2.3680   -19.2790 
  196.8750    64.7940    26.8520    26.7210    38.0720    25.2030     2.3710   -19.4030 
