~V
VERS. 2.00: Ver 2.00
~W
STRT.M 50.0000:
STOP.M 237.0000:
STEP.M 0.1250:
NULL. -999.2500:
UWI. F10163:
~C
DEPT.M :
DEN.GM/CC :
GR.API :
RML.OHMM :
RI. :
RXO.OHMM :
CALI.CM :
SP.MV :
~A
# ...
  151.2500     2.2620    61.1800    26.9400    26.5150    30.9600    26.7960   -10.7910 
  151.3750     2.2540    61.9820    26.7040    26.4960    27.9220    26.9820   -11.0120 
  151.5000     2.2480    66.1720    25.9640    25.8510    26.0420    27.0590   -11.2790 
  151.6250     2.2480    70.8630    24.7820    24.6750    27.3680    26.8110   -11.5720 
  151.7500     2.2530    69.7860    23.4360    23.3020    27.9790    26.7750   -11.8380 
  151.8750     2.2580    63.6720    22.1780    21.9750    24.6020    26.7700   -12.0850 
  152.0000     2.2590    60.7900    21.2970    20.9260    20.2840    26.8120   -12.3600 
  152.1250     2.2550    64.0910    21.2400    20.4990    19.3020    27.1090   -12.6860 
  152.2500     2.2500    67.0920    22.1590    20.8390    21.7380    27.2440   -13.0460 
  152.3750     2.2470    67.3540    24.2130    22.1290    24.7520    27.2790   -13.4020 
  152.5000     2.2480    65.9060    27.5020    24.5360    26.5690    27.2750   -13.6780 
  152.6250     2.2530    63.0170    32.2340    28.3630    29.3170    27.2870   -13.8550 
  152.7500     2.2570    58.4280    38.0180    33.3110    35.8180    27.4130   -13.9950 
  152.8750     2.2570    53.6140    44.4320    39.0110    49.8260    27.5140   -14.0990 
  153.0000     2.2510    51.7090    50.7940    44.8210    61.5170    27.6060   -14.1480 
  153.1250     2.2420    52.4770    56.0810    49.7360    64.1180    27.6080   -14.0920 
  153.2500     2.2310    53.3000    59.9350    53.2810    63.0330    27.5930   -13.9250 
  153.3750     2.2210    53.9710    62.5130    55.4700    64.7110    27.5760   -13.6670 
  153.5000     2.2110    56.4170    64.3160    56.7020    68.1890    27.5280   -13.3730 
  153.6250     2.2010    59.4530    65.7320    57.3850    69.9050    27.5170   -13.0850 
  153.7500     2.1910    58.4100    66.9370    57.8580    70.3330    27.4810   -12.7930 
  153.8750     2.1820    54.6130    67.8900    58.1790    69.1130    27.4640   -12.4560 
  154.0000     2.1750    52.4400    68.5840    58.3710    66.6020    27.5010   -12.0480 
  154.1250     2.1700    54.1710    69.0210    58.4400    64.5030    27.5180   -11.6090 
  154.2500     2.1670    56.5690    69.2640    58.4240    63.1880    27.4630   -11.1880 
  154.3750     2.1670    58.0820    69.3250    58.3430    62.5190    27.4170   -10.7940 
  154.5000     2.1710    58.4590    69.2200    58.2100    60.9800    27.3540   -10.4680 
  154.6250     2.1800    58.2530    68.8690    57.9670    58.6340    27.2860   -10.2170 
  154.7500     2.1920    57.5180    68.0850    57.4620    57.4350    27.1060    -9.9760 
  154.8750     2.2030    57.8270    66.4300    56.3940    57.7430    26.7700    -9.7490 
  155.0000     2.2090    58.5720    63.3120    54.3200    55.2480    26.4060    -9.5700 
  155.1250     2.2090    59.4960    57.9580    50.5420    54.4280    26.2220    -9.4740 
  155.2500     2.2080    60.2990    51.0490    45.3650    48.8510    26.0120    -9.4360 
  155.3750     2.2100    59.1820    43.6000    39.4450    39.4070    25.6930    -9.4120 
  155.5000     2.2170    56.6860    36.6290    33.6100    29.4450    25.3020    -9.3320 
  155.6250     2.2280    57.9640    30.9610    28.6380    22.3720    24.8160    -9.1840 
  155.7500     2.2380    63.6610    26.4980    24.6290    18.5100    24.4910    -9.0300 
  155.8750     2.2450    69.6260    23.8400    21.4700    16.8230    24.0010    -8.9130 
  156.0000     2.2490    72.9090    21.1250    18.8940    15.4760    23.5210    -8.8380 
  156.1250     2.2530    73.7050    18.4460    16.6570    13.3740    23.1850    -8.7510 
  156.2500     2.2600    72.2910    15.9770    14.6050    11.9660    22.8430    -8.6030 
  156.3750     2.2710    71.3190    13.8250    12.8010    10.9030    22.6350    -8.4140 
  156.5000     2.2850    73.0390    12.1130    11.3290     9.7090    22.3990    -8.2030 
  156.6250     2.3010    75.1600    10.9380    10.2770     8.4660    22.0570    -7.9930 
  156.7500     2.3140    73.8890    10.0940     9.5090     8.1650    21.7770    -7.7910 
  156.8750     2.3240    71.9230     9.3710     8.8740     8.8450    21.4970    -7.5440 
  157.0000     2.3260    72.0140     8.5740     8.2080     8.7700    21.3500    -7.2080 
  157.1250     2.3140    74.2620     7.6120     7.4050     7.3940    21.4670    -6.8130 
  157.2500     2.2940    74.5330     6.6220     6.5420     6.2480    21.6760    -6.4330 
  157.3750     2.2720    73.3440     5.7630     5.7370     5.6210    21.8710    -6.0940 
  157.5000     2.2560    75.1860     5.1580     5.1000     4.9610    22.0400    -5.8530 
  157.6250     2.2520    82.3380     4.8770     4.7330     4.5700    22.0960    -5.7150 
  157.7500     2.2530    89.5490     4.8010     4.5790     4.5070    22.1500    -5.6120 
  157.8750     2.2540    93.1540     4.8520     4.5900     4.5660    22.1630    -5.5830 
  158.0000     2.2540    94.8540     4.9940     4.7210     4.6130    22.1750    -5.6890 
  158.1250     2.2560    92.8990     5.2410     4.9540     4.7890    22.2380    -5.9430 
  158.2500     2.2660    88.6520     5.5750     5.2370     5.0170    22.2840    -6.3020 
  158.3750     2.2820    86.7920     5.9630     5.5380     5.2500    22.3300    -6.7340 
  158.5000     2.3020    89.3930     6.3660     5.8340     5.5990    22.3730    -7.1530 
  158.6250     2.3160    90.7310     6.7280     6.0980     5.9990    22.4190    -7.5390 
  158.7500     2.3220    86.8990     7.0130     6.3020     6.1510    22.4950    -7.9470 
  158.8750     2.3210    83.3210     7.2080     6.4180     6.1650    22.7150    -8.3590 
  159.0000     2.3140    84.4770     7.3310     6.4450     6.4140    23.1820    -8.7530 
  159.1250     2.3050    87.1020     7.4360     6.4120     6.5290    23.3540    -9.0750 
  159.2500     2.2940    85.4130     7.6020     6.4000     6.3580    23.3440    -9.3110 
  159.3750     2.2830    79.9170     7.8970     6.4790     6.3330    23.2580    -9.4560 
  159.5000     2.2730    76.7630     8.3790     6.7030     6.6990    23.1260    -9.5580 
  159.6250     2.2660    76.7950     9.1280     7.1420     7.5190    23.1990    -9.6220 
  159.7500     2.2630    75.7650    10.0710     7.7610     8.5940    23.3410    -9.6250 
  159.8750     2.2620    75.1920    11.0420     8.4660     9.7590    23.4380    -9.5730 
  160.0000     2.2600    76.5920    11.7380     9.0600    10.5780    23.5700    -9.4420 
  160.1250     2.2590    77.5060    11.7390     9.2130    11.4480    23.8230    -9.2530 
  160.2500     2.2620    75.0090    11.1280     8.8900    11.8780    24.0450    -9.0390 
  160.3750     2.2690    73.7440     9.8760     8.2660    10.0440    23.9590    -8.8350 
  160.5000     2.2810    78.5340     9.0650     7.6550     7.6520    23.8930    -8.6180 
  160.6250     2.2900    84.7720     8.9990     7.4200     7.1770    23.9550    -8.3670 
  160.7500     2.2910    86.3150     9.6070     7.6730     7.9690    24.2790    -8.0660 
  160.8750     2.2820    82.9560    10.8690     8.4540     9.6730    24.8430    -7.7330 
  161.0000     2.2670    77.4790    12.6390     9.7080    12.6100    25.2770    -7.4340 
  161.1250     2.2510    74.3580    14.5330    11.2300    14.1510    25.3550    -7.2820 
  161.2500     2.2360    75.8960    16.0090    12.5840    14.6560    25.4100    -7.2510 
  161.3750     2.2260    80.7040    16.7800    13.4750    14.6190    25.4600    -7.3030 
  161.5000     2.2200    82.5760    16.9030    13.8510    14.7710    25.4690    -7.3980 
  161.6250     2.2180    80.0400    16.6730    13.8470    14.4250    25.4330    -7.4890 
  161.7500     2.2190    78.9150    16.4720    13.7600    13.7670    25.4310    -7.5870 
  161.8750     2.2220    79.8320    16.4250    13.7270    13.6610    25.5570    -7.7160 
  162.0000     2.2270    79.3780    16.5060    13.7880    14.1510    25.6990    -7.8740 
  162.1250     2.2330    76.2260    16.6270    13.9310    14.3920    25.7080    -7.9360 
  162.2500     2.2340    73.4150    16.6990    14.0880    14.5450    25.7040    -7.8710 
  162.3750     2.2300    72.2860    16.6870    14.2050    14.6420    25.7150    -7.6810 
