~V
VERS. 2.00: Ver 2.00
~W
STRT.M 53.0000:
STOP.M 242.0000:
STEP.M 0.1250:
NULL. -999.2500:
UWI. F10177:
~C
DEPT.M :
SP.MV :
GR.API :
RML.OHMM :
RI. :
RXO.OHMM :
CALI.CM :
DEN.GM/CC :
~A
# ...
  221.7500    -0.3990    77.9760    12.8180    10.8820    14.6310    24.7230     2.3980 
  221.8750    -0.2030    79.4320    12.5090    10.5890    12.8410    24.6230     2.3960 
  222.0000     0.0130    81.7360    12.4600    10.5080    12.7520    24.5670     2.3830 
  222.1250     0.2770    84.4700    12.6880    10.6700    15.1260    24.5960     2.3680 
  222.2500     0.5550    86.3440    13.1380    11.0390    21.6470    24.6390     2.3650 
  222.3750     0.7980    87.4050    13.7090    11.5470    33.1740    24.5060     2.3920 
  222.5000     0.9760    89.4860    14.2510    12.0710    32.8310    24.3010     2.4420 
  222.6250     1.0810    92.7280    14.6690    12.5200    24.4760    24.2020     2.5010 
  222.7500     1.1490    92.6690    14.9000    12.8130    19.0820    24.2760     2.5500 
  222.8750     1.1510    86.9390    14.9020    12.8740    14.7080    24.5190     2.5750 
  223.0000     1.1130    80.9370    14.7470    12.7670    13.1590    24.6570     2.5830 
  223.1250     1.0410    78.2730    14.4940    12.5500    12.0440    24.6280     2.5830 
  223.2500     0.9470    79.1330    14.2000    12.2850    11.3670    24.5370     2.5810 
  223.3750     0.8600    80.6750    13.9250    12.0430    11.1350    24.5220     2.5740 
  223.5000     0.7970    79.9460    13.7070    11.8710    10.9650    24.4900     2.5560 
  223.6250     0.7330    76.0640    13.5690    11.7850    10.7410    24.4540     2.5220 
  223.7500     0.6660    70.1740    13.5210    11.7890    10.5480    24.4230     2.4780 
  223.8750     0.6270    68.4080    13.5810    11.8990    10.5850    24.6750     2.4340 
  224.0000     0.5970    70.5700    13.7210    12.0920    11.2610    25.0840     2.4010 
  224.1250     0.5780    73.5280    13.9220    12.3510    12.7240    25.3520     2.3820 
  224.2500     0.5680    75.2910    14.1610    12.6600    15.4080    25.4720     2.3750 
  224.3750     0.5650    77.2350    14.3920    12.9800    18.8790    25.6690     2.3810 
  224.5000     0.5780    79.7590    14.5550    13.2330    18.2950    24.7670     2.4000 
  224.6250     0.5910    80.9580    14.5930    13.3530    14.0140    24.1600     2.4320 
  224.7500     0.6330    81.1970    14.4650    13.2990    11.0430    24.1420     2.4680 
  224.8750     0.7150    78.7100    14.1350    13.0320    10.9100    24.4090     2.4920 
  225.0000     0.8230    74.4260    13.6800    12.6240    11.5770    24.6500     2.4930 
  225.1250     0.9010    72.0870    13.1800    12.1590    11.2630    24.6820     2.4700 
  225.2500     0.9470    71.8690    12.7220    11.7320    10.3040    24.6310     2.4330 
  225.3750     0.9750    71.1400    12.3910    11.4270     8.9760    24.5090     2.4010 
  225.5000     0.9730    70.5250    12.1870    11.2470     8.2920    24.4250     2.3850 
  225.6250     0.9660    71.4890    12.0860    11.1660     8.3480    24.4250     2.3880 
  225.7500     0.9400    73.5490    12.0470    11.1420     8.5580    24.4070     2.4060 
  225.8750     0.9060    73.4350    12.0390    11.1330     8.5960    24.3060     2.4250 
  226.0000     0.8810    72.1670    12.0440    11.1220     8.9220    24.2880     2.4340 
  226.1250     0.9010    71.1750    12.0660    11.1110     9.5490    24.3380     2.4300 
  226.2500     0.9730    70.6090    12.1170    11.1130    10.0540    24.3660     2.4190 
  226.3750     1.1040    72.7040    12.2040    11.1410    10.5310    24.4390     2.4150 
  226.5000     1.2800    74.0330    12.3160    11.1940    10.7710    24.5640     2.4240 
  226.6250     1.4660    71.8490    12.4460    11.2720    10.6530    24.6640     2.4430 
  226.7500     1.6190    67.3050    12.5980    11.3810    11.3350    24.7440     2.4620 
  226.8750     1.7030    65.7120    12.8120    11.5520    12.0020    24.7830     2.4700 
  227.0000     1.7470    67.4460    13.1260    11.8110    12.0290    24.7520     2.4640 
  227.1250     1.7710    69.0930    13.5700    12.1880    12.6780    24.6160     2.4480 
  227.2500     1.7890    69.3380    14.1360    12.6870    17.2760    24.4490     2.4350 
  227.3750     1.8010    69.1790    14.7590    13.2480    26.1450    24.3740     2.4390 
  227.5000     1.8120    69.1520    15.3090    13.7470    33.2820    24.4540     2.4630 
  227.6250     1.8770    67.9200    15.6820    14.0810    34.3610    24.6270     2.5020 
  227.7500     2.0050    65.8710    15.8130    14.1830    31.0090    24.7780     2.5390 
  227.8750     2.1780    65.3450    15.6770    14.0110    25.9180    24.7830     2.5570 
  228.0000     2.3570    66.6090    15.3960    13.6830    19.4610    24.7070     2.5530 
  228.1250     2.5270    70.2300    15.0690    13.2970    14.8800    24.6160     2.5330 
  228.2500     2.6580    74.2260    14.7750    12.9410    13.0480    24.5520     2.5110 
  228.3750     2.7260    75.7890    14.5770    12.7010    13.4450    24.5200     2.4940 
  228.5000     2.7390    73.5080    14.4820    12.5970    14.3980    24.5390     2.4860 
  228.6250     2.6790    70.1210    14.4920    12.6330    15.5330    24.5820     2.4820 
  228.7500     2.5730    70.3820    14.6100    12.7950    16.7300    24.6220     2.4820 
  228.8750     2.4460    72.7790    14.8380    13.0750    17.3380    24.6560     2.4850 
  229.0000     2.3440    72.4510    15.1320    13.4240    18.1180    24.6670     2.4930 
  229.1250     2.2630    70.5500    15.4520    13.7970    18.9350    24.7240     2.5060 
  229.2500     2.2070    70.8410    15.7560    14.1490    18.6330    24.7960     2.5220 
  229.3750     2.1840    72.8960    15.9940    14.4250    18.6750    24.8200     2.5350 
  229.5000     2.1680    72.5730    16.1450    14.6010    18.0300    24.7990     2.5420 
  229.6250     2.1570    70.3680    16.1890    14.6570    16.6790    24.7620     2.5390 
  229.7500     2.1810    69.4880    16.1200    14.5940    14.9580    24.6850     2.5300 
  229.8750     2.2530    69.1180    15.9440    14.4250    14.2180    24.6420     2.5180 
  230.0000     2.2950    67.2110    15.7320    14.2250    13.6810    24.6490     2.5110 
  230.1250     2.3280    66.4920    15.5520    14.0550    12.7180    24.7100     2.5130 
  230.2500     2.3640    69.4760    15.4740    13.9800    11.8520    24.7190     2.5260 
  230.3750     2.3840    73.9920    15.5690    14.0710    12.4740    24.6760     2.5410 
  230.5000     2.4390    74.9470    15.8010    14.3060    13.6560    24.6610     2.5500 
  230.6250     2.5530    73.7180    16.1060    14.6290    13.7540    24.6790     2.5430 
  230.7500     2.6450    74.2860    16.3940    14.9500    12.9630    24.5960     2.5240 
  230.8750     2.7150    76.2720    16.5390    15.1350    12.3320    24.4510     2.5020 
  231.0000     2.7980    76.4880    16.4970    15.1260    12.1840    24.4410     2.4880 
  231.1250     2.8330    74.0500    16.2680    14.9240    12.1950    24.5610     2.4880 
  231.2500     2.8540    70.4690    15.9020    14.5880    12.1890    24.9130     2.4950 
  231.3750     2.8830    70.4690    15.4830    14.2020    11.9550    25.2750     2.5020 
  231.5000     2.8990    70.4690    15.1020    13.8480    11.6300    25.3810     2.5030 
  231.6250     2.8960    70.4690    14.7970    13.5620    11.5190    25.0360     2.4970 
  231.7500     2.9060    70.4690    14.5750    13.3470    11.7460    24.8110     2.4840 
  231.8750     2.9130    70.4690    14.4490    13.2120    11.9250    24.8190     2.4680 
  232.0000     2.9350    70.4690    14.4210    13.1620    11.6880    24.7950     2.4550 
  232.1250     2.9970    70.4690    14.5090    13.2180    11.5630    24.7840     2.4510 
  232.2500     3.0560    70.4690    14.7070    13.3820    12.0470    24.8120     2.4580 
  232.3750     3.1000    70.4690    14.9560    13.6150    13.1620    24.7840     2.4710 
  232.5000     3.1250    70.4690    15.1370    13.8110    14.4260    24.7410     2.4820 
  232.6250     3.1440    70.4690    15.1550    13.8770    15.1210    24.7660     2.4880 
  232.7500     3.1150    70.4690    14.9680    13.7570    15.6020    24.8860     2.4890 
  232.8750     3.1050    70.4690    14.6060    13.4440    15.6370    24.9870     2.4890 
