~V
VERS. 2.00: Ver 2.00
~W
STRT.M 50.0000:
STOP.M 237.0000:
STEP.M 0.1250:
NULL. -999.2500:
UWI. F10163:
~C
DEPT.M :
DEN.GM/CC :
GR.API :
RML.OHMM :
RI. :
RXO.OHMM :
CALI.CM :
SP.MV :
~A
# ...
   72.5000     2.3150    91.7300     6.6620     5.6180     7.3950    24.3590   -15.7470 
   72.6250     2.3280    94.7310     6.4620     5.4560     6.0240    24.4910   -15.8590 
   72.7500     2.3290    99.2060     6.2290     5.2580     5.3400    24.4850   -15.9240 
   72.8750     2.3240   101.9100     6.0370     5.0810     5.0430    24.3900   -16.0040 
   73.0000     2.3180   101.1810     5.9190     4.9690     4.9460    24.4360   -16.1130 
   73.1250     2.3140   100.8430     5.8700     4.9420     4.9470    24.4570   -16.2570 
   73.2500     2.3100   102.4850     5.8540     4.9630     5.0480    24.3550   -16.4250 
   73.3750     2.3070   102.9820     5.8520     5.0040     5.0480    24.2830   -16.5970 
   73.5000     2.3040   100.4550     5.8590     5.0440     5.0370    24.2680   -16.7540 
   73.6250     2.3010    97.2930     5.8690     5.0720     5.0710    24.0150   -16.8720 
   73.7500     2.2970    97.2070     5.8750     5.0890     5.1840    23.9320   -17.0080 
   73.8750     2.2920    99.7420     5.8710     5.0960     5.2850    23.9160   -17.1340 
   74.0000     2.2870   101.3550     5.8690     5.0970     5.3250    23.9150   -17.2120 
   74.1250     2.2820   102.2130     5.8920     5.0980     5.2890    23.9180   -17.2330 
   74.2500     2.2760   104.3090     5.9360     5.1010     5.2280    23.9380   -17.2090 
   74.3750     2.2680   106.8670     5.9750     5.0920     5.1090    24.0440   -17.1620 
   74.5000     2.2570   107.1590     5.9720     5.0460     5.0140    24.1300   -17.0960 
   74.6250     2.2490   104.3800     5.8820     4.9290     4.9020    24.3410   -17.0090 
   74.7500     2.2510   103.1500     5.7170     4.7510     4.7540    24.6090   -16.9010 
   74.8750     2.2670   103.0420     5.5100     4.5420     4.5360    24.9060   -16.7970 
   75.0000     2.2930   103.1280     5.3250     4.3480     4.4090    25.1000   -16.7600 
   75.1250     2.3120   103.4060     5.2710     4.2330     4.4750    25.1630   -16.8320 
   75.2500     2.3110   104.7450     5.4060     4.2330     4.7250    25.1800   -17.0720 
   75.3750     2.2900   108.2020     5.7580     4.3810     5.0800    25.0640   -17.4900 
   75.5000     2.2660   109.7350     6.3130     4.7010     5.5450    24.8960   -18.0600 
   75.6250     2.2700   104.3080     7.0180     5.2030     6.5580    24.3760   -18.7940 
   75.7500     2.3060    95.2980     7.7210     5.7890     8.2700    24.0260   -19.6660 
   75.8750     2.3590    86.5570     8.2790     6.3470    10.0430    23.8430   -20.6240 
   76.0000     2.3950    81.1120     8.5680     6.7490     9.7060    23.9230   -21.6250 
   76.1250     2.3790    77.8800     8.5260     6.8850     9.0120    24.1770   -22.6380 
   76.2500     2.3250    74.3590     8.3440     6.8520     8.6810    24.4520   -23.5630 
   76.3750     2.2610    69.7730     8.2060     6.7770     8.6300    24.9900   -24.3000 
   76.5000     2.2120    65.9500     8.2500     6.7750     8.5120    25.1670   -24.8170 
   76.6250     2.1880    66.4910     8.5140     6.9170     8.8980    24.5180   -25.0470 
   76.7500     2.1750    68.7000     8.8100     7.1160     9.6150    24.3440   -24.9600 
   76.8750     2.1660    69.8730     8.9200     7.2280    10.0740    24.7820   -24.5480 
   77.0000     2.1600    70.4160     8.6670     7.1070    10.1930    25.1430   -23.7980 
   77.1250     2.1660    72.9990     7.9620     6.6450     9.7640    25.2100   -22.6620 
   77.2500     2.1870    79.9130     7.0350     5.9770     8.2720    25.1230   -21.3140 
   77.3750     2.2220    91.2120     6.1050     5.2520     6.1930    24.6820   -19.9420 
   77.5000     2.2650   101.6970     5.3450     4.6010     4.9920    24.4750   -18.6770 
   77.6250     2.3010   104.6330     4.9090     4.1450     4.6050    24.4170   -17.6240 
   77.7500     2.3250   102.1430     4.8160     3.9200     4.4830    24.3810   -16.8670 
   77.8750     2.3360    99.0540     5.1140     3.9780     4.4670    24.3830   -16.4580 
   78.0000     2.3440    97.1340     5.8370     4.3680     4.6580    24.5030   -16.4370 
   78.1250     2.3590    92.9720     7.0530     5.1750     5.7510    24.6080   -16.8700 
   78.2500     2.3760    84.4990     8.5450     6.2920     8.6280    24.6450   -17.6270 
   78.3750     2.3850    72.7510     9.9620     7.5180    13.8680    24.4500   -18.5760 
   78.5000     2.3730    62.7470    10.7920     8.4790    15.4480    23.7750   -19.6230 
   78.6250     2.3360    59.3580    10.5270     8.6730    12.4340    23.4170   -20.7030 
   78.7500     2.2910    60.1720     9.5760     8.2300    10.3030    23.6970   -21.7500 
   78.8750     2.2490    61.1280     8.4700     7.4810     9.3700    24.1970   -22.7190 
   79.0000     2.2170    60.9220     7.6110     6.7540     8.9910    24.2600   -23.5840 
   79.1250     2.1910    58.5810     7.2110     6.2780     8.8200    24.2200   -24.3260 
   79.2500     2.1680    55.1010     7.1580     6.0520     9.0020    24.4530   -24.9450 
   79.3750     2.1500    54.5650     7.3730     6.0480     8.8310    24.6170   -25.4690 
   79.5000     2.1410    57.2180     7.7840     6.2270     8.7130    24.5910   -25.8970 
   79.6250     2.1470    57.7950     8.3000     6.5520     9.0150    24.4640   -26.2620 
   79.7500     2.1620    57.7910     8.7710     6.9080     9.2880    24.6810   -26.5780 
   79.8750     2.1780    62.1170     9.0880     7.2040     9.1200    24.9910   -26.8660 
   80.0000     2.1880    67.8020     9.1880     7.3650     8.7770    25.0800   -27.1240 
   80.1250     2.1880    68.3710     9.0610     7.3410     8.8560    24.9950   -27.3480 
   80.2500     2.1880    67.4670     8.8390     7.1990     9.1390    24.9300   -27.5390 
   80.3750     2.1930    69.1250     8.6150     7.0040     9.3110    24.8190   -27.6890 
   80.5000     2.2060    70.0930     8.4400     6.8110     9.3830    24.4090   -27.8380 
   80.6250     2.2200    67.8760     8.3250     6.6590     9.4880    23.9860   -28.0080 
   80.7500     2.2250    66.1980     8.2560     6.5630     9.5750    23.8550   -28.2380 
   80.8750     2.2190    65.3710     8.2480     6.5350     9.7950    23.7490   -28.5320 
   81.0000     2.2020    64.3340     8.3380     6.5920    10.1160    23.8280   -28.8820 
   81.1250     2.1820    63.9470     8.5590     6.7560    10.4950    23.9250   -29.2660 
   81.2500     2.1680    65.0010     8.8330     6.9830    10.8300    23.9730   -29.6570 
   81.3750     2.1670    65.3440     9.0650     7.2070    11.0770    23.9280   -30.0200 
   81.5000     2.1770    63.3890     9.1660     7.3540    11.3920    23.8690   -30.3410 
   81.6250     2.1940    63.3020     9.0670     7.3430    11.6480    23.7650   -30.5650 
   81.7500     2.2050    65.3840     8.8300     7.1900    11.4830    23.7410   -30.6580 
   81.8750     2.2070    67.1800     8.5240     6.9270    11.0770    23.7270   -30.6050 
   82.0000     2.2010    66.9900     8.2150     6.6130    10.7140    23.6650   -30.4500 
   82.1250     2.1910    66.1750     7.9450     6.3090    10.4950    23.6540   -30.2110 
   82.2500     2.1820    66.1270     7.7320     6.0650     9.9960    23.6470   -29.9900 
   82.3750     2.1780    66.4820     7.6120     5.9160     9.4860    23.6120   -29.8690 
   82.5000     2.1780    66.6500     7.6140     5.8830     9.3530    23.4500   -29.8580 
   82.6250     2.1820    64.9290     7.7670     5.9760     9.9050    23.1700   -29.9700 
   82.7500     2.1880    62.6080     8.0030     6.1450    10.3750    23.2480   -30.1610 
   82.8750     2.1900    62.7160     8.2380     6.3410    10.8270    23.3010   -30.4200 
   83.0000     2.1890    64.0270     8.3840     6.5060    10.9630    23.3490   -30.6820 
   83.1250     2.1860    62.7860     8.3730     6.5670    10.5400    23.5380   -30.9390 
   83.2500     2.1830    60.1040     8.2620     6.5270    10.1690    23.5690   -31.1070 
   83.3750     2.1840    60.0430     8.1080     6.4210    10.1440    23.5870   -31.1420 
   83.5000     2.1890    62.4170     7.9540     6.2930    10.0710    23.6620   -31.0430 
   83.6250     2.1940    63.3040     7.8290     6.1840     9.9780    23.8210   -30.8170 
