~V
VERS. 2.00: Ver 2.00
~W
STRT.M 55.0000:
STOP.M 248.0000:
STEP.M 0.1250:
NULL. -999.2500:
UWI. F10184:
~C
DEPT.M :
SP.MV :
GR.API :
RML.OHMM :
RI. :
RXO.OHMM :
CALI.CM :
DEN.GM/CC :
~A
   55.0000    76.9590    44.0600     0.2560     0.4090     0.2590    25.2700     2.3550 
   55.1250    76.0490    46.3190     0.2970     0.4120     0.2500    25.2430     2.3460 
   55.2500    75.1340    46.2600     0.3170     0.4000     0.2500    25.2620     2.3290 
   55.3750    74.0810    45.9110     0.3260     0.3320     0.2600    25.3050     2.3100 
   55.5000    72.9240    46.9810     0.2880     0.2960     0.2720    25.3560     2.2920 
   55.6250    71.6820    47.5180     0.2940     0.2940     0.2820    25.4150     2.2760 
   55.7500    70.2750    45.9600     0.3140     0.3050     0.2870    25.4230     2.2610 
   55.8750    68.7400    43.8330     0.2970     0.3270     0.2620    25.4120     2.2480 
   56.0000    67.1190    42.2000     0.2860     0.3070     0.2430    25.4130     2.2380 
   56.1250    65.2390    42.0830     0.2640     0.2830     0.2320    25.4100     2.2330 
   56.2500    63.1120    42.0180     0.2550     0.2680     0.2240    25.3610     2.2260 
   56.3750    60.8390    41.2290     0.2480     0.2540     0.2230    25.3080     2.2160 
   56.5000    58.4280    40.5920     0.2400     0.2480     0.2260    25.2970     2.2090 
   56.6250    55.5800    42.2550     0.2310     0.2420     0.2280    25.3490     2.2180 
   56.7500    52.3390    46.6150     0.2240     0.2370     0.2240    25.3970     2.2460 
   56.8750    48.7510    50.5890     0.2190     0.2310     0.2180    25.4240     2.2930 
   57.0000    44.6460    50.8320     0.2080     0.2320     0.2150    25.4370     2.3560 
   57.1250    40.0450    49.0670     0.2070     0.2270     0.2890    25.4170     2.4290 
   57.2500    35.0760    49.9720     0.2110     0.2210     0.7760    25.4400     2.4980 
   57.3750    29.7530    54.7020     0.2450     0.2160     1.2280    25.7710     2.5440 
   57.5000    24.3270    59.2500     0.4720     0.1940     2.0470    26.7750     2.5190 
   57.6250    19.1180    61.2180     0.7310     0.4080     3.9730    28.0380     2.3570 
   57.7500    14.2410    64.5320     1.1610     0.7660     5.4720    28.8480     2.1340 
   57.8750     9.8630    70.2870     1.7300     1.2580     5.7000    29.1100     1.9320 
   58.0000     6.1870    77.3510     2.3350     1.8160     5.0690    29.1430     1.7950 
   58.1250     3.2550    81.6630     2.8330     2.3310     4.4120    29.1260     1.7240 
   58.2500     0.9350    81.7780     3.2050     2.7600     4.0740    29.0880     1.6860 
   58.3750    -0.7710    80.6990     3.4870     3.1340     3.8850    29.0660     1.6770 
   58.5000    -2.0280    82.5870     3.7530     3.5270     3.7910    28.9600     1.7070 
   58.6250    -3.0170    87.3930     4.1050     4.0200     4.2210    28.1960     1.7820 
   58.7500    -3.7980    89.2260     4.5550     4.5980     4.8970    26.6800     1.8810 
   58.8750    -4.5110    88.3540     5.0420     5.1840     5.5070    25.2490     1.9850 
   59.0000    -5.3060    88.4160     5.4390     5.6630     5.9420    24.5620     2.0770 
   59.1250    -6.0230    92.0820     5.5900     5.8770     6.0220    24.5430     2.1380 
   59.2500    -6.6060    96.3700     5.5050     5.8190     6.1530    24.6730     2.1690 
   59.3750    -7.1620    98.7290     5.2540     5.5370     6.3330    24.8670     2.1810 
   59.5000    -7.7840    96.6280     4.9470     5.1330     6.3570    25.0420     2.1840 
   59.6250    -8.3270    92.5250     4.7250     4.7470     6.0660    24.9650     2.1880 
   59.7500    -8.8430    91.7220     4.6720     4.5100     6.0280    24.5710     2.2010 
   59.8750    -9.4460    92.8000     4.8670     4.5440     6.2320    24.0430     2.2270 
   60.0000   -10.0060    90.9310     5.4010     4.9600     6.6940    23.7450     2.2630 
   60.1250   -10.6450    83.8750     6.4490     5.9140     7.3350    23.7870     2.3000 
   60.2500   -11.3850    76.0510     7.9330     7.2770    10.1320    24.0160     2.3390 
   60.3750   -12.0940    70.2860     9.5730     8.7780    17.6410    24.3060     2.3840 
   60.5000   -12.8080    66.2930    10.7270     9.9040    27.9200    24.4770     2.4280 
   60.6250   -13.6190    63.4900    10.5730     9.9900    24.3410    24.4100     2.4340 
   60.7500   -14.4190    61.8150     9.5520     9.2490    14.5240    24.2720     2.3790 
   60.8750   -15.0950    62.7120     8.3530     8.1680     9.4510    24.1830     2.2860 
   61.0000   -15.7680    65.6990     7.4470     7.1930     8.0760    24.1660     2.2050 
   61.1250   -16.3560    67.9030     7.0590     6.6010     8.0660    24.1270     2.1650 
   61.2500   -16.7870    68.2780     7.0400     6.3300     7.9560    24.0310     2.1510 
   61.3750   -17.1920    68.8000     7.2120     6.2680     7.7090    23.9170     2.1500 
   61.5000   -17.5380    70.2590     7.3650     6.2860     7.4860    23.8370     2.1540 
   61.6250   -17.6990    71.5930     7.3580     6.2970     7.4420    23.8060     2.1620 
   61.7500   -17.8470    72.5700     7.3160     6.3230     7.4560    23.7900     2.1720 
   61.8750   -18.0270    72.5990     7.4580     6.4740     7.3530    23.7920     2.1820 
   62.0000   -18.1060    71.6330     7.9700     6.8730     7.4240    23.8200     2.1920 
   62.1250   -18.1840    70.1500     8.9340     7.6270     8.5080    23.8580     2.2040 
   62.2500   -18.3780    69.3220    10.0340     8.5860    12.7450    23.9730     2.2160 
   62.3750   -18.5900    67.9450    10.8630     9.4890    20.7570    24.1240     2.2290 
   62.5000   -18.6920    64.7920    11.0210     9.9740    22.3600    24.0830     2.2470 
   62.6250   -18.7790    62.1110    10.3190     9.7010    12.0420    23.7620     2.2550 
   62.7500   -18.8510    62.4660     9.2790     8.9630     8.3690    23.5250     2.2390 
   62.8750   -18.8400    64.3350     8.3560     8.1260     7.3130    23.3710     2.2070 
   63.0000   -18.8760    65.6960     7.8130     7.4690     7.2500    23.1860     2.1860 
   63.1250   -18.8240    65.2500     7.7320     7.1600     8.1570    22.9510     2.1860 
   63.2500   -18.7050    64.7350     7.8740     7.1050    10.3180    22.8410     2.1900 
   63.3750   -18.5950    65.9960     8.0330     7.1730    12.8130    22.9050     2.1950 
   63.5000   -18.4970    70.5550     8.0570     7.2210    14.4510    23.0130     2.2040 
   63.6250   -18.3660    74.3180     7.8940     7.1500    12.2720    22.9790     2.2080 
   63.7500   -18.2440    74.6910     7.6530     6.9930     8.9170    22.9410     2.1970 
   63.8750   -18.1590    74.1750     7.4180     6.8070     7.7260    22.8820     2.1780 
   64.0000   -17.9910    74.5320     7.2560     6.6510     7.6630    22.7680     2.1660 
   64.1250   -17.8550    73.1660     7.2310     6.5820     8.2760    22.6310     2.1720 
   64.2500   -17.7500    69.7210     7.3190     6.5940     9.6380    22.5350     2.1910 
   64.3750   -17.5620    68.4120     7.4750     6.6590    11.0200    22.5020     2.2170 
   64.5000   -17.3930    70.5900     7.6370     6.7320     9.9230    22.5710     2.2350 
   64.6250   -17.3240    73.1780     7.7480     6.7560     8.5120    22.7360     2.2220 
   64.7500   -17.1820    73.0030     7.7800     6.6990     7.5580    22.7810     2.1900 
   64.8750   -17.0270    70.2990     7.7240     6.5540     7.1960    22.7060     2.1600 
   65.0000   -16.9720    68.5890     7.5940     6.3430     7.0340    22.6440     2.1440 
   65.1250   -16.8970    69.4060     7.4040     6.1060     6.8730    22.6370     2.1410 
   65.2500   -16.7250    71.3780     7.1900     5.8820     6.7890    22.7010     2.1420 
   65.3750   -16.6120    73.0830     7.0070     5.7050     6.8020    22.8320     2.1480 
   65.5000   -16.5450    74.1840     6.9890     5.6440     6.9140    22.9940     2.1590 
   65.6250   -16.3830    75.0670     7.4470     5.8820     7.2050    23.1780     2.1820 
   65.7500   -16.2640    76.1210     8.5100     6.5220     7.7790    23.4150     2.2170 
   65.8750   -16.1540    76.6110    10.1920     7.6160     9.5320    23.7710     2.2650 
   66.0000   -16.0200    73.7910    12.2570     9.0800    14.6420    24.1760     2.3240 
   66.1250   -16.0480    68.8260    13.9510    10.4970    24.2560    24.3420     2.3890 
