~V
VERS. 2.00: Ver 2.00
~W
STRT.M 59.0000:
STOP.M 216.0000:
STEP.M 0.1250:
NULL. -999.2500:
UWI. F10129:
~C
DEPT.M :
GR.API :
RML.OHMM :
RI. :
RXO.OHMM :
CALI.CM :
DEN.GM/CC :
SP.MV :
~A
# ...
  126.5000    83.0020     9.6140     7.5790     7.6160    24.3790     2.3800    -6.2120 
  126.6250    81.0070    10.6430     8.3730    10.1430    24.6630     2.4240    -6.2970 
  126.7500    82.7920    11.9640     9.3410    10.5560    24.8860     2.4550    -6.4080 
  126.8750    81.5470    13.7350    10.6280     9.7590    24.9530     2.4730    -6.5150 
  127.0000    74.5640    16.0050    12.3400    11.0790    24.9700     2.4860    -6.5780 
  127.1250    67.9370    18.5890    14.4710    15.6360    24.9640     2.4980    -6.6220 
  127.2500    65.0980    20.9320    16.6180    19.0690    24.9480     2.5100    -6.6660 
  127.3750    63.2510    22.5300    18.2790    20.4830    24.9240     2.5230    -6.7990 
  127.5000    60.1410    23.1120    19.0340    21.6580    24.9000     2.5370    -6.9960 
  127.6250    57.2120    22.7280    18.8250    20.8830    24.8530     2.5530    -7.1550 
  127.7500    56.7990    22.0330    18.3030    19.5740    24.8090     2.5670    -7.2380 
  127.8750    57.0500    21.4530    17.8560    17.8530    24.7680     2.5780    -7.3060 
  128.0000    56.2960    21.2140    17.6770    16.4990    24.7090     2.5840    -7.4470 
  128.1250    55.0200    21.4070    17.8710    15.9080    24.6450     2.5820    -7.6180 
  128.2500    56.2150    21.8790    18.3250    17.1220    24.6040     2.5710    -7.7800 
  128.3750    59.6840    22.5070    18.9350    18.4200    24.6020     2.5490    -7.8880 
  128.5000    62.0490    23.1520    19.5920    18.4140    24.6000     2.5210    -7.9040 
  128.6250    61.8930    23.5740    20.1090    17.1330    24.6100     2.4950    -7.7980 
  128.7500    61.7310    23.5500    20.2650    17.4220    24.6590     2.4790    -7.6620 
  128.8750    63.3970    22.8900    19.8570    18.4810    24.7300     2.4780    -7.4970 
  129.0000    66.9510    21.5470    18.8100    19.8100    24.7380     2.4880    -7.2180 
  129.1250    70.6870    19.6520    17.2140    20.1260    24.6560     2.4990    -6.8390 
  129.2500    72.7770    17.6930    15.5260    16.8330    24.6180     2.5020    -6.4610 
  129.3750    74.1690    16.0450    14.0870    12.5100    24.6240     2.4950    -6.1210 
  129.5000    75.8470    14.9750    13.1120    10.2010    24.6170     2.4840    -5.8210 
  129.6250    76.4570    14.7380    12.7980     9.8610    24.6030     2.4750    -5.6410 
  129.7500    73.9100    15.2250    13.0820    10.2330    24.5640     2.4710    -5.5460 
  129.8750    69.9190    16.3520    13.9350    10.7610    24.5880     2.4680    -5.5300 
  130.0000    67.8330    17.9140    15.2440    11.6060    24.6370     2.4630    -5.5720 
  130.1250    67.2180    19.5050    16.7330    13.3140    24.6880     2.4520    -5.5740 
  130.2500    67.1270    20.6160    17.9070    15.8110    24.6720     2.4390    -5.5500 
  130.3750    66.5490    20.9190    18.3650    18.2510    24.6430     2.4270    -5.5500 
  130.5000    65.6440    20.3830    17.9900    19.2270    24.6100     2.4200    -5.6250 
  130.6250    66.5190    19.2990    17.0290    17.1720    24.6190     2.4250    -5.8320 
  130.7500    68.8440    18.2870    16.0740    14.3120    24.6430     2.4400    -6.1080 
  130.8750    69.4880    17.7030    15.4430    12.4480    24.5940     2.4630    -6.2610 
  131.0000    66.6980    17.6690    15.2600    12.9490    24.5630     2.4840    -6.2260 
  131.1250    63.6810    18.1250    15.5240    14.6000    24.5760     2.4930    -6.1910 
  131.2500    63.1100    18.7450    15.9870    16.2980    24.6080     2.4840    -6.2260 
  131.3750    62.9780    19.3270    16.4730    16.6880    24.6610     2.4620    -6.2550 
  131.5000    63.1500    19.7600    16.8620    15.7620    24.7500     2.4360    -6.2580 
  131.6250    62.4730    20.0090    17.1100    15.2740    24.8470     2.4150    -6.3040 
  131.7500    59.9070    20.1540    17.2810    15.4040    24.8610     2.4060    -6.3720 
  131.8750    58.2230    20.2360    17.4120    15.7330    24.8040     2.4070    -6.4700 
  132.0000    59.8880    20.2810    17.5130    16.1760    24.7870     2.4140    -6.6370 
  132.1250    62.6850    20.3120    17.5840    15.9590    24.9190     2.4240    -6.8300 
  132.2500    63.9700    20.3630    17.6490    15.7460    25.0220     2.4320    -6.9410 
  132.3750    63.7810    20.4570    17.7350    16.1980    25.0220     2.4390    -6.9980 
  132.5000    63.2080    20.5950    17.8600    17.2400    24.9980     2.4460    -7.0680 
  132.6250    61.7870    20.7440    18.0150    17.0800    25.0160     2.4560    -7.0470 
  132.7500    61.3020    20.8420    18.1430    16.9520    25.0760     2.4700    -6.9830 
  132.8750    63.0120    20.8410    18.1900    17.4320    25.1190     2.4850    -6.9880 
  133.0000    65.4220    20.7360    18.1400    17.4990    25.1400     2.4980    -7.0750 
  133.1250    64.7910    20.5600    18.0210    17.5310    25.1760     2.5050    -7.1450 
  133.2500    60.5580    20.3940    17.9070    17.5360    25.2200     2.5070    -7.2050 
  133.3750    54.3350    20.2850    17.8430    17.2140    25.2510     2.5080    -7.2560 
  133.5000    50.0040    20.2430    17.8440    16.8850    25.2980     2.5100    -7.2770 
  133.6250    49.7410    20.2350    17.8830    16.6930    25.4090     2.5140    -7.2280 
  133.7500    52.3580    20.2080    17.9070    16.4480    25.4900     2.5170    -7.1140 
  133.8750    54.9350    20.1480    17.8970    16.2970    25.4770     2.5180    -7.0240 
  134.0000    55.1340    20.0770    17.8750    16.1610    25.3890     2.5150    -6.9500 
  134.1250    54.0570    20.0500    17.8950    16.4040    25.3370     2.5100    -6.8840 
  134.2500    54.0220    20.0930    17.9800    16.5900    25.2850     2.5040    -6.8690 
  134.3750    54.0630    20.1910    18.1200    16.8230    25.2260     2.4960    -6.8980 
  134.5000    53.3300    20.3000    18.2760    17.5240    25.1410     2.4850    -6.8660 
  134.6250    53.9220    20.3560    18.3810    17.6920    25.0550     2.4720    -6.7640 
  134.7500    57.5970    20.3440    18.4140    17.2030    25.0580     2.4590    -6.6340 
  134.8750    61.6700    20.2890    18.3920    16.2120    25.0980     2.4530    -6.4440 
  135.0000    63.8790    20.2300    18.3530    15.8340    25.1490     2.4570    -6.2450 
  135.1250    63.3500    20.2070    18.3340    16.2140    25.1010     2.4720    -6.1720 
  135.2500    62.0300    20.2120    18.3420    16.8430    25.0300     2.4870    -6.1700 
  135.3750    60.2270    20.2200    18.3640    17.2220    24.9660     2.4970    -6.2080 
  135.5000    57.5770    20.2100    18.3840    17.6890    24.9610     2.4980    -6.3370 
  135.6250    55.0390    20.1700    18.3970    18.0710    25.0120     2.4920    -6.5370 
  135.7500    54.7400    20.1140    18.4150    17.6520    25.0670     2.4860    -6.7580 
  135.8750    58.2330    20.0470    18.4400    17.1580    25.0800     2.4850    -6.9930 
  136.0000    63.3950    19.9730    18.4690    17.0180    25.0740     2.4890    -7.2380 
  136.1250    66.3800    19.9120    18.5150    17.2460    25.0460     2.4930    -7.3830 
  136.2500    67.0370    19.8970    18.6100    17.6360    25.0370     2.4910    -7.4470 
  136.3750    66.1490    19.9470    18.7770    17.5450    25.0120     2.4780    -7.5250 
  136.5000    65.4970    20.0450    19.0030    17.5370    24.9960     2.4560    -7.6490 
  136.6250    66.2050    20.1100    19.2170    17.8820    25.0570     2.4350    -7.7750 
  136.7500    66.1770    20.0490    19.3080    17.7280    25.1260     2.4270    -7.9200 
  136.8750    64.4860    19.8120    19.1980    17.6620    25.1680     2.4380    -8.0510 
  137.0000    61.7950    19.4160    18.8840    17.0900    25.1410     2.4620    -8.1260 
  137.1250    60.7120    18.9430    18.4390    15.8580    25.0320     2.4900    -8.1330 
  137.2500    60.0160    18.5020    17.9970    14.0290    24.9270     2.5110    -8.0870 
  137.3750    58.1100    18.1270    17.6120    12.8090    24.7890     2.5220    -7.9680 
  137.5000    55.7900    17.7940    17.2720    12.7960    24.6890     2.5270    -7.7410 
  137.6250    54.7420    17.4700    16.9290    13.2670    24.6880     2.5290    -7.5420 
