~V
VERS. 2.00: Ver 2.00
~W
STRT.M 50.0000:
STOP.M 236.0000:
STEP.M 0.1250:
NULL. -999.2500:
UWI. F10144:
~C
DEPT.M :
DEN.GM/CC :
GR.API :
RML.OHMM :
RI. :
RXO.OHMM :
CALI.CM :
SP.MV :
~A
# ...
  185.0000     2.3860    66.0200     7.5590     7.8180     6.0670    24.4690   -26.8540 
  185.1250     2.3710    68.5750     7.8640     8.0450     6.3010    24.2610   -26.7000 
  185.2500     2.3750    70.7860     8.2890     8.3760     6.9750    24.2040   -26.5430 
  185.3750     2.3950    71.5260     8.7300     8.7320     8.0700    24.3430   -26.3630 
  185.5000     2.4220    70.8440     9.0750     9.0160     9.2080    24.5950   -26.1570 
  185.6250     2.4450    70.6820     9.2200     9.1180     9.5050    24.7680   -25.9380 
  185.7500     2.4520    71.8740     9.2120     9.0580     9.2210    24.8390   -25.7280 
  185.8750     2.4430    73.3970     9.1360     8.8960     8.4860    24.9840   -25.5520 
  186.0000     2.4220    76.1360     9.0760     8.7020     8.1590    25.2790   -25.4190 
  186.1250     2.3990    79.5260     9.0830     8.5240     8.5480    25.4280   -25.3550 
  186.2500     2.3870    81.8440     9.1200     8.3650     9.1190    25.2540   -25.3540 
  186.3750     2.3900    82.9900     9.1410     8.2110     9.6660    24.9370   -25.4080 
  186.5000     2.4040    84.6680     9.1210     8.0570     9.7940    24.7580   -25.4920 
  186.6250     2.4230    88.9870     9.0780     7.9250     9.3630    24.7630   -25.6000 
  186.7500     2.4400    93.2630     9.0860     7.8530     9.0090    24.7710   -25.7090 
  186.8750     2.4520    95.3790     9.2100     7.8780     8.7810    24.7700   -25.8160 
  187.0000     2.4610    95.2460     9.4860     8.0260     8.7050    24.7710   -25.9050 
  187.1250     2.4710    94.6970     9.9510     8.3300     9.5820    24.7690   -25.9610 
  187.2500     2.4860    94.8670    10.5830     8.7630    10.8140    24.7680   -25.9750 
  187.3750     2.5060    96.1930    11.3950     9.3210    12.4800    24.7660   -25.9500 
  187.5000     2.5340    99.2380    12.3560     9.9800    13.8990    24.7670   -25.8890 
  187.6250     2.5630   101.7380    13.2870    10.6360    14.7220    24.7680   -25.8150 
  187.7500     2.5770   100.2790    13.8820    11.0940    15.8760    24.7640   -25.7310 
  187.8750     2.5630    96.7220    13.8640    11.1630    18.8280    24.7590   -25.6500 
  188.0000     2.5220    95.4920    13.1310    10.7510    21.0350    24.7620   -25.5860 
  188.1250     2.4670    96.9850    11.8270     9.9090    15.3940    24.7730   -25.5550 
  188.2500     2.4200    93.5400    10.4510     8.9530    10.4780    24.7740   -25.5560 
  188.3750     2.3930    83.2170     9.2950     8.0830     8.6250    24.7550   -25.5860 
  188.5000     2.3880    70.6930     8.4730     7.4040     8.2350    24.7180   -25.6310 
  188.6250     2.3940    63.2920     7.9960     6.9670     7.7280    24.6750   -25.7000 
  188.7500     2.4050    62.4970     7.7020     6.6910     7.1140    24.6320   -25.7650 
  188.8750     2.4160    64.9310     7.5000     6.5200     6.5330    24.5900   -25.8210 
  189.0000     2.4280    66.2620     7.3560     6.4170     6.3260    24.5570   -25.8520 
  189.1250     2.4390    63.4220     7.3150     6.3940     6.3840    24.5630   -25.8440 
  189.2500     2.4510    58.3990     7.3940     6.4500     6.4970    24.6260   -25.7860 
  189.3750     2.4630    54.8640     7.5650     6.5660     6.6300    24.7260   -25.6720 
  189.5000     2.4550    54.0500     7.7490     6.6940     7.1330    24.8120   -25.4930 
  189.6250     2.4050    52.6770     7.8240     6.7500     7.8170    25.0050   -25.2370 
  189.7500     2.3110    49.4890     7.7330     6.6920     7.6440    25.5930   -24.9330 
  189.8750     2.2070    49.2480     7.4870     6.5180     6.6100    26.6010   -24.6190 
  190.0000     2.1290    55.3200     7.1530     6.2680     5.7370    27.4350   -24.3310 
  190.1250     2.1090    62.3140     6.8350     6.0020     5.5500    27.1910   -24.1290 
  190.2500     2.1680    64.3540     6.6010     5.7730     5.5350    26.2720   -24.0340 
  190.3750     2.2630    65.1770     6.4680     5.6040     5.6560    25.4690   -24.0550 
  190.5000     2.3450    68.5050     6.4250     5.5000     5.8130    25.1650   -24.1660 
  190.6250     2.3900    71.5950     6.4510     5.4590     6.0300    25.1550   -24.3450 
  190.7500     2.4110    71.8270     6.5080     5.4570     6.0660    25.1480   -24.5270 
  190.8750     2.4280    72.6340     6.5860     5.4870     6.0640    25.1500   -24.6840 
  191.0000     2.4410    77.1440     6.6870     5.5450     5.9810    25.1500   -24.7980 
  191.1250     2.4460    81.6790     6.8200     5.6360     6.1840    25.1500   -24.8630 
  191.2500     2.4400    81.4510     6.9890     5.7570     6.4770    25.1800   -24.8950 
  191.3750     2.4290    80.1000     7.1940     5.9050     6.9910    25.2380   -24.9100 
  191.5000     2.4190    84.3230     7.4300     6.0780     7.5550    25.2890   -24.9200 
  191.6250     2.4140    93.2590     7.6900     6.2690     7.8860    25.3030   -24.9190 
  191.7500     2.4180    97.6130     7.9610     6.4680     7.8920    25.2970   -24.8950 
  191.8750     2.4240    95.3830     8.2260     6.6640     8.0180    25.3050   -24.8470 
  192.0000     2.4220    91.6830     8.4560     6.8420     8.5690    25.3520   -24.7760 
  192.1250     2.4050    90.3680     8.5920     6.9710     9.1440    25.4330   -24.6920 
  192.2500     2.3770    90.7800     8.6060     7.0290     9.3990    25.5020   -24.5940 
  192.3750     2.3540    92.6110     8.4910     6.9970     8.8320    25.5290   -24.4820 
  192.5000     2.3460    95.7440     8.2760     6.8740     7.8040    25.4460   -24.3610 
  192.6250     2.3520    97.7120     8.0240     6.6860     6.8660    25.2040   -24.2420 
  192.7500     2.3630    95.3290     7.8050     6.4980     6.5160    24.9490   -24.1090 
  192.8750     2.3670    89.2760     7.6710     6.3680     6.9550    24.8160   -23.9480 
  193.0000     2.3640    85.4860     7.6700     6.3450     7.5520    24.8030   -23.7630 
  193.1250     2.3630    89.6440     7.8710     6.4810     7.8870    24.8130   -23.5700 
  193.2500     2.3730    97.9030     8.2380     6.7420     8.0970    24.8110   -23.3870 
  193.3750     2.3890   104.2930     8.7090     7.0800     8.5370    24.8090   -23.2220 
  193.5000     2.4000   104.4500     9.1680     7.4270     9.0980    24.8080   -23.0660 
  193.6250     2.3990    99.4900     9.4140     7.6660     9.7780    24.8100   -22.8970 
  193.7500     2.3870    96.2600     9.3570     7.7230     9.7710    24.8150   -22.7000 
  193.8750     2.3710    96.3130     9.0090     7.5800     8.9500    24.8020   -22.4610 
  194.0000     2.3560    93.0060     8.4710     7.2720     8.0250    24.7510   -22.1680 
  194.1250     2.3420    82.2060     7.8620     6.8650     7.5760    24.6780   -21.8250 
  194.2500     2.3270    71.9180     7.2870     6.4530     7.4350    24.6230   -21.4760 
  194.3750     2.3120    65.0580     6.8060     6.0930     7.9820    24.5890   -21.1620 
  194.5000     2.3000    60.8960     6.4650     5.8230     7.1570    24.5600   -20.9230 
  194.6250     2.2940    60.7760     6.3420     5.6960     5.6990    24.5460   -20.8110 
  194.7500     2.2950    65.7770     6.4420     5.7230     5.3710    24.5530   -20.8200 
  194.8750     2.3010    71.6720     6.7570     5.9050     5.9150    24.5520   -20.9460 
  195.0000     2.3100    72.2200     7.2240     6.2090     6.9080    24.5270   -21.1650 
  195.1250     2.3170    66.7720     7.7250     6.5560     7.5990    24.4920   -21.4400 
  195.2500     2.3180    62.6350     8.1300     6.8470     8.1220    24.4530   -21.7310 
  195.3750     2.3160    61.9530     8.3720     7.0310     7.6270    24.4070   -22.0050 
  195.5000     2.3150    62.4720     8.4730     7.1180     7.1180    24.3640   -22.2500 
  195.6250     2.3190    61.7520     8.5690     7.1870     7.0130    24.3310   -22.4350 
  195.7500     2.3260    63.2350     8.8580     7.3590     7.2330    24.2420   -22.5570 
  195.8750     2.3360    66.7090     9.5040     7.7390     7.6150    24.0540   -22.6100 
  196.0000     2.3490    68.6760    10.6200     8.4080     8.3920    23.8440   -22.6000 
  196.1250     2.3650    69.5820    12.3060     9.4460     9.0580    23.8070   -22.5180 
