~V
VERS. 2.00: Ver 2.00
~W
STRT.M 51.0000:
STOP.M 246.0000:
STEP.M 0.1250:
NULL. -999.2500:
UWI. F10182:
~C
DEPT.M :
SP.MV :
GR.API :
RML.OHMM :
RI. :
RXO.OHMM :
DEN.GM/CC :
CALI.CM :
~A
# ...
   96.0000   -14.5110    62.9950    11.8460     9.3780     9.9840     2.1530    22.4210 
   96.1250   -14.4860    59.9670    11.7720     9.2920     9.2270     2.1360    22.4220 
   96.2500   -14.4240    57.5350    11.6340     9.1360     8.9300     2.1370    22.4210 
   96.3750   -14.3530    57.5700    11.4860     8.9670     8.9980     2.1650    22.4240 
   96.5000   -14.2880    58.2360    11.3760     8.8310     8.9630     2.2190    22.4270 
   96.6250   -14.2540    57.2810    11.3290     8.7520     9.0040     2.2780    22.4080 
   96.7500   -14.2510    56.3130    11.3270     8.7240     9.2060     2.3040    22.3520 
   96.8750   -14.2700    56.4870    11.3070     8.7000     9.3430     2.2890    22.2840 
   97.0000   -14.3290    56.3290    11.2340     8.6540     9.4380     2.2480    22.2790 
   97.1250   -14.3970    54.9780    11.1050     8.5810     9.5570     2.2050    22.3430 
   97.2500   -14.4680    52.1900    10.9460     8.4990     9.6170     2.1760    22.4260 
   97.3750   -14.5210    50.9880    10.8150     8.4320     9.4730     2.1580    22.4810 
   97.5000   -14.5830    53.5150    10.7470     8.3890     9.3140     2.1470    22.5010 
   97.6250   -14.6320    58.2130    10.7490     8.3670     9.2010     2.1390    22.5080 
   97.7500   -14.6820    61.2140    10.7980     8.3500     9.1270     2.1340    22.5030 
   97.8750   -14.7130    62.5780    10.8490     8.3270     9.0620     2.1300    22.5070 
   98.0000   -14.7200    62.9900    10.8760     8.3000     8.9720     2.1300    22.5120 
   98.1250   -14.7140    61.6660    10.8640     8.2750     8.9510     2.1350    22.5060 
   98.2500   -14.7010    58.7650    10.8120     8.2610     8.9580     2.1470    22.4990 
   98.3750   -14.7020    57.7470    10.7510     8.2590     9.0300     2.1650    22.5010 
   98.5000   -14.6870    58.6210    10.7050     8.2680     9.0860     2.1830    22.5190 
   98.6250   -14.6670    59.1140    10.6870     8.2850     8.9580     2.1970    22.5430 
   98.7500   -14.6310    58.1290    10.7090     8.3070     8.9300     2.2010    22.5380 
   98.8750   -14.6000    56.7190    10.7680     8.3310     8.9370     2.1960    22.4450 
   99.0000   -14.5750    55.8730    10.8620     8.3540     8.9900     2.1850    22.2980 
   99.1250   -14.5560    56.6370    10.9810     8.3720     8.9950     2.1720    22.4630 
   99.2500   -14.5590    58.0100    11.0980     8.3800     9.0040     2.1610    22.5950 
   99.3750   -14.5560    57.7710    11.1630     8.3750     8.9810     2.1550    22.6780 
   99.5000   -14.5730    56.4200    11.1430     8.3520     9.0560     2.1550    22.6750 
   99.6250   -14.5980    55.4120    11.0360     8.3070     9.1490     2.1590    22.6330 
   99.7500   -14.6170    55.7850    10.8790     8.2420     9.0520     2.1640    22.5850 
   99.8750   -14.6360    57.8690    10.7300     8.1710     8.9390     2.1680    22.5890 
  100.0000   -14.6370    60.6280    10.6090     8.1080     8.7700     2.1680    22.6170 
  100.1250   -14.6500    60.6330    10.5190     8.0620     8.5110     2.1640    22.6130 
  100.2500   -14.6360    56.4330    10.4590     8.0390     8.5410     2.1560    22.5540 
  100.3750   -14.6350    54.7100    10.4170     8.0250     8.6160     2.1480    22.5080 
  100.5000   -14.6040    58.2460    10.3800     8.0120     8.6490     2.1450    22.4660 
  100.6250   -14.5790    63.4200    10.3370     7.9910     8.5980     2.1450    22.4430 
  100.7500   -14.5420    62.8490    10.2820     7.9590     8.4590     2.1490    22.4370 
  100.8750   -14.4950    58.3990    10.2310     7.9200     8.1870     2.1530    22.4420 
  101.0000   -14.4430    56.1430    10.1970     7.8790     8.0080     2.1540    22.4570 
  101.1250   -14.3810    57.7770    10.1820     7.8410     7.9640     2.1530    22.4860 
  101.2500   -14.3230    59.3650    10.1730     7.8130     8.0510     2.1510    22.5080 
  101.3750   -14.2550    58.4710    10.1560     7.7950     8.2390     2.1510    22.5180 
  101.5000   -14.1840    57.7580    10.1420     7.7890     8.3350     2.1540    22.5330 
  101.6250   -14.0870    59.8900    10.1410     7.7890     8.3030     2.1600    22.5770 
  101.7500   -13.9850    62.6240    10.1470     7.7920     8.5780     2.1640    22.6470 
  101.8750   -13.8860    63.7630    10.1320     7.7910     9.0740     2.1630    22.6950 
  102.0000   -13.7850    62.8610    10.0760     7.7820     9.1840     2.1540    22.7260 
  102.1250   -13.6640    60.5430     9.9850     7.7680     9.0880     2.1400    22.7550 
  102.2500   -13.5180    58.3450     9.8960     7.7540     8.8290     2.1260    22.7830 
  102.3750   -13.3590    56.3030     9.8470     7.7490     8.6030     2.1140    22.7990 
  102.5000   -13.1540    54.6670     9.8470     7.7530     8.4370     2.1060    22.7980 
  102.6250   -12.8770    55.2560     9.8740     7.7660     8.4320     2.1020    22.7980 
  102.7500   -12.5450    59.4950     9.8740     7.7750     8.5560     2.1020    22.7880 
  102.8750   -12.1590    63.6440     9.8010     7.7590     8.6480     2.1060    22.7620 
  103.0000   -11.7290    63.2650     9.6500     7.7010     8.6030     2.1160    22.7340 
  103.1250   -11.2560    59.9500     9.4530     7.5970     8.4390     2.1340    22.7230 
  103.2500   -10.7420    60.5030     9.2560     7.4490     8.3060     2.1590    22.7220 
  103.3750   -10.1920    65.3110     9.0810     7.2820     7.9650     2.1840    22.7190 
  103.5000    -9.6390    70.9040     8.9160     7.1080     7.4810     2.2030    22.7180 
  103.6250    -9.1180    74.4090     8.7500     6.9410     7.3430     2.2130    22.7720 
  103.7500    -8.6400    75.1260     8.5880     6.7970     7.4810     2.2160    23.0000 
  103.8750    -8.2120    73.6430     8.4450     6.6820     7.3130     2.2200    23.3380 
  104.0000    -7.8420    72.3190     8.3200     6.5940     7.0400     2.2300    23.5270 
  104.1250    -7.5440    74.7320     8.1980     6.5170     6.6450     2.2450    23.5630 
  104.2500    -7.3380    80.0690     8.0630     6.4290     6.8890     2.2620    23.2870 
  104.3750    -7.2000    84.6540     7.9210     6.3230     7.1520     2.2740    23.0420 
  104.5000    -7.1440    87.1910     7.8000     6.2160     6.9560     2.2780    22.9080 
  104.6250    -7.1630    86.9640     7.7330     6.1420     6.4680     2.2730    22.8600 
  104.7500    -7.2340    83.8780     7.7610     6.1510     6.3160     2.2600    22.8000 
  104.8750    -7.3560    80.0370     7.8670     6.2440     6.6080     2.2440    22.7100 
  105.0000    -7.5080    78.2360     8.0240     6.3980     6.8600     2.2280    22.6020 
  105.1250    -7.7020    77.5540     8.2040     6.5780     6.9720     2.2140    22.5280 
  105.2500    -7.8970    77.6110     8.3940     6.7500     7.1800     2.2020    22.5670 
  105.3750    -8.1060    77.2680     8.6030     6.9130     7.1450     2.1930    22.8060 
  105.5000    -8.3050    76.1860     8.8470     7.0890     6.9070     2.1860    23.1980 
  105.6250    -8.5290    77.0620     9.1170     7.2920     7.0290     2.1780    23.5320 
  105.7500    -8.7550    81.4680     9.3400     7.4890     7.7590     2.1700    23.6390 
  105.8750    -8.9550    83.4510     9.4350     7.6120     8.5040     2.1680    23.5770 
  106.0000    -9.1200    79.4350     9.3660     7.6160     8.6830     2.1730    23.5250 
  106.1250    -9.2260    74.6030     9.1750     7.5080     8.4360     2.1850    23.5980 
  106.2500    -9.3230    76.1830     8.9700     7.3500     7.7950     2.2000    23.7290 
  106.3750    -9.3980    79.9320     8.8510     7.2280     7.0970     2.2150    23.7550 
  106.5000    -9.5080    81.1990     8.8320     7.1700     7.0200     2.2240    23.6730 
  106.6250    -9.6180    81.1830     8.8350     7.1460     7.6990     2.2280    23.5510 
  106.7500    -9.7570    82.0980     8.6990     7.0560     8.3690     2.2260    23.4440 
  106.8750    -9.9290    82.4720     8.4040     6.8590     8.0040     2.2240    23.3980 
  107.0000   -10.1470    81.9490     8.0920     6.6270     7.7310     2.2250    23.4390 
  107.1250   -10.4340    81.2910     8.0080     6.5110     8.0270     2.2400    23.5350 
