~V
VERS. 2.00: Ver 2.00
~W
STRT.M 58.0000:
STOP.M 213.0000:
STEP.M 0.1250:
NULL. -999.2500:
UWI. F10138:
~C
DEPT.M :
GR.API :
RML.OHMM :
RI. :
RXO.OHMM :
CALI.CM :
DEN.GM/CC :
SP.MV :
~A
# ...
  159.2500    45.9950   195.8880   179.2690   173.6190    41.3990     2.0380   -27.0080 
  159.3750    44.1330   186.7450   173.9180   179.8420    41.3490     2.0430   -26.6240 
  159.5000    43.9910   172.7770   164.2000   200.3510    41.2660     2.0510   -26.2680 
  159.6250    46.8100   162.5360   149.7210   217.2180    41.1810     2.0640   -26.0260 
  159.7500    48.6820   143.7510   133.9150   198.0930    41.0580     2.0780   -25.7660 
  159.8750    49.9910   128.0600   119.6950   145.7830    40.9240     2.0930   -25.5430 
  160.0000    53.4420   117.0340   108.9980   103.6990    40.7730     2.1080   -25.4290 
  160.1250    57.0040   111.6640   103.1550    93.5310    40.5870     2.1220   -25.3200 
  160.2500    56.5390   110.4560   101.0970   108.3390    40.3810     2.1320   -25.2020 
  160.3750    54.3450   112.5270   102.1190   114.0480    40.2750     2.1380   -25.1570 
  160.5000    53.1200   117.0030   105.4730   110.7280    40.1680     2.1390   -25.1520 
  160.6250    52.0280   123.3820   110.6910   108.7560    39.7710     2.1360   -25.1010 
  160.7500    50.0520   130.9870   117.0820   111.1290    39.3800     2.1330   -25.1020 
  160.8750    48.4020   139.7640   124.6030   116.6090    39.1600     2.1320   -25.1260 
  161.0000    47.5800   161.6450   133.2850   125.0730    39.0130     2.1350   -25.0820 
  161.1250    47.0470   173.3420   143.1170   138.4540    38.7600     2.1410   -25.0430 
  161.2500    46.9980   185.1200   153.4650   156.7880    38.5700     2.1480   -25.0470 
  161.3750    47.9310   196.0270   163.7610   179.9380    38.3540     2.1550   -25.0010 
  161.5000    49.0480   204.9170   173.3490   203.4840    38.1420     2.1620   -24.9150 
  161.6250    49.0870   209.2650   180.7350   231.6160    37.9810     2.1640   -24.9000 
  161.7500    48.0640   206.1120   183.4040   259.1810    37.7860     2.1630   -24.8430 
  161.8750    47.5740   190.8550   176.7250   262.8480    37.5570     2.1600   -24.7540 
  162.0000    48.9880   161.4990   156.7500   246.4130    37.3680     2.1580   -24.7350 
  162.1250    51.2390   122.9860   124.3050   221.1350    37.1420     2.1620   -24.7210 
  162.2500    51.8460    87.4340    90.7700   197.0150    36.9910     2.1730   -24.6730 
  162.3750    51.4790    60.7730    63.7050   152.9650    36.8690     2.1890   -24.7070 
  162.5000    53.8640    43.8320    45.6670    97.8760    36.6930     2.2080   -24.8180 
  162.6250    59.6280    35.6520    36.4610    59.4110    36.4810     2.2270   -24.9070 
  162.7500    63.4320    32.5610    32.3790    40.3540    36.2360     2.2440   -25.0790 
  162.8750    63.3810    33.2560    31.9570    32.9840    35.9720     2.2590   -25.3520 
  163.0000    61.1460    37.1110    34.5120    34.6750    35.7390     2.2690   -25.6390 
  163.1250    59.6030    44.3410    40.2890    35.4040    35.5490     2.2720   -25.9770 
  163.2500    59.1610    54.2830    48.6970    43.6500    35.3300     2.2670   -26.4220 
  163.3750    59.7100    66.6390    59.4060    56.3250    35.0980     2.2560   -26.8670 
  163.5000    60.3850    80.9400    71.8170    69.3870    34.9100     2.2430   -27.2600 
  163.6250    59.1070    85.2570    85.1700    87.7570    34.7460     2.2310   -27.6980 
  163.7500    56.6060    99.4500    98.3300   107.4980    34.5440     2.2190   -28.1350 
  163.8750    55.1130   113.1580   110.4020   130.1390    34.3290     2.2090   -28.4900 
  164.0000    54.3650   125.6030   120.6170   147.8740    34.1740     2.1990   -28.8080 
  164.1250    52.5460   135.9150   128.1770   152.9450    34.0480     2.1940   -29.1350 
  164.2500    49.5020   144.1910   133.5420   151.9010    33.8450     2.1930   -29.3710 
  164.3750    49.2140   150.4910   137.1490   157.4100    33.6810     2.1940   -29.5380 
  164.5000    53.5580   154.8080   139.3980   166.4840    33.5160     2.1930   -29.7330 
  164.6250    58.5790   156.2260   139.9100   170.2570    33.3900     2.1890   -29.8410 
  164.7500    59.8870   154.3840   138.2970   168.9710    33.2460     2.1840   -29.8750 
  164.8750    57.8760   149.0030   134.1180   164.1930    33.1200     2.1830   -29.9140 
  165.0000    55.7060   140.7580   127.6090   153.4060    32.9360     2.1870   -29.9070 
  165.1250    55.3940   131.3770   119.8420   134.1900    32.7030     2.1970   -29.8110 
  165.2500    56.1450   123.1380   112.6720   115.3660    32.4700     2.2050   -29.7230 
  165.3750    57.4670   117.4220   107.3430   104.2620    32.3000     2.2100   -29.6350 
  165.5000    57.7420   114.8990   104.5980   100.5210    32.1390     2.2070   -29.4650 
  165.6250    56.7270   115.8780   104.9820   100.6490    31.9150     2.2000   -29.3200 
  165.7500    55.6120   118.8420   107.3920   103.9590    31.6670     2.1920   -29.1990 
  165.8750    55.0980   122.5220   110.7680   111.4450    31.4560     2.1850   -29.0270 
  166.0000    55.6850   125.7240   113.9370   121.5100    31.2690     2.1830   -28.8830 
  166.1250    56.8250   127.4810   115.7640   124.3980    31.1250     2.1840   -28.8030 
  166.2500    56.9090   128.1480   116.3070   113.8190    31.0300     2.1880   -28.6740 
  166.3750    54.6310   128.5040   116.1610    97.8360    30.9280     2.1940   -28.5590 
  166.5000    52.8840   129.4620   116.2320    92.9670    30.8120     2.2000   -28.5320 
  166.6250    52.6320   131.9740   117.5880    97.5160    30.6380     2.2030   -28.4780 
  166.7500    52.1680   135.9940   120.3850   106.4250    30.4120     2.2040   -28.3910 
  166.8750    52.6460   141.1970   124.4070   116.5870    30.2420     2.2020   -28.3760 
  167.0000    54.8390   146.9910   129.1350   121.6590    30.1460     2.2000   -28.3770 
  167.1250    56.8150   152.6450   133.9580   124.4910    30.0020     2.2000   -28.3090 
  167.2500    55.9670   157.6290   138.4750   129.7740    29.8390     2.2020   -28.3240 
  167.3750    54.4100   161.5610   142.4930   137.2730    29.6080     2.2050   -28.3570 
  167.5000    54.5890   163.9940   145.7260   146.7060    29.2250     2.2070   -28.3140 
  167.6250    55.4640   163.8830   147.3180   153.8820    28.9240     2.2080   -28.3040 
  167.7500    55.5020   160.7120   146.6150   157.7160    28.7780     2.2070   -28.3550 
  167.8750    53.8920   153.5880   142.6570   160.7780    28.6260     2.2060   -28.3420 
  168.0000    52.2890   141.9150   134.5700   161.3810    28.4040     2.2060   -28.2990 
  168.1250    53.9360   125.7450   121.7160   156.0380    28.1220     2.2090   -28.3090 
  168.2500    56.8510   107.8660   106.3100   125.5310    27.7780     2.2140   -28.2460 
  168.3750    58.2950    90.2890    90.2560    85.2710    27.4980     2.2200   -28.1230 
  168.5000    56.8370    81.0200    74.9570    58.7460    27.4910     2.2260   -28.0460 
  168.6250    56.6650    66.0340    61.5780    54.9350    27.4460     2.2310   -27.9670 
  168.7500    60.0770    53.8280    50.5680    49.3320    27.3720     2.2380   -27.8340 
  168.8750    64.6510    45.0030    42.4740    44.2540    27.1850     2.2500   -27.7510 
  169.0000    68.6660    40.0570    37.6360    34.4130    26.9330     2.2660   -27.7380 
  169.1250    70.6160    40.1500    36.9550    23.7050    26.6760     2.2810   -27.6980 
  169.2500    69.8290    44.9210    40.3320    25.2270    26.5810     2.2860   -27.6940 
  169.3750    67.4730    54.3960    48.3040    42.1930    26.4430     2.2790   -27.7730 
  169.5000    65.4800    67.6600    60.7920    73.7970    26.2320     2.2640   -27.8580 
  169.6250    65.4400    80.9640    75.2510    98.0400    26.0660     2.2480   -27.9130 
  169.7500    64.7970    87.4550    84.5200    99.6040    26.0280     2.2360   -28.0090 
  169.8750    63.5350    82.3930    82.4520    90.9970    25.9480     2.2310   -28.1270 
  170.0000    64.1030    67.8560    69.5490    73.8050    25.7690     2.2340   -28.2090 
  170.1250    68.1740    51.7250    53.2860    50.1470    25.4270     2.2450   -28.3080 
  170.2500    73.3090    39.6180    40.3950    31.4350    25.3900     2.2640   -28.4520 
  170.3750    76.2220    32.3930    32.1680    20.0360    25.4150     2.2850   -28.5780 
