~V
VERS. 2.00: Ver 2.00
~W
STRT.M 47.0000:
STOP.M 242.0000:
STEP.M 0.1250:
NULL. -999.2500:
UWI. F10188:
~C
DEPT.M :
SP.MV :
DEN.GM/CC :
GR.API :
RML.OHMM :
RI. :
RXO.OHMM :
CALI.CM :
~A
# ...
  170.7500   -33.3300     2.2060    62.7140   271.9020   225.4700   320.0180    26.1520 
  170.8750   -33.3710     2.1990    62.2290   296.5480   244.6410   364.7640    26.0290 
  171.0000   -33.4710     2.1920    63.0240   322.9160   265.3620   395.3560    25.7880 
  171.1250   -33.5970     2.1880    63.2950   346.6330   284.1650   403.4690    25.6010 
  171.2500   -33.7380     2.1900    62.0810   365.7690   299.4870   396.2860    25.5000 
  171.3750   -33.9020     2.1950    60.2370   380.4070   311.2520   409.3250    25.4860 
  171.5000   -34.0170     2.1990    60.7140   390.8770   319.6640   447.9100    25.5380 
  171.6250   -34.1190     2.2000    61.8890   397.7930   325.4660   482.0200    25.5800 
  171.7500   -34.1760     2.1970    61.5350   400.7590   328.5620   497.5600    25.5460 
  171.8750   -34.2440     2.1940    60.6420   400.4060   329.4050   499.7790    25.4900 
  172.0000   -34.3250     2.1920    60.0570   399.5310   330.0540   499.0740    25.4830 
  172.1250   -34.3420     2.1910    58.0260   401.5160   333.6110   497.7190    25.5010 
  172.2500   -34.3310     2.1910    54.8280   406.2180   341.2830   500.6550    25.4920 
  172.3750   -34.3300     2.1880    54.2610   408.0030   350.3300   499.7570    25.4150 
  172.5000   -34.2960     2.1840    58.4830   392.2580   350.7420   487.5700    25.2940 
  172.6250   -34.2780     2.1800    61.7720   353.1840   333.7900   467.7320    25.1960 
  172.7500   -34.3370     2.1780    60.4860   305.6700   297.6140   428.7290    25.1820 
  172.8750   -34.4090     2.1780    56.4890   248.8020   250.1590   370.0910    25.2930 
  173.0000   -34.4320     2.1860    56.5500   201.6270   205.3130   287.0920    25.4440 
  173.1250   -34.4820     2.1970    61.3100   168.2250   170.6320   206.7370    25.5330 
  173.2500   -34.5560     2.2080    65.5790   145.9000   146.6490   157.2140    25.6110 
  173.3750   -34.6170     2.2140    66.3400   131.2310   131.0840   131.8960    25.6910 
  173.5000   -34.7420     2.2180    65.9650   121.7400   121.5550   122.2490    25.6960 
  173.6250   -34.8910     2.2220    66.5880   114.6010   114.6290   121.7150    25.6980 
  173.7500   -35.0730     2.2270    68.1040   109.1930   109.2100   122.6740    25.8900 
  173.8750   -35.2640     2.2310    70.8640   105.8550   105.3030   118.6380    26.2670 
  174.0000   -35.5660     2.2330    71.5780   106.3240   104.4050   116.3020    26.5120 
  174.1250   -35.9650     2.2320    67.8010   111.5870   107.6820   124.0780    26.5720 
  174.2500   -36.4660     2.2260    61.0930   123.1480   116.7200   147.9490    26.5290 
  174.3750   -37.0520     2.2150    56.9260   142.7800   133.2510   188.7580    26.5400 
  174.5000   -37.7220     2.2020    57.4130   174.7090   160.8580   245.0800    26.5320 
  174.6250   -38.4650     2.1920    57.1250   215.2280   199.4890   311.5670    26.4380 
  174.7500   -39.1850     2.1850    54.0840   269.0160   249.2620   380.0830    26.1560 
  174.8750   -39.9510     2.1810    50.3850   339.7430   308.1090   443.5240    25.7600 
  175.0000   -40.6510     2.1770    49.4700   417.2210   370.3100   515.5720    25.6430 
  175.1250   -41.2170     2.1700    50.7040   486.9250   425.8180   585.0810    25.8130 
  175.2500   -41.6510     2.1620    52.5990   536.5340   466.2620   639.4310    26.1250 
  175.3750   -41.9290     2.1570    53.7510   559.3250   486.6780   661.1390    26.3800 
  175.5000   -42.0490     2.1580    54.3950   552.4990   483.6610   658.6390    26.4710 
  175.6250   -41.9740     2.1620    54.9490   528.6470   465.0710   645.8170    26.3370 
  175.7500   -41.7350     2.1700    57.1240   497.7020   437.7580   618.0870    25.9990 
  175.8750   -41.3430     2.1790    58.4580   468.0240   409.0110   587.0090    25.7020 
  176.0000   -40.7540     2.1860    55.0410   446.3580   385.7530   540.8360    25.6100 
  176.1250   -40.0640     2.1890    51.1280   434.3130   370.5910   496.7780    25.6200 
  176.2500   -39.2690     2.1880    51.4860   433.2590   365.1110   460.3130    25.6430 
  176.3750   -38.4440     2.1840    55.7560   444.3890   370.4270   456.2470    25.6520 
  176.5000   -37.5950     2.1790    55.6950   471.7940   389.9580   505.6470    25.6520 
  176.6250   -36.7470     2.1730    51.5350   515.3420   423.3250   571.0240    25.6670 
  176.7500   -35.9670     2.1660    48.6810   576.3290   471.3080   628.4620    25.7180 
  176.8750   -35.1780     2.1600    48.5230   653.4660   532.4130   685.2220    25.7910 
  177.0000   -34.5110     2.1590    49.6860   740.6990   601.5390   757.0310    25.8340 
  177.1250   -33.9060     2.1670    51.5420   821.1300   666.2710   830.1160    25.8540 
  177.2500   -33.3680     2.1840    51.8440   874.2340   712.3230   869.1810    25.8710 
  177.3750   -32.8650     2.2060    48.4610   880.1260   724.5230   862.3960    25.8920 
  177.5000   -32.3930     2.2280    46.8990   827.3140   690.0930   777.3060    25.8570 
  177.6250   -31.9590     2.2480    49.9860   742.5270   626.5150   656.7120    25.8600 
  177.7500   -31.5600     2.2600    54.1010   645.0480   549.0600   559.5330    25.9310 
  177.8750   -31.2110     2.2560    54.6130   548.7630   469.8850   494.2540    26.0380 
  178.0000   -30.8580     2.2410    52.9960   464.4810   398.4930   424.4830    26.1490 
  178.1250   -30.5580     2.2350    52.3480   394.1560   337.7700   356.5830    26.2000 
  178.2500   -30.2300     2.2360    52.8020   338.3980   288.8620   304.7070    26.1770 
  178.3750   -29.9350     2.2360    55.6010   297.2930   252.2630   268.1920    26.1480 
  178.5000   -29.6040     2.2340    60.9760   272.4720   229.8450   251.8560    26.1040 
  178.6250   -29.2760     2.2370    64.8800   259.1810   218.1340   263.3320    26.1100 
  178.7500   -28.9300     2.2420    63.9360   253.0110   214.3020   289.3070    26.2110 
  178.8750   -28.5380     2.2410    60.5900   246.8540   213.3260   308.5230    26.3580 
  179.0000   -28.1500     2.2290    62.0210   229.9090   206.0440   302.8820    26.4890 
  179.1250   -27.6980     2.2120    67.3740   200.8710   187.6810   275.2800    26.6070 
  179.2500   -27.2560     2.2000    71.3760   165.6880   160.4120   233.5400    26.6910 
  179.3750   -26.7800     2.1990    72.0060   131.3620   130.3180   190.0760    26.7800 
  179.5000   -26.3140     2.2120    69.8970   101.8850   102.6160   144.8980    26.9180 
  179.6250   -25.8830     2.2330    68.9460    76.7810    78.4060    96.8420    27.0280 
  179.7500   -25.3910     2.2560    70.8910    55.9680    57.8740    64.5130    27.0760 
  179.8750   -24.9610     2.2790    74.4030    39.7010    41.4250    46.6570    27.1020 
  180.0000   -24.5640     2.3040    78.8160    28.7450    30.1120    33.3820    27.1060 
  180.1250   -24.2470     2.3360    83.7030    21.6520    22.7150    22.7000    26.9730 
  180.2500   -24.0300     2.3730    86.9780    17.4780    18.2820    16.4230    26.6790 
  180.3750   -23.9050     2.4060    85.3640    15.3790    15.9170    14.2560    26.4460 
  180.5000   -23.8820     2.4210    83.3710    14.9610    15.2300    14.2020    26.3860 
  180.6250   -23.9020     2.4210    84.9200    15.5900    15.6320    15.2500    26.4360 
  180.7500   -24.0500     2.4100    85.8780    17.0370    16.9030    17.0830    26.4680 
  180.8750   -24.2590     2.3920    82.2610    19.1620    18.8630    19.9610    26.4390 
  181.0000   -24.5370     2.3750    74.1120    21.9930    21.4670    23.0730    26.4050 
  181.1250   -24.8270     2.3620    67.8580    25.3530    24.5410    26.3380    26.3910 
  181.2500   -25.1390     2.3510    67.7430    29.0180    27.9120    29.4120    26.3710 
  181.3750   -25.4490     2.3370    71.8990    32.5100    31.1590    32.7560    26.3120 
  181.5000   -25.8000     2.3200    73.3750    34.9000    33.3590    37.8300    26.2360 
  181.6250   -26.2090     2.3050    73.4320    35.7370    33.9910    43.2830    26.2630 
  181.7500   -26.6320     2.2990    75.9740    35.0810    33.0140    46.9350    26.3440 
  181.8750   -27.1150     2.3020    77.1920    33.6830    31.0750    47.0000    26.3980 
