~V
VERS. 2.00: Ver 2.00
~W
STRT.M 50.0000:
STOP.M 205.0000:
STEP.M 0.1250:
NULL. -999.2500:
UWI. F10148:
~C
DEPT.M :
GR.API :
RML.OHMM :
RI. :
RXO.OHMM :
CALI.CM :
SP.MV :
DEN.GM/CC :
~A
# ...
  185.0000    60.2970     6.2210     5.5540     5.5810    22.9150   -17.1500     2.1550 
  185.1250    68.0500     6.3300     5.6520     5.7380    23.2520   -16.9230     2.1620 
  185.2500    72.4600     6.5180     5.8200     5.9380    23.3900   -16.6930     2.1770 
  185.3750    75.7630     6.7470     6.0240     6.1220    23.5420   -16.4810     2.1980 
  185.5000    81.2510     6.9430     6.1990     6.1920    23.5530   -16.3020     2.2240 
  185.6250    85.4140     7.0030     6.2530     6.3570    23.5550   -16.1470     2.2520 
  185.7500    83.9210     6.9240     6.1820     6.3080    23.5510   -16.0030     2.2770 
  185.8750    78.4040     6.7560     6.0320     5.9960    23.5460   -15.8780     2.2960 
  186.0000    72.9870     6.5860     5.8800     5.3730    23.5170   -15.7590     2.3110 
  186.1250    69.5480     6.5320     5.8320     5.3010    23.4350   -15.6840     2.3210 
  186.2500    68.5380     6.6360     5.9250     6.0590    23.3790   -15.6490     2.3290 
  186.3750    70.1580     6.8840     6.1460     7.0140    23.4800   -15.6420     2.3380 
  186.5000    72.3300     7.2060     6.4340     7.2670    23.5400   -15.6430     2.3520 
  186.6250    72.7390     7.4910     6.6890     7.3080    23.5520   -15.6770     2.3690 
  186.7500    71.6060     7.6650     6.8440     7.5810    23.5520   -15.7500     2.3850 
  186.8750    68.5710     7.7270     6.8990     7.9380    23.5520   -15.8420     2.3900 
  187.0000    64.6600     7.7210     6.8940     8.1220    23.5520   -15.9420     2.3820 
  187.1250    63.0050     7.6910     6.8670     8.2950    23.5520   -16.0520     2.3650 
  187.2500    64.3980     7.6510     6.8320     8.2960    23.5490   -16.1470     2.3490 
  187.3750    67.8200     7.5980     6.7840     8.0480    23.5360   -16.2140     2.3390 
  187.5000    70.1420     7.5370     6.7300     7.6310    23.4860   -16.2840     2.3370 
  187.6250    68.9210     7.4910     6.6880     7.6640    23.4770   -16.3380     2.3380 
  187.7500    66.7660     7.4840     6.6820     7.9840    23.4730   -16.3670     2.3350 
  187.8750    67.2220     7.5290     6.7230     8.5530    23.4620   -16.3780     2.3260 
  188.0000    69.7660     7.6270     6.8100     8.9650    23.4250   -16.3820     2.3190 
  188.1250    70.5830     7.7950     6.9600     8.2460    23.3130   -16.3790     2.3180 
  188.2500    70.0120     8.0310     7.1700     7.8110    23.1640   -16.3880     2.3270 
  188.3750    69.8380     8.3190     7.4270     8.3020    23.1980   -16.4200     2.3400 
  188.5000    71.5970     8.6220     7.6980     9.3460    23.2490   -16.4370     2.3490 
  188.6250    74.9160     8.8650     7.9150    10.3730    23.2670   -16.4280     2.3470 
  188.7500    76.4460     8.9830     8.0200    10.3650    23.1710   -16.4370     2.3340 
  188.8750    75.2110     8.9470     7.9880    10.2300    23.0120   -16.4420     2.3190 
  189.0000    74.3080     8.8070     7.8640     8.5220    22.6000   -16.4680     2.3050 
  189.1250    75.5610     8.7050     7.7730     8.3080    22.8060   -16.4980     2.2950 
  189.2500    75.9550     8.7590     7.8210     8.7820    23.1770   -16.5260     2.2860 
  189.3750    75.9950     9.0070     8.0420     9.3310    23.3110   -16.5530     2.2740 
  189.5000    78.5130     9.3830     8.3780     9.7110    23.3840   -16.5900     2.2590 
  189.6250    82.2150     9.6660     8.6300     9.5210    23.3840   -16.6650     2.2410 
  189.7500    83.2720     9.6720     8.6360     9.5960    23.3970   -16.7210     2.2200 
  189.8750    82.4080     9.3930     8.3870     9.4810    23.3970   -16.8100     2.2020 
  190.0000    82.0520     8.9590     7.9990     9.0430    23.3850   -16.8950     2.1910 
  190.1250    79.4320     8.5350     7.6210     8.2360    23.3080   -16.9520     2.1970 
  190.2500    74.0640     8.1900     7.3130     7.7870    23.1750   -17.0330     2.2220 
  190.3750    71.2240     7.9010     7.0540     7.0990    23.1160   -17.0910     2.2580 
  190.5000    72.0670     7.6230     6.8060     6.2060    23.1190   -17.1460     2.2940 
  190.6250    72.2130     7.3640     6.5750     5.3280    23.0000   -17.1760     2.3150 
  190.7500    70.7920     7.1740     6.4060     5.2250    22.8520   -17.2010     2.3210 
  190.8750    71.5940     7.0780     6.3200     5.7370    22.7140   -17.2250     2.3150 
  191.0000    73.6430     7.0670     6.3090     6.7040    22.7660   -17.2500     2.3000 
  191.1250    69.7000     7.1120     6.3500     7.3880    23.1070   -17.2850     2.2820 
  191.2500    63.1430     7.1810     6.4120     7.2700    23.2850   -17.2980     2.2650 
  191.3750    61.6670     7.2700     6.4910     6.8820    23.3060   -17.3260     2.2560 
  191.5000    65.5820     7.3730     6.5830     6.6510    23.3850   -17.3410     2.2570 
  191.6250    69.6470     7.4590     6.6600     6.5480    23.4180   -17.3550     2.2720 
  191.7500    72.4280     7.4840     6.6820     6.6840    23.4800   -17.3780     2.2920 
  191.8750    75.6850     7.4130     6.6190     7.0790    23.5360   -17.3920     2.3110 
  192.0000    77.6960     7.2350     6.4600     7.5480    23.6030   -17.3780     2.3220 
  192.1250    75.2790     6.9870     6.2380     7.0580    23.5490   -17.3630     2.3220 
  192.2500    71.7480     6.7720     6.0460     6.2690    23.3300   -17.3600     2.3170 
  192.3750    68.2670     6.6430     5.9310     5.8480    23.2260   -17.3380     2.3090 
  192.5000    65.3950     6.5870     5.8810     5.7760    23.1260   -17.3110     2.3040 
  192.6250    65.6910     6.5430     5.8420     5.9030    23.0920   -17.3190     2.3040 
  192.7500    69.8390     6.4440     5.7540     5.9360    23.1080   -17.3410     2.3070 
  192.8750    75.6060     6.2750     5.6030     5.9230    23.2500   -17.3600     2.3090 
  193.0000    78.0800     6.0580     5.4090     5.8240    23.4850   -17.4150     2.3100 
  193.1250    74.7300     5.8460     5.2190     5.9370    23.6610   -17.4820     2.3080 
  193.2500    69.0030     5.6690     5.0610     6.2450    23.6560   -17.4940     2.3020 
  193.3750    64.4040     5.5250     4.9330     6.5070    23.6250   -17.4970     2.2930 
  193.5000    63.0350     5.4110     4.8310     6.2430    23.5770   -17.5060     2.2800 
  193.6250    63.3850     5.3230     4.7530     5.9560    23.5310   -17.4820     2.2650 
  193.7500    63.2010     5.2440     4.6820     5.6050    23.4490   -17.4180     2.2540 
  193.8750    61.9750     5.1700     4.6160     5.1760    23.3540   -17.3680     2.2520 
  194.0000    61.2940     5.1220     4.5740     4.8820    23.3350   -17.3050     2.2610 
  194.1250    61.6200     5.1530     4.6010     4.7660    23.3850   -17.2660     2.2800 
  194.2500    61.6200     5.2740     4.7090     4.8800    23.4120   -17.2490     2.3000 
  194.3750    61.6200     5.4760     4.8890     5.4580    23.4080   -17.2660     2.3130 
  194.5000    61.6200     5.7170     5.1040     6.3910    23.4300   -17.2980     2.3160 
  194.6250    61.6200     5.9150     5.2810     6.9570    23.5790   -17.3430     2.3070 
  194.7500    61.6200     6.0050     5.3620     6.9770    23.7240   -17.4050     2.2940 
  194.8750    61.6200     5.9720     5.3330     6.4640    23.6850   -17.4310     2.2810 
  195.0000    61.6200     5.8540     5.2270     6.0980    23.5620   -17.4270     2.2720 
  195.1250    61.6200     5.7300     5.1160     6.2520    23.5230   -17.3880     2.2690 
  195.2500    61.6200     5.6690     5.0620     6.4940    23.5270   -17.3370     2.2690 
  195.3750    61.6200     5.6730     5.0660     6.4620    23.6000   -17.2730     2.2710 
  195.5000    61.6200     5.7000     5.0900     6.2530    23.6170   -17.2160     2.2730 
  195.6250    61.6200     5.6930     5.0830     6.1510    23.5770   -17.1690     2.2770 
  195.7500    61.6200     5.6410     5.0360     6.1030    23.4930   -17.1080     2.2820 
  195.8750    61.6200     5.5720     4.9750     6.3160    23.4680   -17.0650     2.2880 
  196.0000    61.6200     5.5340     4.9410     6.5220    23.4640   -17.0650     2.2930 
  196.1250    61.6200     5.5770     4.9800     6.3030    23.4650   -17.0870     2.2940 
