~V
VERS. 2.00: Ver 2.00
~W
STRT.M 55.0000:
STOP.M 247.0000:
STEP.M 0.1250:
NULL. -999.2500:
UWI. F10183:
~C
DEPT.M :
SP.MV :
GR.API :
RML.OHMM :
RI. :
RXO.OHMM :
CALI.CM :
DEN.GM/CC :
~A
# ...
  212.5000   -13.2810    61.3850    40.6420    35.4400    39.9920    23.6720     2.2880 
  212.6250   -13.1420    59.3830    42.4400    36.8120    47.8190    23.7210     2.3240 
  212.7500   -12.9150    53.5600    44.4590    38.5740    54.0730    23.7570     2.3640 
  212.8750   -12.6830    47.9630    46.3480    40.4480    54.9670    23.7940     2.3950 
  213.0000   -12.4690    46.7930    47.9320    42.2460    53.4480    23.8320     2.4080 
  213.1250   -12.2100    48.5860    49.2930    43.9610    54.2170    23.7910     2.4080 
  213.2500   -11.8930    50.4930    50.7210    45.7450    54.3300    23.7090     2.4150 
  213.3750   -11.5340    51.7190    52.1800    47.5230    57.1740    23.6590     2.4400 
  213.5000   -11.1880    50.8550    53.0160    48.6850    62.9330    23.6310     2.4830 
  213.6250   -10.8540    48.6110    51.4850    47.5840    64.4400    23.6080     2.5290 
  213.7500   -10.5380    49.1300    46.6970    43.3140    61.2520    23.6210     2.5560 
  213.8750   -10.2360    51.7870    38.6620    35.7900    54.9460    23.6200     2.5540 
  214.0000    -9.9490    54.0630    28.8170    26.4570    45.6970    23.5760     2.5240 
  214.1250    -9.8250    55.7740    19.8160    18.1070    30.5220    23.5590     2.4690 
  214.2500    -9.8540    58.5850    13.2130    12.1090    15.2180    23.5790     2.4070 
  214.3750   -10.0660    61.2360     9.1240     8.3540     7.0730    23.6020     2.3480 
  214.5000   -10.3760    62.8820     6.9780     6.2610     4.6080    23.6620     2.3030 
  214.6250   -10.7470    68.6850     6.2490     5.4150     4.2900    23.7720     2.2820 
  214.7500   -11.1390    78.6260     6.2200     5.2540     4.4910    23.8640     2.2810 
  214.8750   -11.5400    86.7500     6.6060     5.5540     4.9470    23.9520     2.2940 
  215.0000   -11.9510    86.3870     7.2040     6.1300     5.6690    24.0720     2.3130 
  215.1250   -12.2570    79.0930     7.8230     6.7970     6.4940    24.1570     2.3300 
  215.2500   -12.4690    76.0080     8.3110     7.3690     7.0620    24.1870     2.3420 
  215.3750   -12.5630    77.6270     8.6000     7.7470     7.3910    24.2110     2.3500 
  215.5000   -12.5980    79.2760     8.6920     7.8970     7.5980    24.2200     2.3540 
  215.6250   -12.6100    80.8030     8.5770     7.8280     7.7500    24.1890     2.3560 
  215.7500   -12.6500    84.1410     8.3750     7.6520     7.8780    24.1660     2.3580 
  215.8750   -12.6940    86.5880     8.1170     7.4350     7.9310    24.1500     2.3610 
  216.0000   -12.7070    83.8700     7.7710     7.2300     7.9210    24.1030     2.3680 
  216.1250   -12.7690    81.0320     7.6170     7.1230     8.0240    24.0530     2.3770 
  216.2500   -12.8420    82.6940     7.7170     7.1840     8.4120    24.0270     2.3840 
  216.3750   -12.9700    85.3380     8.1160     7.4790     9.1480    23.9900     2.3850 
  216.5000   -13.0800    87.0350     8.8720     8.0500    10.3370    23.9510     2.3800 
  216.6250   -13.1560    86.1060    10.3220     8.9390    12.1720    23.9600     2.3720 
  216.7500   -13.1870    82.1240    11.7150    10.0440    14.3620    23.9760     2.3660 
  216.8750   -13.2080    77.8130    13.1540    11.2690    16.2800    23.9910     2.3620 
  217.0000   -13.2570    75.6770    14.5230    12.5030    17.3870    24.0420     2.3600 
  217.1250   -13.2930    74.8220    15.7200    13.6230    18.5970    24.1010     2.3560 
  217.2500   -13.3090    71.3450    16.7600    14.5960    19.9120    24.1370     2.3500 
  217.3750   -13.2510    66.8760    17.6830    15.4370    21.2610    24.1800     2.3410 
  217.5000   -13.1650    64.5350    18.5420    16.1890    22.2800    24.2210     2.3340 
  217.6250   -13.0490    65.4620    19.3840    16.9020    22.6980    24.2140     2.3290 
  217.7500   -12.8880    66.4350    20.2470    17.6210    23.0440    24.2130     2.3290 
  217.8750   -12.6750    65.5710    21.1440    18.3640    23.8610    24.2410     2.3320 
  218.0000   -12.3960    63.8210    22.0590    19.1290    25.0490    24.2630     2.3350 
  218.1250   -12.0180    64.1510    22.9030    19.8610    26.0590    24.2860     2.3330 
  218.2500   -11.6120    65.2430    23.5620    20.4720    26.8920    24.3260     2.3280 
  218.3750   -11.1740    65.9570    23.9320    20.8710    27.4470    24.3360     2.3220 
  218.5000   -10.7060    65.9490    23.9530    20.9950    27.6260    24.3050     2.3200 
  218.6250   -10.1970    65.3170    23.5870    20.7870    27.2540    24.3000     2.3300 
  218.7500    -9.6800    64.8160    22.9660    20.3380    26.1570    24.2940     2.3480 
  218.8750    -9.2040    63.6190    22.1810    19.7210    24.9610    24.2590     2.3700 
  219.0000    -8.7400    60.8840    21.3280    19.0200    24.0740    24.2200     2.3890 
  219.1250    -8.2810    59.3120    20.4960    18.3240    23.0280    24.1590     2.4010 
  219.2500    -7.7760    62.3980    19.7380    17.6910    21.6770    24.0850     2.4060 
  219.3750    -7.2890    68.0400    19.0700    17.1430    20.4480    24.0560     2.4070 
  219.5000    -6.8420    71.0710    18.4780    16.6700    19.8300    24.0540     2.4070 
  219.6250    -6.4640    69.6840    17.9320    16.2460    19.4970    24.0060     2.4070 
  219.7500    -6.1680    66.9740    17.3970    15.8280    18.8630    23.9460     2.4050 
  219.8750    -5.9040    64.3490    16.8580    15.3960    17.7110    23.9210     2.4000 
  220.0000    -5.6580    62.2390    16.3080    14.9330    16.3230    23.8920     2.3950 
  220.1250    -5.4630    61.5210    15.7060    14.3980    15.0550    23.8560     2.3970 
  220.2500    -5.3560    59.9210    14.9890    13.7430    14.2860    23.8630     2.4060 
  220.3750    -5.2760    57.4010    14.0780    12.9090    13.5900    23.8850     2.4200 
  220.5000    -5.2060    56.2650    12.9420    11.8730    12.9370    23.8870     2.4290 
  220.6250    -5.1420    56.3120    11.6430    10.6840    11.9020    23.9130     2.4250 
  220.7500    -5.0540    55.4180    10.4060     9.5350    10.4620    23.9620     2.4110 
  220.8750    -4.9290    54.7610     9.4330     8.5960     9.0170    23.9900     2.3970 
  221.0000    -4.8100    57.1010     8.8650     7.9860     8.2350    23.9960     2.3940 
  221.1250    -4.6870    61.4790     8.7700     7.7800     8.5230    23.9870     2.4070 
  221.2500    -4.5680    63.2360     8.9270     7.8210     9.3260    23.9470     2.4300 
  221.3750    -4.4400    62.2750     9.1300     7.9500    10.2870    23.9200     2.4530 
  221.5000    -4.3330    60.0660     9.1840     8.0030    10.9560    23.9030     2.4650 
  221.6250    -4.2650    58.3250     8.9420     7.8300    10.4930    23.8550     2.4590 
  221.7500    -4.2020    58.3290     8.5000     7.4740     9.0930    23.8140     2.4430 
  221.8750    -4.1440    58.5090     8.0120     7.0510     7.5720    23.7840     2.4230 
  222.0000    -4.0770    58.0990     7.6370     6.6950     6.8830    23.7240     2.4030 
  222.1250    -4.0250    57.4820     7.4990     6.5220     6.5840    23.6600     2.3870 
  222.2500    -3.9920    56.8830     7.5500     6.5120     6.5170    23.6290     2.3790 
  222.3750    -4.0080    56.0300     7.7220     6.6210     6.5560    23.6020     2.3850 
  222.5000    -4.0340    54.5460     7.9370     6.7880     6.7060    23.5870     2.4040 
  222.6250    -4.0340    54.3820     8.1260     6.9520     6.8290    23.6200     2.4300 
  222.7500    -4.0340    55.4060     8.2710     7.0860     6.9950    23.6560     2.4500 
  222.8750    -4.0440    56.2400     8.3830     7.1900     7.2120    23.6860     2.4560 
  223.0000    -4.0590    56.9710     8.4790     7.2750     7.3930    23.7470     2.4500 
  223.1250    -4.0560    57.8310     8.5700     7.3450     7.4330    23.8020     2.4410 
  223.2500    -4.0410    57.2750     8.6500     7.3980     7.3700    23.8070     2.4350 
  223.3750    -4.0120    55.2950     8.7020     7.4210     7.3440    23.8100     2.4330 
  223.5000    -3.9920    53.8920     8.7110     7.4020     7.4820    23.8300     2.4320 
  223.6250    -4.0190    54.6120     8.6830     7.3470     7.5460    23.8320     2.4250 
