~V
VERS. 2.00: Ver 2.00
~W
STRT.M 52.0000:
STOP.M 326.0000:
STEP.M 0.1250:
NULL. -999.2500:
UWI. F10108:
~C
DEPT.M :
DEN.GM/CC :
SP.MV :
GR.API :
RML.OHMM :
RI. :
RXO.OHMM :
CALI.CM :
~A
# ...
  187.0000     2.5130    -6.8630    57.6990    13.8790    13.5130    38.2000    23.9330 
  187.1250     2.4640    -6.6290    67.3990    11.0020    11.2250    24.5210    23.8040 
  187.2500     2.4160    -6.3800    77.2920     8.3370     8.8370    12.0370    23.7860 
  187.3750     2.3780    -6.1330    83.7660     6.4910     6.9810     6.8850    23.8360 
  187.5000     2.3560    -5.8980    87.4720     5.4860     5.7960     5.3220    23.8930 
  187.6250     2.3540    -5.7010    88.7450     5.1190     5.2190     4.8050    23.9290 
  187.7500     2.3650    -5.5430    88.9260     4.9920     4.9470     4.5360    23.9860 
  187.8750     2.3820    -5.4540    88.6410     4.9210     4.8180     4.4300    24.0800 
  188.0000     2.3940    -5.4250    88.4960     4.8130     4.7170     4.4180    24.1900 
  188.1250     2.3910    -5.4310    88.7380     4.6390     4.5870     4.3480    24.2970 
  188.2500     2.3750    -5.4610    88.8540     4.4540     4.4450     4.3460    24.4110 
  188.3750     2.3500    -5.5100    89.1250     4.3170     4.3290     4.2810    24.5450 
  188.5000     2.3220    -5.5830    88.8170     4.2780     4.2750     4.0600    24.6910 
  188.6250     2.2970    -5.6650    89.2370     4.3800     4.3190     3.9100    24.7850 
  188.7500     2.2790    -5.7230    88.7540     4.5800     4.4430     3.8690    24.8220 
  188.8750     2.2670    -5.7550    85.1260     4.8270     4.6220     3.9840    24.8160 
  189.0000     2.2600    -5.7780    80.8950     5.0600     4.8130     4.1630    24.7850 
  189.1250     2.2550    -5.8330    81.2520     5.2090     4.9640     4.4040    24.7330 
  189.2500     2.2490    -5.9180    83.6580     5.2670     5.0480     4.6880    24.6460 
  189.3750     2.2390    -6.0060    84.5040     5.2540     5.0660     4.9850    24.5470 
  189.5000     2.2290    -6.0800    82.9420     5.2110     5.0400     4.8450    24.4700 
  189.6250     2.2210    -6.1360    80.0260     5.1890     5.0050     4.6350    24.4180 
  189.7500     2.2190    -6.2030    77.2830     5.2080     4.9880     4.6760    24.3650 
  189.8750     2.2220    -6.2810    76.3980     5.2590     4.9900     5.0140    24.2890 
  190.0000     2.2280    -6.3650    78.1990     5.3220     5.0020     5.4910    24.2100 
  190.1250     2.2320    -6.4320    80.5960     5.3750     5.0040     5.7970    24.1780 
  190.2500     2.2350    -6.4560    81.5470     5.4140     4.9840     5.9100    24.1860 
  190.3750     2.2350    -6.4700    80.6610     5.4440     4.9460     5.7450    24.2050 
  190.5000     2.2340    -6.4930    78.9700     5.4680     4.9010     5.6000    24.2190 
  190.6250     2.2330    -6.5280    78.1660     5.4860     4.8690     5.5800    24.2470 
  190.7500     2.2340    -6.5650    78.6740     5.5160     4.8690     5.6910    24.3220 
  190.8750     2.2380    -6.5850    78.7330     5.5920     4.9270     5.6900    24.4260 
  191.0000     2.2450    -6.6010    75.3460     5.7620     5.0710     5.6820    24.5170 
  191.1250     2.2520    -6.6290    70.6670     6.0940     5.3380     5.6720    24.5630 
  191.2500     2.2560    -6.6920    69.5230     6.5580     5.7050     5.9020    24.6010 
  191.3750     2.2530    -6.7480    71.2830     7.0950     6.1370     6.6040    24.6570 
  191.5000     2.2450    -6.7800    72.3960     7.6190     6.5890     7.6770    24.7110 
  191.6250     2.2400    -6.7790    71.8710     8.0520     7.0150     8.6700    24.7090 
  191.7500     2.2460    -6.7450    71.6370     8.4100     7.4180     9.2300    24.6600 
  191.8750     2.2680    -6.7060    71.0500     8.7460     7.8220     9.2280    24.5940 
  192.0000     2.3040    -6.6670    68.1580     9.1090     8.2510     8.7380    24.5550 
  192.1250     2.3420    -6.6260    64.4870     9.4830     8.6830     8.7830    24.5360 
  192.2500     2.3620    -6.5800    63.2260     9.7600     9.0350     9.4670    24.5070 
  192.3750     2.3570    -6.5510    64.2320     9.8320     9.2100    10.0230    24.4670 
  192.5000     2.3290    -6.5360    66.2630     9.6480     9.1450     9.8700    24.4560 
  192.6250     2.2950    -6.5070    68.7730     9.2250     8.8170     9.0630    24.5160 
  192.7500     2.2700    -6.4780    72.8530     8.7150     8.3560     8.2500    24.5980 
  192.8750     2.2590    -6.4460    75.2810     8.2090     7.8520     7.7190    24.6600 
  193.0000     2.2570    -6.4100    74.1100     7.7340     7.3560     7.4080    24.7010 
  193.1250     2.2590    -6.3740    72.5480     7.2580     6.8730     7.2550    24.7480 
  193.2500     2.2610    -6.3420    73.3380     6.7580     6.3940     6.8960    24.7930 
  193.3750     2.2650    -6.3140    74.7690     6.2590     5.9330     6.2810    24.7840 
  193.5000     2.2730    -6.2900    75.2540     5.8280     5.5330     5.6950    24.7040 
  193.6250     2.2820    -6.2950    75.8910     5.5820     5.2830     5.1810    24.5770 
  193.7500     2.2890    -6.3150    76.3650     5.5620     5.2210     4.8400    24.4730 
  193.8750     2.2910    -6.3640    75.1690     5.7700     5.3650     4.7630    24.4100 
  194.0000     2.2870    -6.4360    74.3970     6.1640     5.6960     5.0050    24.3630 
  194.1250     2.2800    -6.5100    76.0260     6.6610     6.1630     5.5300    24.2750 
  194.2500     2.2740    -6.5790    79.0940     7.1290     6.6420     6.3700    24.1490 
  194.3750     2.2710    -6.6670    80.2800     7.4760     7.0370     7.0410    24.0120 
  194.5000     2.2720    -6.7730    77.9430     7.6650     7.2850     7.1580    23.8920 
  194.6250     2.2740    -6.8780    74.2400     7.7100     7.3570     6.9200    23.7730 
  194.7500     2.2750    -6.9870    73.4950     7.7160     7.3390     6.6110    23.6400 
  194.8750     2.2760    -7.0930    77.1590     7.7570     7.3060     6.4210    23.5020 
  195.0000     2.2760    -7.1980    82.9300     7.8740     7.3210     6.4470    23.3950 
  195.1250     2.2800    -7.3130    86.2880     8.0940     7.4380     6.5810    23.3530 
  195.2500     2.2900    -7.4540    84.4020     8.4150     7.6650     6.8390    23.3370 
  195.3750     2.3100    -7.5710    79.0000     8.9080     8.0460     7.1740    23.3320 
  195.5000     2.3410    -7.6550    75.2010     9.6940     8.6640     7.7070    23.3710 
  195.6250     2.3780    -7.7220    75.4510    10.9340     9.6550     8.7830    23.5260 
  195.7500     2.4100    -7.7830    75.0290    12.4740    10.9290    10.0470    23.7680 
  195.8750     2.4260    -7.8400    71.5140    13.9920    12.2600    11.3460    24.0360 
  196.0000     2.4210    -7.8840    66.5940    14.9940    13.2590    14.2890    24.2870 
  196.1250     2.4040    -7.8860    63.3940    14.9530    13.3070    19.7920    24.5160 
  196.2500     2.3910    -7.8410    63.4010    13.7670    12.3300    21.4120    24.7470 
  196.3750     2.3920    -7.7870    67.1110    11.8810    10.6070    15.6330    24.9710 
  196.5000     2.4060    -7.7610    74.1850    10.1880     8.7210     9.7170    25.1330 
  196.6250     2.4260    -7.7790    80.3560     8.4310     7.2980     6.2580    25.1760 
  196.7500     2.4420    -7.8130    84.1860     7.5280     6.4780     5.2290    25.1630 
  196.8750     2.4490    -7.8710    85.7380     7.3590     6.2220     5.0610    25.1650 
  197.0000     2.4480    -7.9720    84.4900     7.7030     6.4120     5.1850    25.2110 
  197.1250     2.4400    -8.1580    79.6330     8.3460     6.9360     5.5180    25.2910 
  197.2500     2.4310    -8.4240    73.3060     9.0220     7.5810     6.1370    25.3600 
  197.3750     2.4240    -8.7380    70.0350     9.5880     8.2090     6.9100    25.4110 
  197.5000     2.4200    -9.0660    70.7480     9.9610     8.7080     7.4800    25.4500 
  197.6250     2.4190    -9.3960    71.6380    10.1000     8.9790     7.4350    25.4790 
  197.7500     2.4170    -9.7220    71.1090    10.1090     9.0640     6.8470    25.4790 
  197.8750     2.4140   -10.0490    72.1050    10.0700     9.0220     6.3340    25.4210 
  198.0000     2.4120   -10.3700    75.9570    10.0470     8.9230     6.2170    25.2970 
  198.1250     2.4090   -10.6620    79.1230    10.0620     8.8180     6.4040    25.1410 
