~V
VERS. 2.00: Ver 2.00
~W
STRT.M 64.0000:
STOP.M 235.0000:
STEP.M 0.1250:
NULL. -999.2500:
UWI. F10178:
~C
DEPT.M :
GR.API :
RML.OHMM :
RI. :
RXO.OHMM :
CALI.CM :
DEN.GM/CC :
SP.MV :
~A
# ...
  165.2500    65.9630    89.9520    79.3230   106.7430    24.5050     2.2580   -14.2840 
  165.3750    70.1100    93.5540    82.8180   101.6090    24.6820     2.2540   -13.9850 
  165.5000    70.8940    94.1570    83.7270    88.4970    24.8700     2.2530   -13.6240 
  165.6250    67.3270    91.0130    81.2830    80.5310    24.9180     2.2550   -13.3250 
  165.7500    65.6580    85.6400    77.0210    79.6160    24.7920     2.2580   -13.0760 
  165.8750    67.9760    79.3040    72.2360    81.4610    24.5370     2.2600   -12.8090 
  166.0000    71.2690    73.0630    67.8200    75.8580    24.2060     2.2610   -12.5410 
  166.1250    71.2490    67.8670    64.5320    65.2300    23.8610     2.2590   -12.3590 
  166.2500    69.8010    64.1010    62.6840    58.8750    23.6420     2.2580   -12.2180 
  166.3750    68.9240    62.0360    62.5640    62.0040    23.6120     2.2590   -12.0960 
  166.5000    68.8900    61.6210    64.2620    64.4380    23.7160     2.2650   -11.9970 
  166.6250    69.2660    62.1560    67.4910    66.8750    23.7890     2.2730   -11.8570 
  166.7500    70.5260    61.6880    70.1310    68.8630    24.0290     2.2790   -11.6600 
  166.8750    72.8770    58.3070    69.0750    71.7720    24.5610     2.2830   -11.4340 
  167.0000    74.9780    51.0080    61.6610    72.0890    25.6160     2.2850   -11.1760 
  167.1250    75.5580    40.3880    48.2700    59.0750    24.0520     2.2920   -10.8490 
  167.2500    79.2710    29.5290    34.5690    36.0890    23.2790     2.3090   -10.5000 
  167.3750    88.0520    20.4840    23.7940    18.0030    23.1020     2.3400   -10.1700 
  167.5000    97.6920    14.1280    16.6820     9.5610    23.2940     2.3820    -9.8430 
  167.6250   102.5820    10.5670    12.8160     7.7310    23.7090     2.4230    -9.4970 
  167.7500   103.4050     8.6280    10.6400     7.4290    24.1730     2.4530    -9.2120 
  167.8750   101.5460     7.7320     9.5410     7.4140    24.3930     2.4680    -9.0370 
  168.0000    98.5980     7.5590     9.2160     7.5340    24.4050     2.4710    -8.9590 
  168.1250    98.1500     8.1990     9.7030     7.7780    24.4950     2.4690    -8.9680 
  168.2500    98.5340     9.9090    11.0820     7.9880    24.7090     2.4600    -9.0360 
  168.3750    96.4510    13.4320    13.9770     9.5080    24.9110     2.4410    -9.1990 
  168.5000    89.4460    19.8420    19.6340    14.8520    25.0170     2.4070    -9.5360 
  168.6250    79.3350    31.0850    30.9210    38.5250    25.1240     2.3610   -10.0000 
  168.7500    70.4980    46.8220    48.6330    79.7400    25.1640     2.3160   -10.4650 
  168.8750    65.7820    65.5260    71.4820   103.2160    25.1890     2.2810   -10.9680 
  169.0000    64.8750    84.0170    94.0330   102.5860    25.2240     2.2580   -11.5350 
  169.1250    63.7340    98.4380   108.3100    96.6950    25.2610     2.2440   -12.1070 
  169.2500    61.3450   109.1590   115.7530    90.2210    25.2340     2.2350   -12.6920 
  169.3750    60.6120   118.3540   121.3990    85.7600    24.9500     2.2280   -13.2430 
  169.5000    61.4300   127.5920   128.4540   112.2380    24.3740     2.2210   -13.7140 
  169.6250    61.9620   135.0700   135.4140   160.1250    23.8020     2.2120   -14.1150 
  169.7500    62.0670   137.1950   137.9450   202.2940    23.6860     2.2050   -14.5120 
  169.8750    62.0380   131.6320   133.0110   184.6250    23.6630     2.2020   -14.8710 
  170.0000    60.6020   119.0230   120.7040   161.3850    23.6530     2.2070   -15.1690 
  170.1250    59.8920   102.7060   104.3630   139.9100    23.9210     2.2210   -15.4270 
  170.2500    64.5510    87.4490    89.0900   120.6520    24.4070     2.2390   -15.6560 
  170.3750    71.2070    75.3970    77.0740    79.0630    24.8120     2.2570   -15.8710 
  170.5000    73.2080    67.1590    68.8580    50.0370    24.9940     2.2720   -16.0470 
  170.6250    69.7150    63.0010    64.7180    41.7980    25.0340     2.2820   -16.1930 
  170.7500    66.1950    61.7380    63.4920    44.1140    25.0470     2.2880   -16.2940 
  170.8750    64.5520    62.7950    64.6290    47.5660    25.0420     2.2920   -16.3320 
  171.0000    66.2800    65.5000    67.5240    59.7810    25.0350     2.2930   -16.3100 
  171.1250    72.4040    68.9830    71.2420    67.1790    25.0220     2.2910   -16.2660 
  171.2500    77.2780    72.1180    74.3860    69.0220    24.9500     2.2870   -16.2010 
  171.3750    76.8850    74.4040    76.2610    69.8640    24.8060     2.2830   -16.1400 
  171.5000    71.6820    76.0280    77.0400    82.8380    24.7560     2.2820   -16.0850 
  171.6250    66.1430    78.1240    77.9350    81.7180    24.8230     2.2880   -15.9120 
  171.7500    63.3940    82.0130    80.5280    68.9040    25.0110     2.2940   -15.6300 
  171.8750    62.9590    88.5010    85.8330    59.7890    25.2200     2.2930   -15.2810 
  172.0000    63.1720    97.4470    93.8190    71.5510    25.4120     2.2800   -14.8610 
  172.1250    63.1650   107.3310   102.9500   104.8760    25.4910     2.2570   -14.3490 
  172.2500    63.1750   115.5050   110.3650   147.7110    25.4030     2.2370   -13.7970 
  172.3750    62.4850   120.4070   114.2860   161.3270    25.1940     2.2250   -13.1980 
  172.5000    62.2830   122.1880   114.8300   142.3630    25.0090     2.2230   -12.5730 
  172.6250    63.3750   122.7800   114.2470   112.1610    24.9700     2.2250   -12.1050 
  172.7500    64.1840   124.5480   115.2370   103.8780    24.9650     2.2270   -11.7630 
  172.8750    63.6210   127.9190   118.3340   121.9810    25.0120     2.2250   -11.4050 
  173.0000    62.2660   131.7280   122.3200   157.7000    25.0600     2.2240   -11.0480 
  173.1250    62.4400   133.4620   124.6380   168.9710    25.0760     2.2230   -10.7630 
  173.2500    62.0030   131.7770   123.7920   143.7650    25.0530     2.2240   -10.4780 
  173.3750    59.6870   126.4120   119.4650   115.4120    25.0330     2.2260   -10.1540 
  173.5000    57.2890   118.0590   112.1900   103.4370    25.0040     2.2300    -9.7920 
  173.6250    57.8460   108.0270   102.8780   102.3620    24.9210     2.2410    -9.3430 
  173.7500    60.3920    98.4160    93.5150   108.9100    24.7960     2.2600    -8.8400 
  173.8750    60.9490    90.5570    85.7070    96.9290    24.6420     2.2870    -8.4040 
  174.0000    57.8790    84.7950    80.2910    75.0230    24.5160     2.3250    -8.0040 
  174.1250    54.7280    79.9090    76.4550    59.3710    24.5400     2.3820    -7.5350 
  174.2500    54.9000    73.5010    71.3560    63.1500    24.4580     2.4580    -7.0970 
  174.3750    56.5880    64.3620    63.0440   105.2990    24.3640     2.5450    -6.6690 
  174.5000    56.4210    53.0300    51.7820   164.6690    24.3250     2.6270    -6.1710 
  174.6250    54.3970    41.7310    40.4150   100.1770    24.3510     2.6840    -5.6460 
  174.7500    53.4980    32.5050    31.4900    45.2250    24.3960     2.7160    -5.1810 
  174.8750    54.5110    25.9500    25.4370    25.4530    24.3340     2.7320    -4.7640 
  175.0000    56.5760    21.7140    21.6320    19.1180    24.1920     2.7400    -4.4470 
  175.1250    58.7970    19.1340    19.3160    17.4430    24.0480     2.7440    -4.2770 
  175.2500    60.4550    17.0960    17.4380    19.0630    23.9540     2.7420    -4.1230 
  175.3750    60.1450    15.0810    15.4710    19.9890    23.8760     2.7290    -3.9500 
  175.5000    57.7900    12.9010    13.2210    15.5290    23.8450     2.7040    -3.8060 
  175.6250    55.9000    10.7110    10.8950    10.6840    23.9650     2.6710    -3.6860 
  175.7500    55.5700     8.7630     8.8460     8.4530    24.1900     2.6450    -3.5270 
  175.8750    54.3620     7.1690     7.2280     6.9240    24.4830     2.6340    -3.3590 
  176.0000    50.9640     5.9460     6.0320     5.3960    24.7650     2.6320    -3.1650 
  176.1250    48.2370     5.1060     5.1910     4.4910    24.8100     2.6140    -2.9200 
  176.2500    47.7940     4.4950     4.5290     4.4830    24.7380     2.5630    -2.6490 
  176.3750    48.9760     4.0130     3.9880     4.5690    24.6340     2.4880    -2.3640 
