~V
VERS. 2.00: Ver 2.00
~W
STRT.M 50.0000:
STOP.M 251.0000:
STEP.M 0.1250:
NULL. -999.2500:
UWI. F10193:
~C
DEPT.M :
DEN.GM/CC :
GR.API :
RML.OHMM :
RI. :
RXO.OHMM :
CALI.CM :
SP.MV :
~A
# ...
  241.2500     2.3870    69.0510    12.4020    10.8500    10.8250    25.4820     2.1580 
  241.3750     2.4010    69.0510    12.4190    10.7630    11.0410    25.5820     2.1720 
  241.5000     2.4240    69.0510    12.4210    10.6790    11.2290    25.8670     2.1520 
  241.6250     2.4420    69.0510    12.3960    10.6400    11.3800    26.1930     2.0630 
  241.7500     2.4420    69.0510    12.3650    10.6570    11.7090    26.4610     1.9270 
  241.8750     2.4260    69.0510    12.3730    10.7320    12.0500    26.6970     1.7960 
  242.0000     2.4070    69.0510    12.4850    10.8590    11.6320    26.9010     1.7280 
  242.1250     2.3990    69.0510    12.7260    11.0300    10.8470    26.7950     1.7640 
  242.2500     2.4080    69.0510    12.9920    11.1960    12.1320    25.8970     1.8670 
  242.3750     2.4280    69.0510    13.2040    11.3080    16.5240    25.2110     1.9840 
  242.5000     2.4490    69.0510    13.3130    11.3390    22.2200    25.1870     2.0660 
  242.6250     2.4560    69.0510    13.3130    11.3030    17.9550    25.1990     2.0970 
  242.7500     2.4490    69.0510    13.3680    11.2730    14.7350    25.2260     2.1300 
  242.8750     2.4360    69.0510    13.5580    11.2890    12.2140    25.2490     2.2200 
  243.0000     2.4250    69.0510    13.7740    11.3510    11.0190    25.2590     2.3960 
  243.1250     2.4200    69.0510    13.9040    11.4160    10.8090    25.2590     2.6320 
  243.2500     2.4130    69.0510    13.9530    11.4530    10.9080    25.2510     2.8430 
  243.3750     2.3980    69.0510    13.9510    11.4670    12.1030    25.2430     2.9610 
  243.5000     2.3770    69.0510    13.9270    11.4700    14.9480    25.2420     2.9530 
  243.6250     2.3620    69.0510    13.8990    11.4710    16.2830    25.2340     2.8280 
  243.7500     2.3640    69.0510    13.8740    11.4720    14.7140    25.2300     2.6790 
  243.8750     2.3810    69.0510    13.8470    11.4730    11.4870    25.2290     2.5890 
  244.0000     2.4000    69.0510    13.8250    11.4720     9.9830    25.2280     2.6160 
  244.1250     2.4010    69.0510    13.8210    11.4710     9.8380    25.2270     2.7750 
  244.2500     2.3860    69.0510    13.8340    11.4700    10.0140    25.2260     2.9840 
  244.3750     2.3680    69.0510    13.8540    11.4710     9.8540    25.2250     3.1610 
  244.5000     2.3600    69.0510    13.8690    11.4740     9.2950    25.2180     3.2450 
  244.6250     2.3750    69.0510    13.8730    11.4760     8.9200    25.2070     3.2000 
  244.7500     2.4030    69.0510    13.8750    11.4770     8.6500    25.1990     3.0730 
  244.8750     2.4320    69.0510    13.8780    11.4760     8.3810    25.1970     2.9030 
  245.0000     2.4530    69.0510    13.8820    11.4750     7.9080    25.1950     2.7350 
  245.1250     2.4530    69.0510    13.8800    11.4740     7.4240    25.1940     2.6200 
  245.2500     2.4280    69.0510    13.8800    11.4740     7.1140    25.1930     2.5670 
  245.3750     2.3830    69.0510    13.8800    11.4740     7.2660    25.1920     2.5670 
  245.5000     2.3300    69.0510    13.8800    11.4740     7.4400    25.1840     2.5970 
  245.6250     2.2930    69.0510    13.8800    11.4740     7.6150    25.1750     2.6320 
  245.7500     2.2870    69.0510    13.8800    11.4740     7.8390    25.1670     2.6520 
  245.8750     2.3100    69.0510    13.8800    11.4740     8.6060    25.1620     2.6490 
  246.0000     2.3480    69.0510    13.8800    11.4740    10.4540    25.1530     2.6200 
  246.1250     2.3870    69.0510    13.8800    11.4740    12.2790    25.1340     2.5610 
  246.2500     2.4210    69.0510    13.8800    11.4740    13.1040    25.1210     2.4940 
  246.3750     2.4460    69.0510    13.8800    11.4740    13.1060    25.1390     2.4290 
  246.5000     2.4550    69.0510    13.8800    11.4740    12.5330    25.1760     2.3740 
  246.6250     2.4440    69.0510    13.8800    11.4740    10.8100    25.1580     2.3420 
  246.7500     2.4260    69.0510    13.8800    11.4740     9.4480    25.0430     2.3370 
  246.8750     2.4020    69.0510    13.8800    11.4740     8.8600    24.9470     2.3310 
  247.0000     2.3570    69.0510    13.8800    11.4740     9.1010    24.8370     2.3150 
  247.1250     2.2730    69.0510    13.8800    11.4740     9.0970    24.4780  -999.2500 
  247.2500     2.1700    69.0510    13.8800    11.4740     9.1540    23.7200  -999.2500 
  247.3750     2.0710    69.0510    13.8800    11.4740     9.0140    22.7680  -999.2500 
  247.5000     1.9970    69.0510    13.8800    11.4740     8.8870    22.2110  -999.2500 
  247.6250     1.9590    69.0510    13.8800    11.4740     8.8420    22.0790  -999.2500 
  247.7500     1.9450    69.0510    13.8800    11.4740     8.8410    22.0800  -999.2500 
  247.8750     1.9430    69.0510    13.8800    11.4740     8.8420    22.0800  -999.2500 
  248.0000     1.9470    69.0510    13.8800    11.4740     8.8410    22.0790  -999.2500 
  248.1250     1.9500    69.0510    13.8800    11.4740     8.8390    22.0790  -999.2500 
  248.2500     1.9510    69.0510    13.8800    11.4740     8.8390    22.0790  -999.2500 
  248.3750     1.9480    69.0510    13.8800    11.4740     8.8370    22.0780  -999.2500 
  248.5000     1.9450    69.0510    13.8800    11.4740     8.8380    22.0780  -999.2500 
  248.6250     1.9430    69.0510    13.8800    11.4740     8.8380    22.0790  -999.2500 
  248.7500     1.9430    69.0510    13.8800    11.4740     8.8400    22.0790  -999.2500 
  248.8750     1.9450    69.0510    13.8800    11.4740     8.8390    22.0780  -999.2500 
  249.0000     1.9460    69.0510    13.8800    11.4740     8.8370    22.0780  -999.2500 
  249.1250     1.9500    69.0510    13.8800    11.4740     8.8370    22.0780  -999.2500 
  249.2500     1.9500    69.0510    13.8800    11.4740     8.8370    22.0780  -999.2500 
  249.3750     1.9480    69.0510    13.8800    11.4740     8.8350    22.0780  -999.2500 
  249.5000     1.9450    69.0510    13.8800    11.4740     8.8310    22.0780  -999.2500 
  249.6250     1.9420    69.0510    13.8800    11.4740     8.8240    22.0780  -999.2500 
  249.7500     1.9430    69.0510    13.8800    11.4740     8.8210    22.0790  -999.2500 
  249.8750     1.9450    69.0510    13.8800    11.4740     8.8200    22.0800  -999.2500 
  250.0000     1.9470    69.0510    13.8800    11.4740     8.8180    22.0810  -999.2500 
  250.1250     1.9480  -999.2500  -999.2500  -999.2500  -999.2500  -999.2500  -999.2500 
  250.2500  -999.2500  -999.2500  -999.2500  -999.2500  -999.2500  -999.2500  -999.2500 
  250.3750  -999.2500  -999.2500  -999.2500  -999.2500  -999.2500  -999.2500  -999.2500 
  250.5000  -999.2500  -999.2500  -999.2500  -999.2500  -999.2500  -999.2500  -999.2500 
  250.6250  -999.2500  -999.2500  -999.2500  -999.2500  -999.2500  -999.2500  -999.2500 
  250.7500  -999.2500  -999.2500  -999.2500  -999.2500  -999.2500  -999.2500  -999.2500 
  250.8750  -999.2500  -999.2500  -999.2500  -999.2500  -999.2500  -999.2500  -999.2500 
  251.0000  -999.2500  -999.2500  -999.2500  -999.2500  -999.2500  -999.2500  -999.2500 
