~V
VERS. 2.00: Ver 2.00
~W
STRT.M 54.0000:
STOP.M 236.0000:
STEP.M 0.1250:
NULL. -999.2500:
UWI. F10195:
~C
DEPT.M :
GR.API :
RML.OHMM :
RI. :
RXO.OHMM :
CALI.CM :
SP.MV :
DEN.GM/CC :
~A
# ...
  189.0000    58.1340   182.8940   157.1680   140.9110    25.0760   -31.6070     2.2560 
  189.1250    58.4510   180.3340   155.0370   134.7560    25.1020   -31.2090     2.2630 
  189.2500    61.3990   179.0140   153.8140   129.7230    25.0030   -30.9160     2.2630 
  189.3750    61.7210   178.9820   153.5810   128.3200    24.8030   -30.7390     2.2650 
  189.5000    60.6100   180.2660   154.3610   132.2150    24.6890   -30.6580     2.2660 
  189.6250    61.1290   182.7410   156.1140   137.8500    24.7330   -30.6290     2.2600 
  189.7500    63.3240   185.9570   158.6670   139.8650    24.8260   -30.5800     2.2470 
  189.8750    64.0590   188.7620   161.1590   142.6360    24.8790   -30.5370     2.2360 
  190.0000    61.9130   190.1590   162.7230   147.0230    24.9170   -30.5820     2.2310 
  190.1250    59.5030   189.6010   162.7670   151.5980    24.9390   -30.7330     2.2310 
  190.2500    59.4350   187.2390   161.2580   142.7170    24.9160   -30.8810     2.2340 
  190.3750    60.5260   184.6910   159.5170   123.2210    24.8470   -30.9490     2.2350 
  190.5000    61.5530   183.4350   158.8600   108.1490    24.7760   -30.9540     2.2330 
  190.6250    60.4940   184.5100   160.3130   121.1720    24.7670   -30.9710     2.2270 
  190.7500    58.5650   188.1210   164.3460   147.0590    24.7670   -31.0810     2.2180 
  190.8750    57.1470   191.7820   169.0970   164.8340    24.7810   -31.2150     2.2100 
  191.0000    57.5850   191.9310   171.7310   166.8760    24.8210   -31.2760     2.2100 
  191.1250    59.7840   185.0370   169.0450   159.7880    24.8560   -31.2760     2.2160 
  191.2500    60.4620   169.0770   158.2740   150.4240    24.8710   -31.3190     2.2250 
  191.3750    60.4040   148.7830   142.4240   134.2080    24.8780   -31.4070     2.2280 
  191.5000    60.7420   128.5330   125.0940   109.3360    24.8840   -31.4590     2.2280 
  191.6250    61.8970   111.5200   109.6070    82.6400    24.8700   -31.4530     2.2280 
  191.7500    64.6210    99.7830    98.4880    70.3330    24.8470   -31.4420     2.2330 
  191.8750    67.7640    92.2390    91.2490    64.8230    24.8310   -31.4590     2.2390 
  192.0000    69.4570    87.9420    87.1820    65.8030    24.8330   -31.5030     2.2430 
  192.1250    67.8300    85.6790    85.2620    68.1810    24.8530   -31.5450     2.2440 
  192.2500    64.7790    84.1900    84.3080    68.8140    24.8520   -31.5280     2.2440 
  192.3750    63.6690    82.5530    83.2410    67.3060    24.8310   -31.5350     2.2450 
  192.5000    64.8150    80.7950    81.9110    66.0300    24.7960   -31.6440     2.2480 
  192.6250    67.8200    79.3070    80.5680    63.2030    24.7580   -31.8440     2.2500 
  192.7500    68.9910    78.6460    79.6100    56.8210    24.6920   -32.0890     2.2520 
  192.8750    66.4590    79.0960    79.3440    58.7110    24.6010   -32.3500     2.2540 
  193.0000    63.0700    81.0940    80.2020    68.8320    24.5450   -32.6520     2.2540 
  193.1250    63.3690    85.2230    82.7440    80.6830    24.6270   -33.0400     2.2490 
  193.2500    66.9110    92.9020    88.2510    74.2450    24.7340   -33.5710     2.2330 
  193.3750    69.2580   104.7870    97.4800    69.2830    24.8210   -34.1480     2.2150 
  193.5000    68.0700   121.8510   111.4650    77.7830    24.8400   -34.7060     2.2010 
  193.6250    61.9090   144.5240   130.5240   106.2180    24.7840   -35.2310     2.1950 
  193.7500    55.6550   172.4540   153.8550   136.7460    24.6990   -35.7440     2.1980 
  193.8750    55.1480   201.5740   177.5150   163.2060    24.6290   -36.2530     2.2030 
  194.0000    58.2250   227.9450   198.1340   174.5260    24.5570   -36.7040     2.2080 
  194.1250    58.1570   249.3760   214.1270   158.2280    24.5210   -37.0440     2.2080 
  194.2500    54.3560   267.2750   226.7130   139.9980    24.5230   -37.2380     2.2050 
  194.3750    51.7990   285.7570   239.4220   145.3560    24.5790   -37.3310     2.2000 
  194.5000    50.6720   305.5480   253.2330   178.3400    24.7050   -37.3730     2.1950 
  194.6250    49.7300   324.4820   266.9970   219.2210    24.7960   -37.3310     2.1870 
  194.7500    50.4220   338.2360   277.9390   231.5150    24.7780   -37.0730     2.1790 
  194.8750    52.8970   345.1600   284.5180   224.3390    24.7210   -36.6750     2.1750 
  195.0000    55.0530   344.7300   285.9220   227.3480    24.6700   -36.2580     2.1770 
  195.1250    55.3460   337.6290   282.2420   235.1810    24.6340   -35.8660     2.1810 
  195.2500    54.2800   324.9980   274.1140   213.0790    24.6090   -35.4050     2.1790 
  195.3750    51.9660   309.1770   263.5410   185.4380    24.5670   -34.8800     2.1680 
  195.5000    48.4740   289.8860   250.4600   173.1310    24.5040   -34.3000     2.1580 
  195.6250    46.3070   266.0680   233.8480   171.8740    24.3990   -33.7360     2.1550 
  195.7500    49.1580   236.7880   212.1720   157.4060    24.1660   -33.3010     2.1580 
  195.8750    54.2020   205.0140   187.1230   120.8860    23.9770   -32.9880     2.1590 
  196.0000    57.1200   174.3330   161.3780    82.6920    23.8430   -32.7260     2.1560 
  196.1250    58.0780   148.1130   138.1390    64.5550    23.7150   -32.4660     2.1560 
  196.2500    59.9900   129.3310   120.6670    53.0420    23.5060   -32.2630     2.1650 
  196.3750    62.2910   117.0660   108.8090    41.5330    23.1970   -32.1340     2.1810 
  196.5000    62.7680   110.5200   102.0810    31.0180    22.9570   -32.0950     2.1980 
  196.6250    61.1700   108.2730    99.3640    25.3510    22.8250   -32.1430     2.2080 
  196.7500    59.8830   108.3800    99.0210    24.5470    22.8440   -32.2450     2.2070 
  196.8750    59.8900   108.3580    98.7390    25.3980    22.7820   -32.3200     2.1980 
  197.0000    61.2660   107.3280    97.6360    27.0510    22.5140   -32.4040     2.1890 
  197.1250    62.4320   105.6000    95.8720    27.3870    22.2660   -32.5820     2.1770 
  197.2500    62.8580   104.6810    94.6350    25.1760    22.2140   -32.9000     2.1580 
  197.3750    61.9010   105.9670    95.1730    24.0110    22.2230   -33.2690     2.1340 
  197.5000    60.1170   110.2270    98.2970    25.8400    22.2280   -33.6470     2.1230 
  197.6250    58.3240   117.4850   104.2130    29.7250    22.2260   -34.0470     2.1360 
  197.7500    58.0300   127.0690   112.5780    32.2940    22.1610   -34.4900     2.1690 
  197.8750    60.0700   136.5680   121.3930    34.1340    22.0380   -34.9600     2.1990 
  198.0000    61.7380   143.3080   128.4490    37.2490    21.9460   -35.3930     2.2170 
  198.1250    62.1050   144.4300   131.2520    40.3540    21.9490   -35.7440     2.2230 
  198.2500    63.8610   136.7980   126.7260    39.2440    21.9330   -35.9570     2.2140 
  198.3750    68.1210   122.5790   115.9380    36.1240    21.8360   -36.1010     2.1910 
  198.5000    71.8330   104.7790   100.9270    33.1970    21.7380   -36.1800     2.1630 
  198.6250    71.8370    86.8960    84.7190    28.5690    21.6650   -36.0980     2.1490 
  198.7500    70.3780    72.1140    70.6080    24.5080    21.6330   -35.7700     2.1610 
  198.8750    69.6270    60.8150    59.6220    23.7660    21.7530   -35.2920     2.1800 
  199.0000    68.2560    52.5750    51.5830    25.6230    22.0550   -34.7640     2.1930 
  199.1250    66.5650    46.7250    45.8790    26.0990    22.3010   -34.2180     2.2060 
  199.2500    65.4320    43.0780    42.2690    23.6200    22.1710   -33.6690     2.2290 
  199.3750    65.4910    41.1420    40.2020    21.4500    21.9470   -33.1010     2.2490 
  199.5000    67.3180    40.9720    39.6550    20.8040    22.0730   -32.5060     2.2500 
  199.6250    69.6040    42.7740    40.7750    23.4050    22.8710   -31.9660     2.2370 
  199.7500    69.2250    47.1810    44.1890    30.6170    23.8710   -31.5800     2.2290 
  199.8750    66.4540    53.8460    49.7620    40.9790    24.5850   -31.3250     2.2320 
  200.0000    63.5400    62.4560    57.3510    50.3890    24.7910   -31.1110     2.2410 
  200.1250    61.3690    72.4140    66.4060    58.5120    24.7580   -30.9040     2.2520 
