~V
VERS. 2.00: Ver 2.00
~W
STRT.M 50.0000:
STOP.M 268.0000:
STEP.M 0.1250:
NULL. -999.2500:
UWI. F10199:
~C
DEPT.M :
GR.API :
RML.OHMM :
RI. :
RXO.OHMM :
CALI.CM :
DEN.GM/CC :
SP.MV :
~A
# ...
  230.0000    58.0070    20.6650    18.9380    21.8140    23.5710     2.3870    -8.1540 
  230.1250    57.4090    20.8230    19.2420    22.7400    23.6040     2.3780    -8.1270 
  230.2500    58.8400    20.4000    19.0390    21.4430    23.6460     2.3600    -8.0410 
  230.3750    61.3740    19.6310    18.4670    19.2460    23.6880     2.3390    -7.9600 
  230.5000    63.7610    18.8960    17.8380    17.8310    23.7130     2.3230    -7.8800 
  230.6250    67.0490    18.5790    17.4980    17.6760    23.7380     2.3130    -7.7760 
  230.7500    68.3560    18.6620    17.4920    18.3230    23.7670     2.3090    -7.6840 
  230.8750    65.6820    18.9600    17.7030    19.2240    23.7830     2.3100    -7.5610 
  231.0000    62.1100    19.2070    17.9210    20.0000    23.7950     2.3150    -7.3790 
  231.1250    61.8740    19.1240    17.8940    19.8180    23.7930     2.3230    -7.2020 
  231.2500    64.3090    18.7250    17.5830    19.2550    23.7640     2.3300    -7.0400 
  231.3750    66.3470    18.1530    17.0850    18.3770    23.7320     2.3340    -6.8510 
  231.5000    65.0990    17.6160    16.5740    17.4270    23.7150     2.3310    -6.6830 
  231.6250    59.6980    17.3170    16.2380    17.0400    23.7070     2.3210    -6.5150 
  231.7500    56.6930    17.2570    16.1070    17.4800    23.7100     2.3080    -6.3170 
  231.8750    58.2100    17.3660    16.1410    18.5090    23.6980     2.2950    -6.1460 
  232.0000    61.1480    17.5430    16.2630    19.2070    23.6740     2.2880    -6.0120 
  232.1250    62.6460    17.6790    16.3800    19.2150    23.6490     2.2860    -5.8780 
  232.2500    64.5200    17.7120    16.4240    18.8690    23.6050     2.2860    -5.7460 
  232.3750    67.0950    17.6070    16.3580    18.4170    23.5540     2.2870    -5.5740 
  232.5000    68.5700    17.3620    16.1790    17.7680    23.5130     2.2870    -5.3830 
  232.6250    67.1020    17.0340    15.9230    16.9250    23.4590     2.2890    -5.2370 
  232.7500    65.2570    16.7680    15.7020    16.1540    23.4080     2.2910    -5.0570 
  232.8750    64.5400    16.6920    15.6190    15.6200    23.3830     2.2940    -4.8310 
  233.0000    63.6590    16.8560    15.7230    15.5520    23.3670     2.3000    -4.6510 
  233.1250    62.7310    17.1440    15.9360    16.5160    23.3410     2.3120    -4.4780 
  233.2500    63.7340    17.2380    16.0000    17.4960    23.3170     2.3320    -4.2630 
  233.3750    65.8660    16.8720    15.6750    17.8590    23.2770     2.3550    -4.0850 
  233.5000    66.9950    15.9290    14.8330    17.0700    23.2150     2.3750    -3.9250 
  233.6250    68.5940    14.5100    13.5290    14.2710    23.1430     2.3820    -3.7260 
  233.7500    72.3930    13.0690    12.1650    11.3810    23.0640     2.3790    -3.5550 
  233.8750    74.8110    11.9340    11.0390     9.9660    22.9970     2.3700    -3.4260 
  234.0000    73.3440    11.2760    10.3150     9.8350    22.9310     2.3610    -3.2590 
  234.1250    69.1290    11.1510    10.0740    10.2460    22.8470     2.3560    -3.1430 
  234.2500    65.9330    11.3380    10.1510    10.5940    22.7650     2.3570    -3.0520 
  234.3750    65.5670    11.6820    10.4230    10.8390    22.6850     2.3640    -2.9690 
  234.5000    67.6530    12.0490    10.7670    10.9970    22.6120     2.3760    -2.8930 
  234.6250    68.4470    12.3290    11.0710    10.9790    22.5810     2.3890    -2.8610 
  234.7500    65.6220    12.4940    11.2770    10.5830    22.5850     2.3980    -2.8470 
  234.8750    62.5980    12.5400    11.3640    10.1360    22.6210     2.4040    -2.8020 
  235.0000    62.1000    12.4850    11.3360    10.0370    22.7030     2.4070    -2.7590 
  235.1250    64.0840    12.3470    11.2020    10.3070    22.8270     2.4120    -2.7130 
  235.2500    66.2760    12.1750    11.0110    10.6700    22.9690     2.4160    -2.6790 
  235.3750    68.3450    12.0010    10.7990    11.0380    23.1250     2.4200    -2.6500 
  235.5000    69.7770    11.8540    10.6020    11.4380    23.2600     2.4220    -2.6180 
  235.6250    68.3960    11.7730    10.4620    11.5920    23.3360     2.4220    -2.5770 
  235.7500    66.6360    11.7600    10.3920    11.6490    23.3750     2.4210    -2.5150 
  235.8750    66.4770    11.8020    10.3880    11.6680    23.3730     2.4210    -2.4430 
  236.0000    67.2110    11.8690    10.4250    11.8400    23.3530     2.4210    -2.3990 
  236.1250    68.0850    11.9060    10.4620    12.3720    23.3160     2.4230    -2.3680 
  236.2500    67.2610    11.8740    10.4540    13.2640    23.2580     2.4240    -2.3650 
  236.3750    64.6550    11.7510    10.3740    14.1050    23.2080     2.4200    -2.3670 
  236.5000    61.5780    11.5410    10.2160    14.4710    23.1720     2.4100    -2.3800 
  236.6250    60.6990    11.2750     9.9960    13.2690    23.1330     2.3970    -2.3770 
  236.7500    62.4550    11.0220     9.7700    11.6460    23.1090     2.3850    -2.3860 
  236.8750    63.6170    10.8320     9.5840    10.3210    23.1130     2.3800    -2.3960 
  237.0000    63.8610    10.7360     9.4700     9.6600    23.1360     2.3800    -2.3990 
  237.1250    64.4000    10.7510     9.4500     9.4710    23.1980     2.3840    -2.3960 
  237.2500    64.2170    10.8340     9.4960     9.3000    23.2810     2.3850    -2.4050 
  237.3750    63.3650    10.9530     9.5800     8.8870    23.3590     2.3790    -2.4000 
  237.5000    63.7740    11.0800     9.6800     8.4470    23.4370     2.3670    -2.3800 
  237.6250    65.2130    11.1960     9.7770     8.5480    23.5320     2.3550    -2.3670 
  237.7500    64.7030    11.2960     9.8610     8.8850    23.6400     2.3470    -2.4020 
  237.8750    62.9310    11.3740     9.9270     9.0180    23.7590     2.3470    -2.4550 
  238.0000    62.6130    11.4280     9.9720     8.8140    23.8590     2.3550    -2.5090 
  238.1250    64.7340    11.4570     9.9930     8.3640    23.9210     2.3690    -2.5590 
  238.2500    66.2680    11.4840    10.0090     8.1130    23.9620     2.3840    -2.5940 
  238.3750    64.1540    11.5450    10.0430     8.2490    23.9670     2.3930    -2.6250 
  238.5000    59.5910    11.6900    10.1340     8.7350    23.9280     2.3910    -2.6370 
  238.6250    59.1460    11.9940    10.3430     9.8920    23.8590     2.3750    -2.6600 
  238.7500    63.9890    12.4540    10.6800    11.8790    23.7550     2.3540    -2.6520 
  238.8750    69.9970    13.0230    11.1250    14.3380    23.6260     2.3390    -2.6440 
  239.0000    74.2030    13.6000    11.6080    16.3470    23.5050     2.3410    -2.6370 
  239.1250    78.3980    14.0060    11.9930    16.4570    23.3830     2.3690    -2.6320 
  239.2500    81.8710    14.1440    12.1780    13.9460    23.2710     2.4110    -2.6150 
  239.3750    82.8370    13.9980    12.1200    12.1750    23.2170     2.4530    -2.5760 
  239.5000    79.6740    13.6580    11.8660    11.2290    23.2380     2.4820    -2.5450 
  239.6250    72.3490    13.3290    11.5580    11.2470    23.3450     2.4870    -2.5330 
  239.7500    64.8050    13.2110    11.3780    12.7590    23.4720     2.4790    -2.5020 
  239.8750    61.6320    13.3990    11.4280    16.3140    23.5620     2.4690    -2.4540 
  240.0000    64.7430    13.8740    11.7280    20.8900    23.6100     2.4650    -2.3860 
  240.1250    69.9730    14.5050    12.2160    25.8010    23.6340     2.4720    -2.3180 
  240.2500    71.7680    15.0410    12.6930    27.8110    23.6390     2.4860    -2.2430 
  240.3750    69.6320    15.3030    12.9960    23.9050    23.6520     2.5010    -2.1770 
  240.5000    67.4170    15.2060    13.0190    20.4870    23.6920     2.5080    -2.1240 
  240.6250    66.6520    14.7690    12.7290    18.5110    23.7400     2.5040    -2.0570 
  240.7500    64.8670    14.2370    12.3080    17.3880    23.8030     2.4970    -2.0290 
  240.8750    63.5350    13.8130    11.9260    15.4780    23.8820     2.4900    -2.0250 
  241.0000    65.4390    13.6490    11.7220    13.1580    23.9650     2.4850    -2.0320 
  241.1250    69.6540    13.8430    11.8070    12.0290    24.0690     2.4820    -2.0520 
