~V
VERS. 2.00: Ver 2.00
~W
STRT.M 50.0000:
STOP.M 252.0000:
STEP.M 0.1250:
NULL. -999.2500:
UWI. F10101:
~C
DEPT.M :
DEN.GM/CC :
SP.MV :
GR.API :
RML.OHMM :
RI. :
RXO.OHMM :
CALI.CM :
~A
# ...
  128.7500     2.5100    -5.5530    51.0170    22.0930    20.7390    20.6980    25.5260 
  128.8750     2.5110    -5.5630    53.3570    22.0120    20.7330    20.8920    25.4470 
  129.0000     2.5090    -5.6050    53.5190    21.8320    20.6300    20.9560    25.4620 
  129.1250     2.4920    -5.6180    52.7200    21.7090    20.5420    20.5900    25.7030 
  129.2500     2.4600    -5.6560    52.3420    21.7530    20.5710    20.2310    25.9240 
  129.3750     2.4180    -5.6440    52.3120    21.9910    20.7520    20.3700    25.8750 
  129.5000     2.3860    -5.6660    52.2080    22.3790    21.0750    22.9610    25.6130 
  129.6250     2.3970    -5.7130    52.3600    22.7990    21.4840    29.7520    25.4370 
  129.7500     2.4490    -5.6930    53.4890    23.0790    21.8260    36.0840    25.3400 
  129.8750     2.5090    -5.7370    55.2520    23.1100    21.9780    29.5350    25.2280 
  130.0000     2.5370    -5.7450    56.0660    22.9020    21.9050    22.2440    25.0110 
  130.1250     2.5220    -5.7710    54.5580    22.6000    21.6950    19.5940    24.7760 
  130.2500     2.5050    -5.7690    52.7170    22.4070    21.5330    19.0450    24.6350 
  130.3750     2.4980    -5.8140    52.1280    22.4050    21.5170    19.2570    24.6700 
  130.5000     2.5010    -5.8430    52.6920    22.5630    21.6570    20.1600    24.7560 
  130.6250     2.5100    -5.8170    52.9430    22.7640    21.8760    21.9250    24.7160 
  130.7500     2.5210    -5.8610    52.5450    22.8770    22.0430    23.3810    24.6060 
  130.8750     2.5340    -5.8550    52.9140    22.8380    22.0800    22.4810    24.5550 
  131.0000     2.5440    -5.8730    54.0780    22.6340    21.9570    21.1650    24.5330 
  131.1250     2.5520    -5.8680    54.6540    22.2710    21.6620    20.8610    24.5000 
  131.2500     2.5580    -5.8970    54.2210    21.8100    21.2640    21.2410    24.5490 
  131.3750     2.5600    -5.9040    54.5550    21.2890    20.8040    20.6440    24.7770 
  131.5000     2.5570    -5.8730    55.6750    20.7490    20.3100    19.7260    25.0680 
  131.6250     2.5520    -5.9230    57.2240    20.2440    19.8070    19.1900    25.2400 
  131.7500     2.5480    -5.9130    58.3160    19.8180    19.3360    18.6160    25.2870 
  131.8750     2.5370    -5.9200    57.3990    19.4970    18.9410    18.1320    25.2890 
  132.0000     2.5170    -5.9160    55.9850    19.2670    18.6410    17.4540    25.2970 
  132.1250     2.5010    -5.9140    56.1930    19.0800    18.4280    17.8040    25.2860 
  132.2500     2.4970    -5.9010    58.0310    18.8980    18.2610    18.5300    25.1540 
  132.3750     2.5040    -5.8780    59.3130    18.7460    18.1430    18.4950    24.8890 
  132.5000     2.5100    -5.9280    59.0570    18.6790    18.0990    17.1800    24.6640 
  132.6250     2.5110    -5.8870    59.3980    18.7720    18.1750    16.6570    24.5540 
  132.7500     2.5130    -5.8970    58.8990    18.9960    18.3500    16.8040    24.4340 
  132.8750     2.5170    -5.9170    56.4100    19.2780    18.5770    17.3450    24.3940 
  133.0000     2.5210    -5.9400    52.6620    19.4920    18.7590    18.0480    24.4320 
  133.1250     2.5180    -5.9680    50.1660    19.4550    18.7280    17.7990    24.3560 
  133.2500     2.5120    -5.9830    51.9560    19.1280    18.4320    17.3220    24.1940 
  133.3750     2.5110    -6.0120    56.8430    18.5540    17.8950    16.5590    23.9760 
  133.5000     2.5170    -5.9950    60.0350    17.8580    17.2270    14.9780    23.7170 
  133.6250     2.5230    -6.0700    58.3110    17.2140    16.5890    13.3720    23.4880 
  133.7500     2.5250    -6.0840    54.3160    16.7240    16.0770    12.6460    23.4340 
  133.8750     2.5210    -6.1070    51.1640    16.4030    15.6970    12.6320    23.5190 
  134.0000     2.5140    -6.1170    49.3790    16.2090    15.4140    12.9900    23.6290 
  134.1250     2.5090    -6.1390    49.1900    16.0830    15.1840    13.4190    23.7790 
  134.2500     2.5100    -6.1780    50.2810    15.9530    14.9640    13.6040    24.0780 
  134.3750     2.5150    -6.1630    50.5600    15.8010    14.7450    13.2480    24.5000 
  134.5000     2.5220    -6.2030    49.5740    15.6460    14.5450    13.0030    24.9390 
  134.6250     2.5310    -6.1840    48.4160    15.5430    14.4060    13.2160    25.2170 
  134.7500     2.5400    -6.1780    47.1770    15.5330    14.3510    13.6490    25.2920 
  134.8750     2.5490    -6.1810    46.2970    15.6340    14.3930    13.9140    25.3000 
  135.0000     2.5570    -6.1840    46.2680    15.8290    14.5200    14.4660    25.3290 
  135.1250     2.5590    -6.2030    45.8910    16.0650    14.6930    15.2840    25.3930 
  135.2500     2.5520    -6.2030    45.2640    16.2670    14.8530    15.8270    25.4090 
  135.3750     2.5360    -6.2760    45.6300    16.3790    14.9530    15.9810    25.4090 
  135.5000     2.5170    -6.2940    47.7780    16.3780    14.9650    15.7230    25.4210 
  135.6250     2.5060    -6.3600    49.8740    16.2700    14.8640    15.3440    25.3980 
  135.7500     2.5070    -6.4470    52.0690    16.1350    14.7020    15.3490    25.3430 
  135.8750     2.5160    -6.5290    55.9790    16.0330    14.5240    14.8750    25.3000 
  136.0000     2.5250    -6.6480    61.4280    15.9830    14.3580    14.4260    25.2560 
  136.1250     2.5220    -6.7340    64.9200    15.9240    14.1770    14.3250    25.0460 
  136.2500     2.5100    -6.8740    63.3190    15.7470    13.9150    13.2510    24.5150 
  136.3750     2.4940    -6.9690    58.0930    15.4020    13.5380    11.8140    23.7800 
  136.5000     2.4810    -7.1300    54.8130    14.9530    13.0900    10.6970    23.3280 
  136.6250     2.4750    -7.2860    58.0900    14.6150    12.7250     9.9120    23.3460 
  136.7500     2.4730    -7.4170    63.2360    14.5900    12.6040    10.0590    23.4840 
  136.8750     2.4680    -7.5810    66.8150    15.0150    12.8490    11.6120    23.5850 
  137.0000     2.4590    -7.7100    70.2700    15.9480    13.5350    13.6710    23.6310 
  137.1250     2.4540    -7.8580    74.9600    17.3920    14.7210    16.8030    23.7530 
  137.2500     2.4590    -7.9730    77.2320    19.0540    16.1820    19.4030    24.1150 
  137.3750     2.4700    -8.0640    76.9810    20.6270    17.6500    20.5610    24.6340 
  137.5000     2.4820    -8.1310    76.7680    21.7070    18.7520    21.9760    25.0630 
  137.6250     2.4880    -8.1390    77.4410    21.6100    18.8540    23.7130    25.2820 
  137.7500     2.4870    -8.1440    77.6260    20.1900    17.7730    22.2420    25.3670 
  137.8750     2.4790    -8.1070    78.2240    17.6220    15.6430    19.6390    25.3210 
  138.0000     2.4690    -8.0760    79.5800    14.4870    12.9660    17.3080    25.2560 
  138.1250     2.4540    -8.0570    79.4640    11.5770    10.4130    12.5350    25.2320 
  138.2500     2.4350    -8.0210    80.9960     9.1460     8.3790     8.4860    24.6640 
  138.3750     2.4160    -8.0730    86.3430     7.5210     6.9500     6.5300    24.0850 
  138.5000     2.4020    -8.0890    92.3800     6.7610     6.0630     6.0310    24.0910 
  138.6250     2.3920    -8.1450    91.4910     6.5060     5.6540     6.1150    24.0870 
  138.7500     2.3810    -8.2500    86.4800     6.4950     5.5230     6.2130    24.0570 
  138.8750     2.3680    -8.3190    83.1970     6.5840     5.5580     6.2750    23.9570 
  139.0000     2.3530    -8.4240    82.4890     6.6670     5.6590     6.2880    23.7390 
  139.1250     2.3400    -8.4720    81.2540     6.6930     5.7480     6.3190    23.6080 
  139.2500     2.3320    -8.5220    79.7890     6.6800     5.7900     6.3320    23.5320 
  139.3750     2.3310    -8.5040    80.5770     6.6430     5.7770     6.4180    23.4640 
  139.5000     2.3390    -8.4610    83.8940     6.5840     5.7140     6.5990    23.4560 
  139.6250     2.3520    -8.4410    87.0630     6.4890     5.6050     6.5800    23.5510 
  139.7500     2.3680    -8.3480    87.8940     6.3660     5.4790     6.4080    23.6710 
  139.8750     2.3850    -8.3050    87.6810     6.2400     5.3540     6.1960    23.8070 
