~V
VERS. 2.00: Ver 2.00
~W
STRT.M 50.0000:
STOP.M 224.0000:
STEP.M 0.1250:
NULL. -999.2500:
UWI. F10153:
~C
DEPT.M :
GR.API :
RML.OHMM :
RI. :
RXO.OHMM :
CALI.CM :
SP.MV :
DEN.GM/CC :
~A
# ...
   83.7500    82.8760     9.4650     6.4200     8.6070    24.2330   -17.2840     2.2040 
   83.8750    82.1920     9.4410     6.4420     8.7680    24.3280   -17.0580     2.2050 
   84.0000    81.2710     9.3680     6.4500     8.8270    24.4060   -16.7890     2.2050 
   84.1250    80.8760     9.2760     6.4490     8.7060    24.4080   -16.4830     2.2070 
   84.2500    81.1450     9.2000     6.4570     8.4970    24.3460   -16.1420     2.2090 
   84.3750    81.4300     9.1810     6.4950     8.3020    24.2560   -15.7380     2.2150 
   84.5000    81.2610     9.2170     6.5650     8.3460    24.1900   -15.2410     2.2230 
   84.6250    80.4100     9.2540     6.6330     8.6930    24.1680   -14.6250     2.2290 
   84.7500    79.8310     9.2310     6.6580     9.0070    24.1840   -13.9060     2.2330 
   84.8750    81.1900     9.0390     6.5610     8.8470    24.2330   -13.0840     2.2320 
   85.0000    84.4240     8.6720     6.3310     8.3080    24.2920   -12.2030     2.2320 
   85.1250    88.6640     8.2070     6.0090     7.6740    24.3280   -11.3060     2.2370 
   85.2500    92.8960     7.7380     5.6570     6.9230    24.3190   -10.4280     2.2490 
   85.3750    96.9860     7.3760     5.3500     6.0460    24.2490    -9.6490     2.2680 
   85.5000   101.8100     7.1600     5.1310     5.3900    24.1570    -9.0380     2.2840 
   85.6250   106.1830     7.0510     4.9940     5.0660    24.0810    -8.6490     2.2860 
   85.7500   107.9510     6.9830     4.9070     4.9180    24.0300    -8.4700     2.2730 
   85.8750   104.9010     6.9140     4.8540     4.9070    24.0100    -8.5620     2.2510 
   86.0000   100.9980     6.8810     4.8390     4.9330    24.0060    -8.8760     2.2390 
   86.1250   100.0660     6.9860     4.9030     4.9630    24.0010    -9.3610     2.2540 
   86.2500   100.4520     7.3000     5.0690     5.1410    23.9970    -9.9570     2.2910 
   86.3750    98.3080     7.9460     5.3980     6.0390    24.0230   -10.6260     2.3340 
   86.5000    93.0010     8.7690     5.8280     7.7210    24.0700   -11.3090     2.3620 
   86.6250    87.7040     9.4070     6.1810     8.7640    24.0910   -11.9660     2.3650 
   86.7500    84.8520     9.6300     6.3250     9.0090    24.0620   -12.5970     2.3490 
   86.8750    84.6420     9.2100     6.1160     9.0120    23.9890   -13.2150     2.3240 
   87.0000    86.4810     8.4930     5.7170     8.3310    23.9280   -13.8390     2.2990 
   87.1250    90.1230     8.0500     5.4200     6.8980    23.9030   -14.4660     2.2740 
   87.2500    94.5440     8.1950     5.3940     5.8400    23.9000   -15.0840     2.2520 
   87.3750    96.6230     9.3620     5.9000     6.5720    23.8700   -15.7040     2.2410 
   87.5000    93.7520    11.3860     6.9430     8.8380    23.7610   -16.3660     2.2490 
   87.6250    87.8400    13.7380     8.3600    11.7310    23.6070   -17.0920     2.2670 
   87.7500    83.2430    15.7940     9.8180    14.0730    23.5020   -17.8520     2.2800 
   87.8750    83.8870    16.5590    10.6930    13.8500    23.5500   -18.5780     2.2730 
   88.0000    86.1030    15.9860    10.7430    12.3700    23.6870   -19.2330     2.2490 
   88.1250    85.3080    14.7460    10.2280    11.3820    23.8070   -19.8190     2.2210 
   88.2500    82.9060    13.4830     9.5410    10.9790    23.8850   -20.3540     2.1980 
   88.3750    82.2920    12.6630     8.9870    10.8950    23.9240   -20.8170     2.1880 
   88.5000    82.1340    12.3130     8.6750    10.8150    23.9460   -21.1820     2.1850 
   88.6250    79.9180    12.2970     8.5800    10.8380    23.9770   -21.4220     2.1820 
   88.7500    76.2230    12.4620     8.6190    11.0190    24.0290   -21.5480     2.1770 
   88.8750    72.9440    12.7240     8.7390    11.2350    24.1170   -21.5370     2.1710 
   89.0000    71.4640    12.9540     8.8520    11.3660    24.2290   -21.3810     2.1670 
   89.1250    71.6000    12.9910     8.8590    11.5150    24.3480   -21.0720     2.1690 
   89.2500    72.6260    12.7730     8.7150    11.6940    24.4670   -20.6510     2.1760 
   89.3750    75.3460    12.2270     8.3620    11.5740    24.5390   -20.1690     2.1880 
   89.5000    79.2680    11.5220     7.8880    10.7090    24.5260   -19.6990     2.2010 
   89.6250    81.2510    10.8860     7.4230     9.2470    24.4460   -19.2890     2.2100 
   89.7500    80.2040    10.4340     7.0470     8.1080    24.3610   -18.9450     2.2150 
   89.8750    78.3220    10.2830     6.8520     8.2570    24.3240   -18.6910     2.2160 
   90.0000    77.5840    10.3580     6.8290     8.9240    24.3220   -18.5290     2.2150 
   90.1250    76.4310    10.5480     6.9380     9.2310    24.3330   -18.4500     2.2110 
   90.2500    75.2080    10.7660     7.1180     9.2430    24.3560   -18.4130     2.2050 
   90.3750    76.5250    10.9460     7.3220     9.4000    24.4120   -18.3230     2.1950 
   90.5000    78.5780    11.0740     7.5000     9.7520    24.5200   -18.0910     2.1800 
   90.6250    78.2630    11.1590     7.6380     9.9150    24.6570   -17.6460     2.1690 
   90.7500    76.2870    11.2140     7.7400    10.0050    24.7540   -16.9930     2.1640 
   90.8750    74.4520    11.2010     7.7870    10.2640    24.6910   -16.0650     2.1670 
   91.0000    73.0050    11.0790     7.7530    10.3200    24.5110   -14.9040     2.1720 
   91.1250    72.9890    10.8020     7.6040    10.0420    24.3420   -13.5760     2.1740 
   91.2500    75.3620    10.3750     7.3450     9.5260    24.2210   -12.1570     2.1730 
   91.3750    80.6360     9.7980     6.9700     8.4450    24.1240   -10.7390     2.1770 
   91.5000    88.1090     9.1810     6.5510     7.1140    24.0480    -9.4050     2.1950 
   91.6250    95.7260     8.6750     6.1860     6.2770    24.0150    -8.2260     2.2260 
   91.7500   100.6070     8.3470     5.9220     5.9310    23.9990    -7.2260     2.2620 
   91.8750   100.6690     8.3000     5.8400     5.9360    23.9450    -6.4830     2.2880 
   92.0000   100.0260     8.4540     5.9050     6.1670    23.8720    -5.9790     2.2950 
   92.1250    99.8670     8.6470     6.0250     6.5970    23.8400    -5.6750     2.2880 
   92.2500    97.8170     8.7430     6.1070     6.9680    23.8610    -5.5080     2.2770 
   92.3750    93.9300     8.5700     6.0230     7.2080    23.9450    -5.4570     2.2740 
   92.5000    92.7560     8.1390     5.7610     6.8530    24.0640    -5.4920     2.2800 
   92.6250    94.9880     7.5830     5.3990     6.0940    24.1490    -5.5930     2.2910 
   92.7500    97.5420     7.0520     5.0380     5.5060    24.1510    -5.7260     2.3010 
   92.8750    97.2480     6.7570     4.8140     5.2570    24.0540    -5.8670     2.3040 
   93.0000    95.0520     6.7940     4.7940     5.1830    23.9450    -6.0000     2.3000 
   93.1250    93.8530     7.1570     4.9950     5.3750    23.8880    -6.1030     2.2890 
   93.2500    94.2900     7.7200     5.3490     5.8190    23.8720    -6.1710     2.2760 
   93.3750    94.0720     8.3000     5.7690     6.8040    23.8900    -6.1600     2.2600 
   93.5000    93.3640     8.7030     6.1180     7.3550    23.9600    -6.0420     2.2510 
   93.6250    95.1050     8.8510     6.3140     7.2150    24.0740    -5.8100     2.2570 
   93.7500    98.2550     8.8060     6.3720     6.6660    24.1680    -5.5050     2.2760 
   93.8750    99.2650     8.6260     6.3000     6.4170    24.1720    -5.1730     2.3060 
   94.0000    99.4600     8.3900     6.1530     6.5910    24.1350    -4.8550     2.3330 
   94.1250   101.5030     8.1150     5.9570     6.3910    24.1230    -4.5790     2.3450 
   94.2500   104.6220     7.8080     5.7310     5.8340    24.1310    -4.3650     2.3420 
   94.3750   106.4930     7.5110     5.5060     5.3490    24.1350    -4.2670     2.3290 
   94.5000   107.6900     7.2940     5.3340     5.1920    24.1340    -4.2910     2.3160 
   94.6250   108.5700     7.2090     5.2570     5.3200    24.1350    -4.4210     2.3080 
   94.7500   108.1090     7.2500     5.2740     5.5410    24.1350    -4.6150     2.3010 
   94.8750   105.5840     7.4380     5.4120     5.7400    24.1140    -4.8370     2.2930 
