~V
VERS. 2.00: Ver 2.00
~W
STRT.M 62.0000:
STOP.M 235.0000:
STEP.M 0.1250:
NULL. -999.2500:
UWI. F10157:
~C
DEPT.M :
SP.MV :
DEN.GM/CC :
GR.API :
RML.OHMM :
RI. :
RXO.OHMM :
CALI.CM :
~A
# ...
  197.0000    -6.9100     2.1780    61.5630   103.1490    88.9860    96.7770    25.1850 
  197.1250    -6.8310     2.1790    59.6590   101.9950    87.7410    97.5260    25.1790 
  197.2500    -6.7650     2.1730    60.3310    99.9880    85.8960    98.9480    25.1750 
  197.3750    -6.6930     2.1650    64.8210    96.3120    82.9000    92.3130    25.2070 
  197.5000    -6.5950     2.1660    69.5430    90.2390    78.1380    88.8820    25.2480 
  197.6250    -6.4650     2.1780    69.5740    81.6330    71.3600    87.7460    25.2750 
  197.7500    -6.3060     2.1950    65.5850    72.0100    63.6720    84.3500    25.2980 
  197.8750    -6.1110     2.2070    61.3370    62.5050    55.9790    70.0510    25.3130 
  198.0000    -5.8810     2.2110    59.9490    53.9250    48.9760    52.8640    25.3150 
  198.1250    -5.6380     2.2080    61.1970    46.9160    43.2300    41.1070    25.3040 
  198.2500    -5.4050     2.2060    63.2270    41.3150    38.6280    39.8840    25.2840 
  198.3750    -5.2070     2.2070    65.7250    37.0420    35.1270    32.7230    25.2620 
  198.5000    -5.0610     2.2080    68.3980    33.9470    32.6390    25.0960    25.2450 
  198.6250    -4.9600     2.2020    68.7960    31.7830    31.1280    21.3370    25.2400 
  198.7500    -4.8920     2.1930    67.0200    30.6280    29.6130    19.8650    25.2510 
  198.8750    -4.8680     2.1840    66.1770    29.7410    28.4050    18.9290    25.2770 
  199.0000    -4.8880     2.1820    67.5110    28.9960    27.3770    16.3110    25.3160 
  199.1250    -4.9340     2.1890    67.6590    28.3480    26.4970    14.8500    25.3580 
  199.2500    -4.9900     2.2000    65.2410    27.8470    25.8290    15.5600    25.3980 
  199.3750    -5.0500     2.2060    62.8660    27.6210    25.5030    18.1400    25.4270 
  199.5000    -5.1160     2.2060    62.7930    27.7360    25.5730    20.1550    25.4400 
  199.6250    -5.2100     2.2000    63.4910    28.1430    25.9750    21.2800    25.4340 
  199.7500    -5.3300     2.1980    63.8300    28.5990    26.4540    21.7970    25.4170 
  199.8750    -5.4630     2.2050    65.0720    28.9600    26.8920    23.8070    25.3960 
  200.0000    -5.5990     2.2190    68.1390    29.2310    27.3270    26.1770    25.3790 
  200.1250    -5.7200     2.2330    69.9520    29.6340    28.0280    28.8420    25.3760 
  200.2500    -5.8300     2.2360    68.8210    30.4050    29.2050    33.3980    25.3670 
  200.3750    -5.9280     2.2290    66.2750    31.6600    30.9390    35.9510    25.3530 
  200.5000    -6.0120     2.2170    63.9550    33.9560    32.5970    37.7100    25.3360 
  200.6250    -6.1120     2.2060    60.9650    36.6050    34.6050    39.1960    25.1760 
  200.7500    -6.2370     2.1970    58.5740    39.3930    36.7300    48.0750    25.1750 
  200.8750    -6.3870     2.1860    59.2980    42.3460    38.9250    67.7840    25.1740 
  201.0000    -6.5500     2.1720    62.5170    45.7450    41.3590    96.8430    25.1700 
  201.1250    -6.7200     2.1620    64.5300    50.4830    44.7270    83.8290    25.1630 
  201.2500    -6.8930     2.1640    62.8530    57.4070    49.8150    64.8780    25.1540 
  201.3750    -7.0650     2.1810    60.1100    67.5630    57.6310    61.5280    25.1440 
  201.5000    -7.2390     2.2070    59.3320    81.8990    69.1790    68.1810    25.1340 
  201.6250    -7.3980     2.2300    60.2310   101.5350    85.7050   103.2300    25.1250 
  201.7500    -7.5350     2.2390    60.0450   124.2380   105.3510   153.7520    25.1180 
  201.8750    -7.6480     2.2330    58.2670   146.0740   124.9720   189.5860    25.1140 
  202.0000    -7.7290     2.2170    56.5170   161.4300   140.2210   193.3950    25.1120 
  202.1250    -7.7560     2.1990    55.3470   164.8860   146.4920   176.2730    25.1100 
  202.2500    -7.7420     2.1850    54.3540   160.6230   145.8240   159.2580    25.1070 
  202.3750    -7.7050     2.1780    54.6640   153.8100   141.6010   146.9450    25.1000 
  202.5000    -7.6660     2.1760    55.9720   148.4410   137.2460   141.7530    25.0920 
  202.6250    -7.6600     2.1760    57.1360   146.4240   134.9220   141.8040    25.0830 
  202.7500    -7.6840     2.1760    58.3000   146.1190   133.8770   141.9100    25.0740 
  202.8750    -7.7280     2.1760    59.9290   145.3010   132.4660   138.8020    25.0660 
  203.0000    -7.7740     2.1770    61.8610   141.7500   128.9740   135.5130    25.0570 
  203.1250    -7.8060     2.1830    62.1980   133.6830   122.0160   139.5340    25.0250 
  203.2500    -7.8320     2.1940    61.4200   122.6980   112.7230   131.7250    24.9510 
  203.3750    -7.8460     2.2080    60.4770   110.6420   102.4210   103.5610    24.8480 
  203.5000    -7.8260     2.2090    59.6730    99.0870    92.3240    72.2000    24.7500 
  203.6250    -7.7540     2.1710    58.9210    89.3100    83.5150    64.0840    24.6850 
  203.7500    -7.6440     2.1070    58.7340    81.8340    76.5790    65.9480    24.6560 
  203.8750    -7.5150     2.0470    59.1880    77.4800    72.3530    62.9530    24.6640 
  204.0000    -7.3490     2.0280    58.4550    77.1260    71.7660    53.7390    24.7070 
  204.1250    -7.1080     2.1100    55.2450    82.5650    76.8260    45.0990    24.7840 
  204.2500    -6.8020     2.2930    52.7020    93.0330    87.2700    52.6730    24.8720 
  204.3750    -6.4680     2.5190    52.3520   105.5180   100.5730    93.6180    24.9370 
  204.5000    -6.1540     2.6840    52.9050   111.4350   108.7100   204.6940    24.9600 
  204.6250    -5.8650     2.7180    51.9600    96.3730    96.9580   263.7590    24.9450 
  204.7500    -5.5740     2.6730    51.0020    67.7420    70.3010   222.5420    24.9350 
  204.8750    -5.3090     2.5820    52.4910    40.4840    43.0980   117.0250    24.9320 
  205.0000    -5.0930     2.4720    55.5490    22.2450    24.1860    40.0010    24.9350 
  205.1250    -4.9370     2.3750    55.9830    14.8620    13.0040    15.1670    24.9440 
  205.2500    -4.8380     2.3050    52.0540     9.8360     8.5860     7.9960    24.9560 
  205.3750    -4.8140     2.2600    46.4690     7.3670     6.5260     6.0650    24.9680 
  205.5000    -4.8670     2.2230    43.7780     6.2650     5.7150     5.6490    24.9800 
  205.6250    -5.0380     2.1880    45.7880     6.0670     5.6450     5.6640    24.9880 
  205.7500    -5.3200     2.1630    49.1780     6.3310     5.9050     5.5380    24.9890 
  205.8750    -5.6830     2.1650    51.3420     6.8800     6.3550     5.3010    24.9860 
  206.0000    -6.0700     2.1980    51.7070     7.5900     6.9110     5.5420    24.9830 
  206.1250    -6.4150     2.2420    50.5300     8.3530     7.4970     6.1000    24.9770 
  206.2500    -6.6410     2.2660    49.1640     9.0140     7.9800     6.5530    24.9690 
  206.3750    -6.6810     2.2630    48.8300     9.4050     8.2200     7.0970    24.9590 
  206.5000    -6.5620     2.2460    51.4360     9.3980     8.1270     7.5170    24.9480 
  206.6250    -6.2800     2.2410    54.4940     8.9400     7.6930     7.1670    24.9380 
  206.7500    -5.9250     2.2550    54.6780     8.2750     7.1370     6.3270    24.9290 
  206.8750    -5.5710     2.2760    51.9970     7.5980     6.6270     5.9060    24.9230 
  207.0000    -5.2960     2.2850    49.6700     7.0510     6.2720     5.6300    24.9170 
  207.1250    -5.1800     2.2620    51.0440     6.7260     6.1400     5.3120    24.9150 
  207.2500    -5.2020     2.2130    52.7200     6.5640     6.1560     5.2620    24.9160 
  207.3750    -5.3390     2.1530    52.6580     6.5030     6.2450     5.2950    24.9170 
  207.5000    -5.5240     2.1070    52.4200     6.4800     6.3360     5.3800    24.9160 
  207.6250    -5.7200     2.1080    53.8190     6.4620     6.3830     5.5840    24.8910 
  207.7500    -5.8970     2.1570    55.7300     6.4350     6.4290     5.5510    24.8430 
  207.8750    -6.0440     2.2330    58.1290     6.4610     6.4810     5.3730    24.7740 
  208.0000    -6.1420     2.3010    63.5730     6.5830     6.5600     5.4020    24.6840 
  208.1250    -6.2140     2.3320    73.9050     6.7820     6.7110     5.8500    24.5730 
