~V
VERS. 2.00: Ver 2.00
~W
STRT.M 44.0000:
STOP.M 255.0000:
STEP.M 0.1250:
NULL. -999.2500:
UWI. F10191:
~C
DEPT.M :
DEN.GM/CC :
SP.MV :
GR.API :
RML.OHMM :
RI. :
RXO.OHMM :
CALI.CM :
~A
# ...
   77.7500     2.1570   -34.8820    66.6330    11.9760     8.1250    10.6810    26.5010 
   77.8750     2.1340   -34.2310    63.3880    11.7510     7.8870    10.5700    26.4510 
   78.0000     2.1150   -33.5390    61.4970    11.3200     7.5590    10.4120    26.4190 
   78.1250     2.1070   -32.7090    62.6440    10.5620     7.0680     9.9500    26.3850 
   78.2500     2.1290   -31.8480    69.8770     9.7570     6.5400     8.6800    26.3230 
   78.3750     2.1920   -31.0740    80.9500     9.2310     6.1430     6.9960    26.2290 
   78.5000     2.2740   -30.3410    88.4250     9.2100     6.0070     6.0360    26.0850 
   78.6250     2.3360   -29.6870    85.1790     9.7720     6.2090     6.9970    25.9150 
   78.7500     2.3750   -29.1690    77.3440    10.5480     6.5920     9.9530    25.8180 
   78.8750     2.3910   -28.7410    73.1180    11.1090     6.9480    12.7830    25.8020 
   79.0000     2.3710   -28.4420    75.9770    11.0880     7.0500    11.3840    25.7920 
   79.1250     2.3130   -28.2760    83.9020    10.4180     6.7800     7.4320    25.7430 
   79.2500     2.2560   -28.1550    90.4210     9.6360     6.3690     5.9250    25.6980 
   79.3750     2.2200   -28.0760    92.7580     9.1400     6.0410     5.5130    25.6670 
   79.5000     2.2020   -28.0460    91.6780     9.1000     5.9440     5.9290    25.6060 
   79.6250     2.1960   -27.9360    85.5040     9.4600     6.1370     7.2540    25.4710 
   79.7500     2.2000   -27.7470    76.4380     9.9280     6.4830     8.7280    25.3680 
   79.8750     2.2180   -27.4930    70.4660    10.4280     6.9170     9.3200    25.3570 
   80.0000     2.2580   -27.0750    70.6050    11.1110     7.4730     9.7900    25.4200 
   80.1250     2.3370   -26.5380    73.9050    12.3240     8.3280    10.0410    25.4970 
   80.2500     2.4460   -25.9760    73.9970    14.0470     9.5020    11.0180    25.5280 
   80.3750     2.5600   -25.3600    71.4260    15.9360    10.8350    15.7070    25.5340 
   80.5000     2.6380   -24.6950    70.1680    17.2200    11.8560    26.8850    25.5340 
   80.6250     2.6290   -24.1420    73.5600    16.6870    11.7040    29.6790    25.5340 
   80.7500     2.5510   -23.7850    82.2280    14.5570    10.4180    19.2020    25.5340 
   80.8750     2.4570   -23.5840    92.7550    11.7880     8.5840     9.2470    25.5340 
   81.0000     2.3910   -23.5960    99.5970     9.3830     6.8580     5.5560    25.5340 
   81.1250     2.3760   -23.9180   100.5370     7.9370     5.6520     4.8440    25.5340 
   81.2500     2.3860   -24.4110   100.2770     7.2320     4.9120     4.6730    25.5280 
   81.3750     2.3970   -25.0550   100.8240     7.0370     4.5520     4.4840    25.5060 
   81.5000     2.3960   -25.9150    99.7870     7.1580     4.4770     4.4250    25.4640 
   81.6250     2.3840   -26.9840    97.2040     7.5480     4.6550     4.5340    25.4450 
   81.7500     2.3640   -28.0910    94.2610     8.1830     5.0270     4.9740    25.4950 
   81.8750     2.3320   -29.2680    89.6650     9.0640     5.5830     5.9950    25.5970 
   82.0000     2.2870   -30.4750    80.9990    10.0950     6.2760     7.8610    25.7290 
   82.1250     2.2450   -31.5340    69.5030    11.0250     6.9780     8.8080    25.9000 
   82.2500     2.2180   -32.4980    60.5270    11.6320     7.5300     8.9120    26.0690 
   82.3750     2.1990   -33.3250    56.2190    11.8440     7.8400     8.6610    26.2040 
   82.5000     2.1820   -33.9420    56.0570    11.7550     7.9130     8.2520    26.2600 
   82.6250     2.1680   -34.3520    58.3910    11.5570     7.8180     8.0000    26.1960 
   82.7500     2.1600   -34.6040    60.7110    11.4050     7.6790     8.1970    26.0890 
   82.8750     2.1620   -34.6680    61.4710    11.3100     7.5350     8.6280    26.0180 
   83.0000     2.1700   -34.6190    59.3270    11.2400     7.3980     9.0240    26.0320 
   83.1250     2.1720   -34.5290    56.9940    11.1930     7.2840     8.8210    26.1280 
   83.2500     2.1650   -34.3720    55.8750    11.2130     7.2200     8.5700    26.1960 
   83.3750     2.1590   -34.2510    56.0830    11.3390     7.2390     8.6040    26.1430 
   83.5000     2.1670   -34.2160    57.2040    11.5840     7.3640     9.0810    25.9800 
   83.6250     2.1890   -34.1280    58.4630    11.9330     7.6090     9.8850    25.8370 
   83.7500     2.2100   -34.0000    59.6570    12.3280     7.9260    10.4290    25.7880 
   83.8750     2.2260   -33.9080    59.3430    12.7550     8.2830    10.6560    25.8000 
   84.0000     2.2350   -33.8010    56.7130    13.2100     8.6430    10.8070    25.8170 
   84.1250     2.2340   -33.6070    53.5630    13.6090     8.9280    10.8640    25.8180 
   84.2500     2.2240   -33.3920    53.6050    13.7580     9.0240    10.9980    25.8010 
   84.3750     2.2150   -33.0760    56.5530    13.4380     8.8030    11.1230    25.7760 
   84.5000     2.2120   -32.6050    59.1180    12.5510     8.2120    10.9170    25.7670 
   84.6250     2.2110   -32.1780    62.6270    11.2200     7.3320     9.7720    25.7830 
   84.7500     2.2020   -31.8660    69.2370     9.9110     6.4510     7.7670    25.7970 
   84.8750     2.1890   -31.6190    76.6410     8.9590     5.7590     5.9510    25.7750 
   85.0000     2.1810   -31.4880    80.4330     8.5710     5.3730     5.4530    25.7290 
   85.1250     2.1970   -31.5320    77.2680     9.0010     5.4490     6.5260    25.6560 
   85.2500     2.2290   -31.6070    71.5560    10.2240     6.0100     8.4390    25.5930 
   85.3750     2.2690   -31.7500    65.4290    12.2400     7.1160     9.9810    25.5870 
   85.5000     2.3210   -31.9640    60.8140    14.8730     8.7430    11.7380    25.6760 
   85.6250     2.3990   -32.0800    58.1970    17.5330    10.6540    16.4340    25.8190 
   85.7500     2.4860   -32.1290    57.0540    19.2790    12.2210    24.5980    25.8730 
   85.8750     2.5370   -32.0820    57.4290    19.4670    12.9100    27.5690    25.7900 
   86.0000     2.5200   -31.8600    58.4970    18.2060    12.5980    19.4100    25.6660 
   86.1250     2.4690   -31.5540    59.6610    16.3700    11.6580    12.6530    25.6380 
   86.2500     2.4460   -31.2220    60.1310    14.9080    10.7190    11.5440    25.6990 
   86.3750     2.4550   -30.8640    60.4380    14.0590    10.0100    13.2040    25.8040 
   86.5000     2.4730   -30.5850    62.7350    13.6880     9.5510    14.8770    25.8650 
   86.6250     2.4660   -30.4380    67.3460    13.4870     9.2570    11.4710    25.8420 
   86.7500     2.4220   -30.3130    70.0930    13.1770     8.9800    10.4060    25.7850 
   86.8750     2.3520   -30.2430    67.8150    12.7380     8.6910     9.5470    25.7340 
   87.0000     2.2890   -30.3040    62.3850    12.3000     8.4370     9.0400    25.6790 
   87.1250     2.2560   -30.3920    61.1210    12.0240     8.3000     9.4000    25.6330 
   87.2500     2.2420   -30.4810    64.3620    11.9060     8.2710     9.5890    25.6290 
   87.3750     2.2340   -30.5970    66.6990    11.9020     8.3150     9.6090    25.6600 
   87.5000     2.2270   -30.6880    66.8870    11.9710     8.3960     9.5940    25.7120 
   87.6250     2.2180   -30.6810    67.2720    12.1300     8.5070     9.6460    25.8070 
   87.7500     2.2090   -30.6150    68.0010    12.3810     8.6540     9.5380    25.9040 
   87.8750     2.2000   -30.5630    67.7990    12.6770     8.8230     9.2890    25.9580 
   88.0000     2.1970   -30.4690    66.5070    12.8650     8.9330     9.0600    25.9710 
   88.1250     2.2050   -30.3500    67.0820    12.6350     8.7830     9.0100    25.9550 
   88.2500     2.2210   -30.3370    71.3170    11.9000     8.2980     8.8600    25.9230 
   88.3750     2.2420   -30.3710    77.2000    10.7710     7.5290     7.8370    25.8930 
   88.5000     2.2680   -30.4380    81.9620     9.5520     6.6610     5.9760    25.8920 
   88.6250     2.2960   -30.7170    84.5760     8.6800     5.9620     4.9460    25.8960 
   88.7500     2.3130   -31.1710    85.9520     8.3490     5.5730     4.8560    25.8850 
   88.8750     2.3110   -31.7290    84.2540     8.6130     5.5510     5.4050    25.8560 
