~V
VERS. 2.00: Ver 2.00
~W
STRT.M 50.0000:
STOP.M 246.0000:
STEP.M 0.1250:
NULL. -999.2500:
UWI. F10164:
~C
DEPT.M :
GR.API :
RML.OHMM :
RI. :
RXO.OHMM :
CALI.CM :
SP.MV :
DEN.GM/CC :
~A
# ...
  196.2500    68.9110     7.8150     6.9830     7.9930    25.3780   -19.2900     2.5170 
  196.3750    73.6440     7.0650     6.7510     7.4910    25.2510   -19.1680     2.5070 
  196.5000    77.9800     6.7200     6.5940     7.0830    25.1520   -19.0300     2.5000 
  196.6250    76.3600     6.7470     6.5210     6.9730    25.1650   -18.8870     2.4960 
  196.7500    70.6640     6.7930     6.4930     7.0880    25.3540   -18.6980     2.4860 
  196.8750    66.0950     6.8090     6.4770     7.3150    25.5420   -18.4630     2.4690 
  197.0000    64.3220     6.8050     6.4490     7.5440    25.6860   -18.2130     2.4460 
  197.1250    64.8300     6.7760     6.3950     7.4380    25.7600   -17.9650     2.4220 
  197.2500    68.5160     6.7460     6.3290     7.0430    25.7430   -17.8130     2.4040 
  197.3750    76.0370     6.7350     6.2710     6.7890    25.5240   -17.7980     2.3950 
  197.5000    86.8970     6.7640     6.2410     6.9950    25.0410   -17.9260     2.3960 
  197.6250    98.7770     6.8520     6.2610     7.4890    24.5460   -18.1670     2.4040 
  197.7500   109.6980     6.9930     6.3320     7.8270    24.4290   -18.5060     2.4150 
  197.8750   118.1350     7.1790     6.4500     7.9420    24.7190   -18.9860     2.4250 
  198.0000   123.7620     7.3950     6.6020     8.0620    25.3540   -19.5550     2.4290 
  198.1250   128.1030     7.6310     6.7750     8.3930    25.7990   -20.1990     2.4250 
  198.2500   129.7230     7.8850     6.9580     8.8920    25.9410   -20.8580     2.4170 
  198.3750   126.6970     8.1790     7.1640     9.3530    25.9110   -21.3760     2.4090 
  198.5000   125.6230     8.5490     7.4220     9.6000    25.8480   -21.7710     2.4060 
  198.6250   126.8260     9.0460     7.7850     9.7290    25.8100   -22.1140     2.4130 
  198.7500   124.3060     9.6240     8.2410    10.1250    25.7930   -22.3200     2.4270 
  198.8750   118.2320    10.1830     8.7300    11.1480    25.7810   -22.4390     2.4460 
  199.0000   113.0310    10.5850     9.1350    12.4560    25.7410   -22.4910     2.4640 
  199.1250   108.8920    10.6920     9.3060    13.3080    25.7130   -22.3900     2.4750 
  199.2500   108.4580    10.6050     9.2710    13.6710    25.6500   -22.1980     2.4810 
  199.3750   118.1700    10.4980     9.1480    13.0740    25.4640   -21.9460     2.4860 
  199.5000   128.3900    10.5630     9.1000    11.4710    25.2050   -21.6430     2.4970 
  199.6250   121.6140    10.9240     9.2780    10.5870    24.9790   -21.2490     2.5200 
  199.7500   107.9900    11.4120     9.6120    11.4940    24.8930   -20.8460     2.5450 
  199.8750   102.4710    11.7800     9.9340    13.6220    24.9290   -20.4570     2.5620 
  200.0000   105.0490    11.7890    10.0360    14.8990    25.0470   -20.1050     2.5590 
  200.1250   107.3930    11.2890     9.7360    13.3570    25.0960   -19.9170     2.5320 
  200.2500   109.1560    10.5360     9.1730    10.8870    25.0000   -19.8820     2.4890 
  200.3750   109.6680     9.8430     8.5690     9.2530    24.7510   -19.9930     2.4350 
  200.5000   109.3650     9.5200     8.1750     8.9830    24.6080   -20.2390     2.3800 
  200.6250   107.9520     9.8910     8.2880     9.7070    25.1350   -20.6220     2.3390 
  200.7500   105.7640    10.8980     8.9540    10.6070    26.0440   -21.0350     2.3310 
  200.8750   102.4830    12.3670    10.1380    12.2290    26.5790   -21.4260     2.3670 
  201.0000    98.3960    13.8810    11.5860    16.1410    26.5070   -21.7470     2.4410 
  201.1250    95.2830    14.6300    12.6280    23.2200    26.1100   -21.8400     2.5150 
  201.2500    93.9980    14.1730    12.6800    27.6340    25.8540   -21.7500     2.5320 
  201.3750    96.3760    12.5360    11.5910    24.1800    25.7510   -21.5360     2.4630 
  201.5000    99.5260    10.2460     9.7280    16.0230    25.7180   -21.1360     2.3220 
  201.6250    96.6210     8.1130     7.7870     9.2290    25.7230   -20.5870     2.1760 
  201.7500    88.4640     6.5990     6.2820     5.2100    25.7830   -19.9860     2.0990 
  201.8750    81.5630     5.7540     5.3290     3.7800    25.8770   -19.3390     2.1090 
  202.0000    80.1810     5.4300     4.8640     4.0120    25.9650   -18.7440     2.1800 
  202.1250    83.8100     5.4560     4.7890     4.6040    25.8500   -18.2430     2.2590 
  202.2500    90.5070     5.5940     4.8880     4.9470    25.7720   -17.7700     2.3150 
  202.3750    97.9440     5.7250     5.0400     5.1790    25.7290   -17.3570     2.3520 
  202.5000   102.1840     5.7840     5.1590     5.3610    25.7210   -16.9860     2.3800 
  202.6250   101.2730     5.7560     5.1980     5.2750    25.7370   -16.6820     2.4040 
  202.7500    99.4810     5.6930     5.1850     5.0650    25.7420   -16.4700     2.4190 
  202.8750    98.4960     5.6350     5.1500     5.0110    25.7280   -16.3220     2.4210 
  203.0000    97.0160     5.5980     5.1160     5.1630    25.6770   -16.2050     2.4150 
  203.1250    96.9560     5.5820     5.0860     5.3330    25.6540   -16.1070     2.4060 
  203.2500    98.6530     5.5650     5.0510     5.4230    25.6610   -16.0670     2.3990 
  203.3750   100.6010     5.5350     5.0000     5.4840    25.6830   -16.0920     2.3940 
  203.5000   102.8450     5.4870     4.9290     5.5310    25.6990   -16.1980     2.3910 
  203.6250   105.6840     5.4370     4.8500     5.5920    25.6920   -16.4230     2.3900 
  203.7500   108.0990     5.4200     4.7920     5.7140    25.6790   -16.6930     2.3890 
  203.8750   108.9760     5.4690     4.7840     5.8760    25.7230   -16.9580     2.3870 
  204.0000   108.4060     5.6080     4.8530     5.9450    25.7710   -17.2180     2.3850 
  204.1250   105.8230     5.8530     5.0230     6.0880    25.7860   -17.5120     2.3830 
  204.2500   101.8310     6.1540     5.2650     6.5920    25.7800   -17.8280     2.3810 
  204.3750    98.6480     6.4580     5.5360     7.2850    25.7420   -18.1580     2.3800 
  204.5000    97.7320     6.7070     5.7820     7.7290    25.6390   -18.4810     2.3810 
  204.6250    99.4990     6.8490     5.9420     7.6920    25.5220   -18.7100     2.3850 
  204.7500   103.7120     6.9200     6.0200     7.5280    25.5200   -18.9140     2.3930 
  204.8750   108.0460     6.9850     6.0620     7.3740    25.6180   -19.1050     2.4020 
  205.0000   108.4870     7.1410     6.1420     7.2530    25.7320   -19.2320     2.4090 
  205.1250   105.7360     7.5280     6.3830     7.3380    25.7730   -19.3360     2.4090 
  205.2500   103.3830     8.1680     6.8370     7.8770    25.7730   -19.4030     2.4030 
  205.3750   100.9590     9.0280     7.5130     9.0770    25.7100   -19.4200     2.3930 
  205.5000    97.2500    10.0000     8.3520    10.8160    25.5380   -19.4090     2.3800 
  205.6250    94.2490    10.8910     9.2170    12.6740    25.2910   -19.3300     2.3630 
  205.7500    91.8670    11.5730     9.9520    14.2620    25.0270   -19.1860     2.3450 
  205.8750    89.3070    12.0330    10.4980    14.8500    24.8980   -19.0150     2.3320 
  206.0000    88.9410    12.3630    10.8920    13.8770    25.0620   -18.8660     2.3290 
  206.1250    92.3590    12.7220    11.2540    12.8560    25.4140   -18.6150     2.3370 
  206.2500    93.4650    13.1970    11.6960    13.5070    25.6690   -18.2520     2.3440 
  206.3750    90.6510    13.7610    12.2370    15.5700    25.7350   -17.7840     2.3390 
  206.5000    89.5440    14.3130    12.8170    17.5380    25.7070   -17.1990     2.3150 
  206.6250    94.4980    14.7090    13.3170    18.1530    25.7190   -16.5620     2.2810 
  206.7500   100.1880    14.9120    13.6660    18.1020    25.7250   -15.8900     2.2590 
  206.8750   101.7000    14.9450    13.8520    17.5220    25.6850   -15.1680     2.2600 
  207.0000    99.3550    14.8590    13.9060    16.7790    25.6700   -14.4350     2.2830 
  207.1250    95.3110    14.6630    13.8370    16.8900    25.6640   -13.7880     2.3130 
  207.2500    91.2130    14.3470    13.6440    17.3540    25.6190   -13.1960     2.3310 
  207.3750    88.5490    13.8880    13.3000    17.1940    25.5480   -12.6810     2.3340 
