~V
VERS. 2.00: Ver 2.00
~W
STRT.M 49.0000:
STOP.M 251.0000:
STEP.M 0.1250:
NULL. -999.2500:
UWI. F10165:
~C
DEPT.M :
GR.API :
RML.OHMM :
RI. :
RXO.OHMM :
CALI.CM :
SP.MV :
DEN.GM/CC :
~A
# ...
  229.0000    62.9520    10.7730    10.1450    10.0620    24.6730   -16.7360     2.3530 
  229.1250    63.0240    10.6180    10.0200    10.4930    24.7980   -16.7320     2.3270 
  229.2500    61.2750    10.5070     9.9220    11.2310    24.9430   -16.7330     2.3050 
  229.3750    59.5200    10.4700     9.8810    11.3680    25.0260   -16.6980     2.2930 
  229.5000    60.2120    10.5110     9.9060    11.0910    25.0120   -16.6400     2.2970 
  229.6250    62.5910    10.5970     9.9790    10.8670    24.9460   -16.6280     2.3130 
  229.7500    62.6830    10.6560    10.0390    11.0670    24.8780   -16.6640     2.3320 
  229.8750    60.1330    10.6300    10.0380    11.3900    24.8100   -16.7170     2.3440 
  230.0000    59.0270    10.4880     9.9410    11.1550    24.7360   -16.7400     2.3410 
  230.1250    60.7040    10.2430     9.7470     9.9940    24.6870   -16.7420     2.3210 
  230.2500    62.1410     9.9910     9.5280     9.2130    24.6850   -16.7590     2.2990 
  230.3750    62.0240     9.8080     9.3470     9.2800    24.7100   -16.7860     2.2910 
  230.5000    61.5220     9.7460     9.2530     9.5050    24.7370   -16.7990     2.3070 
  230.6250    61.1560     9.8500     9.2890     9.0850    24.7570   -16.7880     2.3380 
  230.7500    61.4570    10.0680     9.4270     8.7650    24.7540   -16.7740     2.3550 
  230.8750    63.8080    10.3440     9.6300     9.1000    24.6940   -16.7700     2.3430 
  231.0000    66.5670    10.6030     9.8440    10.1810    24.6270   -16.7730     2.3110 
  231.1250    66.1160    10.7550     9.9970    11.4190    24.6070   -16.7670     2.2840 
  231.2500    64.3280    10.7860    10.0620    12.3550    24.6320   -16.7690     2.2760 
  231.3750    63.7850    10.7190    10.0460    12.6770    24.6790   -16.7960     2.2880 
  231.5000    64.6800    10.6080     9.9790    12.0750    24.7250   -16.8260     2.3090 
  231.6250    64.8660    10.5180     9.9080    11.2210    24.7990   -16.8290     2.3350 
  231.7500    65.0470    10.4710     9.8600    11.6440    24.8330   -16.8110     2.3610 
  231.8750    65.5960    10.4600     9.8390    12.5940    24.8370   -16.7910     2.3790 
  232.0000    65.0210    10.4650     9.8350    12.7610    24.8370   -16.7790     2.3790 
  232.1250    61.6880    10.4660     9.8330    11.0030    24.8600   -16.7470     2.3590 
  232.2500    57.8560    10.4540     9.8180    10.2120    24.8750   -16.6910     2.3340 
  232.3750    57.6760    10.4180     9.7800    10.7140    24.8940   -16.6460     2.3170 
  232.5000    63.0560    10.3520     9.7150    11.5870    24.9210   -16.6460     2.3180 
  232.6250    68.6870    10.2490     9.6230    12.0260    24.9140   -16.6840     2.3400 
  232.7500    70.0490    10.1210     9.5160    11.7640    24.8890   -16.7040     2.3610 
  232.8750    67.7700     9.9830     9.3970    10.6060    24.8760   -16.6870     2.3660 
  233.0000    65.1810     9.8510     9.2720     9.0080    24.8760   -16.6760     2.3550 
  233.1250    63.5980     9.7300     9.1390     8.5290    24.8900   -16.7090     2.3330 
  233.2500    62.7140     9.5990     8.9880     8.6200    24.9170   -16.7390     2.3100 
  233.3750    62.6450     9.4310     8.8020     9.2080    24.9400   -16.7410     2.2950 
  233.5000    62.5690     9.2060     8.5710     9.8580    24.9360   -16.7240     2.2930 
  233.6250    64.3660     8.9140     8.2860    10.4460    24.9010   -16.7140     2.2990 
  233.7500    67.4240     8.5910     7.9780    10.5790    24.8630   -16.7210     2.3010 
  233.8750    67.0820     8.2810     7.6870    10.6560    24.8180   -16.7330     2.2970 
  234.0000    62.6680     8.0430     7.4600    10.6220    24.7760   -16.7390     2.2870 
  234.1250    59.4180     7.9580     7.3610     9.5600    24.7440   -16.7280     2.2770 
  234.2500    61.0940     8.0300     7.3910     8.2700    24.7330   -16.7290     2.2780 
  234.3750    64.8410     8.2380     7.5350     7.4120    24.7250   -16.7630     2.2900 
  234.5000    66.5170     8.5140     7.7470     7.2230    24.7080   -16.7970     2.3080 
  234.6250    64.6620     8.7390     7.9410     7.2640    24.6760   -16.8000     2.3240 
  234.7500    61.5420     8.8280     8.0400     7.3310    24.6730   -16.8080     2.3340 
  234.8750    59.8690     8.7620     8.0170     7.2130    24.7000   -16.8190     2.3350 
  235.0000    60.5840     8.5800     7.8910     7.0160    24.7330   -16.8170     2.3270 
  235.1250    62.8650     8.3590     7.7170     6.8690    24.7660   -16.8030     2.3160 
  235.2500    65.0280     8.1790     7.5590     6.5960    24.7890   -16.7780     2.3090 
  235.3750    65.6870     8.0700     7.4430     6.1010    24.7980   -16.7400     2.3060 
  235.5000    65.0430     8.0340     7.3740     5.5440    24.7990   -16.7010     2.3100 
  235.6250    64.6090     8.0690     7.3520     5.4340    24.7990   -16.6770     2.3180 
  235.7500    64.8520     8.1410     7.3640     5.4970    24.7990   -16.6590     2.3230 
  235.8750    65.0840     8.2180     7.3890     5.6250    24.7990   -16.6490     2.3190 
  236.0000    63.5870     8.2600     7.3970     5.5560    24.8010   -16.6440     2.3080 
  236.1250    60.2650     8.2160     7.3450     5.4440    24.8060   -16.6360     2.2960 
  236.2500    58.4980     8.0980     7.2350     5.4200    24.8210   -16.6550     2.2910 
  236.3750    59.3430     7.9470     7.0950     5.7940    24.8480   -16.6920     2.2920 
  236.5000    60.9480     7.8270     6.9710     6.8000    24.8670   -16.7450     2.2950 
  236.6250    62.3100     7.8040     6.9130     8.5600    24.8670   -16.7780     2.2980 
  236.7500    64.2180     7.8620     6.9150     9.4070    24.8420   -16.7830     2.3060 
  236.8750    66.0610     7.9400     6.9430     9.2520    24.7990   -16.7930     2.3150 
  237.0000    66.6550     7.9580     6.9410     9.0600    24.7680   -16.8200     2.3220 
  237.1250    67.6230     7.8530     6.8560     9.0600    24.7060   -16.8860     2.3240 
  237.2500    70.0920     7.6720     6.7070     8.3880    24.5970   -16.9520     2.3240 
  237.3750    72.1810     7.4850     6.5330     7.6120    24.4140   -16.9820     2.3180 
  237.5000    72.0760     7.3430     6.3780     6.9800    24.1800   -16.9860     2.3060 
  237.6250    69.6380     7.2600     6.2680     7.1930    24.1130   -17.0050     2.2890 
  237.7500    66.9630     7.1870     6.1840     7.4250    24.1930   -17.0350     2.2690 
  237.8750    63.8510     7.0830     6.1000     6.7500    24.2780   -17.0800     2.2430 
  238.0000    60.8900     6.9350     6.0000     5.6090    24.2750   -17.1300     2.2150 
  238.1250    61.2850     6.7670     5.8880     4.8870    24.2790   -17.1570     2.1960 
  238.2500    63.8920     6.6280     5.7890     4.6310    24.4150   -17.1560     2.1940 
  238.3750    65.6010     6.5490     5.7270     4.5470    24.5910   -17.1500     2.2080 
  238.5000    65.3900     6.5330     5.7130     4.4840    24.6160   -17.1620     2.2310 
  238.6250    65.0200     6.5580     5.7390     4.4760    24.6130   -17.1850     2.2510 
  238.7500    66.4150     6.5730     5.7640     4.4300    24.6890   -17.2050     2.2570 
  238.8750    68.7180     6.5500     5.7560     4.4050    24.7900   -17.1850     2.2500 
  239.0000    69.1440     6.4840     5.7020     4.5070    24.8440   -17.1390     2.2370 
  239.1250    66.5390     6.3930     5.6080     4.5900    24.8390   -17.1150     2.2300 
  239.2500    64.8850     6.3110     5.5140     4.5230    24.8100   -17.1140     2.2300 
  239.3750    65.6790     6.2640     5.4490     4.4020    24.7780   -17.1320     2.2340 
  239.5000    65.4040     6.2730     5.4330     4.4540    24.7180   -17.1430     2.2380 
  239.6250    62.2490     6.3610     5.4790     4.7560    24.6330   -17.1190     2.2350 
  239.7500    60.9600     6.5070     5.5720     5.2520    24.5760   -17.0820     2.2230 
  239.8750    62.1590     6.6840     5.6980     5.5920    24.5850   -17.0570     2.2180 
  240.0000    63.6880     6.8580     5.8370     5.7230    24.6290   -17.0310     2.2330 
  240.1250    64.8540     6.9860     5.9630     6.0380    24.6510   -16.9890     2.2710 
