~V
VERS. 2.00: Ver 2.00
~W
STRT.M 51.0000:
STOP.M 246.0000:
STEP.M 0.1250:
NULL. -999.2500:
UWI. F10182:
~C
DEPT.M :
SP.MV :
GR.API :
RML.OHMM :
RI. :
RXO.OHMM :
DEN.GM/CC :
CALI.CM :
~A
# ...
  118.5000    -7.5460    58.2230    10.4460     8.6450     8.3780     2.1590    22.5720 
  118.6250    -8.0640    60.7630     9.9070     8.4380     8.3570     2.1610    22.5950 
  118.7500    -8.5370    60.1030     9.5840     8.2400     8.4460     2.1690    22.6750 
  118.8750    -8.9450    59.1120     9.6580     8.2280     8.5730     2.1810    22.7290 
  119.0000    -9.2590    61.3620    10.1310     8.4640     8.6900     2.1970    22.7110 
  119.1250    -9.4850    65.0920    10.9010     8.9360     8.9930     2.2150    22.6910 
  119.2500    -9.6330    66.0850    11.7800     9.5760    10.7330     2.2280    22.7530 
  119.3750    -9.7480    64.9300    12.4910    10.1850    15.7970     2.2280    22.9160 
  119.5000    -9.8240    63.2610    12.8130    10.5670    25.7260     2.2140    23.0930 
  119.6250    -9.8760    62.0460    12.6430    10.5800    30.8670     2.1940    23.1850 
  119.7500    -9.9050    61.5350    12.0370    10.1860    21.6520     2.1780    23.0810 
  119.8750    -9.9420    61.9160    11.3290     9.6170    13.1080     2.1700    22.9740 
  120.0000    -9.9740    62.0050    10.7320     9.0560    10.2620     2.1700    22.9070 
  120.1250   -10.0130    61.3820    10.3580     8.6300     9.5750     2.1730    22.8650 
  120.2500   -10.0580    60.2450    10.2450     8.4230     9.5380     2.1760    22.8220 
  120.3750   -10.0890    59.9990    10.2880     8.3810     9.9370     2.1790    22.7930 
  120.5000   -10.1180    60.8890    10.4240     8.4510    10.5450     2.1840    22.7810 
  120.6250   -10.1400    60.7710    10.6000     8.5750    10.9200     2.1890    22.7800 
  120.7500   -10.1560    61.2940    10.7560     8.7040    11.0280     2.1930    22.7840 
  120.8750   -10.1490    65.4290    10.8480     8.8040    11.2080     2.1940    22.7970 
  121.0000   -10.1460    69.6140    10.8690     8.8640    11.1660     2.1950    22.8000 
  121.1250   -10.1280    68.5580    10.8490     8.8810    10.9460     2.1960    22.7930 
  121.2500   -10.1140    64.4110    10.8280     8.8560    10.3030     2.1950    22.7850 
  121.3750   -10.1090    62.5130    10.8190     8.8070     9.8690     2.1940    22.7810 
  121.5000   -10.1130    61.2390    10.8160     8.7470     9.6670     2.1920    22.7800 
  121.6250   -10.1060    58.8510    10.8030     8.6940     9.5420     2.1920    22.7800 
  121.7500   -10.0870    58.7990    10.7860     8.6690     9.5230     2.1930    22.7860 
  121.8750   -10.0590    60.1130    10.7980     8.6790     9.8490     2.1950    22.7610 
  122.0000   -10.0070    59.6130    10.8590     8.7200    10.0180     2.1960    22.7080 
  122.1250    -9.9340    57.7620    10.9370     8.7690     9.5980     2.1950    22.6690 
  122.2500    -9.8250    56.2380    10.9370     8.7730     9.3630     2.1960    22.6610 
  122.3750    -9.6890    55.2910    10.8090     8.7120     9.1750     2.1980    22.6460 
  122.5000    -9.5040    56.1100    10.5990     8.6110     9.1200     2.2040    22.5940 
  122.6250    -9.2880    57.4380    10.4610     8.5560     9.3060     2.2130    22.5370 
  122.7500    -9.0320    57.2290    10.6580     8.7000     9.4220     2.2290    22.5090 
  122.8750    -8.7540    56.8420    11.2250     9.0910     9.6210     2.2540    22.5260 
  123.0000    -8.4570    56.6960    12.0520     9.7090    10.6430     2.2840    22.6660 
  123.1250    -8.1410    56.3130    12.9230    10.4470    12.2830     2.3080    23.0140 
  123.2500    -7.8210    54.6540    13.5950    11.1510    15.0660     2.3180    23.3760 
  123.3750    -7.5160    53.8070    14.0580    11.7490    15.0730     2.3260    23.4530 
  123.5000    -7.2340    53.6520    14.3710    12.2350    13.8110     2.3500    23.2220 
  123.6250    -6.9920    54.9190    14.5270    12.5630    12.0560     2.3990    23.0650 
  123.7500    -6.7720    58.3860    14.2870    12.5190    13.0230     2.4510    23.2610 
  123.8750    -6.5610    61.9230    13.4690    11.9560    16.6860     2.4700    23.6510 
  124.0000    -6.3530    64.6580    12.0520    10.8470    20.1960     2.4450    23.9140 
  124.1250    -6.1740    67.6220    10.2990     9.4070    16.8060     2.3930    23.9530 
  124.2500    -6.0250    70.3650     8.7130     8.0420     9.0300     2.3390    23.8980 
  124.3750    -5.8990    71.4090     7.6470     7.0520     6.6110     2.2970    23.8490 
  124.5000    -5.8070    70.6450     7.2440     6.5630     6.1140     2.2740    23.8110 
  124.6250    -5.7270    69.2740     7.4840     6.5920     6.3430     2.2750    23.6910 
  124.7500    -5.6840    69.2130     8.2260     7.0860     6.9500     2.3080    23.4130 
  124.8750    -5.6720    69.1870     9.0300     7.7330     7.8800     2.3520    23.1940 
  125.0000    -5.7070    67.1050     9.5330     8.2430     9.3900     2.3810    23.1010 
  125.1250    -5.7380    64.1760     9.4900     8.3710    11.1350     2.3760    23.2100 
  125.2500    -5.7730    66.6530     8.8600     7.9910     9.4980     2.3420    23.5050 
  125.3750    -5.7890    73.7000     8.0120     7.3470     7.2380     2.3050    23.7010 
  125.5000    -5.8140    78.5990     7.2110     6.6580     6.7450     2.2730    23.6580 
  125.6250    -5.8300    78.0320     6.6580     6.1110     7.1970     2.2460    23.5370 
  125.7500    -5.8590    74.0220     6.6280     5.9380     6.8610     2.2310    23.6240 
  125.8750    -5.8830    70.6340     7.2230     6.2320     6.5740     2.2430    23.7750 
  126.0000    -5.9160    68.2970     8.5160     7.0810     7.2050     2.3030    23.7820 
  126.1250    -5.9590    65.5390    10.4380     8.4940     9.6820     2.4120    23.7100 
  126.2500    -6.0180    60.7130    12.7020    10.3700    15.6210     2.5230    23.7910 
  126.3750    -6.0910    55.4640    14.6600    12.2130    26.4030     2.5830    23.9140 
  126.5000    -6.1510    52.8060    15.7980    13.5350    30.9530     2.5840    23.9720 
  126.6250    -6.2310    53.6830    15.9690    14.0580    24.6860     2.5620    23.9710 
  126.7500    -6.3120    55.5450    15.4260    13.8270    16.2870     2.5450    23.9580 
  126.8750    -6.4060    57.0640    14.7130    13.2930    15.5100     2.5220    23.9520 
  127.0000    -6.5090    57.8820    13.9880    12.6350    21.9070     2.4740    23.9380 
  127.1250    -6.6390    57.1600    13.2370    11.9000    24.2130     2.3980    23.8800 
  127.2500    -6.7790    55.8330    12.4380    11.1080    17.4010     2.3170    23.7640 
  127.3750    -6.9280    55.6120    11.6840    10.3440    12.0500     2.2550    23.6710 
  127.5000    -7.0800    55.7870    11.1060     9.7220    10.7240     2.2190    23.6130 
  127.6250    -7.1980    55.6400    10.8060     9.3410    10.4650     2.2040    23.5280 
  127.7500    -7.2920    56.9950    10.8110     9.2680    10.3530     2.1970    23.3310 
  127.8750    -7.3500    59.2530    10.9240     9.3640    10.5870     2.1900    23.0710 
  128.0000    -7.3520    58.3930    10.9950     9.4940    11.1490     2.1800    22.8790 
  128.1250    -7.2830    55.6950    10.9670     9.5730    11.4140     2.1710    22.8260 
  128.2500    -7.1650    55.6670    10.9150     9.6080    11.4220     2.1690    22.8550 
  128.3750    -6.9920    56.8710    11.0110     9.7030    11.4860     2.1810    22.8450 
  128.5000    -6.7820    55.7910    11.4120     9.9670    11.6040     2.2140    22.8090 
  128.6250    -6.5390    54.0010    12.1700    10.4630    11.6720     2.2680    22.7860 
  128.7500    -6.2680    56.5670    13.0800    11.1080    11.9830     2.3330    22.7810 
  128.8750    -5.9790    61.0650    13.5940    11.5240    12.7280     2.3880    22.7780 
  129.0000    -5.6810    63.1300    13.2160    11.2950    14.4130     2.4120    22.7650 
  129.1250    -5.3830    63.6020    11.8350    10.2670    16.7440     2.4010    22.7690 
  129.2500    -5.0910    68.8620     9.9560     8.7730    14.9620     2.3670    22.9460 
  129.3750    -4.8030    78.3610     8.4680     7.4870     9.3710     2.3390    23.3760 
  129.5000    -4.5310    83.9630     7.8250     6.7570     6.0360     2.3300    23.8560 
  129.6250    -4.2940    80.6720     8.1870     6.7410     5.8110     2.3450    24.0560 
