~V
VERS. 2.00: Ver 2.00
~W
STRT.M 50.0000:
STOP.M 284.0000:
STEP.M 0.1250:
NULL. -999.2500:
UWI. F10107:
~C
DEPT.M :
DEN.GM/CC :
SP.MV :
GR.API :
RML.OHMM :
RI. :
RXO.OHMM :
CALI.CM :
~A
# ...
  196.2500     2.2500    -6.7980    75.0900     7.1420     6.3260     7.9890    23.3700 
  196.3750     2.2620    -6.7890    76.6520     6.7690     6.0000     6.8090    23.3350 
  196.5000     2.2710    -6.7550    74.9530     6.6190     5.8190     6.1130    23.3240 
  196.6250     2.2730    -6.7190    69.2470     6.7950     5.8930     6.0870    23.3220 
  196.7500     2.2720    -6.6910    64.6590     7.1970     6.1720     6.4750    23.3200 
  196.8750     2.2700    -6.6800    65.5320     7.7480     6.6100     7.0940    23.3200 
  197.0000     2.2720    -6.6830    68.6940     8.3920     7.1580     7.6930    23.3220 
  197.1250     2.2870    -6.6760    67.9590     9.1080     7.7890     8.4620    23.3060 
  197.2500     2.3180    -6.6370    65.0540     9.8290     8.4390     9.1860    23.2620 
  197.3750     2.3610    -6.5510    65.1280    10.4210     9.0050     9.7020    23.1890 
  197.5000     2.4070    -6.4310    67.7890    10.6930     9.3330    10.3240    23.0880 
  197.6250     2.4400    -6.2840    66.3910    10.3890     9.1940    11.9420    22.9760 
  197.7500     2.4500    -6.1420    63.3250     9.6280     8.6210    14.4960    22.9690 
  197.8750     2.4440    -6.0390    62.6050     8.6230     7.7690    14.0030    23.1250 
  198.0000     2.4290    -5.9910    64.0050     7.7120     6.9120     9.1200    23.2680 
  198.1250     2.4150    -6.0130    66.8870     7.3450     6.3800     6.0790    23.1720 
  198.2500     2.4010    -6.0950    70.8370     7.3060     6.2570     5.1360    22.9250 
  198.3750     2.3860    -6.2350    74.8220     7.7210     6.5230     5.2350    22.8530 
  198.5000     2.3710    -6.4280    77.0630     8.3970     7.0640     5.8390    23.0120 
  198.6250     2.3670    -6.6760    76.3830     9.0660     7.6970     6.4190    23.4030 
  198.7500     2.3790    -6.9470    74.3310     9.5090     8.2090     6.7120    23.8280 
  198.8750     2.4040    -7.2110    72.3250     9.6460     8.4910     6.8720    24.1280 
  199.0000     2.4370    -7.4470    71.5030     9.5180     8.5300     7.0330    24.2190 
  199.1250     2.4620    -7.6580    72.0440     9.2460     8.3910     6.9820    24.1770 
  199.2500     2.4720    -7.8640    72.9840     9.0000     8.2190     6.8510    24.1450 
  199.3750     2.4650    -8.0620    74.5950     8.8580     8.0920     6.8030    24.1370 
  199.5000     2.4450    -8.2490    77.9080     8.8340     8.0350     6.7540    24.1370 
  199.6250     2.4200    -8.4250    79.6490     8.9070     8.0460     6.6330    24.1440 
  199.7500     2.3990    -8.6050    78.9110     9.0220     8.0900     6.5530    24.1870 
  199.8750     2.3850    -8.8050    78.0180     9.1620     8.1570     6.6980    24.2490 
  200.0000     2.3770    -9.0370    79.3120     9.3280     8.2520     7.1780    24.1790 
  200.1250     2.3750    -9.3130    78.6690     9.5300     8.3940     7.4990    23.8510 
  200.2500     2.3760    -9.6210    73.9930     9.7590     8.5770     8.0010    23.6050 
  200.3750     2.3770    -9.9630    71.5120    10.0080     8.7940     8.6290    23.6490 
  200.5000     2.3780   -10.3300    74.5870    10.2910     9.0500     8.8750    23.9350 
  200.6250     2.3790   -10.7050    77.5970    10.6980     9.4020     9.5230    24.0830 
  200.7500     2.3780   -11.0740    77.7510    11.3200     9.9180     9.8850    24.1270 
  200.8750     2.3740   -11.4260    77.3300    12.2230    10.6690    10.1930    24.1270 
  201.0000     2.3660   -11.7580    76.9080    13.3840    11.6670    10.8870    24.1270 
  201.1250     2.3580   -12.0680    74.0740    14.6430    12.8280    13.1220    24.1270 
  201.2500     2.3530   -12.3670    71.1420    15.7150    13.9150    16.7890    24.1270 
  201.3750     2.3540   -12.6580    72.4200    16.4020    14.7290    20.5200    24.1270 
  201.5000     2.3590   -12.9370    77.7360    16.6510    15.1630    21.5660    24.1270 
  201.6250     2.3630   -13.1860    78.9790    16.5790    15.2420    18.9870    24.1270 
  201.7500     2.3600   -13.3940    73.2590    16.4970    15.2340    16.1890    24.1270 
  201.8750     2.3540   -13.5690    68.0180    16.5860    15.3180    15.4770    24.1270 
  202.0000     2.3460   -13.7150    69.3700    16.9090    15.5930    17.2410    24.1270 
  202.1250     2.3420   -13.8510    71.6530    17.4650    16.0960    19.7270    24.1170 
  202.2500     2.3400   -13.9780    70.2100    18.1900    16.7740    20.0600    24.0930 
  202.3750     2.3360   -14.0990    69.5940    19.2670    17.6480    19.2050    24.0700 
  202.5000     2.3290   -14.2190    72.4870    20.7620    18.7940    19.4270    24.0530 
  202.6250     2.3210   -14.3520    73.1160    23.0060    20.3850    22.1470    24.0280 
  202.7500     2.3120   -14.5120    69.3520    25.9040    22.4100    23.7650    23.9700 
  202.8750     2.3060   -14.6890    64.0460    28.8820    24.7970    24.5980    23.8900 
  203.0000     2.3000   -14.8690    59.9060    31.5950    27.3640    25.3980    23.8550 
  203.1250     2.2960   -15.0280    59.0900    34.0450    29.8010    27.2200    23.9130 
  203.2500     2.2920   -15.1690    60.0380    35.9680    31.8270    32.1040    24.0290 
  203.3750     2.2900   -15.3000    61.2390    37.1710    33.2280    37.8670    24.1040 
  203.5000     2.2900   -15.4360    61.5760    37.6070    33.9140    39.6220    24.1220 
  203.6250     2.2920   -15.5950    62.4760    37.4120    33.9310    36.1030    24.0820 
  203.7500     2.2980   -15.7770    63.9680    37.1180    33.7370    32.2830    23.9610 
  203.8750     2.3040   -15.9760    65.3160    37.1310    33.7100    29.5550    23.7370 
  204.0000     2.3100   -16.1910    66.7280    37.6940    34.1170    27.9640    23.4100 
  204.1250     2.3130   -16.4070    68.5080    38.8890    35.1020    27.6640    23.2940 
  204.2500     2.3120   -16.6170    69.4170    40.4350    36.4560    29.7100    23.4090 
  204.3750     2.3090   -16.8130    67.9950    42.1350    38.0170    32.8700    23.7000 
  204.5000     2.3040   -17.0050    65.4730    43.8290    39.6370    37.1470    23.9920 
  204.6250     2.2990   -17.1960    65.0590    45.3710    41.1680    41.3350    24.1840 
  204.7500     2.2930   -17.3920    66.1380    46.7310    42.5430    42.2380    24.2500 
  204.8750     2.2880   -17.6070    66.3900    47.9260    43.7500    42.7880    24.2620 
  205.0000     2.2820   -17.8450    65.4980    49.0150    44.8230    45.3670    24.2620 
  205.1250     2.2780   -18.1110    64.9110    50.1620    45.8850    48.4950    24.2620 
  205.2500     2.2760   -18.3820    63.9780    51.6060    47.1510    49.5370    24.2620 
  205.3750     2.2730   -18.6500    61.6900    53.6010    48.8540    48.7920    24.2620 
  205.5000     2.2710   -18.9070    59.0810    56.3600    51.2110    48.8060    24.2620 
  205.6250     2.2670   -19.1570    59.5150    60.0820    54.4690    52.5070    24.2620 
  205.7500     2.2630   -19.4150    60.3740    64.3670    58.3420    59.6990    24.2620 
  205.8750     2.2570   -19.6880    59.0750    68.6740    62.3980    67.1220    24.2620 
  206.0000     2.2500   -19.9760    56.3600    72.3160    66.0250    69.9330    24.2620 
  206.1250     2.2450   -20.2670    55.3610    74.3330    68.3350    70.6160    24.2620 
  206.2500     2.2430   -20.5670    56.6250    74.5350    69.0530    73.4180    24.2620 
  206.3750     2.2440   -20.8680    57.3440    72.9710    68.1390    75.8540    24.2620 
  206.5000     2.2500   -21.1570    56.2120    70.0330    65.8800    74.9990    24.2560 
  206.6250     2.2570   -21.4150    53.3910    66.2850    62.7250    69.8050    24.2350 
  206.7500     2.2630   -21.6290    52.3520    62.5840    59.4740    64.8000    24.2080 
  206.8750     2.2680   -21.7850    54.1700    59.5390    56.7150    60.3120    24.1960 
  207.0000     2.2710   -21.8840    56.8930    57.6180    54.9320    56.8300    24.1950 
  207.1250     2.2700   -21.9440    58.4670    57.2460    54.5970    54.1870    24.1950 
  207.2500     2.2660   -21.9790    59.9190    58.0180    55.4180    51.8080    24.1940 
  207.3750     2.2620   -21.9810    62.3460    59.4280    56.9940    51.5110    24.1880 
