~V
VERS. 2.00: Ver 2.00
~W
STRT.M 49.0000:
STOP.M 290.0000:
STEP.M 0.1250:
NULL. -999.2500:
UWI. F10103:
~C
DEPT.M :
DEN.GM/CC :
SP.MV :
GR.API :
RML.OHMM :
RI. :
RXO.OHMM :
CALI.CM :
~A
# ...
  184.0000     2.2000   -18.4540    54.1790    85.0810    81.4150    68.9440    24.8070 
  184.1250     2.1950   -18.7370    56.2870    89.2640    85.5220    69.3230    24.7920 
  184.2500     2.1910   -18.9950    56.0110    93.2430    89.3700    68.0390    24.7640 
  184.3750     2.1920   -19.2480    55.9000    97.2460    93.1810    66.7050    24.7320 
  184.5000     2.1980   -19.4760    56.9850   101.5310    97.2100    65.4350    24.7080 
  184.6250     2.2060   -19.6630    57.2300   106.3790   101.7400    67.5330    24.7000 
  184.7500     2.2140   -19.8570    53.9710   112.1550   107.1460    71.5560    24.7960 
  184.8750     2.2160   -20.0590    50.4720   118.7200   113.3270    75.8420    24.9660 
  185.0000     2.2100   -20.2300    50.4380   125.7510   120.0050    79.5100    25.1140 
  185.1250     2.1990   -20.3710    53.8580   132.6430   126.6180    82.6250    25.2030 
  185.2500     2.1850   -20.5110    56.9220   138.3630   132.1970    85.7630    25.2760 
  185.3750     2.1750   -20.6720    57.5630   142.4040   136.2120    88.4870    25.3570 
  185.5000     2.1690   -20.8450    55.1670   144.6590   138.4940    89.7550    25.4320 
  185.6250     2.1670   -21.0060    51.4380   145.5920   139.3850    88.9990    25.4950 
  185.7500     2.1650   -21.1610    49.9860   146.2250   139.7320    87.4020    25.5630 
  185.8750     2.1620   -21.3050    51.4630   147.7820   140.7350    86.9220    25.6130 
  186.0000     2.1600   -21.4470    53.4550   151.0420   143.2220    88.2180    25.6350 
  186.1250     2.1610   -21.6170    53.5770   156.3480   147.6530    89.5470    25.6420 
  186.2500     2.1660   -21.7790    52.7420   163.6980   154.2240    89.9390    25.6460 
  186.3750     2.1740   -21.9180    52.7510   171.7950   161.8190    91.6040    25.6370 
  186.5000     2.1820   -22.0370    53.0210   179.2410   169.1910    95.4040    25.6110 
  186.6250     2.1890   -22.1580    51.7260   184.5100   174.8920    96.8970    25.5910 
  186.7500     2.1940   -22.2470    49.1350   185.8050   177.1330    96.0940    25.6450 
  186.8750     2.1960   -22.3160    47.9740   183.5070   175.9880    93.8820    25.7600 
  187.0000     2.1930   -22.3950    49.2410   178.3140   171.9010    90.9590    25.8250 
  187.1250     2.1860   -22.4520    51.0110   171.1790   165.6810    87.8710    25.8290 
  187.2500     2.1770   -22.4620    51.9220   162.6000   157.8400    86.0420    25.7740 
  187.3750     2.1690   -22.4510    52.8970   153.0000   148.9360    85.0820    25.6380 
  187.5000     2.1670   -22.4430    53.2040   142.6120   139.2060    85.0360    25.3550 
  187.6250     2.1720   -22.4430    52.5770   132.1610   129.2740    82.6860    24.8750 
  187.7500     2.1830   -22.4510    51.3160   123.2860   120.6030    77.4940    24.3240 
  187.8750     2.1980   -22.4530    50.1440   117.2210   114.4420    72.2810    24.1780 
  188.0000     2.2110   -22.4470    48.9350   114.8010   111.6980    71.0120    24.5380 
  188.1250     2.2200   -22.4140    49.0230   116.2020   112.6870    74.4080    25.1630 
  188.2500     2.2220   -22.3810    50.0320   121.1560   117.3420    78.6200    25.5670 
  188.3750     2.2190   -22.3600    50.2230   127.4570   123.6120    82.1490    25.6770 
  188.5000     2.2140   -22.3560    48.4110   133.0780   129.5700    85.6440    25.6340 
  188.6250     2.2090   -22.3690    46.1640   136.0130   133.2320    89.8050    25.5380 
  188.7500     2.2090   -22.3830    45.5610   134.2610   132.5110    89.2220    25.4080 
  188.8750     2.2110   -22.3820    45.5160   128.7700   128.0510    83.1330    25.2100 
  189.0000     2.2170   -22.3570    45.4060   120.9940   121.0560    72.7220    24.9190 
  189.1250     2.2230   -22.3340    44.4150   112.6350   113.1010    63.5400    24.4900 
  189.2500     2.2300   -22.3160    43.3910   105.1660   105.6550    59.1890    23.9230 
  189.3750     2.2350   -22.2900    44.4680    99.0160    99.3360    59.8960    23.4700 
  189.5000     2.2400   -22.2610    48.4750    94.2610    94.3050    60.8070    23.2850 
  189.6250     2.2440   -22.2450    53.0420    90.9150    90.6080    60.1230    23.2840 
  189.7500     2.2460   -22.2530    51.7210    89.3310    88.5830    52.5830    23.3360 
  189.8750     2.2470   -22.2890    47.8920    89.3920    88.1220    43.2600    23.3120 
  190.0000     2.2480   -22.3670    47.8800    91.1070    89.2520    36.1210    23.2000 
  190.1250     2.2500   -22.4780    52.0140    94.2750    91.8090    34.5640    23.0130 
  190.2500     2.2510   -22.6150    55.0140    98.5090    95.4430    33.4590    22.7330 
  190.3750     2.2510   -22.7550    54.3310   102.9650    99.2980    31.9740    22.4140 
  190.5000     2.2470   -22.8760    53.0110   107.1890   102.8630    30.4360    22.1050 
  190.6250     2.2390   -22.9610    52.5220   111.1250   106.0010    29.7810    21.7970 
  190.7500     2.2270   -22.9990    52.1850   115.3450   109.1640    28.1180    21.4430 
  190.8750     2.2110   -23.0030    52.2350   120.6070   113.1200    24.1920    21.1080 
  191.0000     2.1880   -22.9640    52.2610   127.2800   118.3160    20.6690    20.7370 
  191.1250     2.1600   -22.9040    52.6390   134.9490   124.5430    19.1170    20.3340 
  191.2500     2.1300   -22.8250    52.4190   141.9220   130.5050    17.6450    19.9540 
  191.3750     2.1050   -22.7310    53.2040   146.2180   134.4370    16.2350    19.2360 
  191.5000     2.0910   -22.6390    55.3650   146.6930   135.2170    16.0920    17.9930 
  191.6250     2.0850   -22.5620    56.3460   143.7760   132.9920    16.8950    16.7580 
  191.7500     2.0810   -22.5090    55.1080   139.7740   129.4890    17.4190    16.2370 
  191.8750     2.0680   -22.4820    53.8570   137.6410   127.3420    18.4520    16.4590 
  192.0000     2.0450   -22.4730    53.8500   138.3200   127.6670    20.7400    17.1750 
  192.1250     2.0180   -22.4730    54.1600   140.6270   129.7960    23.5410    17.9870 
  192.2500     2.0010   -22.4800    52.7430   140.8680   130.7580    25.7360    18.4400 
  192.3750     1.9960   -22.4960    50.8580   135.7240   127.3390    26.3070    18.5870 
  192.5000     2.0040   -22.5090    48.8700   123.8690   117.9190    25.0040    18.6890 
  192.6250     2.0190   -22.5110    48.1950   106.9430   103.3920    22.7110    18.8670 
  192.7500     2.0410   -22.4740    51.0390    89.6370    87.4650    20.4390    19.0380 
  192.8750     2.0700   -22.4140    55.9270    76.4090    74.5930    19.5960    19.0650 
  193.0000     2.1050   -22.3410    58.9360    68.9150    66.7410    21.0940    19.0770 
  193.1250     2.1390   -22.2480    58.3430    67.1510    64.1810    21.9250    19.1570 
  193.2500     2.1630   -22.1540    56.3230    70.8060    66.8070    22.2640    19.3750 
  193.3750     2.1700   -22.0640    54.5980    77.3110    72.3780    22.9930    19.7030 
  193.5000     2.1630   -21.9900    53.2050    84.5190    79.0180    25.1550    20.0330 
  193.6250     2.1520   -21.9400    52.4430    90.0770    84.5100    27.5560    20.2850 
  193.7500     2.1450   -21.9260    51.0520    91.4330    86.2640    28.0210    20.4670 
  193.8750     2.1440   -21.9370    48.3890    89.1270    84.4630    25.6470    20.7090 
  194.0000     2.1490   -21.9800    46.8010    85.0080    80.6780    22.6210    21.0090 
  194.1250     2.1570   -22.0440    48.9300    81.6320    77.2600    21.5940    21.2340 
  194.2500     2.1690   -22.0930    53.3250    81.6770    76.7540    22.9280    21.3240 
  194.3750     2.1820   -22.1390    55.3280    85.4750    79.6960    25.3530    21.3880 
  194.5000     2.1950   -22.1800    55.2200    92.6220    85.9330    27.3220    21.4810 
  194.6250     2.2020   -22.1900    54.8950   101.7940    94.4560    28.8520    21.5860 
  194.7500     2.1990   -22.1660    52.6290   110.2860   102.9800    32.1970    21.7260 
  194.8750     2.1890   -22.1140    48.2000   115.0060   108.4350    38.6840    21.9800 
  195.0000     2.1730   -22.0160    44.8360   113.6870   108.3980    48.1100    22.4420 
  195.1250     2.1580   -21.8850    45.4050   105.7380   101.9020    53.8690    23.0900 
