~V
VERS. 2.00: Ver 2.00
~W
STRT.M 50.0000:
STOP.M 232.0000:
STEP.M 0.1250:
NULL. -999.2500:
UWI. F10160:
~C
DEPT.M :
SP.MV :
DEN.GM/CC :
GR.API :
RML.OHMM :
RI. :
RXO.OHMM :
CALI.CM :
~A
# ...
  185.0000   -18.1690     2.2080    57.0760     5.9440     4.7710     4.7900    25.7530 
  185.1250   -18.6040     2.2670    60.9300     6.1430     4.9100     5.4630    24.9380 
  185.2500   -19.1210     2.3380    63.8870     6.3580     5.0630     6.0090    24.3000 
  185.3750   -19.6980     2.4020    68.3220     6.5770     5.2220     6.0910    24.1010 
  185.5000   -20.3010     2.4440    73.9930     6.7890     5.3790     5.9550    24.2630 
  185.6250   -20.8890     2.4640    78.1530     6.9710     5.5150     6.0060    24.6330 
  185.7500   -21.4410     2.4750    80.2260     7.1000     5.6110     6.3000    24.9860 
  185.8750   -21.9190     2.4760    82.6840     7.1540     5.6510     6.6640    25.2110 
  186.0000   -22.3030     2.4600    85.8580     7.1290     5.6260     7.1000    25.2850 
  186.1250   -22.6010     2.4170    88.7120     7.0300     5.5340     7.3220    25.2400 
  186.2500   -22.8770     2.3590    90.1690     6.8970     5.4030     7.2400    25.2380 
  186.3750   -23.1660     2.3030    91.2050     6.7630     5.2600     6.5960    25.3240 
  186.5000   -23.4880     2.2700    92.4520     6.6490     5.1310     5.8670    25.4010 
  186.6250   -23.8390     2.2760    92.9480     6.5640     5.0400     5.2730    25.3890 
  186.7500   -24.1990     2.3000    94.8960     6.5040     4.9870     4.9970    25.3740 
  186.8750   -24.5670     2.3170    97.3540     6.4640     4.9650     5.2380    25.4020 
  187.0000   -24.9440     2.3190    98.0310     6.4330     4.9640     5.6340    25.4270 
  187.1250   -25.3290     2.3160    97.7900     6.4190     4.9800     6.0770    25.3990 
  187.2500   -25.7140     2.3230    99.5910     6.4610     5.0270     6.2880    25.3270 
  187.3750   -26.1030     2.3440   101.3840     6.5990     5.1280     6.6290    25.2140 
  187.5000   -26.4970     2.3750    98.6010     6.8430     5.2940     6.7610    25.1200 
  187.6250   -26.8860     2.4040    92.5890     7.1610     5.5130     6.6960    25.0970 
  187.7500   -27.2540     2.4250    90.3840     7.4530     5.7280     6.9640    25.1010 
  187.8750   -27.5690     2.4370    91.0460     7.6410     5.8810     7.8030    25.1090 
  188.0000   -27.8000     2.4350    89.2700     7.6960     5.9340     7.7790    25.1380 
  188.1250   -27.8890     2.4180    84.6540     7.6510     5.8750     7.1220    25.1780 
  188.2500   -27.8370     2.4000    84.3360     7.5800     5.7650     6.8590    25.2000 
  188.3750   -27.6310     2.3960    88.5300     7.5080     5.6470     6.9470    25.2020 
  188.5000   -27.2630     2.4140    92.3090     7.4210     5.5410     7.0290    25.2000 
  188.6250   -26.7260     2.4480    94.4780     7.2550     5.4250     7.1600    25.2020 
  188.7500   -26.0890     2.4740    95.9620     6.9910     5.2660     7.3410    25.2020 
  188.8750   -25.4010     2.4780    93.8790     6.6690     5.0660     7.4590    25.2020 
  189.0000   -24.7210     2.4620    88.0880     6.4000     4.8810     7.2010    25.2050 
  189.1250   -24.1090     2.4460    85.4990     6.3560     4.8260     6.3730    25.2070 
  189.2500   -23.6130     2.4480    86.5200     6.6020     4.9540     5.7490    25.1890 
  189.3750   -23.2340     2.4720    86.9300     7.1390     5.2760     6.3820    25.1500 
  189.5000   -22.9500     2.5070    84.7250     7.8520     5.7420     8.3610    25.1140 
  189.6250   -22.7330     2.5300    83.7400     8.4710     6.2070    10.3420    25.1010 
  189.7500   -22.5160     2.5330    84.1590     8.7200     6.4850    10.2870    25.1030 
  189.8750   -22.2450     2.5170    84.3560     8.4930     6.4690     9.2090    25.1040 
  190.0000   -21.8730     2.4840    84.3220     7.8950     6.1750     8.1670    25.1020 
  190.1250   -21.3250     2.4390    83.3120     7.1670     5.7090     7.4240    25.1000 
  190.2500   -20.6180     2.3970    80.7850     6.5270     5.2310     6.6960    25.0980 
  190.3750   -19.8030     2.3690    74.9000     6.0200     4.8080     5.8080    25.0890 
  190.5000   -18.9440     2.3640    65.3580     5.6200     4.4570     5.0550    25.0700 
  190.6250   -18.1270     2.3840    55.8710     5.2980     4.1870     4.6500    25.0520 
  190.7500   -17.4230     2.4130    51.8660     5.0410     3.9880     4.2180    25.0490 
  190.8750   -16.9050     2.4380    55.3920     4.8750     3.8660     4.0030    25.0530 
  191.0000   -16.6120     2.4550    62.9200     4.8140     3.8180     3.9930    25.0570 
  191.1250   -16.5760     2.4640    68.5530     4.8590     3.8380     4.1160    25.0570 
  191.2500   -16.7260     2.4680    70.7770     4.9450     3.8910     4.3670    25.0540 
  191.3750   -16.9960     2.4690    72.9320     5.0190     3.9500     4.6610    25.0520 
  191.5000   -17.3220     2.4700    77.5980     5.0520     3.9900     4.7390    25.0520 
  191.6250   -17.6440     2.4710    83.6930     5.0420     4.0020     4.6930    25.0560 
  191.7500   -17.9240     2.4690    87.3050     5.0260     3.9990     4.7620    25.0570 
  191.8750   -18.1400     2.4640    85.8520     5.0140     3.9890     4.8270    25.0560 
  192.0000   -18.2930     2.4560    81.1640     4.9940     3.9700     4.8500    25.0560 
  192.1250   -18.3850     2.4460    78.9640     4.9350     3.9260     4.8170    25.0580 
  192.2500   -18.4490     2.4350    82.8100     4.8380     3.8540     4.8970    25.0580 
  192.3750   -18.5100     2.4270    88.6020     4.7330     3.7700     5.0760    25.0570 
  192.5000   -18.6010     2.4250    89.7260     4.6640     3.7020     4.7850    25.0560 
  192.6250   -18.7460     2.4320    85.7010     4.6880     3.6930     4.7000    25.0560 
  192.7500   -18.9180     2.4430    83.0750     4.8080     3.7530     5.0390    25.0560 
  192.8750   -19.0870     2.4550    84.5290     5.0020     3.8820     5.8740    25.0590 
  193.0000   -19.2500     2.4690    87.2380     5.2300     4.0590     6.2640    25.0600 
  193.1250   -19.3910     2.4820    87.3430     5.4480     4.2570     6.1370    25.0570 
  193.2500   -19.5180     2.4910    85.0290     5.6340     4.4430     6.3100    25.0540 
  193.3750   -19.6210     2.4900    83.4770     5.7740     4.6010     6.8240    25.0550 
  193.5000   -19.6900     2.4790    84.6840     5.8520     4.7180     6.8490    25.0600 
  193.6250   -19.7160     2.4650    86.1790     5.8420     4.7830     6.5690    25.0520 
  193.7500   -19.7090     2.4610    86.3310     5.7560     4.7990     6.4960    24.9990 
  193.8750   -19.6760     2.4670    87.8990     5.6140     4.7690     6.3810    24.9060 
  194.0000   -19.6180     2.4760    91.2780     5.4520     4.7050     6.2160    24.8240 
  194.1250   -19.5440     2.4780    91.5140     5.3100     4.6260     5.9990    24.8000 
  194.2500   -19.4870     2.4750    87.4880     5.2060     4.5510     5.9270    24.8060 
  194.3750   -19.4590     2.4730    83.6730     5.1520     4.4930     5.8950    24.8040 
  194.5000   -19.4680     2.4770    83.5040     5.1600     4.4570     5.8050    24.7900 
  194.6250   -19.5000     2.4820    86.9960     5.2420     4.4580     5.7060    24.7710 
  194.7500   -19.5330     2.4800    89.6180     5.3680     4.4980     5.7410    24.7590 
  194.8750   -19.5630     2.4690    88.8000     5.5260     4.5760     5.9290    24.7540 
  195.0000   -19.5910     2.4520    86.9360     5.7090     4.6850     6.1010    24.7440 
  195.1250   -19.6190     2.4390    85.0400     5.9070     4.8070     6.4220    24.7010 
  195.2500   -19.6610     2.4340    81.7670     6.0790     4.9130     6.6650    24.6000 
  195.3750   -19.7190     2.4370    77.4730     6.1660     4.9740     6.4590    24.4360 
  195.5000   -19.7900     2.4410    75.8400     6.1400     4.9770     6.0760    24.2500 
  195.6250   -19.8440     2.4410    77.5580     6.0850     4.9710     5.9420    24.1220 
  195.7500   -19.8540     2.4410    78.9930     6.2330     5.0860     6.1000    24.1000 
  195.8750   -19.8000     2.4450    79.2380     6.8660     5.4900     6.6140    24.2220 
  196.0000   -19.6830     2.4510    78.0120     8.3350     6.3900     7.6400    24.4440 
  196.1250   -19.5330     2.4510    75.2130    11.3480     8.2320    11.0370    24.5590 
