~V
VERS. 2.00: Ver 2.00
~W
STRT.M 50.0000:
STOP.M 236.0000:
STEP.M 0.1250:
NULL. -999.2500:
UWI. F10180:
~C
DEPT.M :
SP.MV :
GR.API :
RML.OHMM :
RI. :
RXO.OHMM :
CALI.CM :
DEN.GM/CC :
~A
# ...
  173.7500   -11.3420    69.6780    55.6240    57.4040    63.5260    24.7290     2.3320 
  173.8750   -11.4170    72.2500    55.2550    56.7300    55.4350    24.8010     2.3550 
  174.0000   -11.5570    71.7620    54.5490    56.3390    54.0250    24.9090     2.3730 
  174.1250   -11.7160    67.8650    54.2350    56.8680    65.7220    24.9380     2.3770 
  174.2500   -11.7580    64.1310    55.2010    58.8480    85.3500    24.8430     2.3650 
  174.3750   -11.7450    64.8200    58.6140    62.9320    80.0820    24.6840     2.3340 
  174.5000   -11.7780    68.1220    64.4700    68.9260    77.8760    24.6230     2.2960 
  174.6250   -11.7820    71.0450    72.5860    76.7570    92.7870    24.6620     2.2610 
  174.7500   -11.7580    71.6870    82.7600    86.2770   107.2850    24.7720     2.2350 
  174.8750   -11.7600    69.3410    94.8150    97.5060   115.3210    24.8920     2.2230 
  175.0000   -11.7450    66.1690   107.5460   109.7450   127.2060    25.0010     2.2190 
  175.1250   -11.6690    63.5490   120.6700   122.2090   147.8760    25.0730     2.2180 
  175.2500   -11.6240    62.2960   134.2010   133.8010   157.1550    25.1150     2.2180 
  175.3750   -11.6340    63.1840   146.9050   142.7470   171.6750    25.1480     2.2170 
  175.5000   -11.5400    64.6920   156.6200   148.1810   171.0000    25.1600     2.2130 
  175.6250   -11.4010    63.9720   161.8540   149.5140   158.7160    25.1630     2.2080 
  175.7500   -11.3150    60.2930   162.4980   146.9480   150.5890    25.1630     2.2040 
  175.8750   -11.1510    57.9030   158.5730   141.3250   156.4220    25.1590     2.2050 
  176.0000   -10.9520    59.4030   152.2680   134.9780   160.2180    25.1410     2.2120 
  176.1250   -10.8000    62.2150   145.4560   129.6140   144.1010    25.1110     2.2200 
  176.2500   -10.6300    64.5620   139.9560   126.6120   133.3360    25.0810     2.2260 
  176.3750   -10.5030    66.7620   137.7940   127.3880   135.5070    25.0800     2.2240 
  176.5000   -10.4960    69.0920   139.2500   131.4670   143.7000    25.0750     2.2170 
  176.6250   -10.5040    68.1180   144.2130   138.1720   161.2720    25.0840     2.2070 
  176.7500   -10.5160    64.0200   151.8600   146.1820   180.7170    25.0930     2.1980 
  176.8750   -10.5730    60.6590   160.5480   153.3590   192.4530    25.0820     2.1890 
  177.0000   -10.5530    59.7280   167.9120   158.0050   198.9610    25.0460     2.1780 
  177.1250   -10.4880    60.2920   172.3660   159.3850   197.8590    24.9980     2.1630 
  177.2500   -10.4620    60.9350   173.2520   157.7290   193.2640    24.9720     2.1510 
  177.3750   -10.2910    61.8930   170.5580   153.5170   187.0720    25.0050     2.1700 
  177.5000    -9.9520    62.4730   165.6830   147.4050   178.1160    25.0840     2.2400 
  177.6250    -9.6130    60.3360   158.6820   138.6440   170.7570    25.1640     2.3610 
  177.7500    -9.2270    55.9910   148.6410   126.2200   162.8970    25.1520     2.5030 
  177.8750    -8.7300    53.8850   133.8320   109.7520   157.6570    25.0430     2.6100 
  178.0000    -8.2770    55.1090   115.6800    92.0650   127.2230    24.9570     2.6520 
  178.1250    -7.8190    56.8540    93.7780    75.9430    91.5380    24.9270     2.6410 
  178.2500    -7.2600    57.2130    75.9370    63.4640    63.5590    24.9400     2.6110 
  178.3750    -6.6510    57.6740    63.1750    56.0020    53.7180    24.9740     2.6040 
  178.5000    -6.0980    57.0120    54.7490    52.1970    58.7570    24.9710     2.6230 
  178.6250    -5.4710    54.8210    50.4130    50.9860    74.6350    24.9250     2.6530 
  178.7500    -4.7290    55.5630    48.8720    51.0850    85.1590    24.8740     2.6760 
  178.8750    -4.0940    61.6200    48.1590    50.5630    74.9040    24.8670     2.6850 
  179.0000    -3.4400    67.0790    46.0940    47.5910    60.2270    24.8780     2.6980 
  179.1250    -2.7250    68.7350    41.0700    41.3520    52.2370    24.8830     2.7240 
  179.2500    -2.0700    68.3730    32.8340    32.5470    46.1950    24.8360     2.7610 
  179.3750    -1.4840    67.7310    23.3650    23.3090    33.5880    24.8730     2.7840 
  179.5000    -0.8880    64.9570    15.4780    15.6880    18.7580    24.9880     2.7720 
  179.6250    -0.3980    61.2310    10.1040    10.2960     9.1970    25.3240     2.7170 
  179.7500    -0.0220    57.6700     6.9080     6.8860     5.4900    25.9340     2.6260 
  179.8750     0.2800    54.0110     5.2750     5.0650     4.5700    26.2460     2.5140 
  180.0000     0.4810    50.5150     4.3730     4.0980     4.3170    26.1890     2.4030 
  180.1250     0.6070    49.8030     3.9320     3.7130     4.2680    26.1400     2.3080 
  180.2500     0.7300    51.3920     3.8020     3.7450     4.3840    26.4640     2.2410 
  180.3750     0.7600    52.9470     3.8990     4.1240     4.8730    26.2120     2.2200 
  180.5000     0.6760    54.2390     4.1130     4.7070     5.2090    25.5000     2.2440 
  180.6250     0.6170    55.8320     4.4180     5.3970     5.8030    25.0200     2.3030 
  180.7500     0.5350    57.7470     4.8110     6.0670     6.9220    24.8870     2.3810 
  180.8750     0.4220    58.3780     5.2490     6.5300     8.5960    24.8860     2.4530 
  181.0000     0.3340    56.8890     5.6000     6.7220     8.5980    24.9030     2.4980 
  181.1250     0.2240    55.1590     5.7590     6.6680     7.5420    24.8790     2.5140 
  181.2500     0.0380    56.4840     5.7250     6.4630     6.5650    24.8340     2.5080 
  181.3750    -0.1350    59.2830     5.6270     6.2380     6.2640    24.7700     2.4990 
  181.5000    -0.2300    58.8640     5.6260     6.0840     6.3080    24.6920     2.5000 
  181.6250    -0.3820    57.1150     5.7640     6.0250     6.3200    24.6500     2.5090 
  181.7500    -0.5390    58.3340     5.9870     6.0460     6.2990    24.6980     2.5160 
  181.8750    -0.5960    60.8720     6.1870     6.1160     6.3710    24.7590     2.5110 
  182.0000    -0.6740    60.6910     6.2980     6.1900     6.3630    24.7930     2.4980 
  182.1250    -0.7860    58.5470     6.3270     6.2480     6.2670    24.7540     2.4830 
  182.2500    -0.8280    56.8280     6.3320     6.2950     6.2620    24.6740     2.4740 
  182.3750    -0.8510    57.9460     6.4000     6.3540     6.3450    24.5510     2.4710 
  182.5000    -0.9250    60.1690     6.5730     6.4490     6.5560    24.4160     2.4640 
  182.6250    -0.9540    62.1150     6.8560     6.5890     6.8780    24.2620     2.4450 
  182.7500    -1.0230    61.1430     7.2350     6.7620     7.2220    24.1580     2.4120 
  182.8750    -1.1470    57.8590     7.6790     6.9380     7.5990    24.3900     2.3720 
  183.0000    -1.2850    56.2510     8.1290     7.0770     7.8510    24.8200     2.3350 
  183.1250    -1.5130    57.1310     8.5490     7.1600     7.5650    24.9080     2.3100 
  183.2500    -1.8420    57.9730     8.9130     7.1830     7.0790    24.3940     2.2990 
  183.3750    -2.2030    56.1040     9.1760     7.1660     6.7020    23.9300     2.3020 
  183.5000    -2.5940    54.9710     9.3210     7.1630     6.5860    23.7100     2.3120 
  183.6250    -3.0600    57.8430     9.3550     7.2260     6.7170    23.7740     2.3260 
  183.7500    -3.5140    64.9610     9.3300     7.3900     7.0250    24.4550     2.3410 
  183.8750    -3.9870    74.1490     9.3390     7.6690     7.6260    25.1730     2.3570 
  184.0000    -4.4940    82.2230     9.4350     7.9850     8.4050    25.4860     2.3730 
  184.1250    -4.9450    87.9420     9.5980     8.2510     9.0720    25.3760     2.3910 
  184.2500    -5.3730    90.3640     9.7410     8.3910     9.1350    25.1960     2.4100 
  184.3750    -5.8530    91.4570     9.7530     8.3640     8.7630    25.1270     2.4290 
  184.5000    -6.3640    96.2450     9.6800     8.2520     8.1690    25.1270     2.4450 
  184.6250    -6.8340   105.0060     9.6480     8.1350     7.5610    25.2080     2.4530 
  184.7500    -7.3270   111.3010     9.7930     8.0730     7.5700    25.3220     2.4500 
  184.8750    -7.8460   108.3270    10.2280     8.0940     9.8240    25.4230     2.4340 
