~V
VERS. 2.00: Ver 2.00
~W
STRT.M 53.0000:
STOP.M 242.0000:
STEP.M 0.1250:
NULL. -999.2500:
UWI. F10177:
~C
DEPT.M :
SP.MV :
GR.API :
RML.OHMM :
RI. :
RXO.OHMM :
CALI.CM :
DEN.GM/CC :
~A
# ...
  131.7500    -4.9500    97.3730     5.7870     4.9590     8.0270    23.8370     2.4230 
  131.8750    -5.1400    95.8080     5.7340     4.9770     6.7980    23.9030     2.3840 
  132.0000    -5.3330    94.0150     5.3970     4.7300     5.8630    24.0220     2.3560 
  132.1250    -5.5010    93.7370     4.9850     4.3910     5.5120    24.1270     2.3500 
  132.2500    -5.5900    94.8560     4.7250     4.1500     5.1950    24.1790     2.3640 
  132.3750    -5.5480    95.2300     4.8610     4.1950     4.8050    24.1580     2.3950 
  132.5000    -5.4010    93.8470     5.4230     4.5620     4.9130    24.1430     2.4350 
  132.6250    -5.2000    89.6400     6.4870     5.2850     6.5740    24.1340     2.4780 
  132.7500    -5.0220    84.3870     8.0760     6.3800    10.2970    24.1110     2.5180 
  132.8750    -4.8380    80.5290    10.0030     7.8380    13.3230    24.0640     2.5460 
  133.0000    -4.6300    75.5560    11.8040     9.4210    15.9220    24.0360     2.5620 
  133.1250    -4.4330    69.1680    13.2190    10.8740    16.3070    24.0220     2.5710 
  133.2500    -4.2910    65.2970    14.2030    11.9990    15.2330    23.9900     2.5760 
  133.3750    -4.2120    66.9220    14.7740    12.7000    15.8690    23.9850     2.5800 
  133.5000    -4.2260    69.0050    15.0520    13.1070    16.5650    24.0070     2.5810 
  133.6250    -4.3610    68.5060    15.0370    13.2320    16.6650    24.0610     2.5760 
  133.7500    -4.5590    66.0190    14.6910    13.0280    15.7140    24.1400     2.5670 
  133.8750    -4.8000    62.1770    13.9870    12.4540    14.3700    24.2000     2.5590 
  134.0000    -5.0610    59.9650    13.1450    11.7140    13.3950    24.2300     2.5530 
  134.1250    -5.3280    60.1840    12.3910    11.0180    12.3920    24.4090     2.5470 
  134.2500    -5.6040    59.4670    11.9150    10.5460    11.3920    24.4970     2.5400 
  134.3750    -5.8440    56.5690    11.8600    10.4380    10.9750    24.5280     2.5280 
  134.5000    -5.9920    56.5640    12.1060    10.6270    11.6040    24.5740     2.5130 
  134.6250    -6.0230    61.6830    12.5150    11.0200    12.7000    24.6100     2.5010 
  134.7500    -5.9630    67.5120    12.9320    11.4860    13.4550    24.5530     2.4970 
  134.8750    -5.8400    66.8870    13.2250    11.8780    13.6010    24.3800     2.5010 
  135.0000    -5.6690    63.7790    13.4000    12.1480    13.6670    24.2340     2.5040 
  135.1250    -5.4630    62.8490    13.5210    12.3260    14.3200    24.1900     2.5000 
  135.2500    -5.2640    65.1830    13.6550    12.4770    14.5840    24.3000     2.4890 
  135.3750    -5.1560    67.5940    13.7920    12.6200    14.1720    24.3230     2.4770 
  135.5000    -5.1240    69.4350    13.8300    12.6750    13.7850    24.2890     2.4690 
  135.6250    -5.1450    72.1260    13.6660    12.5440    13.5970    24.2870     2.4690 
  135.7500    -5.2050    74.5090    13.2760    12.1970    13.8910    24.3330     2.4690 
  135.8750    -5.2570    73.6940    12.7380    11.7130    14.1410    24.5460     2.4630 
  136.0000    -5.3390    71.1940    12.2480    11.2740    12.9730    24.6850     2.4480 
  136.1250    -5.4450    69.8850    11.9420    11.0040    11.5800    24.6860     2.4280 
  136.2500    -5.5450    70.9380    11.8900    10.9700    12.0450    24.6440     2.4100 
  136.3750    -5.5970    72.0500    12.1230    11.2150    13.6620    24.5740     2.4030 
  136.5000    -5.5710    72.0570    12.5300    11.6450    13.9290    24.4160     2.4080 
  136.6250    -5.4860    71.6420    13.0220    12.1830    13.0810    24.2650     2.4240 
  136.7500    -5.4210    70.6400    13.5030    12.7340    12.9730    24.1670     2.4440 
  136.8750    -5.4340    69.2330    13.8260    13.1570    14.3360    24.1220     2.4600 
  137.0000    -5.4700    69.0290    13.8810    13.3320    15.7990    24.1080     2.4660 
  137.1250    -5.5010    69.5470    13.5840    13.1480    15.8390    24.2340     2.4630 
  137.2500    -5.5190    69.3160    12.9390    12.5760    14.5060    24.3620     2.4510 
  137.3750    -5.5860    68.2840    12.0460    11.7080    12.9150    24.4250     2.4310 
  137.5000    -5.7020    66.9380    11.1500    10.8080    11.6180    24.4560     2.4090 
  137.6250    -5.8220    65.4110    10.4080    10.0400    10.3240    24.5060     2.3930 
  137.7500    -5.9040    64.1050     9.8960     9.4900     9.9490    24.4840     2.3940 
  137.8750    -5.9560    62.9820     9.6420     9.1950    10.0210    24.4490     2.4180 
  138.0000    -6.0220    61.5420     9.5600     9.0750     9.9980    24.3610     2.4520 
  138.1250    -6.0820    60.7480     9.6190     9.1030     9.7150    24.2320     2.4790 
  138.2500    -6.1590    60.8280     9.8070     9.2630    10.0740    24.1330     2.4840 
  138.3750    -6.2680    59.7790    10.1370     9.5580    10.6450    24.2330     2.4660 
  138.5000    -6.3970    59.3710    10.5620     9.9470    11.1940    24.4820     2.4420 
  138.6250    -6.5260    62.2200    11.0280    10.3980    12.1010    24.7220     2.4260 
  138.7500    -6.6160    66.5220    11.4700    10.8520    13.4490    24.9090     2.4210 
  138.8750    -6.6680    66.0730    11.8070    11.2200    13.6410    25.0110     2.4220 
  139.0000    -6.6970    63.4720    12.0340    11.4740    13.1760    25.0920     2.4230 
  139.1250    -6.7270    63.3200    12.1700    11.6240    12.7330    25.0860     2.4230 
  139.2500    -6.7590    66.4520    12.2480    11.6980    12.6930    25.0320     2.4250 
  139.3750    -6.8200    69.0900    12.2930    11.7210    13.2720    24.8830     2.4340 
  139.5000    -6.8930    69.2220    12.3380    11.7310    13.8850    24.7490     2.4490 
  139.6250    -7.0010    67.1050    12.4010    11.7580    13.4510    24.6230     2.4680 
  139.7500    -7.1640    63.0830    12.5000    11.8270    13.1180    24.5380     2.4860 
  139.8750    -7.2950    58.1320    12.6360    11.9540    13.5050    24.5490     2.5020 
  140.0000    -7.3960    55.8340    12.7710    12.1050    13.9480    24.5290     2.5120 
  140.1250    -7.5170    56.9880    12.8770    12.2430    14.0900    24.5230     2.5170 
  140.2500    -7.6020    61.1590    12.9410    12.3520    14.6210    24.5070     2.5190 
  140.3750    -7.5870    63.2430    12.9820    12.4350    15.6060    24.4970     2.5220 
  140.5000    -7.5370    61.6430    13.0380    12.5240    15.4200    24.5300     2.5270 
  140.6250    -7.4570    57.1860    13.1260    12.6400    14.8880    24.6450     2.5350 
  140.7500    -7.3800    52.4270    13.2210    12.7690    15.1270    24.7260     2.5420 
  140.8750    -7.3370    49.9390    13.2400    12.8360    15.5390    24.6540     2.5430 
  141.0000    -7.2850    50.4490    13.1080    12.7660    15.1100    24.4570     2.5370 
  141.1250    -7.2570    54.2520    12.8190    12.5140    14.6040    24.3000     2.5280 
  141.2500    -7.3020    59.2840    12.4250    12.0910    14.1130    24.2760     2.5200 
  141.3750    -7.3340    59.5000    11.9910    11.5720    12.6730    24.2400     2.5170 
  141.5000    -7.3410    55.5800    11.5870    11.1040    11.5390    24.1480     2.5210 
  141.6250    -7.3720    51.6980    11.3000    10.7840    10.9770    24.0880     2.5320 
  141.7500    -7.4190    52.2730    11.2140    10.6650    10.8870    24.0470     2.5470 
  141.8750    -7.4760    56.1950    11.3770    10.7840    11.1530    24.0900     2.5590 
  142.0000    -7.5240    59.5100    11.6680    11.0550    11.9510    24.1420     2.5600 
  142.1250    -7.5560    61.0570    11.9820    11.3790    12.9470    24.2340     2.5490 
  142.2500    -7.6020    61.4930    12.2220    11.6500    13.0630    24.3270     2.5320 
  142.3750    -7.6670    63.0620    12.3230    11.7830    12.9670    24.5120     2.5190 
  142.5000    -7.7880    66.3810    12.3500    11.8260    12.6600    24.6920     2.5140 
  142.6250    -7.9280    67.4260    12.3870    11.8610    12.2990    24.7140     2.5170 
  142.7500    -8.0070    64.5160    12.5080    11.9700    12.0690    24.5590     2.5250 
  142.8750    -8.0850    61.7580    12.7380    12.2050    12.8700    24.5020     2.5320 
