~V
VERS. 2.00: Ver 2.00
~W
STRT.M 57.0000:
STOP.M 281.0000:
STEP.M 0.1250:
NULL. -999.2500:
UWI. F10139:
~C
DEPT.M :
SP.MV :
GR.API :
RML.OHMM :
RI. :
RXO.OHMM :
CALI.CM :
DEN.GM/CC :
~A
# ...
  270.7500   -11.9410    57.6010    10.9190    10.4540    14.9000    25.4800     2.5350 
  270.8750   -11.9260    57.6010    11.0840    10.6160    15.1300    25.4890     2.5200 
  271.0000   -11.8750    57.6010    11.1660    10.6820    13.8260    25.4890     2.5020 
  271.1250   -11.7690    57.6010    11.1610    10.6200    14.7140    25.4880     2.4900 
  271.2500   -11.6380    57.6010    11.1050    10.4950    18.0130    25.4940     2.4870 
  271.3750   -11.5060    57.6010    11.0340    10.3750    20.9390    25.5100     2.4900 
  271.5000   -11.3410    57.6010    10.9900    10.3100    22.2890    25.5290     2.4940 
  271.6250   -11.1450    57.6010    11.0020    10.3190    22.4780    25.5130     2.4940 
  271.7500   -10.9650    57.6010    11.0130    10.3540    23.3100    25.4820     2.4900 
  271.8750   -10.8400    57.6010    10.9700    10.3590    20.9910    25.4540     2.4850 
  272.0000   -10.7940    57.6010    10.8350    10.2880    16.6220    25.4520     2.4820 
  272.1250   -10.8290    57.6010    10.5930    10.1040    12.8400    25.4750     2.4750 
  272.2500   -10.9130    57.6010    10.3160     9.8490    10.7940    25.4820     2.4630 
  272.3750   -11.0210    57.6010    10.0650     9.5790     9.8160    25.4530     2.4450 
  272.5000   -11.1760    57.6010     9.8830     9.3550     9.4620    25.3800     2.4260 
  272.6250   -11.3340    57.6010     9.7880     9.2390     9.6000    25.3410     2.4170 
  272.7500   -11.4560    57.6010     9.7440     9.2090     9.6400    25.3620     2.4210 
  272.8750   -11.5390    57.6010     9.7220     9.2200     9.8410    25.3930     2.4360 
  273.0000   -11.5980    57.6010     9.6760     9.2170    10.1250    25.4000     2.4580 
  273.1250   -11.6520    57.6010     9.5600     9.1430    10.1760    25.3880     2.4810 
  273.2500   -11.6900    57.6010     9.3990     9.0070     9.7080    25.3710     2.4990 
  273.3750   -11.6940    57.6010     9.2420     8.8410     9.1360    25.3630     2.5110 
  273.5000   -11.6180    57.6010     9.1350     8.6870     8.8170    25.3640     2.5140 
  273.6250   -11.5350    57.6010     9.1080     8.5810     8.6180    25.3740     2.5100 
  273.7500   -11.5120    57.6010     9.1290     8.5230     8.3860    25.3940     2.5040 
  273.8750   -11.5680    57.6010     9.1640     8.4970     8.4560    25.4090     2.4960 
  274.0000   -11.6380    57.6010     9.1830     8.4770     8.7820    25.4100     2.4870 
  274.1250   -11.6560    57.6010     9.1570     8.4360     9.1590    25.4060     2.4750 
  274.2500   -11.6340    57.6010     9.0910     8.3670     9.3190    25.3960     2.4610 
  274.3750   -11.6080    57.6010     8.9970     8.2740     9.4160    25.3780     2.4450 
  274.5000   -11.6570    57.6010     8.8940     8.1650     9.3390    25.3590     2.4320 
  274.6250   -11.7780    57.6010     8.7850     8.0540     9.2990    25.3350     2.4250 
  274.7500   -11.9180    57.6010     8.6030     7.9450     9.1160    25.3040     2.4260 
  274.8750   -12.0430    57.6010     8.2660     7.8410     8.8850    25.2800     2.4320 
  275.0000   -12.1780    57.6010     7.7430     7.7450     8.8510    25.2520     2.4420 
  275.1250   -12.3970    57.6010     7.1000     7.6680     8.6110    25.2410     2.4480 
  275.2500   -12.6760    57.6010     6.5380     7.6110     8.4150    25.2450     2.4490 
  275.3750   -12.9890    57.6010     6.1990     7.5770     8.3650    25.2530     2.4480 
  275.5000   -13.3520    57.6010     6.0970     7.5600     8.2540    25.2380     2.4470 
  275.6250   -13.6940    57.6010     6.1240     7.5530     8.2030    25.2310     2.4520 
  275.7500   -13.9550    57.6010     6.1480     7.5500     8.0180    25.2280     2.4610 
  275.8750   -14.1310    57.6010     6.1530     7.5500     8.1400    25.2220     2.4710 
  276.0000   -14.2740    57.6010     6.1530     7.5500     8.1320    25.2020     2.4790 
  276.1250   -14.3620    57.6010     6.1530     7.5500     7.9440    25.1850     2.4780 
  276.2500   -14.3300    57.6010     6.1530     7.5500     7.9040    25.1840     2.4680 
  276.3750   -14.1800    57.6010     6.1530     7.5500     7.7670    25.1690     2.4530 
  276.5000   -13.9050    57.6010     6.1530     7.5500     7.3920    25.1020     2.4380 
  276.6250   -13.5380    57.6010     6.1530     7.5500     7.1970    25.0510     2.4280 
  276.7500   -13.1600    57.6010     6.1530     7.5500     7.3620    24.9920     2.4230 
  276.8750   -12.8180    57.6010     6.1530     7.5500     7.4000    24.9560     2.4210 
  277.0000   -12.4950    57.6010     6.1530     7.5500     7.2720    24.9960     2.4190 
  277.1250   -12.1780    57.6010     6.1530     7.5500     7.1260    25.0520     2.4170 
  277.2500   -11.9640    57.6010     6.1530     7.5500     7.0410    25.0530     2.4160 
  277.3750   -11.8580    57.6010     6.1530     7.5500     7.0760    25.0460     2.4200 
  277.5000   -11.7760    57.6010     6.1530     7.5500     7.2320    25.0160     2.4280 
  277.6250   -11.7710    57.6010     6.1530     7.5500     7.0500    25.0040     2.4360 
  277.7500   -11.8350    57.6010     6.1530     7.5500     7.0170    24.9780     2.4410 
  277.8750   -11.9440    57.6010     6.1530     7.5500     7.4340    24.9900     2.4450 
  278.0000   -12.0530    57.6010     6.1530     7.5500     8.3540    25.0350     2.4480 
  278.1250   -12.1960    57.6010     6.1530     7.5500     8.4240    25.0810     2.4540 
  278.2500   -12.3330    57.6010     6.1530     7.5500     7.9890    25.1310     2.4630 
  278.3750   -12.4450    57.6010     6.1530     7.5500     7.8630    25.1400     2.4750 
  278.5000   -12.6260    57.6010     6.1530     7.5500     8.4450    25.1720     2.4850 
  278.6250   -12.7930    57.6010     6.1530     7.5500     8.7980    25.1640     2.4900 
  278.7500   -12.9360    57.6010     6.1530     7.5500     9.1440    25.1450     2.4930 
  278.8750   -12.9960    57.6010     6.1530     7.5500     9.9420    25.1370     2.4970 
  279.0000   -13.0290    57.6010     6.1530     7.5500    11.3700    25.1130     2.5040 
  279.1250   -13.0290    57.6010     6.1530     7.5500    12.9860    25.0820     2.5130 
  279.2500   -13.0290    57.6010     6.1530     7.5500    13.8790    24.9980     2.5200 
  279.3750   -13.0290    57.6010     6.1530     7.5500    16.4240    24.8490     2.5220 
  279.5000  -999.2500    57.6010     6.1530     7.5500    16.1840    24.6940     2.5070 
  279.6250  -999.2500    57.6010     6.1530     7.5500    11.4690    24.6380     2.4490 
  279.7500  -999.2500    57.6010     6.1530     7.5500     8.8110    24.4380     2.3370 
  279.8750  -999.2500    57.6010     6.1530     7.5500     7.8250    23.9080     2.1780 
  280.0000  -999.2500    57.6010     6.1530     7.5500     7.5420    23.4980     1.9990 
  280.1250  -999.2500    57.6010     6.1530     7.5500     7.4810    23.3620     1.8490 
  280.2500  -999.2500    57.6010     6.1530     7.5500     7.4810    23.3590     1.7510 
  280.3750  -999.2500    57.6010     6.1530     7.5500     7.4800    23.3560     1.7020 
  280.5000  -999.2500    57.6010     6.1530     7.5500     7.4800    23.3540     1.6840 
  280.6250  -999.2500    57.6010     6.1530     7.5500     7.4800    23.3540     1.6790 
  280.7500  -999.2500  -999.2500  -999.2500  -999.2500  -999.2500  -999.2500     1.6710 
  280.8750  -999.2500  -999.2500  -999.2500  -999.2500  -999.2500  -999.2500     1.6640 
  281.0000  -999.2500  -999.2500  -999.2500  -999.2500  -999.2500  -999.2500     1.6600 
