~V
VERS. 2.00: Ver 2.00
~W
STRT.M 59.0000:
STOP.M 202.0000:
STEP.M 0.1250:
NULL. -999.2500:
UWI. F10133:
~C
DEPT.M :
GR.API :
RML.OHMM :
RI. :
RXO.OHMM :
CALI.CM :
SP.MV :
DEN.GM/CC :
~A
# ...
  171.5000   107.7350     9.7990     7.7860    10.0590    25.0840   -27.0460     2.4410 
  171.6250   107.8570    10.5510     8.4650    13.1900    24.9060   -27.1510     2.4350 
  171.7500   104.9840    11.1700     9.0870    16.1140    24.8340   -27.1780     2.3970 
  171.8750    98.8620    11.5460     9.5350    14.3570    24.9060   -27.0210     2.3300 
  172.0000    95.2820    11.6290     9.7450    12.8460    24.9350   -26.6320     2.2540 
  172.1250    98.9260    11.4080     9.6880    13.8240    24.5520   -26.0470     2.2070 
  172.2500   104.2780    11.0110     9.4630    12.6200    23.9340   -25.3110     2.2040 
  172.3750   108.2180    10.5060     9.1290    10.0280    23.8130   -24.3700     2.2400 
  172.5000   111.6320     9.9240     8.7090     9.3870    24.0840   -23.3070     2.2950 
  172.6250   116.3090     9.2720     8.1760     9.8360    24.4360   -22.1970     2.3460 
  172.7500   121.6880     8.6020     7.5730     9.5310    24.5690   -20.9830     2.3760 
  172.8750   124.0630     7.9810     6.9710     8.1930    24.5630   -19.7820     2.3860 
  173.0000   119.6610     7.4840     6.4440     6.7430    24.4180   -18.6950     2.3840 
  173.1250   109.9060     7.1920     6.0700     5.8710    24.0420   -17.6680     2.3830 
  173.2500   101.5180     7.0590     5.8510     5.8700    23.6570   -16.7450     2.3880 
  173.3750    96.3980     7.0150     5.7680     6.3600    23.6500   -16.0190     2.3960 
  173.5000    90.7530     6.9670     5.7680     6.3410    23.9950   -15.4490     2.4010 
  173.6250    80.7660     6.8360     5.7770     5.8950    24.3780   -15.0570     2.4020 
  173.7500    71.5150     6.6330     5.7400     5.7790    24.5890   -14.9010     2.4020 
  173.8750    67.7970     6.4020     5.6410     5.7470    24.6540   -14.8630     2.4060 
  174.0000    67.2760     6.1940     5.5000     5.5370    24.6440   -14.9080     2.4110 
  174.1250    64.1970     6.0650     5.3640     5.2460    24.6270   -15.1540     2.4100 
  174.2500    59.9420     6.0270     5.2730     5.0090    24.6150   -15.4700     2.4020 
  174.3750    58.0810     6.0820     5.2480     4.8460    24.6160   -15.8040     2.3910 
  174.5000    59.7830     6.2140     5.2970     4.8220    24.6010   -16.1730     2.3850 
  174.6250    62.6950     6.3730     5.4040     5.2800    24.5960   -16.5440     2.3870 
  174.7500    63.4070     6.4900     5.5130     5.6290    24.5610   -16.7780     2.3950 
  174.8750    61.3660     6.5320     5.5850     5.7500    24.4420   -16.8420     2.4040 
  175.0000    60.9100     6.5020     5.6000     5.7680    24.2900   -16.7780     2.4120 
  175.1250    67.9870     6.4330     5.5570     5.7150    24.2770   -16.5470     2.4210 
  175.2500    78.8350     6.3750     5.4940     5.6200    24.3780   -16.2360     2.4300 
  175.3750    88.7420     6.3520     5.4410     5.6640    24.4820   -15.9210     2.4370 
  175.5000    94.0720     6.3650     5.4090     5.8510    24.5360   -15.5470     2.4370 
  175.6250    95.3670     6.3970     5.3890     5.9650    24.5450   -14.9830     2.4300 
  175.7500    96.4510     6.4120     5.3620     5.9850    24.5360   -14.3490     2.4210 
  175.8750    94.7510     6.3840     5.3110     5.9240    24.5420   -13.6550     2.4170 
  176.0000    89.5440     6.3050     5.2330     5.5480    24.5440   -12.8630     2.4190 
  176.1250    85.4230     6.1920     5.1370     5.2840    24.5370   -12.0610     2.4270 
  176.2500    86.4720     6.0920     5.0540     5.1480    24.4960   -11.2680     2.4330 
  176.3750    91.8540     6.0400     5.0060     5.0190    24.4290   -10.4430     2.4280 
  176.5000    97.7500     6.0580     5.0080     4.8130    24.3480    -9.7340     2.4090 
  176.6250    99.9210     6.1650     5.0760     4.7900    24.1600    -9.2920     2.3780 
  176.7500    98.6350     6.3550     5.2070     5.0670    23.9210    -9.0050     2.3470 
  176.8750    96.8110     6.6410     5.4160     5.9480    23.6820    -8.9660     2.3210 
  177.0000    96.8870     7.0360     5.7250     7.3380    23.4730    -9.1620     2.3000 
  177.1250    96.6680     7.5480     6.1690     8.3570    23.2820    -9.4350     2.2800 
  177.2500    96.4050     8.1070     6.7070     8.9470    23.2530    -9.7730     2.2600 
  177.3750    97.2080     8.6290     7.2670     9.6650    23.4170   -10.1840     2.2430 
  177.5000    97.1700     9.0230     7.7440    10.1400    23.6560   -10.4940     2.2350 
  177.6250    96.0770     9.2180     8.0180     9.9120    23.7780   -10.6470     2.2400 
  177.7500    94.9210     9.3000     8.1270     9.3260    23.7370   -10.7970     2.2530 
  177.8750    93.0410     9.3790     8.1780     8.7860    23.7480   -10.9010     2.2670 
  178.0000    90.6770     9.5430     8.2960     8.3680    23.8350   -10.9710     2.2840 
  178.1250    90.4840     9.7910     8.5550     9.0540    23.8680   -11.1430     2.3100 
  178.2500    90.4640     9.9820     8.8440    10.0580    23.7700   -11.3870     2.3490 
  178.3750    87.2060     9.9990     9.0130    12.0990    23.7310   -11.6270     2.3970 
  178.5000    83.5630     9.8250     8.9680    12.2470    23.8610   -11.9560     2.4410 
  178.6250    85.9390     9.6060     8.7700    11.0740    24.0510   -12.3790     2.4590 
  178.7500    91.8610     9.5530     8.6660     8.4740    24.1880   -12.7350     2.4480 
  178.8750    93.0800     9.7470     8.8020     7.8050    24.2630   -13.0680     2.4150 
  179.0000    87.1680    10.1000     9.1710     9.0140    24.3070   -13.3730     2.3760 
  179.1250    80.4510    10.3520     9.5730    13.7430    24.3200   -13.5220     2.3460 
  179.2500    78.2890    10.3060     9.7290    17.6610    24.3980   -13.5300     2.3320 
  179.3750    81.1020     9.9370     9.5170    16.4590    24.4820   -13.4420     2.3320 
  179.5000    86.1120     9.3760     9.0140    10.0550    24.5450   -13.2220     2.3400 
  179.6250    90.1270     8.8320     8.4350     8.0940    24.5800   -12.9370     2.3500 
  179.7500    90.4900     8.4160     7.9590     8.7240    24.6370   -12.6490     2.3560 
  179.8750    88.4380     8.1050     7.6080    10.6360    24.6380   -12.2830     2.3620 
  180.0000    86.9150     7.8260     7.3270    12.0860    24.5930   -11.9050     2.3710 
  180.1250    88.7200     7.5370     7.0440     9.1000    24.5580   -11.5840     2.3840 
  180.2500    92.0080     7.2890     6.7610     7.5700    24.5500   -11.1920     2.3920 
  180.3750    94.9860     7.1720     6.5480     7.4500    24.5540   -10.7590     2.3890 
  180.5000    96.2570     7.2600     6.4910     8.0950    24.6050   -10.3260     2.3760 
  180.6250    95.5950     7.5870     6.6700     8.1020    24.6950    -9.7830     2.3600 
  180.7500    93.7120     8.0260     7.0140     9.0810    24.7940    -9.2350     2.3530 
  180.8750    90.8100     8.4530     7.4290     9.8470    24.8480    -8.7730     2.3570 
  181.0000    88.7530     8.7610     7.8080     9.5010    24.8610    -8.3080     2.3660 
  181.1250    87.6180     8.8870     8.0540     8.9410    24.8080    -7.8580     2.3680 
  181.2500    85.4090     8.9030     8.1730     8.7030    24.7650    -7.5300     2.3580 
  181.3750    83.3980     8.8910     8.2040     8.7960    24.7190    -7.2760     2.3390 
  181.5000    83.4570     8.9210     8.2040     9.0460    24.6540    -7.1070     2.3220 
  181.6250    85.4870     9.0360     8.2320     9.0200    24.7060    -7.0220     2.3160 
  181.7500    85.8620     9.2090     8.3050     8.6860    24.7880    -6.9580     2.3210 
  181.8750    84.3620     9.4050     8.4140     9.1190    24.8600    -6.8710     2.3320 
  182.0000    83.2790     9.5920     8.5420    10.7450    24.8670    -6.8220     2.3420 
  182.1250    82.8400     9.7380     8.6610    12.4540    24.7810    -6.7810     2.3460 
  182.2500    83.2200     9.8330     8.7510    11.2950    24.6750    -6.7120     2.3440 
  182.3750    84.5080     9.8780     8.8050    10.7270    24.5730    -6.6400     2.3390 
  182.5000    85.8450     9.8790     8.8280    10.2080    24.5600    -6.5060     2.3350 
  182.6250    85.4200     9.8460     8.8300     9.6720    24.5880    -6.3780     2.3370 
