~V
VERS. 2.00: Ver 2.00
~W
STRT.M 30.0000:
STOP.M 209.0000:
STEP.M 0.1250:
NULL. -999.2500:
UWI. F10150:
~C
DEPT.M :
SP.MV :
DEN.GM/CC :
GR.API :
RML.OHMM :
RI. :
RXO.OHMM :
CALI.CM :
~A
# ...
   52.5000    78.7530  -999.2500  -999.2500  -999.2500  -999.2500  -999.2500  -999.2500 
   52.6250    78.7530  -999.2500    40.4340     1.3380     0.2240     0.5490    25.2960 
   52.7500    78.2930  -999.2500    40.4340     1.3380     0.2240     0.5490    25.2960 
   52.8750    77.9520  -999.2500    39.3010     1.3280     0.2230     0.5780    25.2960 
   53.0000    77.7020  -999.2500    39.0510     1.3230     0.2230     0.5110    25.2940 
   53.1250    77.4960  -999.2500    41.2490     1.3180     0.2250     0.4460    25.2880 
   53.2500    77.2940  -999.2500    43.6830     1.2830     0.2280     0.5070    25.2810 
   53.3750    77.0870  -999.2500    43.5800     1.2230     0.2310     0.6580    25.2790 
   53.5000    76.8610  -999.2500    41.5400     1.1880     0.2320     0.7630    25.2870 
   53.6250    76.6080  -999.2500    40.0870     1.2370     0.2310     0.4150    25.2950 
   53.7500    76.3430  -999.2500    38.8240     1.3330     0.2290     0.3790    25.2990 
   53.8750    76.0510  -999.2500    37.8250     1.3950     0.2250     0.4560    25.2990 
   54.0000    75.7460  -999.2500    38.6870     1.3510     0.2210     0.5060    25.3000 
   54.1250    75.3910  -999.2500    40.5250     1.2140     0.2200     0.4380    25.2990 
   54.2500    74.9780  -999.2500    41.0130     1.1000     0.2200     0.3910    25.2970 
   54.3750    74.5100  -999.2500    41.3660     1.0490     0.2210     0.4050    25.2960 
   54.5000    73.9900  -999.2500    44.4420     1.0310     0.2230     0.4220    25.2960 
   54.6250    73.4960  -999.2500    47.1140     1.0020     0.2220     0.2770    25.2950 
   54.7500    72.9960  -999.2500    45.0580     0.9690     0.2180     0.2340    25.2950 
   54.8750    72.4370  -999.2500    40.5500     0.9570     0.2120     0.2410    25.2940 
   55.0000    71.8370  -999.2500    39.1360     0.9740     0.2080     0.2480    25.2920 
   55.1250    71.2410  -999.2500    41.2810     1.0040     0.2070     0.2150    25.2880 
   55.2500    70.6970  -999.2500    41.0350     1.0400     0.2110     0.1780    25.2880 
   55.3750    70.2400  -999.2500    38.5300     1.0960     0.2170     0.2680    25.2840 
   55.5000    69.9160  -999.2500    38.1360     1.1780     0.2250     0.5300    25.2720 
   55.6250    69.6960  -999.2500    39.8790     1.2340     0.2330     0.7890    25.2680 
   55.7500    69.5450  -999.2500    40.7680     1.1950     0.2370     0.5940    25.2790 
   55.8750    69.5000     1.9740    40.6050     1.0560     0.2360     0.3470    25.2910 
   56.0000    69.5580     1.9740    41.6230     0.8850     0.2310     0.2510    25.2960 
   56.1250    69.7390     1.9790    43.8730     0.7830     0.2250     0.1960    25.2960 
   56.2500    69.9920     1.9930    44.3830     0.7700     0.2190     0.1370    25.2960 
   56.3750    70.3060     2.0110    42.6290     0.8180     0.2140     0.1440    25.2940 
   56.5000    70.6520     2.0280    40.6450     0.8830     0.2080     0.2160    25.2880 
   56.6250    70.9580     2.0390    40.2330     0.9270     0.2010     0.3450    25.2780 
   56.7500    71.2210     2.0430    40.5100     0.9530     0.1940     0.5190    25.2730 
   56.8750    71.4110     2.0390    39.6720     0.9720     0.1900     0.4830    25.2810 
   57.0000    71.5090     2.0300    37.1540     0.9820     0.1890     0.2890    25.2850 
   57.1250    71.4830     2.0170    35.2160     0.9600     0.1940     0.2830    25.2830 
   57.2500    71.3720     2.0060    35.6330     0.9050     0.2010     0.4070    25.2790 
   57.3750    71.2020     2.0020    37.9530     0.8380     0.2070     0.4510    25.2740 
   57.5000    70.9860     2.0080    40.8910     0.7730     0.2100     0.4080    25.2760 
   57.6250    70.7800     2.0230    45.0000     0.7150     0.2060     0.3160    25.2880 
   57.7500    70.5810     2.0380    50.0180     0.6820     0.1980     0.4070    25.2930 
   57.8750    70.3900     2.0470    52.0620     0.6950     0.1910     0.4850    25.2880 
   58.0000    70.2180     2.0470    49.2860     0.7600     0.1870     0.5280    25.2730 
   58.1250    70.1000     2.0420    44.6300     0.8510     0.1920     0.6180    25.2660 
   58.2500    70.0300     2.0420    41.0390     0.9070     0.2050     0.6740    25.2630 
   58.3750    69.9240     2.0550    38.0210     0.8770     0.2190     0.7540    25.2630 
   58.5000    69.7380     2.0840    35.3790     0.7660     0.2280     0.7910    25.2610 
   58.6250    69.4900     2.1210    36.2580     0.6560     0.2270     0.6810    25.2610 
   58.7500    69.2410     2.1510    39.9090     0.5980     0.2200     0.6270    25.2620 
   58.8750    69.0300     2.1580    42.8410     0.5670     0.2120     0.6990    25.2620 
   59.0000    68.8360     2.1400    43.9400     0.5130     0.2070     0.7700    25.2610 
   59.1250    68.6310     2.1100    46.2280     0.4110     0.2090     0.8300    25.2620 
   59.2500    68.4010     2.0890    49.2110     0.2920     0.2150     0.9020    25.2690 
   59.3750    68.2030     2.0900    51.5280     0.2080     0.2240     1.0480    25.2830 
   59.5000    68.1000     2.1150    51.5660     0.1980     0.2300     1.1680    25.2930 
   59.6250    68.0990     2.1630    49.2460     0.2730     0.2300     1.0140    25.2970 
   59.7500    68.1340     2.2170    47.0640     0.3860     0.2260     0.8640    25.2980 
   59.8750    68.1700     2.2660    46.0980     0.5080     0.2210     0.8120    25.3010 
   60.0000    68.1750     2.2930    46.1700     0.6150     0.2200     0.8210    25.3110 
   60.1250    68.1550     2.2810    45.0760     0.6780     0.2260     0.8220    25.3280 
   60.2500    68.1880     2.2400    43.0000     0.7120     0.2360     0.7700    25.3350 
   60.3750    68.3350     2.1850    40.9970     0.7550     0.2460     0.6590    25.3370 
   60.5000    68.5980     2.1370    38.9720     0.8420     0.2530     0.6320    25.3370 
   60.6250    69.0130     2.1120    39.0080     0.9980     0.2570     0.6360    25.3370 
   60.7500    69.5140     2.1110    40.7770     1.1700     0.2570     0.6130    25.3360 
   60.8750    70.0010     2.1300    43.2150     1.2380     0.2570     0.6210    25.3340 
   61.0000    70.4370     2.1620    45.3410     1.0910     0.2570     0.6400    25.3330 
   61.1250    70.7220     2.1880    45.7970     0.8070     0.2540     0.6530    25.3340 
   61.2500    70.6450     2.1940    44.6720     0.5940     0.2480     0.6160    25.3360 
   61.3750    70.0230     2.1780    43.3190     0.5050     0.2420     0.5890    25.3370 
   61.5000    68.8150     2.1470    44.1950     0.5130     0.2370     0.5910    25.3370 
   61.6250    66.8560     2.1170    47.7130     0.5470     0.2310     0.5930    25.3370 
   61.7500    64.2500     2.0970    51.8650     0.5030     0.2220     0.6470    25.3370 
   61.8750    61.1000     2.0890    54.2430     0.3440     0.2060     0.7560    25.3370 
   62.0000    57.4760     2.0970    55.0420     0.1690     0.1830     0.8750    25.3360 
   62.1250    53.2240     2.1380    56.1160     0.0790     0.1570     1.0180    25.3400 
   62.2500    48.4290     2.2180    57.6740     0.0490     0.1320     1.1310    25.3470 
   62.3750    43.0890     2.3360    56.8390     0.0550     0.1110     1.1440    25.3530 
   62.5000    37.1600     2.4600    54.2910     0.0860     0.0980     1.2830    25.3510 
   62.6250    30.7300     2.5110    57.1610     0.1590     0.1150     1.6550    25.3970 
   62.7500    24.1900     2.4410    64.5500     0.3120     0.1950     2.3220    25.6940 
   62.8750    17.8300     2.2650    71.7050     0.6440     0.3870     3.4650    26.4550 
   63.0000    11.7950     2.0430    76.0460     1.2880     0.7510     4.3340    27.4930 
   63.1250     6.3880     1.8440    78.9530     2.2400     1.3840     4.6980    27.9290 
   63.2500     1.7560     1.7140    81.1120     3.0660     2.2260     4.7240    27.3310 
   63.3750    -2.0200     1.6750    83.5650     3.5720     3.1360     5.0990    26.2110 
   63.5000    -4.8840     1.7340    89.0370     3.8390     3.9410     5.7100    25.4690 
   63.6250    -6.8380     1.8750    94.9090     4.0190     4.5380     6.1840    25.3090 
