~V
VERS. 2.00: Ver 2.00
~W
STRT.M 55.0000:
STOP.M 288.0000:
STEP.M 0.1250:
NULL. -999.2500:
UWI. F10106:
~C
DEPT.M :
DEN.GM/CC :
SP.MV :
GR.API :
RML.OHMM :
RI. :
RXO.OHMM :
CALI.CM :
~A
# ...
  145.0000     2.3340    -9.3860    85.7310     5.9440     5.2480     6.1930    24.2400 
  145.1250     2.3820    -9.4780    84.3220     7.1260     6.0100     8.1340    24.2080 
  145.2500     2.4400    -9.5750    78.7050     9.0220     7.4140    12.2570    24.1580 
  145.3750     2.5010    -9.6560    68.6360    11.2820     9.2800    17.9090    24.0720 
  145.5000     2.5460    -9.7610    58.4590    13.2850    11.1770    23.8530    23.9440 
  145.6250     2.5430    -9.9250    53.3850    14.0730    12.3160    25.9240    23.7650 
  145.7500     2.4960   -10.0570    53.0900    13.4150    12.2630    21.4250    23.5700 
  145.8750     2.4240   -10.1410    55.5020    11.6600    11.1100    14.0950    23.4120 
  146.0000     2.3540   -10.2100    59.4370     9.6510     9.5120     9.4740    23.3690 
  146.1250     2.3030   -10.2380    62.4340     8.2550     8.2420     8.1050    23.4540 
  146.2500     2.2700   -10.2320    63.6900     7.5640     7.4990     7.5380    23.5780 
  146.3750     2.2500   -10.2270    64.6460     7.3940     7.2030     7.3580    23.6720 
  146.5000     2.2420   -10.2220    66.2870     7.5150     7.2090     7.6920    23.7150 
  146.6250     2.2470   -10.1700    68.6120     7.7750     7.4110     8.0180    23.7730 
  146.7500     2.2600   -10.1160    71.3690     8.0760     7.6990     8.0280    23.8890 
  146.8750     2.2770   -10.0840    72.4330     8.3810     8.0230     7.9930    23.9970 
  147.0000     2.2910   -10.0730    70.2540     8.6280     8.3140     8.5080    23.9990 
  147.1250     2.2980   -10.0970    64.1700     8.6840     8.4390     9.8530    23.8780 
  147.2500     2.2980   -10.1450    59.5500     8.5050     8.3360    11.0800    23.7410 
  147.3750     2.2890   -10.2270    60.4540     8.1210     8.0140    11.3690    23.6730 
  147.5000     2.2690   -10.3630    64.0480     7.6610     7.5730     9.8800    23.6880 
  147.6250     2.2410   -10.5670    65.7620     7.3450     7.1990     7.1960    23.7950 
  147.7500     2.2170   -10.8090    66.0300     7.2860     7.0190     6.7280    23.9340 
  147.8750     2.2110   -11.0650    66.4690     7.4740     7.0590     7.5070    23.9830 
  148.0000     2.2270   -11.3420    67.6000     7.8080     7.2640     8.4080    23.9550 
  148.1250     2.2600   -11.6490    68.9060     8.1540     7.5440     8.5020    23.9560 
  148.2500     2.2900   -11.9540    71.9130     8.4380     7.8090     8.2020    23.9740 
  148.3750     2.3000   -12.2320    73.9560     8.7070     8.0630     7.9930    23.9450 
  148.5000     2.2850   -12.4550    69.6480     9.0940     8.3880     8.1060    23.8610 
  148.6250     2.2540   -12.6140    61.4780     9.8070     8.9540     8.3650    23.7850 
  148.7500     2.2360   -12.7200    60.1210    10.8570     9.8010     8.6090    23.7890 
  148.8750     2.2520   -12.7830    65.6080    12.1430    10.8850     9.2310    23.8550 
  149.0000     2.3070   -12.8080    69.2230    13.4350    12.0380    10.6190    23.9050 
  149.1250     2.3840   -12.7960    67.1180    14.3280    12.9300    12.2050    23.8650 
  149.2500     2.4430   -12.7580    67.1330    14.5870    13.3120    13.4410    23.7930 
  149.3750     2.4560   -12.7030    70.4480    14.1510    13.0790    13.0510    23.7340 
  149.5000     2.4240   -12.6480    72.4790    13.1980    12.3410    10.2730    23.6730 
  149.6250     2.3720   -12.6160    69.9000    12.0910    11.3820     8.7100    23.5930 
  149.7500     2.3280   -12.6350    64.3940    11.1950    10.5440     8.1860    23.5080 
  149.8750     2.2980   -12.7350    58.9060    10.6430     9.9680     8.1320    23.4250 
  150.0000     2.2800   -12.9010    56.0740    10.4240     9.6770     8.1770    23.3830 
  150.1250     2.2670   -13.1060    56.7060    10.4650     9.6410     8.2870    23.4530 
  150.2500     2.2510   -13.3290    58.6860    10.6070     9.7290     8.4040    23.6110 
  150.3750     2.2290   -13.5750    59.3760    10.7670     9.8720     8.5180    23.8070 
  150.5000     2.2000   -13.8200    57.9820    10.9010    10.0210     8.6380    23.9680 
  150.6250     2.1690   -14.0400    56.4480    10.9880    10.1510     8.8210    24.0390 
  150.7500     2.1430   -14.2150    56.5060    11.0510    10.2640     9.0530    24.0090 
  150.8750     2.1310   -14.3410    56.8400    11.1120    10.3700     9.2440    23.9150 
  151.0000     2.1340   -14.4180    55.3400    11.1870    10.4760     9.3520    23.8240 
  151.1250     2.1500   -14.4570    55.4750    11.2710    10.5750     9.3890    23.7960 
  151.2500     2.1740   -14.4700    59.7180    11.3380    10.6480     9.5480    23.8280 
  151.3750     2.1980   -14.4600    64.0960    11.3570    10.6720     9.9490    23.8980 
  151.5000     2.2170   -14.4370    63.9760    11.3060    10.6280    10.4510    23.9960 
  151.6250     2.2250   -14.4270    60.1930    11.1700    10.5040    10.6930    24.1270 
  151.7500     2.2240   -14.4450    58.5290    10.9860    10.3340    10.5690    24.2580 
  151.8750     2.2160   -14.4600    58.5340    10.7910    10.1520    10.0140    24.3170 
  152.0000     2.2070   -14.4610    57.2190    10.6170     9.9880     9.1060    24.2090 
  152.1250     2.2020   -14.4580    55.6640    10.4890     9.8650     8.6440    23.9680 
  152.2500     2.2000   -14.4590    55.5580    10.3910     9.7710     8.4990    23.8050 
  152.3750     2.1970   -14.4610    54.6620    10.3060     9.6920     8.4470    23.7940 
  152.5000     2.1930   -14.4690    53.0520    10.2200     9.6150     8.4070    23.8590 
  152.6250     2.1880   -14.4860    53.5910    10.1290     9.5320     8.3660    23.8970 
  152.7500     2.1830   -14.5030    55.5230    10.0440     9.4490     8.3080    23.9030 
  152.8750     2.1800   -14.5400    57.6250     9.9750     9.3780     8.2790    23.8640 
  153.0000     2.1790   -14.6120    60.2510     9.9350     9.3280     8.2690    23.7700 
  153.1250     2.1790   -14.7040    62.7300     9.9370     9.3150     8.3260    23.6710 
  153.2500     2.1820   -14.8040    62.1960     9.9780     9.3400     8.4040    23.6380 
  153.3750     2.1860   -14.9030    59.6060    10.0640     9.4030     8.5760    23.6620 
  153.5000     2.1920   -14.9840    57.6100    10.1890     9.5030     8.8120    23.7140 
  153.6250     2.1980   -15.0220    56.6620    10.3400     9.6290     8.9730    23.7170 
  153.7500     2.2030   -15.0310    56.2370    10.4810     9.7500     9.0160    23.6600 
  153.8750     2.2060   -15.0150    56.5950    10.5710     9.8370     9.0630    23.5810 
  154.0000     2.2070   -14.9850    57.7920    10.5840     9.8600     9.1340    23.5480 
  154.1250     2.2050   -14.9440    58.2840    10.5000     9.8010     9.1370    23.5750 
  154.2500     2.2030   -14.8760    58.9110    10.3630     9.6910     9.0720    23.6340 
  154.3750     2.2010   -14.7740    59.6600    10.2090     9.5610     8.9170    23.6920 
  154.5000     2.2010   -14.6400    60.1530    10.0780     9.4410     8.7640    23.6920 
  154.6250     2.2070   -14.4710    59.2750     9.9990     9.3610     8.7410    23.5600 
  154.7500     2.2160   -14.2860    56.8960     9.9650     9.3180     8.6890    23.3370 
  154.8750     2.2250   -14.0910    55.6810     9.9680     9.3090     8.4620    23.0720 
  155.0000     2.2290   -13.8740    57.1600    10.0000     9.3250     8.0980    22.8430 
  155.1250     2.2220   -13.6020    58.6710    10.0620     9.3640     7.8570    22.8040 
  155.2500     2.2070   -13.2860    57.4340    10.1400     9.4140     7.8250    22.9170 
  155.3750     2.1880   -12.9530    56.2110    10.2100     9.4560     7.9460    23.0710 
  155.5000     2.1720   -12.6360    58.2030    10.2240     9.4580     8.0860    23.1410 
  155.6250     2.1660   -12.3730    60.6370    10.1030     9.3580     8.1890    23.0370 
  155.7500     2.1710   -12.1700    59.9040     9.8500     9.1470     8.2440    22.8840 
  155.8750     2.1860   -12.0290    59.6090     9.5250     8.8640     8.2420    22.7810 
  156.0000     2.2090   -11.9460    61.3950     9.2480     8.6000     8.1450    22.7970 
  156.1250     2.2350   -11.9520    63.6550     9.1980     8.5070     8.1490    22.9890 
