~V
VERS. 2.00: Ver 2.00
~W
STRT.M 51.0000:
STOP.M 246.0000:
STEP.M 0.1250:
NULL. -999.2500:
UWI. F10182:
~C
DEPT.M :
SP.MV :
GR.API :
RML.OHMM :
RI. :
RXO.OHMM :
DEN.GM/CC :
CALI.CM :
~A
# ...
  107.2500   -10.7770    80.5790     8.4500     6.7200     7.9540     2.2810    23.5790 
  107.3750   -11.1790    78.7850     9.3790     7.2830     8.2560     2.3350    23.5400 
  107.5000   -11.5910    74.2370    10.6160     8.1390    10.4120     2.3710    23.5290 
  107.6250   -12.0280    67.1170    11.7840     9.0870    14.6010     2.3650    23.6030 
  107.7500   -12.4530    61.2430    12.3130     9.7310    19.0690     2.3120    23.5760 
  107.8750   -12.8780    60.5250    12.1180     9.8780    14.2640     2.2460    23.3640 
  108.0000   -13.2850    63.9660    11.4510     9.5950    10.1430     2.1910    23.1810 
  108.1250   -13.6640    66.7960    10.7140     9.1230     8.7910     2.1580    23.0600 
  108.2500   -13.9920    66.4140    10.2540     8.7290     8.5410     2.1460    22.9570 
  108.3750   -14.2640    64.5640    10.0930     8.5180     8.4790     2.1430    22.8620 
  108.5000   -14.4910    63.7370    10.1470     8.4710     8.6270     2.1450    22.8460 
  108.6250   -14.6520    65.0720    10.3100     8.5180     8.8190     2.1500    22.9180 
  108.7500   -14.7740    66.4990    10.5120     8.6040     8.8370     2.1590    23.0190 
  108.8750   -14.8490    67.8910    10.7030     8.7000     8.8710     2.1690    23.0620 
  109.0000   -14.9160    69.4570    10.8370     8.7920     9.2520     2.1780    23.0800 
  109.1250   -14.9550    70.8910    10.8760     8.8550     9.7740     2.1870    23.0680 
  109.2500   -15.0030    70.1760    10.7980     8.8440     9.7880     2.1890    22.9560 
  109.3750   -15.0280    66.4540    10.6470     8.7540     9.6070     2.1820    22.8480 
  109.5000   -15.0480    62.4550    10.4550     8.5950     9.4090     2.1660    22.8090 
  109.6250   -15.0450    60.9250    10.2530     8.3900     9.1870     2.1490    22.8030 
  109.7500   -15.0430    62.1580    10.0640     8.1660     8.8240     2.1410    22.7910 
  109.8750   -15.0140    61.7020     9.8970     7.9540     8.6540     2.1450    22.7800 
  110.0000   -14.9470    59.5600     9.7730     7.7760     9.0100     2.1620    22.7800 
  110.1250   -14.8290    60.6510     9.7280     7.6660     9.8600     2.1830    22.7800 
  110.2500   -14.6680    63.7250     9.8590     7.7020    10.4780     2.1980    22.7820 
  110.3750   -14.4940    65.1290    10.2050     7.9260    10.5370     2.2020    22.8080 
  110.5000   -14.2980    64.5110    10.7630     8.3480    10.2660     2.1970    22.8560 
  110.6250   -14.1140    62.8460    11.4370     8.9060     9.4580     2.1840    22.8530 
  110.7500   -13.9370    62.0620    11.9740     9.4240     8.7640     2.1640    22.8530 
  110.8750   -13.7770    62.6770    12.1390     9.6920     8.8170     2.1440    22.8170 
  111.0000   -13.6360    63.0400    11.8530     9.6030     9.1870     2.1290    22.7040 
  111.1250   -13.5270    61.8350    11.2390     9.2030     9.4160     2.1230    22.5730 
  111.2500   -13.4520    60.3650    10.5730     8.6620     9.3760     2.1280    22.5300 
  111.3750   -13.3860    59.2980    10.0870     8.1790     9.4770     2.1340    22.5420 
  111.5000   -13.3470    59.1040     9.8430     7.8360     9.6330     2.1330    22.5850 
  111.6250   -13.2790    61.8730     9.7890     7.6420    10.1060     2.1240    22.6380 
  111.7500   -13.1960    66.0630     9.8290     7.5700    10.0110     2.1100    22.6570 
  111.8750   -13.0900    65.8750     9.8660     7.5470     9.9850     2.1010    22.6770 
  112.0000   -12.9600    63.3980     9.8720     7.5380    10.0960     2.1000    22.7080 
  112.1250   -12.7850    64.3650     9.8450     7.5280    10.1170     2.1060    22.6970 
  112.2500   -12.5590    68.3810     9.7860     7.5090     9.5710     2.1170    22.6700 
  112.3750   -12.3000    69.9000     9.7060     7.4790     8.9910     2.1270    22.6340 
  112.5000   -11.9990    67.8240     9.6110     7.4360     8.6980     2.1330    22.5810 
  112.6250   -11.6800    65.5420     9.5190     7.3840     8.5230     2.1350    22.5430 
  112.7500   -11.3360    67.2770     9.4580     7.3280     8.4260     2.1330    22.5580 
  112.8750   -10.9920    68.8490     9.4240     7.2740     8.3570     2.1300    22.6180 
  113.0000   -10.6540    67.3790     9.3940     7.2180     8.3370     2.1260    22.6520 
  113.1250   -10.3330    64.8120     9.3400     7.1580     8.2230     2.1230    22.6600 
  113.2500   -10.0120    63.7040     9.2410     7.0940     8.2370     2.1210    22.6580 
  113.3750    -9.7000    63.2870     9.1180     7.0340     8.2750     2.1210    22.6620 
  113.5000    -9.3700    63.2240     9.0110     6.9920     8.2200     2.1220    22.6720 
  113.6250    -9.0210    65.6780     8.9670     6.9910     8.0990     2.1240    22.6850 
  113.7500    -8.6390    69.3700     9.0120     7.0530     8.0100     2.1310    22.6570 
  113.8750    -8.2070    70.6520     9.0670     7.1290     8.3570     2.1530    22.6160 
  114.0000    -7.7190    69.5580     9.0100     7.1380     8.7730     2.1930    22.5730 
  114.1250    -7.1540    68.1670     8.7280     6.9890     9.0000     2.2350    22.5850 
  114.2500    -6.5520    73.0240     8.1670     6.6200     9.0820     2.2530    22.7040 
  114.3750    -5.9280    83.4480     7.4930     6.1320     8.3330     2.2450    22.9850 
  114.5000    -5.3420    92.9550     6.8860     5.6440     6.5850     2.2240    23.4150 
  114.6250    -4.8290    95.9850     6.4930     5.2630     5.4090     2.2140    23.9290 
  114.7500    -4.5580    92.0450     6.4010     5.0770     5.3320     2.2430    24.3150 
  114.8750    -4.3410    86.9950     6.4970     5.0450     5.5210     2.2950    24.4120 
  115.0000    -4.0600    83.0550     6.6570     5.1110     5.7740     2.3360    24.3650 
  115.1250    -3.9270    81.6080     6.7540     5.1930     5.8040     2.3420    24.3460 
  115.2500    -3.9240    81.8980     6.6840     5.1960     6.2240     2.3140    24.5010 
  115.3750    -4.0500    80.1920     6.5110     5.1160     6.1060     2.2750    24.7090 
  115.5000    -4.2770    76.5410     6.3490     5.0180     5.6040     2.2460    24.8480 
  115.6250    -4.5830    74.6550     6.3100     4.9940     5.4860     2.2360    24.8390 
  115.7500    -4.9440    74.8160     6.5030     5.1460     5.7490     2.2490    24.7350 
  115.8750    -5.3510    72.2570     6.9040     5.4800     6.6130     2.2640    24.3900 
  116.0000    -5.8070    67.3420     7.4520     5.9680     8.8300     2.2700    23.7150 
  116.1250    -6.2900    63.9900     8.0300     6.5300    13.1850     2.2590    23.0570 
  116.2500    -6.7700    62.5340     8.4820     7.0350    11.8070     2.2330    22.7770 
  116.3750    -7.1950    61.4310     8.7610     7.3940     9.5340     2.2060    22.6710 
  116.5000    -7.5500    61.4710     8.8730     7.5740     8.2880     2.1910    22.6080 
  116.6250    -7.7670    62.0310     8.8460     7.5760     7.9560     2.1950    22.5610 
  116.7500    -7.8630    61.4000     8.6610     7.3940     8.0530     2.2130    22.5910 
  116.8750    -7.8030    62.1170     8.3160     7.0650     8.3300     2.2250    22.7170 
  117.0000    -7.5900    66.0740     7.8080     6.5980     8.1290     2.2230    22.9960 
  117.1250    -7.2160    70.7570     7.1720     6.0240     7.5210     2.2140    23.4200 
  117.2500    -6.7770    75.5770     6.4940     5.4120     6.3580     2.2180    23.8480 
  117.3750    -6.3380    80.5930     5.9160     4.8710     5.7200     2.2470    24.1270 
  117.5000    -5.9520    83.6750     5.5760     4.5080     5.4140     2.2950    24.2550 
  117.6250    -5.6640    82.8080     5.5980     4.4090     5.2090     2.3380    24.2730 
  117.7500    -5.5110    80.2020     6.1340     4.6950     5.0780     2.3460    24.1940 
  117.8750    -5.5180    77.2220     7.1080     5.3230     5.9250     2.3210    24.0140 
  118.0000    -5.6930    72.0430     8.3930     6.2390     8.3780     2.2770    23.8300 
  118.1250    -6.0540    65.0880     9.7090     7.2850    12.5980     2.2280    23.4980 
  118.2500    -6.5190    58.7240    10.5680     8.1460    10.6330     2.1890    23.0280 
  118.3750    -7.0290    56.3610    10.7780     8.6040     9.0290     2.1660    22.6930 
