~V
VERS. 2.00: Ver 2.00
~W
STRT.M 50.0000:
STOP.M 251.0000:
STEP.M 0.1250:
NULL. -999.2500:
UWI. F10193:
~C
DEPT.M :
DEN.GM/CC :
GR.API :
RML.OHMM :
RI. :
RXO.OHMM :
CALI.CM :
SP.MV :
~A
# ...
  106.2500     2.2440    69.7100     9.6290     7.1870     9.2520    25.5230    -5.6520 
  106.3750     2.2350    72.0140     9.9470     7.3090    10.4420    25.7580    -5.7720 
  106.5000     2.2150    71.1100    10.3610     7.5290    13.9940    25.9950    -5.8980 
  106.6250     2.1960    66.8320    10.6170     7.7210    19.4890    26.1530    -6.0500 
  106.7500     2.1870    64.7120    10.5800     7.7670    16.1100    26.2380    -6.2180 
  106.8750     2.1940    66.7010    10.3860     7.7120    12.3130    26.2680    -6.3800 
  107.0000     2.2140    70.2060    10.4000     7.7430     9.7790    26.2670    -6.5200 
  107.1250     2.2520    72.3330    11.1760     8.1890     9.3030    26.2680    -6.6360 
  107.2500     2.3140    73.1380    12.8230     9.1760    13.5590    26.2660    -6.7640 
  107.3750     2.3990    71.5740    15.1270    10.6730    29.1250    26.2250    -6.9600 
  107.5000     2.4720    66.4000    17.3570    12.3250    46.3520    26.1220    -7.2760 
  107.6250     2.4750    60.7630    18.0500    13.1920    39.8600    25.9920    -7.7500 
  107.7500     2.4130    58.7540    16.8350    12.7910    23.1740    25.8850    -8.3200 
  107.8750     2.3250    59.4220    14.4510    11.4310    14.2260    25.7980    -8.9150 
  108.0000     2.2490    60.9540    12.0940     9.8550    11.2520    25.7440    -9.4490 
  108.1250     2.2120    62.3330    10.6920     8.7190    10.8420    25.7680    -9.8200 
  108.2500     2.1980    64.6270    10.1570     8.1140    10.8360    25.8300   -10.0200 
  108.3750     2.1930    68.0250    10.1930     7.9340    10.8700    25.8680   -10.0670 
  108.5000     2.1850    70.2200    10.4600     8.0000    10.7470    25.8680   -10.0130 
  108.6250     2.1760    68.9570    10.6860     8.1400    10.3770    25.8660    -9.9170 
  108.7500     2.1720    65.8040    10.7930     8.2510    10.0140    25.8670    -9.8320 
  108.8750     2.1730    63.9020    10.8290     8.3290     9.7460    25.8660    -9.7670 
  109.0000     2.1760    65.1710    10.8640     8.3940     9.9240    25.8700    -9.7110 
  109.1250     2.1790    66.6650    10.9280     8.4570    10.2210    25.8670    -9.6370 
  109.2500     2.1820    65.7500    10.9760     8.4960    10.6930    25.8070    -9.5210 
  109.3750     2.1900    63.6250    10.9450     8.4750    11.0330    25.6750    -9.3510 
  109.5000     2.2030    63.7620    10.8010     8.3730    10.7760    25.5320    -9.1350 
  109.6250     2.2140    66.7040    10.5700     8.2020    10.2130    25.4680    -8.8970 
  109.7500     2.2140    68.7820    10.3730     8.0340     9.9820    25.4930    -8.6770 
  109.8750     2.2050    68.9820    10.3090     7.9310     9.9350    25.5880    -8.5070 
  110.0000     2.1930    68.4560    10.4250     7.9310     9.7190    25.7220    -8.4040 
  110.1250     2.1910    68.7360    10.7100     8.0520    10.0190    25.8250    -8.3880 
  110.2500     2.2000    70.1280    11.0460     8.2370    10.0150    25.8660    -8.4160 
  110.3750     2.2150    71.4460    11.3420     8.4330    10.0510    25.8690    -8.4450 
  110.5000     2.2300    72.0360    11.5320     8.5880    10.2650    25.8660    -8.4400 
  110.6250     2.2380    71.9530    11.5610     8.6530    10.6830    25.8670    -8.4060 
  110.7500     2.2420    71.3180    11.4620     8.6350    10.9310    25.8690    -8.3970 
  110.8750     2.2420    70.0590    11.2680     8.5480    10.8670    25.8590    -8.4530 
  111.0000     2.2390    68.2740    11.0310     8.4200    10.7280    25.8230    -8.5740 
  111.1250     2.2290    66.7240    10.8070     8.2760    10.5660    25.7630    -8.6960 
  111.2500     2.2140    67.0420    10.6290     8.1440    10.4620    25.7510    -8.7270 
  111.3750     2.1970    68.6150    10.4940     8.0390    10.3360    25.8460    -8.6110 
  111.5000     2.1810    68.0000    10.3800     7.9570    10.1780    25.9820    -8.3290 
  111.6250     2.1710    65.1470    10.2510     7.8820    10.0700    25.9800    -7.8650 
  111.7500     2.1700    65.4440    10.0940     7.7960    10.0420    25.8380    -7.2810 
  111.8750     2.1790    68.4450     9.9170     7.6910    10.0600    25.6720    -6.6170 
  112.0000     2.1970    70.6970     9.7280     7.5680     9.6850    25.5490    -5.9140 
  112.1250     2.2120    71.4190     9.5210     7.4210     8.8310    25.4440    -5.2230 
  112.2500     2.2190    73.4280     9.2860     7.2520     8.2380    25.3620    -4.5840 
  112.3750     2.2240    75.2130     9.0200     7.0650     8.0830    25.3400    -4.0090 
  112.5000     2.2350    75.4620     8.7240     6.8630     8.1210    25.3750    -3.4770 
  112.6250     2.2630    76.9040     8.4090     6.6430     7.7650    25.4300    -2.9380 
  112.7500     2.2960    81.1670     8.1040     6.4120     7.0510    25.4940    -2.3530 
  112.8750     2.3090    85.0850     7.8350     6.1860     6.4360    25.5800    -1.7270 
  113.0000     2.2860    84.8270     7.6240     5.9860     6.2450    25.6880    -1.0990 
  113.1250     2.2300    84.8870     7.4900     5.8400     5.9080    25.7840    -0.5380 
  113.2500     2.1740    90.1590     7.4090     5.7410     5.6420    25.8430    -0.0790 
  113.3750     2.1470    98.6830     7.3540     5.6750     5.5930    25.8720     0.2570 
  113.5000     2.1710   102.9620     7.2900     5.6140     5.7430    25.8500     0.4720 
  113.6250     2.2460    99.0020     7.1810     5.5270     5.7580    25.7360     0.5800 
  113.7500     2.3130    93.9860     7.0550     5.4280     5.5130    25.5880     0.6420 
  113.8750     2.3320    93.8360     6.9870     5.3690     5.2490    25.4810     0.7000 
  114.0000     2.3000    98.4870     7.0750     5.4150     5.0680    25.4790     0.7830 
  114.1250     2.2560    98.7370     7.4090     5.6360     5.1920    25.5970     0.8930 
  114.2500     2.2410    93.5440     7.8950     5.9820     5.9560    25.7450     1.0100 
  114.3750     2.2660    90.5990     8.3550     6.3430     7.4370    25.8460     1.1220 
  114.5000     2.3140    93.8230     8.5530     6.5590     8.7530    25.8730     1.2230 
  114.6250     2.3440    98.6580     8.2870     6.4620     6.8490    25.8670     1.3050 
  114.7500     2.3470   100.5060     7.7470     6.1400     5.6840    25.8660     1.3660 
  114.8750     2.3390   101.1540     7.1630     5.7360     5.1870    25.8670     1.4090 
  115.0000     2.3410   103.5780     6.7230     5.3890     4.9320    25.8670     1.4480 
  115.1250     2.3590   108.9260     6.5410     5.2080     4.8420    25.8670     1.5070 
  115.2500     2.3780   113.1080     6.5460     5.1760     4.8910    25.8660     1.5890 
  115.3750     2.3880   112.1080     6.6640     5.2500     5.0340    25.8600     1.6880 
  115.5000     2.3860   106.8510     6.8290     5.3800     5.2040    25.8810     1.7860 
  115.6250     2.3760   103.2380     6.9940     5.5220     5.1330    26.0170     1.8660 
  115.7500     2.3700   103.8950     7.1210     5.6370     5.2050    26.2410     1.9280 
  115.8750     2.3770   106.1070     7.1940     5.6980     5.3360    26.4300     1.9680 
  116.0000     2.3960   106.6580     7.2040     5.6920     5.2700    26.4890     1.9870 
  116.1250     2.4090   103.9590     7.1410     5.6080     5.1190    26.4400     1.9770 
  116.2500     2.3940   100.2190     7.0270     5.4710     4.9860    26.3760     1.9350 
  116.3750     2.3490    98.4340     6.8820     5.3030     4.9750    26.3200     1.8500 
  116.5000     2.2890    99.8550     6.7180     5.1210     4.9720    26.2780     1.7110 
  116.6250     2.2380   103.6540     6.5480     4.9460     4.9550    26.2640     1.4870 
  116.7500     2.2090   108.3280     6.4100     4.8050     5.0570    26.2660     1.1830 
  116.8750     2.2040   112.5950     6.3670     4.7380     5.2100    26.2670     0.8080 
  117.0000     2.2170   113.7460     6.4980     4.7930     5.1570    26.2670     0.3780 
  117.1250     2.2530   107.6280     6.9570     5.0650     5.2600    26.2670    -0.1000 
  117.2500     2.3110    99.7170     7.7650     5.5720     5.9560    26.2670    -0.6150 
  117.3750     2.3790    95.6830     8.8740     6.3110     7.0770    26.2660    -1.1630 
