~V
VERS. 2.00: Ver 2.00
~W
STRT.M 55.0000:
STOP.M 224.0000:
STEP.M 0.1250:
NULL. -999.2500:
UWI. F10137:
~C
DEPT.M :
DEN.GM/CC :
SP.MV :
GR.API :
RML.OHMM :
RI. :
RXO.OHMM :
CALI.CM :
~A
# ...
  145.0000     2.5160   -20.3620    53.9460    15.5470    15.2790    16.3570    28.4180 
  145.1250     2.5250   -20.3120    52.4480    15.2490    14.9760    15.7960    28.4080 
  145.2500     2.5310   -20.2280    50.4610    15.0330    14.7470    15.5010    28.4000 
  145.3750     2.5300   -20.1540    49.4170    14.8790    14.5770    15.7610    28.3990 
  145.5000     2.5240   -20.1310    48.7700    14.7770    14.4570    16.3700    28.4160 
  145.6250     2.5170   -20.1530    48.0430    14.7410    14.4010    15.8890    28.4290 
  145.7500     2.5100   -20.1860    47.8070    14.8130    14.4420    14.3840    28.4130 
  145.8750     2.5060   -20.2060    48.5020    15.0590    14.6280    13.9530    28.3850 
  146.0000     2.5100   -20.2280    49.5690    15.4740    14.9600    15.5400    28.3760 
  146.1250     2.5160   -20.2650    51.1100    15.9920    15.3880    17.5640    28.3750 
  146.2500     2.5200   -20.3280    52.8230    16.5270    15.8440    18.3620    28.3650 
  146.3750     2.5170   -20.4190    54.0810    16.9800    16.2470    17.9290    28.3350 
  146.5000     2.5060   -20.5150    54.9880    17.3120    16.5530    17.3970    28.2990 
  146.6250     2.4930   -20.5910    55.8980    17.5490    16.7690    17.5750    28.2570 
  146.7500     2.4820   -20.6460    55.9750    17.7340    16.9280    18.5100    28.2000 
  146.8750     2.4700   -20.6840    53.8810    17.8840    17.0450    19.5390    28.1300 
  147.0000     2.4540   -20.7130    51.8590    17.9910    17.1170    19.5600    28.0370 
  147.1250     2.4360   -20.7320    52.2780    18.0530    17.1430    19.2520    27.9420 
  147.2500     2.4280   -20.7420    53.8740    18.0960    17.1450    19.1610    27.8830 
  147.3750     2.4280   -20.7330    54.2420    18.1740    17.1660    18.9960    27.8890 
  147.5000     2.4290   -20.7110    54.4530    18.3240    17.2420    18.6670    27.9350 
  147.6250     2.4250   -20.6880    56.8120    18.5390    17.3790    18.3570    27.9710 
  147.7500     2.4160   -20.6570    60.0420    18.7870    17.5540    18.2570    27.9720 
  147.8750     2.4050   -20.6080    60.5800    19.0240    17.7320    18.4680    27.9190 
  148.0000     2.3990   -20.5600    58.3910    19.2230    17.8830    18.8200    27.8360 
  148.1250     2.4030   -20.5470    56.4840    19.3790    17.9960    19.2400    27.7770 
  148.2500     2.4190   -20.5650    56.3060    19.4960    18.0710    19.7800    27.7650 
  148.3750     2.4370   -20.5880    56.2640    19.5780    18.1170    20.5790    27.7510 
  148.5000     2.4470   -20.5800    55.4160    19.6370    18.1510    20.7030    27.6890 
  148.6250     2.4480   -20.5460    54.4760    19.6890    18.1830    20.1960    27.5960 
  148.7500     2.4470   -20.5320    54.8390    19.7490    18.2180    19.9720    27.5130 
  148.8750     2.4490   -20.5710    56.6360    19.8070    18.2450    20.2700    27.4630 
  149.0000     2.4530   -20.6410    57.5180    19.8230    18.2380    20.5700    27.4440 
  149.1250     2.4570   -20.7000    56.2300    19.7510    18.1660    20.5580    27.4350 
  149.2500     2.4610   -20.7220    54.8210    19.5760    18.0180    20.4650    27.4140 
  149.3750     2.4640   -20.7060    55.5870    19.3380    17.8200    20.0040    27.3500 
  149.5000     2.4650   -20.6850    56.7600    19.1400    17.6400    18.9520    27.2460 
  149.6250     2.4640   -20.6750    56.2880    19.0680    17.5420    18.2240    27.1360 
  149.7500     2.4620   -20.6750    55.4720    19.1220    17.5370    18.8260    27.0640 
  149.8750     2.4550   -20.6720    55.2860    19.1780    17.5480    19.6550    27.0260 
  150.0000     2.4430   -20.6460    55.2860    19.0420    17.4360    20.0110    27.0070 
  150.1250     2.4300   -20.5910    55.2130    18.5800    17.0810    19.5790    26.9910 
  150.2500     2.4230   -20.5300    54.4470    17.7900    16.4580    18.2300    26.9550 
  150.3750     2.4290   -20.5000    52.4130    16.8410    15.6780    16.2940    26.8970 
  150.5000     2.4430   -20.5170    51.4590    16.0120    14.9560    14.9750    26.8540 
  150.6250     2.4580   -20.5660    53.2360    15.5310    14.4860    14.5630    26.8480 
  150.7500     2.4680   -20.6090    55.5170    15.4980    14.3700    14.7790    26.8680 
  150.8750     2.4710   -20.6210    56.4460    15.9170    14.6420    15.4580    26.8860 
  151.0000     2.4700   -20.6180    56.9030    16.6070    15.1820    16.5730    26.8610 
  151.1250     2.4700   -20.6360    57.8400    17.3140    15.7920    17.8420    26.7970 
  151.2500     2.4760   -20.6920    58.7530    17.8280    16.2910    18.7760    26.7360 
  151.3750     2.4870   -20.7830    59.5970    18.0170    16.5430    18.7820    26.6850 
  151.5000     2.4990   -20.8690    60.0790    17.9370    16.5600    17.9580    26.6230 
  151.6250     2.5080   -20.9230    59.7260    17.7500    16.4510    17.0670    26.5580 
  151.7500     2.5160   -20.9520    59.0510    17.6070    16.3370    17.0260    26.5300 
  151.8750     2.5190   -20.9960    58.3890    17.6260    16.3260    18.0210    26.5420 
  152.0000     2.5200   -21.0780    57.5360    17.8000    16.4330    19.0400    26.5630 
  152.1250     2.5230   -21.1870    56.8790    18.0240    16.5920    19.3640    26.5960 
  152.2500     2.5300   -21.2860    56.9630    18.1650    16.7110    19.8010    26.6690 
  152.3750     2.5410   -21.3400    56.6970    18.0940    16.6840    20.0430    26.7390 
  152.5000     2.5470   -21.3540    55.8790    17.8050    16.4950    19.0940    26.7050 
  152.6250     2.5450   -21.3580    55.5070    17.3930    16.2130    17.4640    26.5930 
  152.7500     2.5360   -21.3810    55.1310    16.9740    15.9310    16.2210    26.5030 
  152.8750     2.5260   -21.4220    53.3550    16.6530    15.7410    15.7800    26.4630 
  153.0000     2.5200   -21.4720    51.0580    16.4430    15.6680    15.7960    26.4340 
  153.1250     2.5190   -21.5290    50.2900    16.2840    15.6750    16.0730    26.4040 
  153.2500     2.5240   -21.5950    50.3490    16.0900    15.6860    16.8930    26.3940 
  153.3750     2.5340   -21.6770    49.2680    15.7670    15.6030    17.2570    26.4120 
  153.5000     2.5420   -21.7770    46.9500    15.3040    15.3810    16.6720    26.4470 
  153.6250     2.5420   -21.8930    44.7180    14.7660    15.0500    15.3470    26.4870 
  153.7500     2.5350   -22.0220    44.4030    14.2320    14.6650    13.8430    26.5280 
  153.8750     2.5300   -22.1770    46.3030    13.7710    14.2790    12.7390    26.5630 
  154.0000     2.5310   -22.3610    48.1420    13.3780    13.9000    12.0620    26.6000 
  154.1250     2.5340   -22.5640    48.0430    12.9950    13.4950    11.6080    26.6420 
  154.2500     2.5380   -22.7770    47.5160    12.5390    13.0070    11.1410    26.6690 
  154.3750     2.5390   -23.0140    48.4860    11.9120    12.3630    10.5660    26.6640 
  154.5000     2.5340   -23.3140    49.2010    11.1200    11.5750    10.0060    26.6580 
  154.6250     2.5210   -23.6900    48.1400    10.3130    10.7720     9.5150    26.6880 
  154.7500     2.5010   -24.1160    46.7210     9.7410    10.1630     8.9980    26.7510 
  154.8750     2.4750   -24.5420    46.5770     9.7740    10.0480     8.7020    26.8300 
  155.0000     2.4440   -24.9500    48.0990    10.6850    10.6470     9.4400    26.9320 
  155.1250     2.4050   -25.3540    51.8080    12.6450    12.1300    12.9430    27.0820 
  155.2500     2.3630   -25.7780    57.5220    15.7430    14.6650    22.1900    27.2750 
  155.3750     2.3230   -26.2180    62.4210    19.8850    18.3670    34.1850    27.4700 
  155.5000     2.2920   -26.6290    63.8180    24.5370    22.8680    40.6280    27.6370 
  155.6250     2.2750   -26.9780    62.9340    29.0580    27.4960    40.9710    27.7700 
  155.7500     2.2730   -27.2600    62.7210    33.1720    31.7520    40.7550    27.8860 
  155.8750     2.2750   -27.4820    62.9000    38.6120    35.7560    45.1000    27.9880 
  156.0000     2.2690   -27.6650    61.1970    44.8340    40.3680    60.6110    28.0780 
  156.1250     2.2550   -27.8290    58.2100    52.4750    46.6680    83.4220    28.1630 
