~V
VERS. 2.00: Ver 2.00
~W
STRT.M 54.0000:
STOP.M 236.0000:
STEP.M 0.1250:
NULL. -999.2500:
UWI. F10195:
~C
DEPT.M :
GR.API :
RML.OHMM :
RI. :
RXO.OHMM :
CALI.CM :
SP.MV :
DEN.GM/CC :
~A
# ...
  110.2500    56.1070    13.5030    10.7010    27.4460    26.3660   -25.5770     2.0970 
  110.3750    55.8990    12.6100    10.2530    20.4310    28.2570   -24.4770     1.9730 
  110.5000    59.4140    11.3760     9.4240    14.8530    30.4490   -23.2480     1.8670 
  110.6250    62.3570    10.1040     8.4320    12.9390    32.1770   -21.8890     1.8210 
  110.7500    60.0300     8.9770     7.4530    11.8120    32.3740   -20.4040     1.8370 
  110.8750    59.3550     7.9950     6.5790     9.6720    30.9310   -18.8580     1.8930 
  111.0000    67.8480     7.1500     5.8450     6.9650    28.3810   -17.2990     1.9890 
  111.1250    81.3510     6.4790     5.2790     5.2190    26.5970   -15.8100     2.1100 
  111.2500    89.2490     6.0970     4.9380     4.8360    25.8710   -14.4720     2.2070 
  111.3750    91.7810     5.9790     4.7830     4.9270    25.3640   -13.3100     2.2540 
  111.5000    92.0430     6.0630     4.7660     5.1090    24.8190   -12.3600     2.2720 
  111.6250    92.8740     6.2350     4.8200     5.1990    24.4470   -11.6350     2.2830 
  111.7500    96.0240     6.3610     4.8670     5.2260    24.3400   -11.1620     2.2880 
  111.8750    99.9840     6.3890     4.8730     5.1570    24.3350   -10.8600     2.2880 
  112.0000    99.5790     6.3450     4.8510     5.0350    24.3120   -10.6860     2.2890 
  112.1250    94.2410     6.2940     4.8310     4.8820    24.1650   -10.5970     2.2930 
  112.2500    92.0890     6.2980     4.8420     4.9740    23.9770   -10.5810     2.3030 
  112.3750    93.7710     6.3510     4.8820     5.2110    23.7960   -10.5880     2.3190 
  112.5000    96.7070     6.4100     4.9420     5.4480    23.5990   -10.5910     2.3360 
  112.6250    99.2210     6.4340     4.9970     5.4800    23.4190   -10.5850     2.3480 
  112.7500   101.4780     6.4000     5.0170     5.4940    23.3130   -10.5680     2.3530 
  112.8750   103.7260     6.3380     4.9980     5.5350    23.3230   -10.5360     2.3530 
  113.0000   105.0010     6.2750     4.9520     5.6430    23.4610   -10.4810     2.3460 
  113.1250   104.0170     6.2190     4.8920     5.6820    23.6640   -10.4080     2.3330 
  113.2500    97.8360     6.1480     4.8150     5.7520    23.8700   -10.3140     2.3190 
  113.3750    91.2580     6.0400     4.7150     5.7580    24.0240   -10.1980     2.3070 
  113.5000    90.4310     5.8940     4.5930     5.5830    24.1100   -10.0590     2.2990 
  113.6250    96.5290     5.7330     4.4720     5.0820    24.2040    -9.9140     2.2980 
  113.7500   104.3150     5.6060     4.3890     4.7560    24.2850    -9.7950     2.3050 
  113.8750   109.8000     5.5410     4.3550     4.8250    24.2020    -9.7000     2.3170 
  114.0000   111.8680     5.5480     4.3690     5.1010    23.8440    -9.6510     2.3340 
  114.1250   110.5840     5.6110     4.4190     5.2900    23.3990    -9.6450     2.3590 
  114.2500   107.8790     5.6930     4.4840     5.1760    23.0310    -9.6710     2.3840 
  114.3750   108.0960     5.7490     4.5350     4.8940    22.8130    -9.7150     2.4000 
  114.5000   111.5400     5.7670     4.5630     4.7490    22.7050    -9.7920     2.4060 
  114.6250   113.9770     5.7650     4.5830     4.7800    22.6620    -9.9080     2.4040 
  114.7500   110.6780     5.7790     4.6200     4.7940    22.6360   -10.0140     2.3990 
  114.8750   102.7730     5.8180     4.6810     4.8040    22.6080   -10.1270     2.3940 
  115.0000    97.6920     5.8550     4.7480     4.8080    22.5850   -10.2490     2.3920 
  115.1250    99.3510     5.8540     4.7930     4.8200    22.5670   -10.3530     2.3920 
  115.2500   104.1760     5.7890     4.7980     4.8250    22.5510   -10.4330     2.3920 
  115.3750   107.3330     5.6980     4.7830     4.7850    22.5450   -10.5330     2.3960 
  115.5000   109.0610     5.6220     4.7610     4.7180    22.5370   -10.6430     2.4010 
  115.6250   110.3490     5.5880     4.7340     4.7210    22.5350   -10.7380     2.4030 
  115.7500   109.6160     5.5910     4.6980     4.9940    22.5670   -10.8280     2.4040 
  115.8750   109.8140     5.5860     4.6460     5.2620    22.6210   -10.8960     2.4030 
  116.0000   110.7650     5.5430     4.5690     4.9370    22.6540   -10.9240     2.3950 
  116.1250   108.7730     5.4620     4.4640     4.5040    22.6730   -10.9510     2.3810 
  116.2500   104.9390     5.3750     4.3450     4.3500    22.6780   -11.0080     2.3680 
  116.3750   105.2300     5.3100     4.2480     4.3840    22.6390   -11.0800     2.3660 
  116.5000   108.6850     5.2640     4.1970     4.4270    22.5670   -11.1510     2.3710 
  116.6250   108.6660     5.2210     4.1920     4.4750    22.5220   -11.2080     2.3780 
  116.7500   105.2050     5.2110     4.2380     4.6120    22.5200   -11.2640     2.3800 
  116.8750   102.1680     5.3810     4.3880     4.8540    22.5440   -11.3480     2.3760 
  117.0000    98.1510     5.9770     4.7780     5.2460    22.5890   -11.4690     2.3750 
  117.1250    92.0440     7.2440     5.5780     5.7540    22.6740   -11.6110     2.3900 
  117.2500    85.1320     9.3810     7.0320     7.3350    22.8060   -11.7840     2.4300 
  117.3750    78.1240    11.9480     8.9980    11.8870    22.9260   -12.0070     2.4810 
  117.5000    72.1780    14.1670    11.0170    21.7070    22.9830   -12.3080     2.5190 
  117.6250    70.0760    14.9950    12.1920    32.4640    22.9520   -12.6910     2.5200 
  117.7500    73.1340    13.6450    11.6160    25.9680    22.8240   -13.1440     2.4700 
  117.8750    74.4600    11.3450    10.1270    13.8210    22.6220   -13.5910     2.3950 
  118.0000    72.1960     9.3020     8.6640     8.9950    22.5150   -13.9700     2.3220 
  118.1250    70.6020     8.1960     7.7750     8.1450    22.6170   -14.2530     2.2710 
  118.2500    72.4410     8.3740     7.7800     8.6060    22.8140   -14.3770     2.2530 
  118.3750    72.0550     9.5530     8.5730     9.4470    22.9540   -14.3270     2.2660 
  118.5000    65.5860    11.4730    10.0680    11.7130    23.0200   -14.1160     2.3080 
  118.6250    56.9280    13.6280    11.9690    16.4940    23.0490   -13.7650     2.3680 
  118.7500    53.6390    15.0680    13.5160    19.0850    23.0500   -13.2810     2.4250 
  118.8750    54.9840    15.1440    13.9320    19.8290    23.0130   -12.7580     2.4680 
  119.0000    59.8680    13.7710    12.9610    19.5320    23.0070   -12.2530     2.4950 
  119.1250    65.9220    11.4980    11.0500    14.8530    23.0480   -11.7810     2.4960 
  119.2500    71.5090     9.2410     9.0350     8.8930    23.1330   -11.3970     2.4560 
  119.3750    75.4440     7.6150     7.4900     6.7860    23.2190   -11.0730     2.4010 
  119.5000    76.9200     6.8440     6.5880     6.2040    23.2870   -10.7730     2.3630 
  119.6250    76.4890     7.0690     6.4100     6.2480    23.4880   -10.4750     2.3490 
  119.7500    73.7870     8.7040     7.2380     6.9400    23.8000   -10.2050     2.3510 
  119.8750    69.2980    11.7630     9.1550     9.1650    23.9660    -9.9600     2.3730 
  120.0000    63.3870    16.2420    12.3570    15.3600    23.8820    -9.7370     2.4220 
  120.1250    56.4260    21.5850    16.7290    24.0100    23.6900    -9.5540     2.4920 
  120.2500    49.8530    25.8460    21.0260    28.5970    23.4960    -9.4150     2.5520 
  120.3750    45.5540    27.1130    23.2100    26.5200    23.3430    -9.3160     2.5800 
  120.5000    46.1140    25.3660    22.7230    22.4870    23.2690    -9.2710     2.5810 
  120.6250    50.2080    22.4630    20.8340    18.5200    23.3230    -9.2970     2.5630 
  120.7500    52.1760    20.6210    19.2820    15.6540    23.4710    -9.3900     2.5350 
  120.8750    50.8570    20.4800    18.7880    15.6490    23.5300    -9.5350     2.5190 
  121.0000    49.1880    21.9540    19.4480    19.1990    23.3290    -9.7170     2.5270 
  121.1250    48.6560    24.6660    21.1570    23.1270    22.9800    -9.9140     2.5570 
  121.2500    48.3560    27.9420    23.6290    27.6180    22.5840   -10.1120     2.5850 
  121.3750    47.3770    30.6230    25.9940    29.5200    22.3350   -10.3100     2.5960 
