~V
VERS. 2.00: Ver 2.00
~W
STRT.M 50.0000:
STOP.M 232.0000:
STEP.M 0.1250:
NULL. -999.2500:
UWI. F10160:
~C
DEPT.M :
SP.MV :
DEN.GM/CC :
GR.API :
RML.OHMM :
RI. :
RXO.OHMM :
CALI.CM :
~A
# ...
   61.2500    63.3410     2.1100    47.8920     0.3450     0.7850     3.9260    25.7790 
   61.3750    63.2450     2.0970    47.4830     0.3630     0.7830     3.6700    25.7810 
   61.5000    62.9480     2.0910    48.2600     0.4370     0.7810     4.4520    25.7800 
   61.6250    62.3650     2.0910    48.9880     0.5900     0.7770     5.9100    25.7780 
   61.7500    61.4950     2.0940    49.5690     0.7940     0.7730     5.2840    25.7780 
   61.8750    60.3180     2.0990    51.2930     1.0340     0.7670     4.0540    25.7810 
   62.0000    58.8320     2.1080    52.9760     1.3050     0.7600     3.3380    25.7820 
   62.1250    56.9770     2.1240    52.7720     1.6450     0.7520     2.4920    25.7810 
   62.2500    54.8140     2.1420    51.4010     2.0790     0.7390     2.3080    25.7800 
   62.3750    52.3350     2.1570    50.3500     2.3970     0.7160     3.4480    25.7800 
   62.5000    49.5110     2.1630    50.2000     2.0210     0.6710     5.9270    25.7820 
   62.6250    46.2380     2.1570    51.0080     1.0980     0.5820     6.2010    25.7860 
   62.7500    42.5180     2.1700    51.3580     0.4570     0.4500     7.2130    25.7890 
   62.8750    38.2850     2.2580    49.2600     0.1370     0.3010     8.1820    25.7890 
   63.0000    33.4910     2.4350    47.0690     0.0030     0.1730     9.0250    25.7890 
   63.1250    28.0440     2.5980    47.9080    -0.0330     0.0930    11.1530    25.7830 
   63.2500    22.1610     2.6410    49.1530    -0.0360     0.0550    13.9040    25.7970 
   63.3750    16.0670     2.5910    49.7310    -0.0230     0.0540    12.6930    25.8730 
   63.5000    10.0360     2.4880    53.3180     0.0170     0.0910     7.3390    25.9650 
   63.6250     4.3820     2.3850    63.2240     0.1200     0.1910     3.5060    25.9540 
   63.7500    -0.7590     2.3190    73.5640     0.3180     0.3840     2.6070    25.7970 
   63.8750    -5.2820     2.3030    79.3450     0.6370     0.7240     3.1270    25.5380 
   64.0000    -9.1660     2.3140    78.8730     1.0580     1.2730     5.1580    25.2760 
   64.1250   -12.3540     2.3110    76.2300     1.5130     2.0960     7.0850    25.1280 
   64.2500   -15.0650     2.2850    74.9440     1.9740     3.0780     9.5220    25.0860 
   64.3750   -17.4010     2.2470    73.8880     2.5060     4.0770    12.7290    24.9990 
   64.5000   -19.4090     2.2130    73.1860     3.1850     4.9490    14.5760    24.7560 
   64.6250   -21.0040     2.1930    72.5740     4.0350     5.5810    12.9340    24.4790 
   64.7500   -22.2400     2.1890    70.0540     4.8900     6.0130    13.5440    24.3510 
   64.8750   -23.1280     2.1920    64.9730     5.5310     6.2690    13.8840    24.3610 
   65.0000   -23.6870     2.1940    62.3170     5.7850     6.3600    11.3530    24.3920 
   65.1250   -23.8950     2.1870    66.4350     5.6730     6.2940     9.4480    24.4220 
   65.2500   -23.8400     2.1780    71.7860     5.5150     6.1730     8.3900    24.5500 
   65.3750   -23.5810     2.1840    75.2630     5.4730     6.0730     7.7160    24.7840 
   65.5000   -23.2050     2.2220    78.1490     5.5870     6.0260     7.5490    25.0330 
   65.6250   -22.8030     2.3040    82.1160     5.7870     6.0070     9.1410    25.1660 
   65.7500   -22.4830     2.3920    85.8520     5.9110     5.9450    10.9910    25.2000 
   65.8750   -22.3160     2.4450    88.1270     5.8490     5.7900    10.0050    25.1980 
   66.0000   -22.3490     2.4430    88.5950     5.5860     5.5370     6.8760    25.2000 
   66.1250   -22.6210     2.3980    87.9140     5.2060     5.2340     5.2790    25.1970 
   66.2500   -23.0640     2.3480    88.4390     4.8660     4.9710     5.1530    25.2010 
   66.3750   -23.6260     2.3090    90.3220     4.6710     4.8180     5.4450    25.2420 
   66.5000   -24.2650     2.2850    91.3350     4.6880     4.8220     5.2840    25.3050 
   66.6250   -24.9330     2.2840    89.2900     4.9530     5.0210     5.4580    25.2500 
   66.7500   -25.5770     2.3010    85.6720     5.3790     5.3550     5.9260    25.0330 
   66.8750   -26.1620     2.3280    80.8560     5.9160     5.7890     6.5080    24.7540 
   67.0000   -26.6640     2.3480    75.1890     6.5190     6.2840     7.5950    24.5500 
   67.1250   -27.0550     2.3430    71.0740     7.1040     6.7700     7.9170    24.4650 
   67.2500   -27.3510     2.3200    69.1690     7.5320     7.1350     7.8940    24.4290 
   67.3750   -27.5280     2.2920    69.9550     7.6690     7.2640     7.9830    24.4220 
   67.5000   -27.5570     2.2750    73.3930     7.4550     7.0700     8.1380    24.4410 
   67.6250   -27.4050     2.2760    78.4050     6.8650     6.5070     7.9250    24.5450 
   67.7500   -27.1320     2.2820    84.3320     6.0820     5.7640     6.7530    24.8200 
   67.8750   -26.7940     2.2720    92.3690     5.3170     5.0390     5.2630    25.3180 
   68.0000   -26.4610     2.2420   101.1800     4.7880     4.5230     4.4020    25.9670 
   68.1250   -26.2320     2.2100   104.1170     4.7190     4.4030     4.3470    26.4700 
   68.2500   -26.1690     2.2060    99.2050     5.0910     4.6490     5.1690    26.5050 
   68.3750   -26.3160     2.2420    88.4740     5.8460     5.2060     8.1740    26.0300 
   68.5000   -26.6730     2.3020    77.0720     6.7770     5.9290    15.2980    25.3470 
   68.6250   -27.2070     2.3430    70.7350     7.4140     6.5160    16.6970    24.9100 
   68.7500   -27.8080     2.3430    70.3020     7.4630     6.7240    10.8190    24.7490 
   68.8750   -28.4070     2.3190    73.4450     6.9980     6.5090     7.1360    24.6910 
   69.0000   -28.9560     2.3000    77.6640     6.3550     6.0160     6.5620    24.7130 
   69.1250   -29.4250     2.3060    81.5200     5.9150     5.4950     6.1460    24.8840 
   69.2500   -29.8580     2.3270    84.8620     5.8030     5.1490     5.3820    25.0910 
   69.3750   -30.3030     2.3470    86.9590     6.0040     5.0500     5.0640    25.2020 
   69.5000   -30.8100     2.3500    85.8740     6.4410     5.1800     5.6930    25.2060 
   69.6250   -31.4200     2.3240    79.7160     7.0060     5.4910     7.4560    25.1880 
   69.7500   -32.1090     2.2830    71.9450     7.5090     5.8390    11.8460    25.0750 
   69.8750   -32.8370     2.2440    66.2570     7.7830     6.1040    14.6250    24.7920 
   70.0000   -33.5490     2.2170    64.3130     7.7680     6.2210    10.7930    24.4380 
   70.1250   -34.1900     2.1970    64.7430     7.7040     6.2760     7.9060    24.2320 
   70.2500   -34.7160     2.1770    64.0620     8.0950     6.5350     7.4240    24.1960 
   70.3750   -35.1110     2.1640    61.4010     9.3880     7.2730     8.1050    24.2550 
   70.5000   -35.3860     2.1840    58.0690    11.9190     8.7380     9.2360    24.4120 
   70.6250   -35.5500     2.2890    54.6140    15.9130    11.1590    13.8940    24.7220 
   70.7500   -35.6740     2.4570    52.5050    20.2570    13.9670    28.5140    25.0600 
   70.8750   -35.8010     2.6030    51.3600    22.9370    16.0480    51.6710    25.2590 
   71.0000   -35.9500     2.6330    50.2130    22.0520    16.1720    52.5040    25.1830 
   71.1250   -36.1310     2.5400    49.8390    17.9490    14.0720    27.0660    24.8230 
   71.2500   -36.3240     2.4190    51.2470    13.6870    11.4110    13.2690    24.4400 
   71.3750   -36.5250     2.3170    54.4720    10.5640     9.1380     8.9070    24.2090 
   71.5000   -36.7230     2.2510    59.1030     8.7440     7.5720     7.8600    24.1490 
   71.6250   -36.9170     2.2240    63.7690     8.0520     6.7610     7.8330    24.1580 
   71.7500   -37.1190     2.2170    65.9850     7.9430     6.4180     7.8890    24.1570 
   71.8750   -37.3330     2.2170    64.7950     8.1310     6.3750     8.0410    24.1530 
   72.0000   -37.5630     2.2170    62.9490     8.3950     6.4800     8.4060    24.1550 
   72.1250   -37.8110     2.2150    63.4860     8.5820     6.6140     8.4470    24.1620 
   72.2500   -38.0360     2.2140    65.9690     8.6740     6.7150     8.4360    24.1660 
   72.3750   -38.2100     2.2150    67.8110     8.7010     6.7770     8.4830    24.1660 
