~V
VERS. 2.00: Ver 2.00
~W
STRT.M 50.0000:
STOP.M 233.0000:
STEP.M 0.1250:
NULL. -999.2500:
UWI. F10166:
~C
DEPT.M :
SP.MV :
DEN.GM/CC :
GR.API :
RML.OHMM :
RI. :
RXO.OHMM :
CALI.CM :
~A
# ...
  173.7500   -24.4570     2.1880    60.9150    76.1980    74.0330    53.1010    25.8640 
  173.8750   -24.5750     2.1790    64.2640    82.5290    79.4870    67.3610    25.8580 
  174.0000   -24.6950     2.1770    65.6680    90.9530    87.3740    92.9030    25.8530 
  174.1250   -24.8310     2.1860    63.2110    98.8550    95.4210   112.5930    25.8470 
  174.2500   -24.9410     2.1980    59.5910   103.3800   100.6090   105.1090    25.8430 
  174.3750   -25.0320     2.2070    57.9660   103.4090   101.4240    82.8390    25.8420 
  174.5000   -25.0920     2.2080    58.7890   100.2390    98.6530    66.0100    25.8420 
  174.6250   -25.1310     2.2000    59.1060    97.1020    95.1280    62.5540    25.8420 
  174.7500   -25.1490     2.1930    57.8190    96.5800    93.6800    66.9080    25.8420 
  174.8750   -25.1740     2.1870    57.5080    99.3800    95.2790    74.3670    25.8420 
  175.0000   -25.2190     2.1830    59.6960   105.0200    99.6530    83.5040    25.8420 
  175.1250   -25.2810     2.1820    62.2510   112.3360   105.7830    92.7270    25.8420 
  175.2500   -25.3640     2.1840    62.6640   119.4940   111.8780    99.6010    25.8420 
  175.3750   -25.4530     2.1890    61.4290   125.7110   117.1250   103.1490    25.8410 
  175.5000   -25.5500     2.1940    60.0460   131.2690   121.6960   104.9800    25.8310 
  175.6250   -25.6240     2.1940    58.5050   137.7340   126.9590   105.0080    25.8120 
  175.7500   -25.6880     2.1870    56.6790   146.8940   134.6250   101.7410    25.7960 
  175.8750   -25.7180     2.1760    56.2150   160.2210   146.3070   105.8060    25.7900 
  176.0000   -25.7350     2.1660    57.6580   178.3270   163.0310   132.5010    25.7900 
  176.1250   -25.7440     2.1600    59.8030   200.2570   184.6470   192.6940    25.7900 
  176.2500   -25.7480     2.1590    59.3630   220.8610   206.4610   243.0110    25.7900 
  176.3750   -25.7460     2.1620    56.7620   233.9990   222.4640   244.3950    25.7900 
  176.5000   -25.7310     2.1680    54.5420   236.2450   225.3270   236.5210    25.7900 
  176.6250   -25.6850     2.1750    53.6210   225.0530   212.1210   241.0580    25.7900 
  176.7500   -25.6130     2.1800    53.4440   205.1990   192.5090   230.8100    25.7840 
  176.8750   -25.5290     2.1820    53.5140   182.9200   172.0010   193.6280    25.7770 
  177.0000   -25.4040     2.1820    54.4580   163.1270   154.5860   148.8360    25.7730 
  177.1250   -25.2680     2.1790    56.3560   150.1370   143.8350   120.5140    25.7720 
  177.2500   -25.1030     2.1750    57.6290   144.5740   139.9640   107.1210    25.7680 
  177.3750   -24.9300     2.1690    56.9380   146.6320   142.9840   110.3240    25.7660 
  177.5000   -24.7610     2.1620    54.4280   155.4920   151.9830   139.1500    25.7720 
  177.6250   -24.5930     2.1550    52.4710   169.0680   164.8230   212.4380    25.7810 
  177.7500   -24.4430     2.1490    52.5530   182.0730   176.6370   233.0290    25.7840 
  177.8750   -24.2980     2.1440    53.7800   190.4230   183.7180   168.9350    25.7790 
  178.0000   -24.1950     2.1400    55.8460   192.3390   184.6630   124.6920    25.7680 
  178.1250   -24.1170     2.1370    56.9300   189.2380   181.1160   118.3500    25.7620 
  178.2500   -24.0630     2.1370    55.9690   186.1140   177.6630   131.2330    25.7620 
  178.3750   -24.0150     2.1400    54.8420   185.7500   176.5520   156.2840    25.7640 
  178.5000   -23.9610     2.1440    55.8070   188.6360   177.9440   186.0760    25.7660 
  178.6250   -23.8770     2.1470    57.7010   193.1280   180.1990   198.9550    25.7750 
  178.7500   -23.7930     2.1460    57.4350   196.3550   180.9010   193.7310    25.7790 
  178.8750   -23.6910     2.1420    57.2920   196.2170   178.2440   187.0330    25.7740 
  179.0000   -23.5890     2.1370    58.1900   190.6620   170.5170   182.1300    25.7690 
  179.1250   -23.4610     2.1320    57.7120   175.9390   154.8710   179.7440    25.7700 
  179.2500   -23.3370     2.1320    57.6600   152.3930   132.3600   175.1730    25.7730 
  179.3750   -23.2050     2.1410    59.1300   122.8450   105.8970   143.3600    25.7730 
  179.5000   -23.0580     2.1630    61.5500    93.1000    80.2870    91.5210    25.7720 
  179.6250   -22.9040     2.1930    62.4590    69.8290    60.6370    52.2890    25.7700 
  179.7500   -22.7290     2.2200    63.3440    54.0730    47.3890    32.5600    25.7720 
  179.8750   -22.5570     2.2340    64.1810    44.9920    39.8260    26.5160    25.7660 
  180.0000   -22.4040     2.2330    64.5660    40.9440    36.6010    29.1850    25.7370 
  180.1250   -22.2760     2.2300    67.1660    40.5700    36.4880    37.2220    25.6940 
  180.2500   -22.1790     2.2340    70.0780    41.7770    37.5730    44.3850    25.6660 
  180.3750   -22.1280     2.2370    69.6970    43.5320    38.9440    45.9240    25.6570 
  180.5000   -22.0960     2.2320    65.9010    45.2400    40.2060    39.4960    25.6560 
  180.6250   -22.1140     2.2130    64.5690    47.1340    41.8070    33.4910    25.6570 
  180.7500   -22.1450     2.1910    66.5320    50.0890    44.5600    37.5870    25.6590 
  180.8750   -22.1800     2.1770    66.2220    54.6970    48.8510    55.2960    25.6580 
  181.0000   -22.2290     2.1770    62.5040    60.7130    54.2810    76.8460    25.6510 
  181.1250   -22.3000     2.1850    59.6130    66.7350    59.5130    70.6220    25.6360 
  181.2500   -22.3950     2.1920    61.1970    70.9640    63.1420    54.8460    25.6210 
  181.3750   -22.5090     2.1940    63.7280    72.5350    64.6330    47.1100    25.6130 
  181.5000   -22.6680     2.1940    63.3790    71.8460    64.4410    49.7820    25.6110 
  181.6250   -22.8880     2.1940    62.2000    70.0520    63.4930    60.8700    25.6090 
  181.7500   -23.1430     2.1940    63.4370    68.0360    62.3080    66.0470    25.6070 
  181.8750   -23.4440     2.1940    65.8120    65.6110    60.6250    57.7980    25.6050 
  182.0000   -23.7400     2.1950    65.1340    62.6510    58.3750    49.1130    25.6040 
  182.1250   -24.0390     2.1960    62.0820    59.7660    56.2220    49.2250    25.6050 
  182.2500   -24.3250     2.1930    63.1010    57.9890    55.2060    49.8860    25.6080 
  182.3750   -24.5550     2.1860    68.2310    58.2210    56.2260    44.4080    25.6080 
  182.5000   -24.7510     2.1760    72.1890    61.2160    59.9980    39.7700    25.6020 
  182.6250   -24.8810     2.1680    70.8250    68.6480    66.5930    47.8750    25.5880 
  182.7500   -25.0010     2.1670    68.0340    78.7270    75.5110    65.9020    25.5750 
  182.8750   -25.0910     2.1710    66.4530    89.5700    85.4840    75.0800    25.5700 
  183.0000   -25.1590     2.1770    65.5890    98.9850    94.3840    67.1230    25.5670 
  183.1250   -25.2070     2.1780    63.8860   104.7920    99.8590    57.5570    25.5580 
  183.2500   -25.2230     2.1750    62.0500   108.2870   102.7690    51.3950    25.5490 
  183.3750   -25.2390     2.1720    60.9710   112.0650   105.4390    51.1380    25.5460 
  183.5000   -25.2180     2.1690    60.9260   118.7190   110.4580    58.9600    25.5470 
  183.6250   -25.2020     2.1660    61.3010   130.2560   119.9610    73.4280    25.5470 
  183.7500   -25.1960     2.1620    61.7380   145.4900   133.0080    86.3370    25.5450 
  183.8750   -25.1880     2.1560    62.5320   162.7720   148.1170    93.0840    25.5240 
  184.0000   -25.2030     2.1470    63.7230   179.6290   163.0220    92.2210    25.4610 
  184.1250   -25.1960     2.1410    63.8680   192.3840   174.3710    86.3390    25.3380 
  184.2500   -25.1900     2.1380    62.1380   199.5910   180.7630    80.8940    25.1890 
  184.3750   -25.1810     2.1390    59.2940   201.1800   182.0520    78.1300    25.0440 
  184.5000   -25.1500     2.1400    57.3660   198.4290   179.3340    76.2650    24.9330 
  184.6250   -25.1070     2.1420    58.8100   193.1150   174.2100    70.8870    24.8510 
  184.7500   -25.0390     2.1430    61.5420   187.4290   168.7610    60.7780    24.6810 
  184.8750   -24.9920     2.1430    63.3180   182.2070   163.8520    46.3680    24.3680 
