~V
VERS. 2.00: Ver 2.00
~W
STRT.M 45.0000:
STOP.M 252.0000:
STEP.M 0.1250:
NULL. -999.2500:
UWI. F10190:
~C
DEPT.M :
GR.API :
RML.OHMM :
RI. :
RXO.OHMM :
CALI.CM :
SP.MV :
DEN.GM/CC :
~A
# ...
  112.5000    83.8430     7.7100     6.0900     5.6910    24.3850   -19.8060     2.2060 
  112.6250    82.3390     7.6550     6.0050     5.8800    24.5030   -19.3600     2.2240 
  112.7500    83.9430     7.6080     5.9480     5.9660    24.6630   -18.9650     2.2400 
  112.8750    86.6690     7.5450     5.9040     5.6780    24.7770   -18.6520     2.2490 
  113.0000    88.0800     7.4970     5.8800     5.2490    24.8010   -18.4140     2.2490 
  113.1250    87.6320     7.4810     5.8720     5.2620    24.7660   -18.2060     2.2410 
  113.2500    87.4170     7.4670     5.8530     5.7220    24.7380   -17.9990     2.2270 
  113.3750    90.0730     7.3980     5.7840     6.1500    24.7610   -17.7610     2.2190 
  113.5000    95.2960     7.2280     5.6450     5.9600    24.8690   -17.5050     2.2250 
  113.6250    98.7810     7.0410     5.5010     5.4010    25.0060   -17.2760     2.2440 
  113.7500    99.1800     6.9670     5.4350     5.1350    25.1160   -17.0830     2.2730 
  113.8750    98.3200     7.1120     5.5120     5.3680    25.1550   -16.8880     2.3100 
  114.0000    96.2610     7.5250     5.7630     6.2920    25.0780   -16.7130     2.3510 
  114.1250    92.8170     8.0260     6.0870     7.5820    24.9720   -16.6410     2.3780 
  114.2500    88.6520     8.4130     6.3600     7.9880    24.8770   -16.7020     2.3760 
  114.3750    85.8420     8.5330     6.4790     6.9600    24.8320   -16.8880     2.3410 
  114.5000    86.3390     8.3580     6.4060     6.2470    24.8190   -17.1600     2.2920 
  114.6250    86.9830     8.0940     6.2600     5.9890    24.8330   -17.4590     2.2520 
  114.7500    85.8640     7.8910     6.1350     5.9970    24.8530   -17.7940     2.2300 
  114.8750    83.3540     7.8230     6.0900     6.1450    24.8620   -18.1940     2.2240 
  115.0000    83.1500     7.8840     6.1370     6.2480    24.8480   -18.6520     2.2280 
  115.1250    85.1960     7.9740     6.2100     6.4330    24.7990   -19.1070     2.2300 
  115.2500    87.0090     8.0440     6.2660     6.5470    24.6960   -19.5340     2.2270 
  115.3750    86.7140     8.0820     6.2890     6.4860    24.5460   -19.9030     2.2200 
  115.5000    84.7600     8.1050     6.2910     6.5760    24.4330   -20.2370     2.2120 
  115.6250    83.7710     8.1320     6.3010     6.6350    24.3260   -20.5530     2.2010 
  115.7500    84.6340     8.1620     6.3290     6.8250    24.1540   -20.8280     2.1890 
  115.8750    86.2320     8.1890     6.3720     6.9320    23.8970   -21.0510     2.1780 
  116.0000    86.2610     8.2140     6.4200     7.0730    23.7130   -21.2080     2.1690 
  116.1250    84.0950     8.2550     6.4730     7.1500    23.6530   -21.3010     2.1610 
  116.2500    80.6900     8.3360     6.5450     6.9540    23.6560   -21.3570     2.1590 
  116.3750    79.4610     8.4610     6.6450     6.6350    23.6910   -21.4290     2.1630 
  116.5000    81.4900     8.5920     6.7520     6.8500    23.7310   -21.4760     2.1730 
  116.6250    83.9240     8.6640     6.8160     7.3930    23.7770   -21.4380     2.1820 
  116.7500    83.9080     8.6340     6.7950     7.7440    23.8320   -21.3180     2.1860 
  116.8750    82.2810     8.4930     6.6730     7.5080    23.8890   -21.1540     2.1870 
  117.0000    81.2240     8.2820     6.4620     6.6080    23.9160   -21.0260     2.1870 
  117.1250    80.1390     8.0880     6.2290     5.9910    23.9230   -20.9380     2.1840 
  117.2500    79.0400     7.9560     6.0180     6.3310    23.9280   -20.8310     2.1780 
  117.3750    77.8240     7.8880     5.8550     6.8080    23.9500   -20.6850     2.1710 
  117.5000    77.3180     7.9030     5.7840     6.8960    23.9990   -20.5930     2.1710 
  117.6250    78.4480     8.0790     5.8670     6.9800    24.0300   -20.6450     2.1850 
  117.7500    80.7030     8.5940     6.2160     7.4030    24.0200   -20.8200     2.2110 
  117.8750    82.8230     9.6860     6.9750     8.0530    24.0100   -21.0320     2.2500 
  118.0000    81.0680    11.7480     8.4270    10.5770    24.0400   -21.2190     2.3100 
  118.1250    74.8770    14.6690    10.5860    17.5360    24.1260   -21.4470     2.3950 
  118.2500    67.5760    17.9890    13.2700    28.0190    24.2510   -21.8040     2.4930 
  118.3750    64.0930    20.6540    15.7970    33.7190    24.3710   -22.3260     2.5710 
  118.5000    66.1570    20.9650    16.7480    30.2310    24.4640   -22.9550     2.5900 
  118.6250    68.6000    19.0670    15.8550    25.8820    24.5300   -23.5930     2.5510 
  118.7500    69.0580    16.0740    13.8060    20.8380    24.5410   -24.2350     2.4630 
  118.8750    70.4520    13.2240    11.5660    15.0140    24.4980   -24.9080     2.3530 
  119.0000    76.3660    11.3080     9.8330    10.9940    24.4550   -25.5960     2.2600 
  119.1250    82.5520    10.2120     8.6760     9.1430    24.4560   -26.2330     2.2020 
  119.2500    83.7920     9.7430     8.0270     8.5360    24.5010   -26.7590     2.1740 
  119.3750    80.5420     9.6900     7.7750     8.4640    24.5630   -27.1240     2.1630 
  119.5000    78.8480     9.8630     7.8070     8.6070    24.6110   -27.2920     2.1570 
  119.6250    79.0560    10.0460     7.9290     8.7120    24.6550   -27.3280     2.1520 
  119.7500    77.3800    10.1460     8.0420     8.5980    24.7060   -27.2460     2.1450 
  119.8750    74.3400    10.1390     8.0930     8.3820    24.7590   -27.0630     2.1380 
  120.0000    73.9560    10.0260     8.0550     8.1740    24.7840   -26.7940     2.1340 
  120.1250    75.5010     9.8410     7.9440     7.9950    24.8010   -26.4830     2.1430 
  120.2500    76.6580     9.6130     7.7810     7.8110    24.8210   -26.1490     2.1680 
  120.3750    76.0250     9.4180     7.6250     7.6150    24.8110   -25.7810     2.2020 
  120.5000    75.7420     9.4450     7.6130     7.3890    24.7240   -25.4160     2.2310 
  120.6250    77.1610     9.8530     7.8650     7.1230    24.6040   -25.1250     2.2480 
  120.7500    77.5460    10.7730     8.4950     7.4480    24.5270   -24.9660     2.2520 
  120.8750    74.3090    12.2480     9.5800     8.8040    24.5200   -24.9510     2.2420 
  121.0000    69.5750    14.1880    11.1730    12.4310    24.6160   -25.0210     2.2190 
  121.1250    66.4240    16.1050    12.9800    15.8080    24.7920   -25.0970     2.1940 
  121.2500    64.1290    17.4970    14.6120    18.0560    24.9680   -25.1970     2.1700 
  121.3750    61.6660    17.9900    15.6510    19.2080    25.1070   -25.3540     2.1510 
  121.5000    60.7720    17.5060    15.7990    19.8090    25.2290   -25.5510     2.1380 
  121.6250    61.1200    16.6530    15.4250    18.9470    25.3280   -25.7200     2.1320 
  121.7500    61.6390    15.8540    14.8720    16.5220    25.3970   -25.7930     2.1260 
  121.8750    61.7410    15.2760    14.3420    14.0070    25.4250   -25.7380     2.1120 
  122.0000    60.9040    14.7530    13.7740    12.9850    25.3460   -25.5630     2.0950 
  122.1250    62.0870    13.9400    12.9480    12.3030    25.1380   -25.2960     2.0920 
  122.2500    67.5410    12.6410    11.7120    12.0780    24.8640   -24.9420     2.1140 
  122.3750    75.8430    10.9140    10.1150    11.6550    24.6120   -24.5240     2.1590 
  122.5000    85.5000     9.1040     8.4430     8.7460    24.4300   -24.1010     2.2220 
  122.6250    94.5570     7.6250     7.0360     6.0560    24.3200   -23.7090     2.2830 
  122.7500    99.8040     6.6930     6.0700     5.0440    24.2890   -23.3720     2.3200 
  122.8750    97.3030     6.3860     5.6250     5.0700    24.3090   -23.1260     2.3160 
  123.0000    87.8220     6.8220     5.8340     5.7190    24.3660   -23.0070     2.2770 
  123.1250    79.9170     7.8900     6.6350     6.8390    24.4450   -22.9820     2.2360 
  123.2500    74.1160     9.5660     8.0530     8.7380    24.5660   -22.9990     2.2050 
  123.3750    67.7200    11.7590    10.0670    12.4490    24.7430   -23.0280     2.1880 
  123.5000    62.6290    14.2700    12.5900    15.0600    24.8290   -23.0370     2.1840 
  123.6250    60.7770    16.6690    15.2080    16.3770    24.8640   -23.0070     2.1870 
