~V
VERS. 2.00: Ver 2.00
~W
STRT.M 52.0000:
STOP.M 326.0000:
STEP.M 0.1250:
NULL. -999.2500:
UWI. F10108:
~C
DEPT.M :
DEN.GM/CC :
SP.MV :
GR.API :
RML.OHMM :
RI. :
RXO.OHMM :
CALI.CM :
~A
# ...
  288.2500     2.2250   -20.2410    86.6270     9.1110     8.2810     9.0090    24.5680 
  288.3750     2.2310   -20.3460    85.1680     9.2930     8.3990     9.3840    24.5260 
  288.5000     2.2370   -20.3900    82.6510     9.4700     8.5610     9.6700    24.5500 
  288.6250     2.2350   -20.3270    80.7310     9.5540     8.6700     9.7380    24.6310 
  288.7500     2.2240   -20.1750    79.5480     9.5870     8.7260     9.5620    24.6880 
  288.8750     2.2060   -19.9390    80.4350     9.6480     8.7820     9.4460    24.6860 
  289.0000     2.1880   -19.6020    83.9650     9.8030     8.8950     9.4100    24.6630 
  289.1250     2.1820   -19.1880    86.0770    10.0470     9.0740     9.4120    24.6910 
  289.2500     2.1930   -18.7490    85.0770    10.2510     9.2280     9.7130    24.7870 
  289.3750     2.2210   -18.2790    82.4030    10.2660     9.2430    10.3450    24.9220 
  289.5000     2.2570   -17.7760    79.2370     9.9920     9.0320    11.4720    25.0270 
  289.6250     2.2860   -17.2700    77.7760     9.4260     8.5740    11.1350    25.0610 
  289.7500     2.2970   -16.7920    79.4100     8.8130     8.0550     9.3210    25.0280 
  289.8750     2.2890   -16.3740    82.8630     8.3870     7.6530     7.7890    24.9760 
  290.0000     2.2650   -16.0360    85.5130     8.3050     7.5010     7.4440    24.9600 
  290.1250     2.2360   -15.7590    84.4830     8.6220     7.6720     8.2360    24.9890 
  290.2500     2.2140   -15.5060    81.0890     9.1020     8.0140     9.4620    25.0330 
  290.3750     2.2060   -15.2680    77.4130     9.4990     8.3540    10.3440    25.0330 
  290.5000     2.2120   -15.0540    74.4200     9.5950     8.5020    10.2940    24.9770 
  290.6250     2.2300   -14.8680    71.1620     9.2380     8.2850    10.4410    24.8910 
  290.7500     2.2510   -14.6880    66.1580     8.6130     7.7990    10.1750    24.8240 
  290.8750     2.2700   -14.5120    58.9900     7.9400     7.2050     8.8450    24.7950 
  291.0000     2.2870   -14.3510    52.0910     7.4310     6.6890     6.4690    24.7900 
  291.1250     2.3020   -14.2510    51.4250     7.2680     6.4290     5.9770    24.7450 
  291.2500     2.3110   -14.2240    56.4430     7.4150     6.4390     6.3170    24.6400 
  291.3750     2.3110   -14.2960    62.8910     7.8190     6.7030     7.1320    24.5050 
  291.5000     2.3010   -14.4730    68.5350     8.4070     7.1770     8.3140    24.4220 
  291.6250     2.2860   -14.7510    72.7890     9.1050     7.8110     8.6540    24.4550 
  291.7500     2.2750   -15.0760    74.5570     9.8290     8.5140     9.1150    24.5950 
  291.8750     2.2730   -15.3930    75.5830    10.5560     9.2460    10.0480    24.7560 
  292.0000     2.2800   -15.6540    79.2060    11.2840     9.9880    10.9660    24.8330 
  292.1250     2.2930   -15.8120    82.6650    12.0210    10.7330    11.6760    24.8070 
  292.2500     2.3020   -15.8690    82.0430    12.7580    11.4710    12.5920    24.7920 
  292.3750     2.3020   -15.8030    79.4230    13.4650    12.1770    13.7790    24.8230 
  292.5000     2.2940   -15.5960    78.7650    14.0700    12.7940    14.9950    24.8600 
  292.6250     2.2830   -15.2270    79.9460    14.3950    13.1730    16.0100    24.8360 
  292.7500     2.2730   -14.7290    78.5620    14.3040    13.1970    17.1480    24.7410 
  292.8750     2.2670   -14.1240    76.0810    13.6870    12.7600    17.4600    24.6350 
  293.0000     2.2620   -13.4330    73.4160    12.5620    11.8540    15.8600    24.5740 
  293.1250     2.2570   -12.6700    69.6090    11.0920    10.5820    13.2280    24.5360 
  293.2500     2.2490   -11.8700    64.5530     9.6400     9.2500    10.3750    24.4620 
  293.3750     2.2400   -11.0700    59.8690     8.4290     8.0620     7.5030    24.3490 
  293.5000     2.2390   -10.2930    56.2020     7.5750     7.1470     5.5740    24.2360 
  293.6250     2.2590    -9.5650    53.0460     7.1280     6.5990     5.1020    24.2030 
  293.7500     2.3040    -8.9050    50.0760     6.9470     6.3280     5.1880    24.2450 
  293.8750     2.3670    -8.3040    46.2290     6.9380     6.2600     5.3980    24.3450 
  294.0000     2.4250    -7.7580    41.4200     7.0070     6.3020     5.9090    24.4360 
  294.1250     2.4440    -7.2940    37.7110     7.0680     6.3570     6.7520    24.4350 
  294.2500     2.4230    -6.9040    36.7860     7.0810     6.3680     6.9620    24.3930 
  294.3750     2.3830    -6.5620    38.0290     7.0610     6.3420     6.2140    24.3860 
  294.5000     2.3480    -6.2590    40.5500     7.0500     6.3170     5.5140    24.4470 
  294.6250     2.3350    -6.0200    44.9720     7.1010     6.3360     5.7490    24.5330 
  294.7500     2.3370    -5.8140    50.0080     7.2140     6.3990     6.8930    24.5640 
  294.8750     2.3460    -5.6440    54.3530     7.3740     6.4900     8.7070    24.5120 
  295.0000     2.3550    -5.5010    56.1720     7.5550     6.5940     9.6120    24.4120 
  295.1250     2.3660    -5.3720    54.1810     7.7400     6.7220     7.6350    24.3660 
  295.2500     2.3810    -5.2480    50.6720     7.9180     6.8840     6.3450    24.3820 
  295.3750     2.3960    -5.1270    46.9230     8.0740     7.0710     6.4500    24.4000 
  295.5000     2.4060    -5.0210    44.0750     8.1680     7.2370     7.6710    24.3530 
  295.6250     2.4050    -4.9090    44.8140     8.1240     7.2830     8.9890    24.2380 
  295.7500     2.3950    -4.7970    48.0780     7.9320     7.1720     8.7180    24.1340 
  295.8750     2.3820    -4.6940    51.1710     7.6270     6.9220     6.6810    24.0950 
  296.0000     2.3700    -4.6030    52.1110     7.2950     6.6120     5.5280    24.1230 
  296.1250     2.3610    -4.5210    51.7440     7.0540     6.3470     5.7070    24.1310 
  296.2500     2.3490    -4.4440    50.5040     6.9260     6.1650     6.1920    24.0690 
  296.3750     2.3350    -4.3950    46.4470     6.8670     6.0390     6.5500    23.9760 
  296.5000     2.3180    -4.3650    41.7990     6.7970     5.9180     6.9130    23.9470 
  296.6250     2.3060    -4.3580    40.6540     6.6400     5.7470     6.2780    24.0190 
  296.7500     2.3030    -4.3600    42.9730     6.4190     5.5380     5.4140    24.1120 
  296.8750     2.3070    -4.3730    46.0660     6.2010     5.3360     5.0700    24.1320 
  297.0000     2.3120    -4.3950    47.6220     6.0650     5.1960     5.1230    24.0740 
  297.1250     2.3100    -4.4380    47.5620     6.0810     5.1700     5.2720    24.0220 
  297.2500     2.2980    -4.5030    48.0100     6.2130     5.2370     4.9780    24.0400 
  297.3750     2.2820    -4.5620    49.1560     6.4090     5.3610     4.7580    24.1070 
  297.5000     2.2670    -4.6070    48.8450     6.6000     5.4960     5.0740    24.1700 
  297.6250     2.2580    -4.6400    46.6710     6.7290     5.5970     5.5650    24.1510 
  297.7500     2.2560    -4.6720    45.2030     6.8050     5.6610     5.7710    24.0730 
  297.8750     2.2620    -4.6950    44.3700     6.8560     5.7030     5.4630    23.9840 
  298.0000     2.2760    -4.7120    44.9740     6.9080     5.7440     5.3540    23.9410 
  298.1250     2.2940    -4.7150    49.8630     6.9550     5.7900     5.9650    23.9630 
  298.2500     2.3090    -4.7000    55.3450     6.9620     5.8190     6.6770    23.9530 
  298.3750     2.3170    -4.6790    55.8010     6.8940     5.8000     6.9990    23.8700 
  298.5000     2.3190    -4.6520    51.8880     6.7470     5.7170     6.8510    23.7390 
  298.6250     2.3210    -4.6140    48.8290     6.5540     5.5780     6.5740    23.6620 
  298.7500     2.3250    -4.5650    48.9930     6.3800     5.4420     5.4460    23.7050 
  298.8750     2.3290    -4.5150    50.2440     6.2830     5.3660     4.8520    23.8840 
  299.0000     2.3290    -4.4730    50.3510     6.3250     5.4040     4.8940    24.1210 
  299.1250     2.3270    -4.4370    47.8260     6.5900     5.6290     5.3130    24.2930 
  299.2500     2.3250    -4.4020    44.5520     7.0500     6.0200     5.7880    24.3530 
  299.3750     2.3280    -4.3580    43.4940     7.6310     6.5210     6.4080    24.3640 
