~V
VERS. 2.00: Ver 2.00
~W
STRT.M 55.0000:
STOP.M 228.0000:
STEP.M 0.1250:
NULL. -999.2500:
UWI. F10142:
~C
DEPT.M :
DEN.GM/CC :
GR.API :
RML.OHMM :
RI. :
RXO.OHMM :
CALI.CM :
SP.MV :
~A
# ...
  167.5000     2.3380    80.5730    29.4280    25.5280    34.5020    25.3970   -12.7750 
  167.6250     2.3250    79.5300    33.4340    28.8970    42.9670    25.3920   -12.8310 
  167.7500     2.3110    76.3330    38.1650    33.2900    54.1850    25.3830   -12.9000 
  167.8750     2.2930    73.1630    43.9040    38.7170    59.6560    25.3750   -12.9590 
  168.0000     2.2720    72.4200    50.9620    45.1710    61.2450    25.3580   -13.0130 
  168.1250     2.2490    74.1660    59.5200    52.8650    74.4710    25.3270   -13.0720 
  168.2500     2.2320    74.0770    69.0820    61.6540    85.6730    25.2970   -13.1230 
  168.3750     2.2240    71.0380    79.3130    71.3370    99.1890    25.2930   -13.1680 
  168.5000     2.2260    68.0610    89.2450    81.1500   120.3170    25.3190   -13.2140 
  168.6250     2.2340    67.2800    96.2770    88.9980   114.6770    25.4080   -13.2670 
  168.7500     2.2450    67.7610    98.4720    92.9630   116.6600    25.5190   -13.3180 
  168.8750     2.2580    68.4120    94.9630    91.8470   120.2060    25.5770   -13.3590 
  169.0000     2.2710    69.4850    86.5920    85.8450   104.7060    25.5910   -13.3970 
  169.1250     2.2840    71.6090    75.4030    76.2720    73.2060    25.5910   -13.4490 
  169.2500     2.2950    74.7420    64.3630    66.0610    56.3050    25.5460   -13.4890 
  169.3750     2.3040    77.0760    55.0280    56.9520    49.8860    25.4150   -13.5280 
  169.5000     2.3090    76.4640    48.2170    49.9970    43.0870    25.2780   -13.5990 
  169.6250     2.3080    74.0920    44.6790    46.0990    37.7550    25.2200   -13.6640 
  169.7500     2.3000    73.0910    43.9170    44.9070    41.0690    25.2300   -13.7300 
  169.8750     2.2860    73.7120    45.8280    46.3910    47.8540    25.2840   -13.8320 
  170.0000     2.2730    74.8920    50.2960    50.4840    63.4810    25.3610   -13.9340 
  170.1250     2.2650    73.8020    57.4520    57.3730    76.4430    25.4220   -14.0240 
  170.2500     2.2630    70.8360    66.2480    66.0390    81.6230    25.4410   -14.1450 
  170.3750     2.2630    67.6550    75.5010    75.3710    86.8880    25.4490   -14.2650 
  170.5000     2.2610    65.0830    83.6040    83.8390   105.2740    25.4450   -14.3620 
  170.6250     2.2570    63.6260    88.5320    89.4290   119.8910    25.4420   -14.4640 
  170.7500     2.2540    64.6090    90.3320    91.9110   119.1400    25.4450   -14.5690 
  170.8750     2.2520    68.0790    89.9040    91.9020    97.4240    25.4490   -14.6510 
  171.0000     2.2490    71.4290    88.8260    90.8100    80.9480    25.4450   -14.7400 
  171.1250     2.2460    72.0450    88.9940    90.5580    89.7070    25.4470   -14.8350 
  171.2500     2.2420    72.2600    91.1960    92.2570    99.2350    25.4490   -14.9110 
  171.3750     2.2410    73.2300    95.4200    96.1160   120.6610    25.4320   -14.9960 
  171.5000     2.2430    74.0480   100.9560   101.5500   135.6870    25.4010   -15.0820 
  171.6250     2.2480    72.7810   106.4330   107.2690   127.4830    25.3560   -15.1490 
  171.7500     2.2500    70.7870   110.5680   111.8810   119.6470    25.3440   -15.2040 
  171.8750     2.2490    69.9750   112.8820   114.7790   119.5000    25.3690   -15.2450 
  172.0000     2.2430    69.9400   113.7080   116.1380   123.8490    25.4100   -15.2770 
  172.1250     2.2320    67.6350   113.9760   116.7400   135.0840    25.4370   -15.2860 
  172.2500     2.2210    65.3590   114.7290   117.6310   146.6240    25.4390   -15.3050 
  172.3750     2.2120    66.3200   116.4920   119.3560   156.4050    25.4410   -15.3230 
  172.5000     2.2090    69.1210   119.7300   122.4010   161.7420    25.4480   -15.3440 
  172.6250     2.2120    69.0770   125.7120   128.0290   184.4910    25.4450   -15.3850 
  172.7500     2.2130    67.1320   135.3580   137.2210   154.5100    25.4380   -15.4510 
  172.8750     2.2080    65.1750   150.0230   151.3890   122.6420    25.4410   -15.5440 
  173.0000     2.1960    62.9340   171.0260   171.7730   175.2270    25.4420   -15.6550 
  173.1250     2.1830    59.6660   198.3270   199.4870   262.0490    25.4400   -15.7970 
  173.2500     2.1740    58.4470   231.5040   230.5950   331.2400    25.4450   -15.9180 
  173.3750     2.1720    59.5350   269.4920   259.0860   325.4690    25.4470   -16.0290 
  173.5000     2.1750    60.2250   301.4350   277.1030   290.9420    25.4390   -16.1440 
  173.6250     2.1810    59.2440   306.3870   275.8640   252.7300    25.4380   -16.2320 
  173.7500     2.1900    59.5690   286.6150   259.7890   234.6090    25.4420   -16.3050 
  173.8750     2.2000    62.0980   256.6720   236.3460   213.9740    25.4390   -16.3600 
  174.0000     2.2090    64.2630   230.3740   213.6990   164.0440    25.4390   -16.3820 
  174.1250     2.2160    63.8610   213.3880   198.2460   143.0870    25.4400   -16.3830 
  174.2500     2.2190    62.1410   204.3480   189.8990   155.1340    25.4180   -16.3940 
  174.3750     2.2230    61.1290   201.2770   187.1550   185.7610    25.3900   -16.4050 
  174.5000     2.2290    60.9460   201.6420   187.7150   212.6000    25.3730   -16.4000 
  174.6250     2.2380    61.6230   202.9230   189.2090   207.6910    25.3530   -16.3860 
  174.7500     2.2420    62.8150   203.5430   190.0500   193.5410    25.3390   -16.3820 
  174.8750     2.2400    63.7910   203.7420   190.2960   184.0210    25.3470   -16.3770 
  175.0000     2.2330    64.5430   204.8260   190.9990   183.3740    25.3770   -16.3630 
  175.1250     2.2280    64.6450   208.8530   193.9660   207.3550    25.3880   -16.3500 
  175.2500     2.2280    64.5530   215.9240   199.5530   233.7110    25.3940   -16.3360 
  175.3750     2.2310    63.5540   225.1540   207.2670   236.6520    25.4010   -16.2950 
  175.5000     2.2300    60.8830   234.9910   216.0280   232.8600    25.3990   -16.2540 
  175.6250     2.2220    57.6810   243.7420   224.6520   248.6310    25.3890   -16.2250 
  175.7500     2.2110    55.9410   250.8910   232.5530   269.5900    25.3920   -16.1590 
  175.8750     2.2030    56.3010   256.4520   239.6810   284.4370    25.3960   -16.0710 
  176.0000     2.2020    58.2960   260.3050   245.9840   287.8390    25.3950   -15.9850 
  176.1250     2.2040    61.0410   260.6290   250.1520   286.1370    25.4010   -15.9070 
  176.2500     2.2050    62.9670   255.1300   249.8780   280.3760    25.4010   -15.8260 
  176.3750     2.2030    63.4190   241.0910   242.0310   279.7690    25.3900   -15.7590 
  176.5000     2.2030    63.7240   217.4750   224.4710   278.6740    25.3800   -15.6920 
  176.6250     2.2070    65.2490   185.8800   196.9050   232.4360    25.3720   -15.6370 
  176.7500     2.2180    66.1970   153.1940   165.6040   169.3060    25.3740   -15.6130 
  176.8750     2.2320    67.2630   124.4310   135.9320   114.8670    25.3860   -15.6070 
  177.0000     2.2460    70.8250   102.6390   111.9740    85.2870    25.3950   -15.6310 
  177.1250     2.2560    73.7470    90.0060    97.0220    73.9410    25.3930   -15.6840 
  177.2500     2.2590    71.9160    84.8060    89.9340    76.6620    25.3900   -15.7380 
  177.3750     2.2550    67.2760    86.6080    90.3670    83.6150    25.3980   -15.8000 
  177.5000     2.2450    63.5160    95.3380    98.1590    96.7390    25.4010   -15.8690 
  177.6250     2.2320    60.7690   112.3690   114.4420   127.9480    25.3890   -15.9380 
  177.7500     2.2190    57.9720   136.1340   137.2290   175.5940    25.3850   -16.0000 
  177.8750     2.2080    57.4170   164.7410   164.3940   223.4000    25.3890   -16.0540 
  178.0000     2.1990    59.5500   194.4050   192.2740   250.2920    25.3830   -16.1070 
  178.1250     2.1930    60.6930   218.9900   215.2470   262.2040    25.3740   -16.1420 
  178.2500     2.1900    59.6090   235.5480   230.6280   263.7270    25.3560   -16.1620 
  178.3750     2.1890    58.9250   244.0920   238.2240   260.1570    25.3250   -16.1860 
  178.5000     2.1870    60.1660   246.9520   240.0050   253.8500    25.3000   -16.2350 
  178.6250     2.1820    62.5740   246.8030   238.5160   241.2670    25.3410   -16.2610 
