~V
VERS. 2.00: Ver 2.00
~W
STRT.M 52.0000:
STOP.M 236.0000:
STEP.M 0.1250:
NULL. -999.2500:
UWI. F10181:
~C
DEPT.M :
GR.API :
RML.OHMM :
RI. :
RXO.OHMM :
CALI.CM :
DEN.GM/CC :
SP.MV :
~A
# ...
  119.5000    59.3360     8.4890     7.6900     7.6510    22.8100     2.1790    -3.8550 
  119.6250    57.1480     8.3740     7.5340     7.6510    22.8260     2.1790    -3.8960 
  119.7500    57.9850     8.3440     7.4560     7.7180    22.8800     2.1800    -3.9370 
  119.8750    61.6390     8.5740     7.5720     7.9310    22.9770     2.1820    -3.9600 
  120.0000    65.0110     9.3460     8.0770     8.3770    23.0870     2.1890    -3.9880 
  120.1250    65.8370    11.2260     9.3990     9.3810    23.2240     2.2110    -4.0020 
  120.2500    64.9020    14.3990    11.7600    11.8820    23.4220     2.2590    -3.9970 
  120.3750    61.8540    18.8350    15.2880    17.4560    23.6700     2.3350    -3.9610 
  120.5000    56.0930    23.9220    19.6690    26.9740    23.9270     2.4340    -3.8900 
  120.6250    50.8870    28.0790    23.7800    42.0160    24.1130     2.5280    -3.8150 
  120.7500    51.6990    29.7470    26.1210    57.1960    24.2370     2.5860    -3.7440 
  120.8750    56.1080    28.0490    25.5770    61.3600    24.2550     2.5910    -3.6900 
  121.0000    57.3250    23.5430    22.2420    46.3340    24.1540     2.5470    -3.6520 
  121.1250    53.9520    18.2970    17.7860    25.9090    23.9140     2.4760    -3.6330 
  121.2500    53.1230    14.1910    14.0780    15.3180    23.5970     2.4050    -3.6270 
  121.3750    56.4790    11.6230    11.5770    11.0480    23.3410     2.3450    -3.6210 
  121.5000    59.8870    10.4080    10.2020     9.2710    23.1660     2.2990    -3.6090 
  121.6250    61.8900    10.2900     9.8080     8.7410    23.0620     2.2710    -3.6040 
  121.7500    63.4570    10.6510     9.9100     8.8310    23.0260     2.2610    -3.5990 
  121.8750    63.1750    11.0720    10.1750     9.3690    23.0480     2.2700    -3.5720 
  122.0000    60.1110    11.1920    10.2830    10.3900    23.1350     2.2950    -3.5350 
  122.1250    57.6160    10.7010     9.9340    11.6880    23.2730     2.3250    -3.4980 
  122.2500    59.2730     9.7540     9.1890    11.2090    23.3670     2.3390    -3.4580 
  122.3750    63.4240     8.6200     8.2440     8.4700    23.3870     2.3280    -3.4000 
  122.5000    67.1960     7.6030     7.3480     6.6370    23.3150     2.2970    -3.3330 
  122.6250    68.5740     6.9530     6.7170     5.9840    23.1420     2.2600    -3.2640 
  122.7500    67.8830     6.6270     6.3490     5.8840    23.0160     2.2310    -3.1960 
  122.8750    66.9640     6.5330     6.1930     5.8960    22.9640     2.2160    -3.1450 
  123.0000    67.5340     6.5690     6.1780     5.8870    22.9730     2.2150    -3.1010 
  123.1250    71.2280     6.6630     6.2440     5.7320    23.0110     2.2250    -3.0660 
  123.2500    73.4350     6.7730     6.3350     5.5380    22.9890     2.2360    -3.0460 
  123.3750    71.9990     6.8900     6.4320     5.5040    22.8880     2.2430    -3.0530 
  123.5000    69.3190     7.0000     6.5170     5.7220    22.8360     2.2430    -3.0450 
  123.6250    70.3120     7.0540     6.5490     6.0100    22.9190     2.2360    -3.0030 
  123.7500    74.2050     7.0140     6.4950     6.1850    23.0300     2.2300    -2.9690 
  123.8750    76.9330     6.8520     6.3300     6.2250    23.1300     2.2300    -2.9400 
  124.0000    76.6790     6.5780     6.0610     6.3030    23.2860     2.2370    -2.9110 
  124.1250    74.8560     6.2480     5.7300     6.1750    23.5300     2.2470    -2.9010 
  124.2500    74.8550     5.9820     5.4380     5.8970    23.7790     2.2550    -2.9100 
  124.3750    75.4500     5.8890     5.2740     5.6530    23.9700     2.2590    -2.9240 
  124.5000    72.0780     6.0560     5.3140     5.7160    24.0800     2.2620    -2.9650 
  124.6250    66.1860     6.5740     5.6430     6.1710    24.1350     2.2750    -3.0260 
  124.7500    62.1990     7.3630     6.2170     6.9600    24.1730     2.3020    -3.0780 
  124.8750    61.0070     8.3220     6.9770     8.4320    24.1850     2.3400    -3.1250 
  125.0000    60.8140     9.2810     7.8070    10.3460    24.1310     2.3760    -3.1720 
  125.1250    61.8260     9.9870     8.5090    11.1790    23.9560     2.3950    -3.1720 
  125.2500    63.1890    10.3200     8.9380    10.8960    23.6060     2.3880    -3.1290 
  125.3750    63.7450    10.2560     9.0290    11.3890    23.1570     2.3580    -3.0640 
  125.5000    64.6370     9.8820     8.8200    11.5350    22.8620     2.3140    -2.9760 
  125.6250    65.7440     9.3580     8.4180    10.2170    22.8540     2.2680    -2.8940 
  125.7500    64.2060     8.8730     8.0020     8.4300    22.9150     2.2290    -2.8050 
  125.8750    61.0860     8.5070     7.6570     7.1350    22.9560     2.2010    -2.7170 
  126.0000    59.7440     8.2840     7.4230     6.6790    22.9920     2.1850    -2.6650 
  126.1250    60.2370     8.2170     7.3290     6.6430    23.0200     2.1780    -2.6630 
  126.2500    58.7090     8.2480     7.3370     6.6380    23.0510     2.1750    -2.6830 
  126.3750    55.7630     8.3330     7.4140     6.6600    23.0730     2.1750    -2.7120 
  126.5000    55.5300     8.4170     7.5110     6.6570    23.0810     2.1770    -2.7500 
  126.6250    60.4570     8.4010     7.5400     6.6490    23.0770     2.1860    -2.7950 
  126.7500    66.3030     8.2180     7.4300     6.6860    23.0700     2.2050    -2.8260 
  126.8750    69.2880     7.8440     7.1420     6.7810    23.0870     2.2320    -2.8150 
  127.0000    69.7900     7.3200     6.6940     6.8980    23.1770     2.2650    -2.7680 
  127.1250    70.5380     6.7420     6.1580     6.5200    23.2630     2.2900    -2.7130 
  127.2500    73.1110     6.2330     5.6490     5.7470    23.2400     2.3010    -2.6330 
  127.3750    77.2010     5.8600     5.2350     5.1990    23.1700     2.2980    -2.5350 
  127.5000    81.5260     5.6430     4.9460     5.2700    23.2420     2.2870    -2.4380 
  127.6250    83.0390     5.5890     4.8080     5.3780    23.4900     2.2740    -2.3000 
  127.7500    82.9990     5.6690     4.8010     5.3250    23.7290     2.2620    -2.1690 
  127.8750    83.5450     5.9200     4.9510     5.3050    23.8850     2.2500    -2.0790 
  128.0000    84.3900     6.4240     5.3140     5.5060    23.9510     2.2430    -2.0160 
  128.1250    82.9860     7.3310     6.0080     5.8600    23.9720     2.2510    -1.9720 
  128.2500    78.0370     8.5600     6.9870     6.5690    24.0110     2.2830    -1.9820 
  128.3750    71.7550     9.9130     8.1220     7.8340    24.0760     2.3370    -2.0430 
  128.5000    65.7180    11.0390     9.1570     9.9340    24.1290     2.4020    -2.1250 
  128.6250    62.1170    11.4030     9.6540    13.1760    24.1690     2.4510    -2.2370 
  128.7500    61.5510    10.8990     9.4420    15.4490    24.1630     2.4670    -2.3630 
  128.8750    66.2390     9.7000     8.5930    13.6520    24.0970     2.4470    -2.4850 
  129.0000    75.4400     8.2370     7.4360    10.8840    24.0370     2.4030    -2.5770 
  129.1250    81.6560     7.0320     6.3980     7.8020    23.9420     2.3530    -2.6350 
  129.2500    82.6460     6.2840     5.6810     6.2180    23.7740     2.3140    -2.6560 
  129.3750    81.9390     5.9910     5.3160     5.7520    23.6280     2.2910    -2.6360 
  129.5000    83.4680     6.0740     5.2670     5.7840    23.6550     2.2830    -2.6010 
  129.6250    86.0170     6.4660     5.5090     5.8410    23.7690     2.2860    -2.5730 
  129.7500    85.2310     7.0050     5.9200     5.9570    23.7120     2.2870    -2.5450 
  129.8750    80.1680     7.5630     6.4040     6.3180    23.4840     2.2790    -2.5090 
  130.0000    72.9960     7.9920     6.8430     7.0250    23.2670     2.2620    -2.4720 
  130.1250    70.1490     8.1240     7.0870     7.7270    23.1350     2.2410    -2.4290 
  130.2500    72.6170     7.9780     7.1050     7.8330    23.1110     2.2270    -2.4020 
  130.3750    76.9100     7.6360     6.9310     7.1650    23.1610     2.2240    -2.3970 
  130.5000    79.2090     7.2290     6.6520     6.3830    23.2500     2.2280    -2.4040 
  130.6250    77.5640     6.8930     6.3750     5.8600    23.2710     2.2290    -2.4230 
