~V
VERS. 2.00: Ver 2.00
~W
STRT.M 63.0000:
STOP.M 800.0000:
STEP.M 0.1250:
NULL. -999.2500:
UWI. F10168:
~C
DEPT.M :
SP.MV :
GR.API :
RML.OHMM :
RI. :
RXO.OHMM :
CALI.CM :
DEN.GM/CC :
~A
# ...
  209.2500   -17.0750    60.2410     9.3730     8.6720     9.3970    24.0680     2.3910 
  209.3750   -17.0290    58.0090     9.7310     8.8640     9.5980    24.0950     2.4010 
  209.5000   -17.0590    57.5130     9.8830     8.8960     9.6240    24.1370     2.4030 
  209.6250   -17.1330    59.3260     9.7610     8.7300     9.4420    24.1780     2.3810 
  209.7500   -17.2330    62.4420     9.4980     8.4680     9.0420    24.2140     2.3330 
  209.8750   -17.3400    64.3370     9.1970     8.1850     8.3610    24.2290     2.2650 
  210.0000   -17.4540    62.9900     8.9150     7.9240     7.5910    24.2000     2.1940 
  210.1250   -17.5630    59.1280     8.6760     7.7150     7.3370    24.1170     2.1430 
  210.2500   -17.6440    56.6210     8.4860     7.5680     7.3300    24.0620     2.1140 
  210.3750   -17.6820    56.9170     8.3750     7.5130     7.4420    24.0880     2.1040 
  210.5000   -17.6960    58.3070     8.3720     7.5670     7.5490    24.1670     2.1130 
  210.6250   -17.7000    59.2910     8.5000     7.7240     7.6390    24.2230     2.1500 
  210.7500   -17.7000    60.0540     8.7030     7.9100     8.0520    24.2490     2.2100 
  210.8750   -17.7000    61.2110     8.9390     8.0700     8.3680    24.2820     2.2800 
  211.0000   -17.6730    62.8650     9.1860     8.1850     8.4980    24.3620     2.3380 
  211.1250   -17.6240    63.5360     9.4410     8.2920     8.6290    24.4770     2.3620 
  211.2500   -17.5700    63.0520     9.6890     8.4450     8.8420    24.5320     2.3590 
  211.3750   -17.5410    62.5350     9.8940     8.6520     9.1080    24.4930     2.3410 
  211.5000   -17.5280    62.4460    10.0150     8.8620     9.3260    24.4500     2.3220 
  211.6250   -17.5260    62.7210    10.0160     8.9660     9.2980    24.4560     2.3110 
  211.7500   -17.5290    63.0120     9.9360     8.9180     9.3740    24.4840     2.3070 
  211.8750   -17.5350    63.6090     9.8160     8.7290     9.3520    24.5000     2.3070 
  212.0000   -17.5690    64.4710     9.6900     8.4680     9.1840    24.5100     2.3090 
  212.1250   -17.6150    64.1640     9.5870     8.2440     8.9160    24.5320     2.3140 
  212.2500   -17.6600    64.1100     9.5180     8.1280     8.9560    24.5670     2.3210 
  212.3750   -17.7000    64.8330     9.4960     8.1390     8.8940    24.5870     2.3290 
  212.5000   -17.7550    65.5920     9.5420     8.2530     8.7550    24.5490     2.3390 
  212.6250   -17.8160    63.5280     9.6810     8.4140     8.8200    24.4190     2.3500 
  212.7500   -17.8950    60.5030     9.8800     8.5460     9.2780    24.2630     2.3660 
  212.8750   -18.0050    60.2580    10.0850     8.6050     9.5750    24.1210     2.3850 
  213.0000   -18.1520    64.4190    10.2230     8.5750     9.5920    24.0160     2.4050 
  213.1250   -18.3070    67.8540    10.2190     8.4660     9.5430    23.9770     2.4190 
  213.2500   -18.4860    66.2630    10.0940     8.3290     9.2400    23.9940     2.4190 
  213.3750   -18.7010    62.8250     9.8940     8.1920     8.7630    24.0790     2.3990 
  213.5000   -18.9500    62.7070     9.6890     8.0690     8.2480    24.3020     2.3550 
  213.6250   -19.2290    65.9630     9.5640     7.9640     7.8880    24.7470     2.2930 
  213.7500   -19.5360    68.4550     9.5660     7.8910     7.5230    25.2420     2.2350 
  213.8750   -19.8670    69.2430     9.7120     7.8870     7.3380    25.5080     2.1990 
  214.0000   -20.2180    68.7240     9.9850     7.9920     7.7180    25.3810     2.1970 
  214.1250   -20.6330    67.5280    10.3270     8.2240     8.7920    24.8210     2.2210 
  214.2500   -21.1440    67.5330    10.6410     8.5050     9.7870    24.1300     2.2460 
  214.3750   -21.7280    70.1140    10.8820     8.7680    10.6480    23.5440     2.2580 
  214.5000   -22.3510    75.0760    11.0600     8.9930    11.3270    23.1980     2.2580 
  214.6250   -22.9340    81.9550    11.2350     9.2310    11.1450    23.0930     2.2620 
  214.7500   -23.4340    88.5050    11.4680     9.5500    11.2000    23.0720     2.2810 
  214.8750   -23.8520    91.0690    11.7650     9.9510    12.8920    23.0600     2.3120 
  215.0000   -24.2000    88.5160    12.0680    10.3370    15.6610    23.0590     2.3460 
  215.1250   -24.4600    82.8530    12.2180    10.5010    17.3090    23.1440     2.3710 
  215.2500   -24.5590    78.7500    12.1060    10.3500    16.3710    23.3350     2.3830 
  215.3750   -24.4450    76.5900    11.7100     9.9080    14.6240    23.5880     2.3790 
  215.5000   -24.0720    74.4020    11.1080     9.3060    12.7520    23.8270     2.3600 
  215.6250   -23.5410    71.4620    10.4470     8.7160    10.4250    23.9940     2.3290 
  215.7500   -22.9100    70.3400     9.8740     8.2400     8.4710    24.1010     2.2970 
  215.8750   -22.2230    71.2830     9.4640     7.8930     7.2370    24.1510     2.2690 
  216.0000   -21.4810    70.7010     9.2570     7.6560     6.9930    24.1650     2.2450 
  216.1250   -20.7520    67.5320     9.2970     7.5410     7.3550    24.1750     2.2170 
  216.2500   -20.0960    65.8490     9.5020     7.5470     7.4800    24.2070     2.1840 
  216.3750   -19.5680    66.2450     9.7870     7.6810     7.3800    24.2280     2.1590 
  216.5000   -19.2170    65.9520    10.0570     7.9150     7.4190    24.2240     2.1580 
  216.6250   -19.0030    65.0690    10.2240     8.1780     7.8880    24.1960     2.1920 
  216.7500   -18.8990    65.6510    10.2920     8.3780     8.6200    24.1440     2.2450 
  216.8750   -18.8600    67.1640    10.2830     8.4690     9.0950    24.0720     2.2960 
  217.0000   -18.8800    67.6420    10.2250     8.4600     9.0710    24.0210     2.3260 
  217.1250   -18.9300    66.7300    10.1390     8.4080     8.9080    24.0330     2.3220 
  217.2500   -19.0080    66.0210    10.0590     8.3910     8.7050    24.0870     2.2990 
  217.3750   -19.0860    66.5040    10.0070     8.4310     8.2940    24.1300     2.2720 
  217.5000   -19.1700    69.5160     9.9870     8.5030     8.1720    24.1170     2.2580 
  217.6250   -19.2500    72.6160     9.9770     8.5440     8.8010    24.0510     2.2690 
  217.7500   -19.3270    72.4010     9.9550     8.5200     9.0930    23.9690     2.2960 
  217.8750   -19.4030    69.4530     9.9250     8.4490     8.9360    23.9120     2.3260 
  218.0000   -19.4920    65.7070     9.9100     8.3830     8.7550    23.9220     2.3460 
  218.1250   -19.6010    62.6560     9.9380     8.3770     8.7290    23.9810     2.3500 
  218.2500   -19.7250    61.1220    10.0000     8.4150     8.7900    24.0190     2.3470 
  218.3750   -19.8730    62.0890    10.0790     8.4480     9.0000    23.9720     2.3400 
  218.5000   -20.0590    66.1020    10.1550     8.4290     9.0970    23.8500     2.3350 
  218.6250   -20.3090    69.4780    10.2130     8.3450     8.9430    23.6820     2.3310 
  218.7500   -20.6240    71.1600    10.2520     8.2620     8.7550    23.4550     2.3260 
  218.8750   -20.9960    72.7710    10.2780     8.2430     8.7800    23.1880     2.3170 
  219.0000   -21.4290    76.0590    10.3080     8.3190     9.0040    23.0060     2.3050 
  219.1250   -21.8990    78.3950    10.3960     8.4850     9.2150    23.0600     2.2920 
  219.2500   -22.4010    77.7290    10.5880     8.6860     9.6520    23.2380     2.2820 
  219.3750   -22.9130    77.9660    10.9180     8.9120    10.0800    23.3900     2.2790 
  219.5000   -23.4110    82.0470    11.3860     9.1890    10.7440    23.4740     2.2820 
  219.6250   -23.8830    87.4300    11.9400     9.5640    11.6880    23.4790     2.2900 
  219.7500   -24.3180    92.0060    12.4410    10.0030    12.5860    23.4310     2.3010 
  219.8750   -24.6950    95.4710    12.7480    10.4090    13.6990    23.3020     2.3150 
  220.0000   -24.9560    95.2300    12.7430    10.6400    15.2950    23.2190     2.3300 
  220.1250   -25.0760    88.5570    12.3350    10.5100    14.2540    23.3210     2.3440 
  220.2500   -25.0180    81.4430    11.6840    10.0630    12.1100    23.4400     2.3530 
  220.3750   -24.7500    77.1700    10.9520     9.4160    10.2160    23.5110     2.3550 
