~V
VERS. 2.00: Ver 2.00
~W
STRT.M 52.0000:
STOP.M 233.0000:
STEP.M 0.1250:
NULL. -999.2500:
UWI. F10175:
~C
DEPT.M :
GR.API :
RML.OHMM :
RI. :
RXO.OHMM :
CALI.CM :
DEN.GM/CC :
SP.MV :
~A
# ...
  220.7500    70.9970    17.1960    15.2430    14.5130    24.5880     2.5140    -6.9940 
  220.8750    72.1510    17.2870    15.3410    13.9160    24.6980     2.5000    -6.9870 
  221.0000    71.4510    17.5200    15.6270    11.6130    24.7720     2.4830    -7.0420 
  221.1250    69.1210    17.7840    16.0160    11.6650    24.6490     2.4660    -7.1830 
  221.2500    69.7070    17.9190    16.3120    11.9760    24.5700     2.4560    -7.3590 
  221.3750    72.7650    17.8360    16.3710    12.2960    24.5380     2.4550    -7.4920 
  221.5000    74.1610    17.5290    16.1480    12.4150    24.5240     2.4620    -7.5860 
  221.6250    73.8480    17.0780    15.7150    13.0490    24.5400     2.4740    -7.6130 
  221.7500    73.8780    16.6530    15.2820    14.2290    24.5690     2.4860    -7.5600 
  221.8750    73.0380    16.3600    14.9810    17.1480    24.6030     2.4970    -7.4090 
  222.0000    71.1130    16.2470    14.8650    19.4790    24.5950     2.5040    -7.1590 
  222.1250    70.4080    16.3240    14.9360    20.5360    24.5370     2.5020    -6.7930 
  222.2500    72.4540    16.5220    15.1100    20.8580    24.5240     2.4880    -6.3850 
  222.3750    74.7070    16.8160    15.3530    22.1400    24.5760     2.4660    -5.9780 
  222.5000    74.5430    17.2070    15.6660    24.9250    24.6330     2.4460    -5.5990 
  222.6250    72.6150    17.7240    16.0980    23.5820    24.6750     2.4410    -5.2450 
  222.7500    72.6150    18.3360    16.6520    24.9510    24.6980     2.4560    -4.9170 
  222.8750    72.6150    18.9910    17.2930    31.2050    24.6390     2.4820    -4.6660 
  223.0000    72.6150    19.6220    17.9370    33.9450    24.5190     2.5110    -4.5250 
  223.1250    72.6150    20.1740    18.4810    28.5340    24.3950     2.5310    -4.5350 
  223.2500    72.6150    20.6990    18.9400    25.4660    24.3030     2.5360    -4.6420 
  223.3750    72.6150    21.3050    19.4210    25.3240    24.2750     2.5270    -4.8160 
  223.5000    72.6150    22.1060    20.0800    26.1740    24.3980     2.5050    -5.0430 
  223.6250    72.6150    23.1800    21.0800    30.9370    24.5440     2.4780    -5.3500 
  223.7500    72.6150    24.3650    22.3120    36.2780    24.5650     2.4560    -5.6900 
  223.8750    72.6150    25.4340    23.5530    46.4270    24.5060     2.4460    -6.0300 
  224.0000    72.6150    26.1310    24.4970    46.6100    24.4430     2.4520    -6.3820 
  224.1250    72.6150    26.1670    24.7610    35.1990    24.4070     2.4740    -6.6890 
  224.2500    72.6150    25.6150    24.3700    28.7080    24.4900     2.5070    -6.9130 
  224.3750    72.6150    24.5940    23.4610    24.2290    24.5140     2.5410    -7.0920 
  224.5000    72.6150    23.2680    22.2310    21.2110    24.5350     2.5690    -7.2430 
  224.6250    72.6150    21.7850    20.8350    22.5670    24.5970     2.5800    -7.2940 
  224.7500    72.6150    20.2940    19.4070    23.8800    24.6080     2.5630    -7.2880 
  224.8750    72.6150    18.8830    18.0310    20.7340    24.5870     2.5280    -7.2390 
  225.0000    72.6150    17.6370    16.7960    15.4670    24.5320     2.4850    -7.1390 
  225.1250    72.6150    16.6720    15.8400    12.5420    24.5080     2.4460    -7.0050 
  225.2500    72.6150    15.9750    15.1620    11.9940    24.5330     2.4200    -6.9130 
  225.3750    72.6150    15.5150    14.7300    11.6960    24.5660     2.4150    -6.8540 
  225.5000    72.6150    15.2330    14.4750    10.5460    24.6100     2.4250    -6.7870 
  225.6250    72.6150    15.0790    14.3380     9.9430    24.6230     2.4440    -6.7480 
  225.7500    72.6150    14.9970    14.2600     9.9610    24.6190     2.4650    -6.7830 
  225.8750    72.6150    14.9900    14.2410    11.3230    24.7430     2.4840    -6.8530 
  226.0000    72.6150    15.0700    14.2990    14.5220    24.9430     2.4990    -6.9420 
  226.1250    72.6150    15.2480    14.4560    16.9160    25.1440     2.5090    -6.9970 
  226.2500    72.6150    15.4750    14.6730    14.6070    24.8660     2.5140    -6.9640 
  226.3750    72.6150    15.7020    14.8950    12.3460    24.6980     2.5120    -6.8930 
  226.5000    72.6150    15.8820    15.0630    11.6040    24.6390     2.5070    -6.8290 
  226.6250    72.6150    15.9910    15.1380    11.5440    24.5920     2.5010    -6.7200 
  226.7500    72.6150    16.0590    15.1620    11.8620    24.5480     2.4980    -6.5240 
  226.8750    72.6150    16.1210    15.1790    12.5750    24.5600     2.5010    -6.2790 
  227.0000    72.6150    16.2000    15.2240    13.3110    24.6060     2.5070    -5.9550 
  227.1250    72.6150    16.3020    15.3160    13.3760    24.6210     2.5100    -5.5690 
  227.2500    72.6150    16.4110    15.4330    13.2630    24.6050     2.5030    -5.2110 
  227.3750    72.6150    16.5090    15.5520    12.9320    24.5850     2.4860    -4.8940 
  227.5000    72.6150    16.5890    15.6530    12.9580    24.5910     2.4670    -4.5710 
  227.6250    72.6150    16.6470    15.7160    14.5040    24.6230     2.4550    -4.2860 
  227.7500    72.6150    16.6880    15.7460    17.1820    24.6460     2.4550    -4.0720 
  227.8750    72.6150    16.7160    15.7580    20.2730    24.6680     2.4660    -3.8930 
  228.0000    72.6150    16.7310    15.7650    19.6260    24.6770     2.4800    -3.7490 
  228.1250    72.6150    16.7360    15.7700    16.4130    24.6960     2.4900    -3.6150 
  228.2500    72.6150    16.7370    15.7720    14.2890    24.6920     2.4960    -3.4640 
  228.3750    72.6150    16.7380    15.7700    13.3670    24.6850     2.4960    -3.2860 
  228.5000    72.6150    16.7400    15.7660    12.7520    24.6760     2.4910    -3.1760 
  228.6250    72.6150    16.7420    15.7660    11.3760    24.7120     2.4840    -3.1440 
  228.7500    72.6150    16.7430    15.7660    10.3770    24.7530     2.4780    -3.1080 
  228.8750    72.6150    16.7430    15.7660     9.5100    24.7750     2.4740    -3.0320 
  229.0000    72.6150    16.7430    15.7660     8.8550    24.7870     2.4710    -2.9470 
  229.1250    72.6150    16.7430    15.7660     8.6890    24.7900     2.4710    -2.9140 
  229.2500    72.6150    16.7430    15.7660     8.8070    24.7480     2.4720    -2.9530 
  229.3750    72.6150    16.7430    15.7660     9.2930    24.7220     2.4760    -3.0070 
  229.5000    72.6150    16.7430    15.7660    10.5000    24.7170     2.4840    -3.0080 
  229.6250    72.6150    16.7430    15.7660    12.5790    24.6550     2.4940    -2.9130 
  229.7500    72.6150    16.7430    15.7660    13.3450    24.5710     2.5030    -2.8690 
  229.8750    72.6150    16.7430    15.7660    11.3570    24.5710     2.5040    -2.9370 
  230.0000    72.6150    16.7430    15.7660     9.1930    24.6480     2.4940    -3.0830 
  230.1250    72.6150    16.7430    15.7660     8.3000    24.6440     2.4750    -3.2770 
  230.2500    72.6150    16.7430    15.7660     8.1560    24.6120     2.4560    -3.4380 
  230.3750    72.6150    16.7430    15.7660     8.3470    24.5720     2.4470    -3.5630 
  230.5000    72.6150    16.7430    15.7660     8.6760    24.5840     2.4530    -3.6490 
  230.6250    72.6150    16.7430    15.7660     9.0630    24.6400     2.4720    -3.6670 
  230.7500    72.6150    16.7430    15.7660     9.5690    24.6870     2.4950    -3.5870 
  230.8750    72.6150    16.7430    15.7660    10.3100    24.7010     2.5150    -3.4610 
  231.0000    72.6150    16.7430    15.7660    11.6030    24.6680     2.5270    -3.3510 
  231.1250    72.6150    16.7430    15.7660    13.5800    24.5860     2.5330    -3.2410 
  231.2500    72.6150    16.7430    15.7660    15.3560    24.5310     2.5330    -3.1280 
  231.3750    72.6150    16.7430    15.7660    16.0860    24.5000     2.5290    -3.0440 
  231.5000    72.6150    16.7430    15.7660    15.3860    24.4770     2.5240    -2.9660 
  231.6250    72.6150    16.7430    15.7660    13.7000    24.4590     2.5180    -2.9810 
  231.7500    72.6150    16.7430    15.7660    13.7010    24.4550     2.5040    -3.0440 
  231.8750    72.6150    16.7430    15.7660    14.2610    24.4730     2.4670    -3.1180 
