~V
VERS. 2.00: Ver 2.00
~W
STRT.M 62.0000:
STOP.M 275.0000:
STEP.M 0.1250:
NULL. -999.2500:
UWI. F10141:
~C
DEPT.M :
GR.API :
RML.OHMM :
RI. :
RXO.OHMM :
CALI.CM :
DEN.GM/CC :
SP.MV :
~A
# ...
  129.5000    57.9710    24.7340    23.0980    26.2670    24.1790     2.5080    -5.7280 
  129.6250    56.6990    24.0490    22.5730    28.2540    24.1820     2.4910    -5.5880 
  129.7500    55.7850    22.8250    21.5370    25.4810    24.1640     2.4890    -5.4090 
  129.8750    55.1060    21.6000    20.4280    20.8640    24.1420     2.5040    -5.2250 
  130.0000    54.1130    20.9280    19.7020    18.6220    24.1330     2.5310    -5.0330 
  130.1250    52.8010    21.3130    19.7870    19.1560    24.1500     2.5610    -4.8390 
  130.2500    51.1880    22.6000    20.6360    21.4150    24.1970     2.5870    -4.6330 
  130.3750    49.8640    24.5050    22.0960    24.2830    24.2640     2.6080    -4.4120 
  130.5000    49.8430    26.5450    23.8250    27.4230    24.3550     2.6250    -4.1490 
  130.6250    49.8050    28.0080    25.2250    28.1600    24.4820     2.6390    -3.9140 
  130.7500    50.8670    28.5480    25.8980    27.6130    24.6190     2.6490    -3.7030 
  130.8750    53.9550    28.1460    25.7580    27.7410    24.7230     2.6530    -3.4450 
  131.0000    57.8210    27.0740    24.9960    28.9770    24.7590     2.6510    -3.1730 
  131.1250    57.4090    25.7850    23.9690    25.4770    24.7340     2.6430    -2.9260 
  131.2500    53.3130    24.7260    23.0760    22.8400    24.7120     2.6350    -2.7210 
  131.3750    49.5370    24.1010    22.5050    21.2210    24.7310     2.6320    -2.5790 
  131.5000    48.1600    23.9800    22.3360    21.4960    24.7510     2.6350    -2.5280 
  131.6250    48.9980    24.3700    22.6210    22.2770    24.7540     2.6390    -2.5100 
  131.7500    51.0020    24.9550    23.1310    23.4470    24.7520     2.6370    -2.5140 
  131.8750    54.2380    25.3760    23.5800    24.5120    24.7500     2.6270    -2.5750 
  132.0000    58.0840    25.2750    23.6300    25.4050    24.7370     2.6090    -2.6820 
  132.1250    59.0460    24.3340    22.9480    25.3760    24.7710     2.5910    -2.8170 
  132.2500    56.2110    22.8130    21.7110    22.5970    24.8020     2.5790    -2.9730 
  132.3750    52.5110    21.0780    20.2270    18.8980    24.8240     2.5780    -3.1300 
  132.5000    51.7490    19.5430    18.8580    16.8850    24.8260     2.5840    -3.2790 
  132.6250    55.0860    18.6250    17.9600    15.9860    24.7940     2.5920    -3.4470 
  132.7500    57.7770    18.3300    17.5680    15.3130    24.8070     2.5940    -3.6160 
  132.8750    57.7680    18.5300    17.6080    15.6060    24.8510     2.5850    -3.7680 
  133.0000    57.0730    18.9490    17.8830    17.3060    24.8610     2.5640    -3.9170 
  133.1250    56.7520    19.2200    18.1040    18.4040    24.8190     2.5400    -4.0400 
  133.2500    56.4260    19.1860    18.0960    18.4840    24.8070     2.5250    -4.1100 
  133.3750    55.7590    18.9140    17.8790    17.4510    24.8170     2.5260    -4.1390 
  133.5000    55.1950    18.6300    17.6150    16.0690    24.8010     2.5400    -4.1210 
  133.6250    56.1060    18.6860    17.5790    15.9080    24.7480     2.5520    -4.0000 
  133.7500    57.4640    19.2220    17.9150    16.4810    24.7150     2.5490    -3.7980 
  133.8750    57.6540    20.2390    18.6640    17.8930    24.7440     2.5350    -3.5380 
  134.0000    55.2010    21.6130    19.7640    19.4570    24.8150     2.5200    -3.2230 
  134.1250    51.4030    23.0840    21.0400    22.6380    24.8350     2.5210    -2.8770 
  134.2500    49.8400    24.2940    22.1700    25.1810    24.8030     2.5370    -2.5170 
  134.3750    51.0990    25.0080    22.9170    25.4830    24.7720     2.5610    -2.1630 
  134.5000    52.6840    25.1620    23.1870    24.6410    24.7720     2.5830    -1.8120 
  134.6250    51.2120    24.8230    23.0030    24.3920    24.7900     2.5980    -1.5420 
  134.7500    48.3100    24.3050    22.6240    23.3760    24.8060     2.6060    -1.3660 
  134.8750    48.3370    23.8080    22.2190    22.6350    24.8010     2.6110    -1.2430 
  135.0000    52.0770    23.4170    21.8760    22.6160    24.8060     2.6140    -1.1730 
  135.1250    56.6930    23.0380    21.5420    22.2840    24.8480     2.6150    -1.1430 
  135.2500    60.3290    22.4760    21.0660    22.0420    24.8860     2.6170    -1.1380 
  135.3750    63.1070    21.6230    20.3530    21.2810    24.9000     2.6210    -1.1270 
  135.5000    64.6700    20.5140    19.4230    19.8770    24.9010     2.6270    -1.1100 
  135.6250    64.0620    19.3660    18.4420    18.5450    24.8920     2.6350    -1.1010 
  135.7500    63.8130    18.4800    17.6540    16.7800    24.8710     2.6410    -1.0960 
  135.8750    65.4590    18.0260    17.2030    15.5570    24.8470     2.6440    -1.0960 
  136.0000    67.1810    18.0110    17.1130    15.7740    24.8290     2.6410    -1.1030 
  136.1250    66.0430    18.2750    17.2840    17.3330    24.8270     2.6290    -1.1220 
  136.2500    63.7440    18.4580    17.4220    18.4300    24.8400     2.6130    -1.1450 
  136.3750    62.6850    18.3090    17.2980    18.2340    24.8430     2.5990    -1.1520 
  136.5000    62.1360    17.7350    16.8030    17.0940    24.8030     2.5940    -1.1520 
  136.6250    59.6240    16.8430    16.0070    15.1190    24.6570     2.6020    -1.1550 
  136.7500    55.4150    15.9990    15.2240    13.7360    24.4750     2.6140    -1.1270 
  136.8750    51.1020    15.4680    14.6810    13.6080    24.4210     2.6240    -1.0840 
  137.0000    47.9520    15.3990    14.5200    14.1730    24.5670     2.6230    -1.0330 
  137.1250    48.4730    15.8890    14.8530    14.7830    24.8000     2.6090    -1.0030 
  137.2500    51.4380    16.7480    15.5530    15.4820    24.9210     2.5900    -1.0120 
  137.3750    53.6760    17.7850    16.4780    16.5960    24.9250     2.5760    -1.0730 
  137.5000    52.8110    18.7700    17.4240    18.4660    24.9060     2.5730    -1.1660 
  137.6250    49.7080    19.4470    18.1400    20.0740    24.9380     2.5820    -1.2310 
  137.7500    47.6390    19.7810    18.5460    20.3060    24.9460     2.5960    -1.2850 
  137.8750    47.3040    19.8080    18.6490    19.1990    24.9260     2.6050    -1.3610 
  138.0000    46.8170    19.5980    18.5020    18.1630    24.9010     2.6090    -1.4330 
  138.1250    45.4070    19.1930    18.1390    17.9890    24.8860     2.6070    -1.4730 
  138.2500    44.9970    18.6730    17.6510    18.8610    24.8830     2.6050    -1.4960 
  138.3750    46.2470    18.1060    17.1150    18.7540    24.8890     2.6040    -1.5080 
  138.5000    49.0770    17.6120    16.6450    17.9220    24.8890     2.6010    -1.5170 
  138.6250    50.7620    17.3980    16.4190    16.7650    24.8800     2.5900    -1.5590 
  138.7500    50.7860    17.4960    16.4670    16.8870    24.8920     2.5750    -1.6260 
  138.8750    50.5420    17.8410    16.7470    18.2880    24.9000     2.5600    -1.6920 
  139.0000    52.9760    18.2750    17.1370    20.2390    24.8950     2.5490    -1.7770 
  139.1250    56.0400    18.5650    17.4470    20.2620    24.8840     2.5440    -1.8940 
  139.2500    55.2370    18.5830    17.5360    19.7950    24.8680     2.5420    -2.0220 
  139.3750    52.7280    18.3420    17.3790    17.8170    24.8440     2.5430    -2.1400 
  139.5000    51.8140    17.9730    17.0670    16.0380    24.8210     2.5440    -2.2540 
  139.6250    52.0370    17.6570    16.7510    16.9960    24.8060     2.5430    -2.3490 
  139.7500    51.9820    17.4890    16.5330    17.6610    24.8160     2.5400    -2.4360 
  139.8750    52.1190    17.4840    16.4470    17.4290    24.7850     2.5350    -2.5080 
  140.0000    52.3020    17.6070    16.4780    17.6180    24.7480     2.5300    -2.5420 
  140.1250    50.8560    17.7850    16.5740    17.5130    24.7230     2.5270    -2.5290 
  140.2500    49.6020    17.9450    16.6730    17.1360    24.6770     2.5270    -2.4930 
  140.3750    49.4700    18.0550    16.7450    16.5130    24.6310     2.5320    -2.4290 
  140.5000    49.1970    18.1000    16.7730    15.9930    24.5480     2.5400    -2.3520 
  140.6250    47.8110    18.0600    16.7330    15.6740    24.4780     2.5450    -2.2590 
