~V
VERS. 2.00: Ver 2.00
~W
STRT.M 55.0000:
STOP.M 239.0000:
STEP.M 0.1250:
NULL. -999.2500:
UWI. F10186:
~C
DEPT.M :
GR.API :
RML.OHMM :
RI. :
RXO.OHMM :
CALI.CM :
DEN.GM/CC :
SP.MV :
~A
# ...
  178.7500    58.6080    47.5710    37.8820    51.7620    24.6100     2.2560    -8.3870 
  178.8750    55.6970    52.6350    44.0050    61.6960    24.6230     2.2590    -8.3650 
  179.0000    54.8040    54.2380    47.7110    60.0190    24.5590     2.2770    -8.3200 
  179.1250    55.0870    51.1780    47.0430    55.4690    24.4750     2.3020    -8.2470 
  179.2500    57.4130    45.3560    43.0510    54.2820    24.4470     2.3210    -8.1370 
  179.3750    61.3500    38.6080    37.3630    52.6540    24.5070     2.3320    -7.9720 
  179.5000    64.1150    32.2440    31.4250    43.6980    24.5670     2.3380    -7.7590 
  179.6250    66.5590    26.8140    25.9930    31.1290    24.5770     2.3430    -7.5360 
  179.7500    70.6940    22.0920    21.1300    23.9810    24.5510     2.3500    -7.3590 
  179.8750    74.1280    18.0100    16.9040    21.1970    24.5120     2.3580    -7.2370 
  180.0000    77.2130    14.6540    13.4500    19.3180    24.4740     2.3660    -7.1480 
  180.1250    81.5210    12.3980    11.0790    15.4240    24.4590     2.3720    -7.1350 
  180.2500    84.8570    11.3560     9.7590    10.9150    24.4590     2.3750    -7.2460 
  180.3750    83.4550    11.8260     9.6250     8.2500    24.4720     2.3750    -7.5180 
  180.5000    80.4950    14.2220    10.9380     8.4490    24.5060     2.3740    -7.8870 
  180.6250    80.6290    19.6090    14.6270    11.4660    24.5390     2.3660    -8.3950 
  180.7500    78.6580    28.1460    21.1550    17.6900    24.5700     2.3500    -8.9980 
  180.8750    71.5310    39.8250    30.9960    28.7970    24.5790     2.3270    -9.6460 
  181.0000    65.5310    53.7330    43.8150    46.8710    24.5810     2.3010   -10.3220 
  181.1250    65.6170    67.6270    57.9280    71.7780    24.5850     2.2810   -10.9880 
  181.2500    64.5410    78.8110    70.1550    88.9540    24.6020     2.2710   -11.6160 
  181.3750    60.4170    85.7610    78.2060    91.5250    24.6300     2.2660   -12.2270 
  181.5000    59.8110    88.7950    81.7610    90.2150    24.6470     2.2630   -12.8060 
  181.6250    62.6910    89.8430    82.4300    91.7480    24.6520     2.2600   -13.2630 
  181.7500    61.7920    91.0710    82.6680    94.8610    24.6500     2.2580   -13.6360 
  181.8750    59.3840    92.7360    83.0730    98.4710    24.6460     2.2570   -13.9690 
  182.0000    60.5380    94.2240    83.4390   101.1190    24.6430     2.2560   -14.2590 
  182.1250    63.2170    94.4040    83.1010   100.9270    24.6430     2.2520   -14.4670 
  182.2500    62.9000    92.8630    81.7270   100.0160    24.6440     2.2480   -14.6040 
  182.3750    60.5430    89.6870    79.2950    97.8390    24.6480     2.2450   -14.6860 
  182.5000    60.2390    85.5300    76.1830    92.7240    24.6510     2.2450   -14.7230 
  182.6250    63.0520    81.4540    73.1010    83.8820    24.6520     2.2470   -14.7580 
  182.7500    65.7810    78.2180    70.6350    76.7200    24.6520     2.2470   -14.7810 
  182.8750    65.5790    75.9490    68.9230    72.1080    24.6420     2.2420   -14.8130 
  183.0000    63.1370    74.3090    67.7260    71.6990    24.6170     2.2330   -14.8330 
  183.1250    63.3640    72.6900    66.5320    75.3070    24.5770     2.2260   -14.8220 
  183.2500    66.1640    70.7770    65.0110    77.1230    24.5600     2.2250   -14.7810 
  183.3750    68.6610    68.9270    63.3830    73.7760    24.5370     2.2290   -14.7260 
  183.5000    69.2580    68.0500    62.3860    66.4530    24.5160     2.2380   -14.6980 
  183.6250    68.0630    69.7540    63.4310    58.1150    24.5330     2.2440   -14.6280 
  183.7500    67.0150    74.5150    67.0950    54.8110    24.6070     2.2450   -14.5000 
  183.8750    65.6660    82.4150    73.6060    61.4790    24.6890     2.2410   -14.3310 
  184.0000    64.7890    92.8790    82.5700    78.3230    24.6460     2.2360   -14.1800 
  184.1250    64.8240   104.8460    93.0790   106.2160    24.4790     2.2330   -14.0210 
  184.2500    63.5850   116.7950   103.6310   121.6530    24.3000     2.2340   -13.8350 
  184.3750    60.2900   128.1990   113.6210   118.3540    24.1460     2.2370   -13.6260 
  184.5000    55.8490   139.4070   123.2490   118.4830    24.0540     2.2400   -13.3920 
  184.6250    54.2740   151.4720   133.3690   129.0480    24.1020     2.2390   -13.1540 
  184.7500    55.6300   164.4380   144.1500   143.3370    24.2300     2.2350   -12.9100 
  184.8750    57.3430   176.9630   154.6040   165.6430    24.3280     2.2300   -12.6610 
  185.0000    57.3290   186.5910   162.8590   191.8170    24.3590     2.2260   -12.3910 
  185.1250    55.7960   189.7340   166.2640   205.2620    24.3560     2.2260   -12.1030 
  185.2500    55.5860   186.4260   164.9820   200.4330    24.3290     2.2300   -11.8080 
  185.3750    56.8620   177.8060   159.9890   185.6130    24.2900     2.2340   -11.4540 
  185.5000    58.6580   166.0800   152.9500   169.4210    24.2660     2.2370   -11.0610 
  185.6250    59.2650   153.6140   145.4060   165.5660    24.2500     2.2370   -10.7160 
  185.7500    58.5070   141.6270   137.7760   165.6280    24.2820     2.2380   -10.3680 
  185.8750    56.5590   129.4830   128.9820   162.5840    24.3460     2.2460    -9.9240 
  186.0000    55.1510   115.5810   117.2160   147.8320    24.3770     2.2700    -9.4490 
  186.1250    54.9290    97.7140   100.0420   128.9190    24.2960     2.3250    -9.0410 
  186.2500    55.3080    76.7930    78.6660   116.2140    24.1790     2.4060    -8.6380 
  186.3750    56.4960    55.5710    56.2900   106.8450    24.1320     2.4930    -8.2390 
  186.5000    57.9800    37.4970    37.1680    89.7800    24.1750     2.5510    -7.8930 
  186.6250    57.9060    25.3330    24.6020    56.0640    24.3360     2.5450    -7.6320 
  186.7500    55.7010    17.8060    16.9780    27.8820    24.5220     2.4990    -7.4690 
  186.8750    53.4340    13.7580    12.8090    13.9950    24.6160     2.4450    -7.4340 
  187.0000    53.9540    12.1940    10.9350     9.5520    24.5630     2.4040    -7.5090 
  187.1250    55.8120    12.7600    10.9470     9.3460    24.4390     2.3840    -7.7450 
  187.2500    55.3760    14.8400    12.3280    10.6460    24.2200     2.3770    -8.1560 
  187.3750    52.5500    18.2080    14.9770    13.4150    23.8200     2.3730    -8.6900 
  187.5000    51.1050    22.4700    18.6600    17.9820    23.3230     2.3660    -9.2360 
  187.6250    53.5240    26.8480    22.8250    25.8010    23.0950     2.3520    -9.6680 
  187.7500    55.8100    30.3370    26.4550    32.2850    23.0770     2.3410    -9.9960 
  187.8750    54.2250    32.2460    28.7120    33.4070    23.2390     2.3420   -10.2460 
  188.0000    49.1290    32.3870    29.1850    34.1600    23.5500     2.3650   -10.3710 
  188.1250    43.3070    31.0540    28.0050    37.1580    23.8550     2.4130   -10.2870 
  188.2500    38.0870    29.2050    26.1690    36.1080    24.0440     2.4720   -10.0810 
  188.3750    32.5600    27.2190    24.1280    30.7690    24.1440     2.5220    -9.8070 
  188.5000    27.6500    25.1340    22.0070    27.4090    24.1830     2.5500    -9.5230 
  188.6250    25.6800    22.7950    19.7490    25.9410    24.1890     2.5630    -9.2800 
  188.7500    25.4600    20.1880    17.3980    25.0390    24.2260     2.5780    -9.0990 
  188.8750    26.3430    17.4660    15.0880    23.2710    24.2930     2.5960    -8.9670 
  189.0000    29.0480    14.8510    12.9980    19.3620    24.3250     2.6070    -8.8820 
  189.1250    34.5010    12.6800    11.3450    13.9380    24.3310     2.5930    -8.8240 
  189.2500    41.1710    11.0490    10.1210    10.6110    24.3930     2.5580    -8.7690 
  189.3750    48.6280    10.2140     9.2830     9.4480    24.4400     2.5170    -8.7780 
  189.5000    53.8400     9.6940     8.7450     9.2920    24.4220     2.4870    -8.7960 
  189.6250    51.6270     9.3730     8.4200     9.4790    24.4250     2.4770    -8.7640 
  189.7500    45.7650     9.0950     8.1850     9.5830    24.4510     2.4740    -8.6990 
  189.8750    42.3380     8.7910     7.9920     9.5890    24.4730     2.4640    -8.6740 
