~V
VERS. 2.00: Ver 2.00
~W
STRT.M 62.0000:
STOP.M 235.0000:
STEP.M 0.1250:
NULL. -999.2500:
UWI. F10157:
~C
DEPT.M :
SP.MV :
DEN.GM/CC :
GR.API :
RML.OHMM :
RI. :
RXO.OHMM :
CALI.CM :
~A
# ...
  208.2500    -6.2380     2.3320    84.2510     7.0140     6.8980     6.4870    24.4660 
  208.3750    -6.2190     2.3180    89.1340     7.2520     7.0940     6.8350    24.3790 
  208.5000    -6.1490     2.3080    89.3000     7.4840     7.2750     7.0640    24.3170 
  208.6250    -6.0450     2.3110    91.6380     7.7150     7.4340     7.1090    24.3100 
  208.7500    -5.8990     2.3240    96.1930     7.9620     7.5910     7.0760    24.3510 
  208.8750    -5.7320     2.3450    98.5000     8.2360     7.7660     7.1630    24.4220 
  209.0000    -5.5330     2.3690    98.4380     8.5130     7.9540     7.3830    24.5230 
  209.1250    -5.3120     2.3840   100.2440     8.7240     8.0950     7.7270    24.6310 
  209.2500    -5.0480     2.3840   101.7210     8.8410     8.1480     7.9000    24.7290 
  209.3750    -4.7690     2.3740   100.0830     8.9000     8.1240     8.3150    24.8060 
  209.5000    -4.4510     2.3640    97.9090     8.9920     8.0960     8.6320    24.8610 
  209.6250    -4.1100     2.3690    97.9230     9.2600     8.2000     8.7480    24.8860 
  209.7500    -3.7530     2.3900    96.9950     9.7440     8.4940     8.5720    24.8880 
  209.8750    -3.4220     2.4140    91.6480    10.3940     8.9650     9.3550    24.8810 
  210.0000    -3.1170     2.4300    82.4500    11.0820     9.5250    11.5760    24.8730 
  210.1250    -2.8780     2.4350    75.3660    11.6400    10.0360    13.5140    24.8740 
  210.2500    -2.6740     2.4420    72.3000    12.0440    10.4390    12.7110    24.9070 
  210.3750    -2.5100     2.4580    70.1500    12.3850    10.7740    10.9570    24.9420 
  210.5000    -2.3820     2.4760    67.0610    12.7820    11.1170    10.2490    24.9720 
  210.6250    -2.2750     2.4660    64.6060    13.2160    11.4560    11.7890    25.0100 
  210.7500    -2.1680     2.4180    65.6450    13.4390    11.6320    13.7730    25.0510 
  210.8750    -2.0330     2.3450    70.3380    13.1760    11.4540    14.0550    25.0910 
  211.0000    -1.8840     2.2730    74.9330    12.3260    10.8390    13.0870    25.1290 
  211.1250    -1.6970     2.2250    73.6300    11.0900     9.9070     9.9110    25.1590 
  211.2500    -1.5140     2.2010    69.5030     9.9610     9.0040     9.2890    25.1800 
  211.3750    -1.3380     2.1930    67.6670     9.1910     8.3290     9.6660    25.1900 
  211.5000    -1.1990     2.1900    69.1100     8.8200     7.9460     9.1920    25.1820 
  211.6250    -1.0940     2.1890    69.9260     8.7790     7.8470     8.6830    25.1540 
  211.7500    -1.0450     2.2010    67.8860     8.8640     7.8920     8.2200    25.1170 
  211.8750    -1.0180     2.2350    64.8370     8.9660     7.9850     8.0240    25.0750 
  212.0000    -0.9890     2.2820    62.4900     9.0310     8.0530     7.8970    25.0370 
  212.1250    -0.9460     2.3240    63.2200     9.0230     8.0480     7.8240    25.0100 
  212.2500    -0.9030     2.3530    65.0290     8.9330     7.9670     7.9240    24.9970 
  212.3750    -0.8740     2.3710    65.2670     8.7570     7.8110     8.0150    25.0060 
  212.5000    -0.8880     2.3850    64.6960     8.5320     7.6070     7.3540    25.0350 
  212.6250    -0.9600     2.3820    64.8480     8.3430     7.4120     6.7010    25.0750 
  212.7500    -1.0860     2.3460    65.9180     8.2640     7.2790     6.2930    25.1140 
  212.8750    -1.2490     2.2570    67.2740     8.3330     7.2430     6.2940    25.1480 
  213.0000    -1.4270     2.1900    69.1560     8.5420     7.3100     6.3830    25.1740 
  213.1250    -1.5980     2.1350    69.9930     8.8350     7.4650     6.4120    25.1890 
  213.2500    -1.7550     2.0960    67.9300     9.1160     7.6400     6.1940    25.1980 
  213.3750    -1.8840     2.0790    66.0110     9.3180     7.7810     5.9190    25.2000 
  213.5000    -2.0010     2.0870    68.6260     9.4020     7.8470     6.1580    25.1880 
  213.6250    -2.1230     2.1080    71.8860     9.3540     7.8090     6.7130    25.1580 
  213.7500    -2.2840     2.1280    69.3330     9.2430     7.7070     7.1500    25.1150 
  213.8750    -2.4640     2.1430    64.1170     9.1270     7.5850     7.2030    24.9200 
  214.0000    -2.6620     2.1590    63.0960     9.0490     7.4840     7.0930    24.8600 
  214.1250    -2.8300     2.1900    65.5300     9.0340     7.4340     7.2170    24.8600 
  214.2500    -2.9880     2.2530    66.2570     9.0600     7.4260     7.2630    24.8590 
  214.3750    -3.1470     2.3490    66.0470     9.1120     7.4550     7.3420    24.8590 
  214.5000    -3.2790     2.4240    65.7980     9.1880     7.5220     7.6300    24.8580 
  214.6250    -3.4030     2.4540    63.8040     9.3050     7.6300     8.8600    24.8570 
  214.7500    -3.4860     2.4550    63.3930     9.4500     7.7600     9.2950    24.8530 
  214.8750    -3.5470     2.4360    65.8940     9.5860     7.8800     9.0790    24.8440 
  215.0000    -3.5960     2.4050    68.6370     9.6500     7.9540     8.6180    24.8340 
  215.1250    -3.6270     2.3620    68.9250     9.5770     7.9380     8.6290    24.8240 
  215.2500    -3.6360     2.3120    69.4460     9.3960     7.8450     8.7620    24.8140 
  215.3750    -3.6370     2.2610    70.7010     9.1680     7.6990     8.6280    24.8060 
  215.5000    -3.6520     2.2220    70.8680     8.9570     7.5310     8.1150    24.7990 
  215.6250    -3.6770     2.2100    70.2240     8.8100     7.3760     9.0320    24.7950 
  215.7500    -3.7290     2.2180    69.8310     8.7070     7.2510    11.1970    24.7890 
  215.8750    -3.8230     2.2260    68.0850     8.6330     7.1650    10.6200    24.7750 
  216.0000    -3.9370     2.2130    65.4100     8.5750     7.1140     8.3220    24.7550 
  216.1250    -4.0940     2.1780    65.7100     8.5320     7.0890     7.9520    24.7920 
  216.2500    -4.2780     2.1530    66.9620     8.4970     7.0760     8.9020    24.7940 
  216.3750    -4.4560     2.1620    66.9010     8.4730     7.0690     8.0640    24.8090 
  216.5000    -4.6200     2.2080    67.4290     8.4660     7.0720     6.3970    24.8370 
  216.6250    -4.7510     2.2590    70.8150     8.4870     7.0920     5.6710    24.8750 
  216.7500    -4.8210     2.2740    73.2560     8.5420     7.1340     5.6710    24.9140 
  216.8750    -4.8420     2.2490    71.2680     8.6380     7.2010     5.8760    24.9480 
  217.0000    -4.8490     2.2110    66.4700     8.7780     7.2990     6.2020    24.9740 
  217.1250    -4.8180     2.1970    63.8900     8.9610     7.4270     6.3430    24.9880 
  217.2500    -4.7850     2.2220    65.7560     9.1590     7.5720     6.0170    24.9890 
  217.3750    -4.7760     2.2770    69.9900     9.3530     7.7200     5.6510    24.9770 
  217.5000    -4.7630     2.3400    72.5690     9.5260     7.8630     5.6770    24.9590 
  217.6250    -4.7490     2.3780    72.3960     9.6700     7.9930     6.1810    24.9440 
  217.7500    -4.7610     2.3870    72.1520     9.7920     8.1100     6.5010    24.9360 
  217.8750    -4.7710     2.3780    70.5020     9.8870     8.2140     6.5870    24.9330 
  218.0000    -4.7730     2.3620    68.2360     9.9470     8.2960     6.9380    24.9380 
  218.1250    -4.8090     2.3470    68.7460     9.9710     8.3440     7.5940    24.9510 
  218.2500    -4.8580     2.3400    70.9570     9.9790     8.3670     7.9830    24.9760 
  218.3750    -4.8860     2.3430    71.3620     9.9880     8.3820     7.8650    25.0100 
  218.5000    -4.9120     2.3570    69.5540    10.0130     8.4080     7.7960    25.0500 
  218.6250    -4.9340     2.3650    69.1200    10.0600     8.4660     7.9820    25.0920 
  218.7500    -4.9190     2.3570    70.5920    10.1040     8.5360     8.1630    25.1290 
  218.8750    -4.9000     2.3330    70.9160    10.0950     8.5760     8.3060    25.1530 
  219.0000    -4.8920     2.3050    69.8990     9.9880     8.5400     8.4920    25.1560 
  219.1250    -4.8980     2.2890    70.8670     9.7610     8.3960     8.7000    25.1250 
  219.2500    -4.9320     2.2800    72.4390     9.4850     8.1980     8.4510    25.0700 
  219.3750    -5.0200     2.2710    71.0810     9.2310     8.0100     8.3360    25.0010 
