~V
VERS. 2.00: Ver 2.00
~W
STRT.M 55.0000:
STOP.M 248.0000:
STEP.M 0.1250:
NULL. -999.2500:
UWI. F10184:
~C
DEPT.M :
SP.MV :
GR.API :
RML.OHMM :
RI. :
RXO.OHMM :
CALI.CM :
DEN.GM/CC :
~A
# ...
   77.5000   -11.0930    64.7250     9.1380     6.5880     7.2150    23.3710     2.1400 
   77.6250   -11.1220    64.6140     9.2230     6.5800     7.3610    23.3620     2.1350 
   77.7500   -11.0590    64.4770     9.2450     6.5500     7.3540    23.4150     2.1280 
   77.8750   -11.0610    65.3830     9.1810     6.4820     7.1170    23.6370     2.1160 
   78.0000   -10.9770    67.5960     9.0320     6.3800     6.8390    24.0170     2.0960 
   78.1250   -10.7670    67.1870     8.8250     6.2470     6.7890    24.1060     2.0760 
   78.2500   -10.6020    63.3460     8.6020     6.1020     6.8210    23.8800     2.0710 
   78.3750   -10.4050    59.2660     8.3760     5.9580     6.8240    23.5430     2.0830 
   78.5000   -10.0500    56.7440     8.1640     5.8340     6.8420    23.3490     2.1020 
   78.6250    -9.6670    56.0100     8.0060     5.7520     6.7930    23.2940     2.1120 
   78.7500    -9.2780    57.3370     7.9260     5.7170     6.7470    23.2580     2.1160 
   78.8750    -8.7150    60.7680     7.9430     5.7280     6.7160    23.2240     2.1190 
   79.0000    -8.0780    64.1870     8.0420     5.7740     6.7400    23.2000     2.1240 
   79.1250    -7.4470    65.3170     8.1540     5.8240     6.8710    23.1670     2.1330 
   79.2500    -6.6900    65.6870     8.1760     5.8300     7.0400    23.1220     2.1460 
   79.3750    -5.8000    67.8150     8.0450     5.7530     7.1470    23.1360     2.1670 
   79.5000    -4.8930    73.3570     7.7520     5.5790     7.0180    23.2860     2.1950 
   79.6250    -3.9880    82.6940     7.3630     5.3330     6.4050    23.6630     2.2280 
   79.7500    -3.0100    91.8590     7.0240     5.0970     5.8090    24.0790     2.2610 
   79.8750    -2.0910    95.1850     6.8290     4.9250     5.5740    24.3780     2.2870 
   80.0000    -1.2920    92.2450     6.7970     4.8410     5.6370    24.5080     2.3000 
   80.1250    -0.4970    88.2030     6.8770     4.8460     5.8030    24.4510     2.2930 
   80.2500     0.1760    86.8940     6.9490     4.8830     5.9690    24.3700     2.2700 
   80.3750     0.6250    86.4000     6.9410     4.9020     6.0900    24.3710     2.2450 
   80.5000     0.9730    84.6030     6.8380     4.8700     5.9600    24.4690     2.2290 
   80.6250     1.2750    83.2970     6.6710     4.7760     5.7490    24.5680     2.2280 
   80.7500     1.4060    84.3010     6.5040     4.6570     5.4870    24.5970     2.2360 
   80.8750     1.4870    88.2630     6.3560     4.5400     5.3840    24.5960     2.2490 
   81.0000     1.5460    95.3310     6.2250     4.4370     5.4210    24.5990     2.2630 
   81.1250     1.4530   101.6420     6.1090     4.3440     5.3610    24.5930     2.2700 
   81.2500     1.3630   102.7770     6.0110     4.2550     5.2020    24.5490     2.2760 
   81.3750     1.3000   100.2580     5.9440     4.1740     5.0930    24.5080     2.2860 
   81.5000     1.0940    98.1330     5.9230     4.1120     5.0070    24.5070     2.2970 
   81.6250     0.7490    99.7240     5.9610     4.0860     4.9880    24.5040     2.2970 
   81.7500     0.4290   101.6540     6.0480     4.0950     4.9370    24.4640     2.2860 
   81.8750    -0.0020    99.1570     6.1880     4.1360     4.9650    24.3660     2.2680 
   82.0000    -0.5480    93.2560     6.3940     4.2150     5.0520    24.2080     2.2440 
   82.1250    -1.1120    89.6320     6.6930     4.3600     5.3450    23.8830     2.2130 
   82.2500    -1.7200    88.9290     7.0790     4.5830     5.8520    23.4960     2.1850 
   82.3750    -2.3960    87.8140     7.5390     4.8920     6.1630    23.1470     2.1690 
   82.5000    -3.0630    84.8680     8.0470     5.2710     6.3610    22.8740     2.1650 
   82.6250    -3.6150    81.7890     8.5490     5.6820     6.6920    22.7070     2.1650 
   82.7500    -4.1670    77.6790     8.9720     6.0530     7.0800    22.6070     2.1640 
   82.8750    -4.6380    73.0300     9.2530     6.3240     7.4610    22.5740     2.1700 
   83.0000    -4.9610    69.5610     9.3590     6.4650     7.6140    22.5690     2.1840 
   83.1250    -5.2450    69.7920     9.2950     6.4700     7.4570    22.5560     2.1940 
   83.2500    -5.4830    72.9560     9.1550     6.4080     7.2730    22.4790     2.1940 
   83.3750    -5.5700    76.1640     9.0090     6.3340     7.1800    22.3330     2.1870 
   83.5000    -5.5410    76.5340     8.9170     6.2860     7.2200    22.2100     2.1800 
   83.6250    -5.5470    73.1790     8.9380     6.2860     7.2010    22.1310     2.1760 
   83.7500    -5.4560    69.7430     9.0620     6.3220     7.0340    22.1460     2.1720 
   83.8750    -5.3140    68.4910     9.2460     6.3780     6.8260    22.1980     2.1690 
   84.0000    -5.1690    69.2290     9.4020     6.4290     6.6940    22.2290     2.1680 
   84.1250    -4.8410    69.6850     9.3660     6.4090     6.5590    22.1940     2.1710 
   84.2500    -4.4580    68.8650     9.0600     6.2590     6.4490    22.2140     2.1760 
   84.3750    -4.1160    69.5810     8.4810     5.9510     6.3470    22.4600     2.1810 
   84.5000    -3.7040    75.2360     7.7380     5.5170     6.1340    22.9930     2.1910 
   84.6250    -3.1290    84.0520     7.0470     5.0620     5.7070    23.6430     2.2090 
   84.7500    -2.6120    90.2750     6.6180     4.7220     5.3950    24.1650     2.2300 
   84.8750    -2.1860    93.0970     6.5890     4.5940     5.4660    24.3700     2.2410 
   85.0000    -1.7700    93.1760     7.0290     4.7530     5.6540    24.2660     2.2390 
   85.1250    -1.4970    87.9690     7.9570     5.2810     6.1290    23.9420     2.2280 
   85.2500    -1.3520    79.9970     9.0960     6.0630     6.9330    23.5270     2.2210 
   85.3750    -1.2020    72.5760    10.1230     6.9260     7.8970    23.1790     2.2220 
   85.5000    -1.0560    68.3010    10.6790     7.5990     8.7150    22.9230     2.2300 
   85.6250    -1.0100    68.5370    10.4360     7.7410     8.3720    22.7540     2.2380 
   85.7500    -0.8880    73.7570     9.6560     7.4020     6.9700    22.6570     2.2340 
   85.8750    -0.6330    81.0330     8.6630     6.7740     5.9740    22.6390     2.2250 
   86.0000    -0.3600    87.4740     7.7350     6.0890     5.2960    22.7320     2.2260 
   86.1250     0.0320    93.4710     7.0590     5.5260     5.0100    22.8820     2.2460 
   86.2500     0.5430    98.0200     6.6140     5.1110     4.7550    22.9940     2.2700 
   86.3750     0.9860   100.4130     6.3480     4.8170     4.5610    23.0850     2.2850 
   86.5000     1.3120   101.9140     6.1900     4.5940     4.4630    23.2080     2.2940 
   86.6250     1.6460   102.2130     6.0690     4.4030     4.5780    23.3850     2.3050 
   86.7500     1.8640    98.8060     5.9400     4.2250     4.6680    23.5970     2.3160 
   86.8750     1.9820    94.8660     5.7860     4.0650     4.6760    23.8250     2.3180 
   87.0000     2.0560    93.4880     5.5970     3.9260     4.6640    24.1190     2.3110 
   87.1250     1.9210    94.0400     5.3740     3.8150     4.8520    24.4500     2.3050 
   87.2500     1.6870    94.7100     5.1930     3.7500     4.9310    24.8180     2.3030 
   87.3750     1.4760    96.1890     5.1930     3.7910     4.8770    25.0120     2.3060 
   87.5000     1.2080    97.2040     5.5360     4.0230     4.9480    25.0060     2.3130 
   87.6250     0.7260    94.4000     6.4410     4.5870     5.5220    24.8750     2.3240 
   87.7500     0.1950    89.9330     7.8170     5.4790     7.7210    24.6890     2.3370 
   87.8750    -0.3870    86.3660     9.4340     6.6290    12.6500    24.4500     2.3490 
   88.0000    -1.0930    81.0040    10.8660     7.8030    16.0910    24.0690     2.3520 
   88.1250    -1.7880    73.6340    11.5040     8.5530    11.4520    23.5680     2.3290 
   88.2500    -2.4670    70.6950    11.3380     8.7200     7.8940    23.2270     2.2810 
   88.3750    -3.2190    73.5860    10.7010     8.4390     6.8260    23.0800     2.2240 
   88.5000    -3.9070    76.5080    10.0300     7.9930     6.7770    22.9900     2.1820 
   88.6250    -4.3880    73.6650     9.6450     7.6400     6.8240    22.8780     2.1630 
