~V
VERS. 2.00: Ver 2.00
~W
STRT.M 59.0000:
STOP.M 212.0000:
STEP.M 0.1250:
NULL. -999.2500:
UWI. F10143:
~C
DEPT.M :
GR.API :
RML.OHMM :
RI. :
RXO.OHMM :
CALI.CM :
SP.MV :
DEN.GM/CC :
~A
# ...
  104.0000    59.6970    10.2440     7.7760    11.6120    24.4820   -38.2990     2.1870 
  104.1250    60.0830    10.0800     7.7770    11.7760    24.7290   -38.3860     2.1600 
  104.2500    61.0360     9.9530     7.7840    11.7740    25.0460   -38.4370     2.1220 
  104.3750    61.0210     9.8730     7.8080    11.4920    25.3100   -38.4050     2.0870 
  104.5000    60.4390     9.8250     7.8510    10.9790    25.4790   -38.2450     2.0670 
  104.6250    60.1800     9.7700     7.8950    10.5390    25.5800   -37.9010     2.0670 
  104.7500    59.9620     9.6800     7.9120    10.2110    25.5970   -37.3690     2.0800 
  104.8750    59.0070     9.5580     7.8800     9.9000    25.4920   -36.6390     2.1030 
  105.0000    58.8980     9.4300     7.7880     9.5460    25.3570   -35.7300     2.1310 
  105.1250    63.8580     9.3140     7.6090     8.3400    25.3370   -34.6470     2.1590 
  105.2500    71.4170     9.1660     7.3380     7.2170    25.3220   -33.4410     2.1800 
  105.3750    78.0140     8.9000     6.9720     7.0290    25.2300   -32.1810     2.1940 
  105.5000    81.9470     8.4460     6.5160     7.2430    25.1170   -30.9200     2.2050 
  105.6250    86.2150     7.8130     5.9990     6.2860    25.0920   -29.7360     2.2170 
  105.7500    92.6790     7.1570     5.4970     5.1300    25.0970   -28.6990     2.2310 
  105.8750    98.9160     6.5850     5.0670     4.6740    25.1060   -27.8620     2.2480 
  106.0000   102.6810     6.1270     4.7360     4.6220    25.1120   -27.2520     2.2700 
  106.1250   103.2440     5.7820     4.5250     4.6550    25.1320   -26.9290     2.2890 
  106.2500   103.5870     5.5800     4.4480     4.7600    25.1750   -26.8580     2.2990 
  106.3750   103.6930     5.6670     4.5710     4.9760    25.2190   -27.0310     2.3060 
  106.5000   101.5170     6.2220     4.9790     5.2380    25.2410   -27.4410     2.3150 
  106.6250    96.6890     7.4700     5.8050     6.2060    25.2070   -28.1070     2.3300 
  106.7500    88.7660     9.2260     6.9760     9.6400    25.0930   -28.9460     2.3440 
  106.8750    76.7810    11.1070     8.3000    18.4400    24.9100   -29.9000     2.3420 
  107.0000    65.4810    12.4570     9.3730    22.5530    24.7260   -30.9140     2.3050 
  107.1250    63.0190    12.4980     9.6500    15.6340    24.5890   -31.9230     2.2390 
  107.2500    66.2640    11.5940     9.2600    11.1590    24.5480   -32.8830     2.1830 
  107.3750    69.7120    10.3880     8.5490     9.7950    24.5690   -33.7550     2.1580 
  107.5000    71.3600     9.4190     7.8540     9.6100    24.6010   -34.5150     2.1560 
  107.6250    72.3020     8.9600     7.3990     9.8750    24.6240   -35.1060     2.1660 
  107.7500    71.2310     8.9010     7.2030    10.0850    24.6390   -35.5380     2.1840 
  107.8750    68.9350     9.2430     7.3030    10.3330    24.6760   -35.8280     2.2100 
  108.0000    66.5660    10.1220     7.7890    10.7290    24.7250   -35.9980     2.2450 
  108.1250    63.8210    11.8530     8.8870    11.6160    24.7840   -36.0700     2.2920 
  108.2500    62.5240    14.3050    10.5460    15.0360    24.8710   -36.0810     2.3440 
  108.3750    64.0060    17.0190    12.5180    24.3860    24.9480   -36.0690     2.3840 
  108.5000    66.3280    18.9840    14.1370    34.3030    24.9490   -36.0660     2.3870 
  108.6250    67.0750    18.6640    14.2750    31.0900    24.8810   -36.1110     2.3390 
  108.7500    67.2460    16.4630    13.0540    20.2090    24.7480   -36.2030     2.2670 
  108.8750    67.8330    13.6510    11.2290    13.0320    24.5960   -36.3310     2.2000 
  109.0000    67.1410    11.4240     9.5470    10.4030    24.4860   -36.4750     2.1570 
  109.1250    65.3560    10.4360     8.4630     9.8410    24.4490   -36.6480     2.1450 
  109.2500    64.2480    10.3250     7.9100     9.8210    24.4410   -36.8560     2.1470 
  109.3750    64.5110    10.7270     7.7760     9.8430    24.4350   -37.0820     2.1520 
  109.5000    66.2220    11.2760     7.9020    10.1400    24.4220   -37.2920     2.1520 
  109.6250    67.0470    11.6810     8.1300    10.4360    24.4150   -37.4240     2.1490 
  109.7500    66.6350    11.8430     8.3240    10.8670    24.4570   -37.4660     2.1450 
  109.8750    66.4520    11.7390     8.4290    11.1480    24.5300   -37.4080     2.1420 
  110.0000    66.9600    11.3980     8.4300    11.1340    24.5760   -37.2560     2.1410 
  110.1250    66.7090    10.9280     8.3420    10.9570    24.5870   -36.9670     2.1420 
  110.2500    66.2130    10.5250     8.2280    10.7230    24.5850   -36.5450     2.1490 
  110.3750    67.8920    10.3040     8.1310    10.3620    24.5790   -35.9710     2.1630 
  110.5000    70.2950    10.2750     8.0700     9.8850    24.5700   -35.2660     2.1800 
  110.6250    69.2900    10.4090     8.0330     9.6760    24.5590   -34.4530     2.1920 
  110.7500    66.5220    10.6230     7.9850     9.7940    24.5590   -33.5780     2.1970 
  110.8750    64.6040    10.8600     7.9090     9.8110    24.5410   -32.6900     2.2020 
  111.0000    65.4180    11.0970     7.8230     9.3350    24.5310   -31.8360     2.2100 
  111.1250    68.8210    11.3210     7.7990     8.8520    24.5470   -31.0740     2.2160 
  111.2500    71.4190    11.5100     7.8880     8.7180    24.5720   -30.4170     2.2180 
  111.3750    70.9170    11.6440     8.0840     8.9070    24.5850   -29.8690     2.2160 
  111.5000    68.9630    11.6880     8.3140     9.3460    24.5960   -29.4130     2.2070 
  111.6250    68.6220    11.5810     8.4640     9.6420    24.6210   -29.0590     2.1990 
  111.7500    70.2340    11.3570     8.5050     9.4610    24.6490   -28.7750     2.2070 
  111.8750    71.1740    11.1540     8.4880     9.4070    24.6350   -28.5510     2.2330 
  112.0000    69.6620    11.2000     8.5300     9.5660    24.5570   -28.3570     2.2610 
  112.1250    65.3420    11.6890     8.7510    10.2660    24.4330   -28.1400     2.2690 
  112.2500    62.3980    12.4150     9.0900    10.8460    24.3330   -27.8530     2.2680 
  112.3750    62.5720    13.0390     9.3990    11.6880    24.3290   -27.4840     2.2630 
  112.5000    64.3600    13.1360     9.4760    12.6990    24.4290   -27.0320     2.2510 
  112.6250    65.5430    12.3310     9.0830    12.4840    24.6270   -26.4710     2.2290 
  112.7500    69.1100    10.9890     8.3320    10.0780    24.8660   -25.8450     2.1990 
  112.8750    76.1460     9.5940     7.4530     7.3900    25.0830   -25.1830     2.1700 
  113.0000    83.0680     8.5370     6.6870     6.0780    25.2090   -24.5120     2.1530 
  113.1250    85.2540     8.0300     6.2170     5.8280    25.2510   -23.8770     2.1600 
  113.2500    84.3710     7.9100     6.0030     5.9290    25.2800   -23.3310     2.1830 
  113.3750    82.6940     8.0110     5.9700     5.9250    25.3040   -22.8850     2.2070 
  113.5000    80.3740     8.1650     6.0110     5.8620    25.3140   -22.5590     2.2260 
  113.6250    78.1210     8.2310     6.0250     5.8150    25.3190   -22.3780     2.2410 
  113.7500    79.0210     8.1940     5.9970     5.6760    25.3360   -22.3020     2.2540 
  113.8750    81.9190     8.1030     5.9760     5.5770    25.3630   -22.3040     2.2600 
  114.0000    84.1130     8.0190     6.0140     5.5870    25.3710   -22.3570     2.2550 
  114.1250    86.0410     7.9710     6.1390     5.6730    25.3310   -22.4530     2.2440 
  114.2500    88.2000     7.9420     6.2930     6.1590    25.2730   -22.5770     2.2330 
  114.3750    89.7720     7.8780     6.3810     7.4030    25.2540   -22.7230     2.2290 
  114.5000    90.0530     7.6920     6.3090     8.3710    25.2570   -22.8640     2.2330 
  114.6250    89.0490     7.3110     6.0610     7.0070    25.2050   -22.9830     2.2450 
  114.7500    86.2190     6.9240     5.8110     5.9370    25.1280   -23.0830     2.2560 
  114.8750    81.9110     6.7930     5.7410     5.5860    25.0940   -23.1660     2.2610 
  115.0000    76.6590     7.1260     5.9830     5.8350    25.0720   -23.2240     2.2590 
  115.1250    71.6480     8.0370     6.6430     6.7040    25.0040   -23.2470     2.2580 
