~V
VERS. 2.00: Ver 2.00
~W
STRT.M 55.0000:
STOP.M 251.0000:
STEP.M 0.1250:
NULL. -999.2500:
UWI. F10189:
~C
DEPT.M :
DEN.GM/CC :
SP.MV :
GR.API :
RML.OHMM :
RI. :
RXO.OHMM :
CALI.CM :
~A
# ...
  156.2500     2.2910   -12.6950    78.9940    12.3420    10.9860    15.2870    24.7470 
  156.3750     2.3040   -12.6650    82.0600    12.6100    11.1890    16.8460    24.7340 
  156.5000     2.3110   -12.6400    85.3440    13.0970    11.7240    19.0560    24.6890 
  156.6250     2.3150   -12.6190    83.9400    13.6990    12.5230    21.2800    24.6300 
  156.7500     2.3120   -12.6100    76.2580    14.2200    13.3380    22.0210    24.5670 
  156.8750     2.2970   -12.6190    66.9630    14.4870    13.9220    21.6000    24.5130 
  157.0000     2.2810   -12.6530    63.8320    14.3920    14.0790    20.8170    24.4740 
  157.1250     2.2760   -12.6950    67.1520    13.9430    13.7410    19.6870    24.4310 
  157.2500     2.2800   -12.7230    70.6110    13.3750    13.1810    17.9250    24.3930 
  157.3750     2.2820   -12.7460    74.4980    12.7480    12.5330    15.6940    24.3750 
  157.5000     2.2810   -12.7690    79.4870    11.9880    11.7820    13.0770    24.3820 
  157.6250     2.2850   -12.7870    82.1150    10.9140    10.7860    11.5560    24.3710 
  157.7500     2.2910   -12.7780    80.8670     9.5540     9.5450    10.2490    24.3480 
  157.8750     2.2970   -12.7360    79.3200     8.0830     8.1800     9.1870    24.3890 
  158.0000     2.3000   -12.6710    80.9420     6.8090     6.9280     8.3390    24.5980 
  158.1250     2.3030   -12.5960    85.9830     6.1270     6.1270     6.9780    25.0160 
  158.2500     2.3120   -12.5370    89.0110     6.0970     5.8570     6.5620    25.2440 
  158.3750     2.3270   -12.4950    87.4820     6.6990     6.1400     7.1790    25.2100 
  158.5000     2.3360   -12.4630    82.8730     7.8090     6.9280     8.4100    24.8980 
  158.6250     2.3210   -12.4420    79.0010     9.0840     8.0350     9.9550    24.5900 
  158.7500     2.2990   -12.4270    78.4110     9.9020     8.9210    10.9430    24.4780 
  158.8750     2.2910   -12.4250    79.6870     9.8480     9.1290    10.5700    24.4820 
  159.0000     2.3020   -12.4510    80.4440     9.0560     8.6000     9.4440    24.4770 
  159.1250     2.3140   -12.4980    81.3830     8.2180     7.7840     9.0810    24.5220 
  159.2500     2.3170   -12.5550    83.8510     7.9600     7.2990    10.6110    24.5960 
  159.3750     2.3260   -12.6300    84.9620     8.5550     7.4840    13.2590    24.4630 
  159.5000     2.3490   -12.7140    80.7060    10.1160     8.5300    16.5270    24.2510 
  159.6250     2.3860   -12.7910    72.4550    12.7650    10.6450    20.2450    24.1270 
  159.7500     2.4210   -12.8840    67.6390    15.9700    13.4210    23.1280    24.0930 
  159.8750     2.4350   -13.0000    65.4530    18.8920    16.1540    24.9530    24.0670 
  160.0000     2.4160   -13.1100    61.8340    20.4760    17.8660    25.0130    24.0460 
  160.1250     2.3750   -13.2110    59.5420    20.0020    17.7690    22.7010    24.0070 
  160.2500     2.3410   -13.3060    63.8660    18.4890    16.6080    19.0690    23.9920 
  160.3750     2.3240   -13.3500    72.2130    16.7210    15.0550    16.2750    23.9750 
  160.5000     2.3200   -13.3540    76.5210    15.0550    13.4900    15.3400    23.9370 
  160.6250     2.3190   -13.3590    75.5520    13.6060    12.1010    15.0630    23.9750 
  160.7500     2.3140   -13.3820    77.3150    12.4440    10.9680    14.5100    24.0920 
  160.8750     2.3100   -13.3910    82.1040    11.7730    10.2230    14.1720    24.2310 
  161.0000     2.3110   -13.3850    84.4970    11.8440    10.0260    15.2260    24.3810 
  161.1250     2.3110   -13.3870    80.7160    13.0570    10.6880    17.5610    24.5150 
  161.2500     2.3050   -13.3940    74.4120    15.3330    12.2380    21.6120    24.6000 
  161.3750     2.2930   -13.4150    69.0020    18.4540    14.6340    26.4470    24.6940 
  161.5000     2.2800   -13.4580    66.0390    21.6880    17.4230    30.5550    24.8010 
  161.6250     2.2700   -13.4980    65.0380    23.3620    19.3400    32.8610    24.8580 
  161.7500     2.2610   -13.5070    65.8910    22.8570    19.5580    31.7360    24.8630 
  161.8750     2.2510   -13.5160    68.5630    21.0020    18.3870    28.7360    24.8370 
  162.0000     2.2430   -13.5440    70.9770    19.2960    16.9030    26.3770    24.8230 
  162.1250     2.2340   -13.5760    69.9280    19.0180    16.2520    25.1800    24.8460 
  162.2500     2.2240   -13.6230    69.0760    20.2290    16.7590    27.1920    24.8910 
  162.3750     2.2130   -13.6840    70.0190    22.7250    18.4200    30.5750    24.8940 
  162.5000     2.2100   -13.7510    69.4040    25.9450    20.9170    32.8780    24.7910 
  162.6250     2.2220   -13.8470    65.6120    28.5620    23.3490    33.2090    24.5930 
  162.7500     2.2430   -13.9650    63.5650    29.2740    24.5510    31.8390    24.4170 
  162.8750     2.2670   -14.0820    63.9850    27.7470    23.9780    30.9410    24.3400 
  163.0000     2.2910   -14.1970    63.9390    24.7050    21.9160    29.3680    24.3210 
  163.1250     2.3160   -14.2960    62.6640    21.1780    19.0640    25.1660    24.3030 
  163.2500     2.3360   -14.3620    61.8170    17.8510    16.1510    20.6920    24.2680 
  163.3750     2.3440   -14.4320    62.1150    14.8890    13.4340    16.7850    24.2400 
  163.5000     2.3420   -14.4960    64.4090    12.3450    11.0490    13.0730    24.2650 
  163.6250     2.3350   -14.5220    69.4050    10.3280     9.1630    10.2870    24.3820 
  163.7500     2.3260   -14.5170    76.0040     8.7740     7.7250     8.3610    24.4910 
  163.8750     2.3160   -14.4810    82.4120     7.6670     6.6960     6.6840    24.4800 
  164.0000     2.3070   -14.4230    87.2660     6.9510     6.0110     5.3840    24.3890 
  164.1250     2.3020   -14.3510    87.8360     6.5630     5.6300     4.6660    24.3990 
  164.2500     2.3020   -14.2520    86.6900     6.3350     5.4260     4.4930    24.4400 
  164.3750     2.3050   -14.1200    86.8400     6.1880     5.3310     4.5530    24.4390 
  164.5000     2.3070   -13.9830    87.8540     6.0850     5.2990     4.7440    24.4570 
  164.6250     2.3070   -13.8440    85.3830     6.0150     5.3020     4.8050    24.5290 
  164.7500     2.3080   -13.7020    81.9310     5.9700     5.3270     4.7540    24.5640 
  164.8750     2.3100   -13.5740    81.7340     5.9560     5.3750     4.7790    24.4860 
  165.0000     2.3100   -13.4400    84.3300     5.9890     5.4530     5.1110    24.3890 
  165.1250     2.3090   -13.3090    86.3090     6.0960     5.5690     5.4940    24.3830 
  165.2500     2.3080   -13.2140    86.6410     6.2610     5.7060     5.6730    24.4550 
  165.3750     2.3070   -13.1470    86.4140     6.4410     5.8370     5.6700    24.5460 
  165.5000     2.3080   -13.0860    85.9970     6.5780     5.9320     5.6330    24.5730 
  165.6250     2.3090   -13.0070    85.2650     6.5910     5.9450     5.7180    24.5870 
  165.7500     2.3100   -12.9640    84.7100     6.4800     5.8680     5.6140    24.6220 
  165.8750     2.3130   -12.9580    85.3500     6.2690     5.7140     5.4190    24.6840 
  166.0000     2.3200   -12.9940    87.4200     6.0200     5.5210     5.2420    24.7140 
  166.1250     2.3250   -13.0780    87.8010     5.8220     5.3480     4.7930    24.7000 
  166.2500     2.3230   -13.2050    86.2040     5.7180     5.2340     4.7610    24.6830 
  166.3750     2.3190   -13.3640    83.6150     5.7070     5.1890     4.9150    24.6650 
  166.5000     2.3150   -13.5860    82.6560     5.7580     5.2010     5.1800    24.6660 
  166.6250     2.3110   -13.9160    85.5180     5.8450     5.2550     5.7450    24.7130 
  166.7500     2.3070   -14.2940    89.1470     5.9700     5.3380     6.0840    24.7310 
  166.8750     2.3030   -14.7140    89.4980     6.1570     5.4520     5.9260    24.7020 
  167.0000     2.3060   -15.1790    85.3720     6.4160     5.5970     5.8690    24.6580 
  167.1250     2.3110   -15.7260    79.5620     6.7700     5.7820     6.4960    24.5910 
  167.2500     2.3140   -16.3510    75.8760     7.2720     6.0410     8.0610    24.4750 
  167.3750     2.3110   -17.0590    76.4960     8.1190     6.4890    10.9440    24.3570 
