~V
VERS. 2.00: Ver 2.00
~W
STRT.M 55.0000:
STOP.M 224.0000:
STEP.M 0.1250:
NULL. -999.2500:
UWI. F10137:
~C
DEPT.M :
DEN.GM/CC :
SP.MV :
GR.API :
RML.OHMM :
RI. :
RXO.OHMM :
CALI.CM :
~A
# ...
   66.2500     2.0970   -27.6140    62.2010     6.7830     7.8400     9.8680    24.8820 
   66.3750     2.0920   -27.5680    61.8370     6.8880     7.8380    10.0860    24.8930 
   66.5000     2.0850   -27.4840    59.5120     6.9360     7.8180    10.7000    24.8830 
   66.6250     2.0800   -27.3570    57.1480     6.9620     7.7800    11.0700    24.8380 
   66.7500     2.0800   -27.1940    55.9530     6.9880     7.7340    11.0500    24.7850 
   66.8750     2.0850   -27.0300    55.5530     7.0290     7.6990    10.9730    24.7410 
   67.0000     2.0890   -26.8660    56.2280     7.0900     7.6890    10.9110    24.7210 
   67.1250     2.0940   -26.6930    58.3940     7.1680     7.7050    10.7580    24.7400 
   67.2500     2.0990   -26.4950    60.9880     7.2500     7.7430    10.6610    24.8040 
   67.3750     2.1020   -26.3130    61.5160     7.3160     7.7840    10.7990    24.8960 
   67.5000     2.0980   -26.1590    59.3280     7.3570     7.8110    10.9300    25.0200 
   67.6250     2.0810   -26.0070    56.0590     7.3860     7.8180    10.7870    25.2390 
   67.7500     2.0560   -25.8330    53.3420     7.4220     7.8170    10.4840    25.6000 
   67.8750     2.0310   -25.6160    51.6960     7.4830     7.8290    10.3620    26.0360 
   68.0000     2.0150   -25.3870    51.4370     7.5610     7.8650    10.4370    26.3400 
   68.1250     2.0170   -25.1990    52.7200     7.6310     7.9180    10.4900    26.3890 
   68.2500     2.0360   -25.0410    54.4010     7.6750     7.9700    10.2860    26.2640 
   68.3750     2.0600   -24.8540    55.2840     7.6800     7.9950     9.8500    26.1780 
   68.5000     2.0770   -24.6230    55.3640     7.6530     7.9750     9.5440    26.2210 
   68.6250     2.0790   -24.3720    55.1340     7.5990     7.9090     9.4920    26.3340 
   68.7500     2.0730   -24.1320    55.2100     7.5170     7.8050     9.4950    26.3640 
   68.8750     2.0690   -23.9130    56.1230     7.4100     7.6810     9.5710    26.1290 
   69.0000     2.0710   -23.6810    58.1750     7.2970     7.5650     9.8400    25.6920 
   69.1250     2.0760   -23.3890    59.9920     7.2140     7.4910     9.9350    25.3680 
   69.2500     2.0790   -23.0250    60.1610     7.2150     7.4970     9.7580    25.2680 
   69.3750     2.0830   -22.6150    58.3030     7.3680     7.6270     9.8600    25.2590 
   69.5000     2.0930   -22.1870    56.0340     7.6720     7.8740    10.0560    25.2450 
   69.6250     2.1120   -21.7520    56.0610     8.0140     8.1550    10.1340    25.2330 
   69.7500     2.1340   -21.2940    59.3200     8.1990     8.3200    10.2100    25.2650 
   69.8750     2.1550   -20.7990    64.3860     7.9690     8.1580    10.2150    25.4410 
   70.0000     2.1700   -20.2700    69.0440     7.2890     7.6070     9.6740    25.8650 
   70.1250     2.1800   -19.7410    73.5450     6.3640     6.7860     8.2800    26.5170 
   70.2500     2.1880   -19.2580    79.4340     5.4540     5.8890     6.3370    27.2250 
   70.3750     2.1960   -18.8690    85.2700     4.7820     5.1370     4.9800    27.7380 
   70.5000     2.2070   -18.5980    88.8590     4.4100     4.6480     4.4090    27.9840 
   70.6250     2.2230   -18.4610    89.5470     4.3070     4.4380     4.2900    28.0050 
   70.7500     2.2430   -18.4660    87.9100     4.4420     4.4860     4.4800    27.9120 
   70.8750     2.2560   -18.6090    85.1160     4.7940     4.7620     5.0580    27.7910 
   71.0000     2.2570   -18.8720    82.8390     5.2970     5.1950     6.0430    27.6070 
   71.1250     2.2460   -19.2290    81.3510     5.8440     5.6910     6.8170    27.3240 
   71.2500     2.2220   -19.6580    79.4110     6.3220     6.1540     6.8120    26.9740 
   71.3750     2.1960   -20.1130    77.4940     6.5920     6.4560     7.0180    26.5490 
   71.5000     2.1810   -20.5350    77.4420     6.6030     6.5160     7.9030    26.2170 
   71.6250     2.1810   -20.8910    79.1730     6.3950     6.3410     8.0400    26.1830 
   71.7500     2.1890   -21.1880    81.3220     6.0490     5.9940     7.0170    26.4180 
   71.8750     2.1970   -21.4550    82.7130     5.6550     5.5660     5.7460    26.7000 
   72.0000     2.2020   -21.7310    83.2760     5.2860     5.1400     5.1770    26.8630 
   72.1250     2.2080   -22.0460    84.1180     5.0070     4.7920     5.2570    26.9060 
   72.2500     2.2160   -22.4060    85.4940     4.9000     4.5940     5.2740    26.8710 
   72.3750     2.2280   -22.8260    85.5890     5.1180     4.6660     5.1410    26.7180 
   72.5000     2.2450   -23.3300    83.4730     5.7810     5.0940     5.5630    26.4310 
   72.6250     2.2650   -23.9470    79.2220     6.9560     5.9290     7.3670    26.1660 
   72.7500     2.2870   -24.6710    72.1190     8.6130     7.1760    11.7340    26.0250 
   72.8750     2.3000   -25.4520    62.8100    10.4550     8.6810    17.4710    25.8300 
   73.0000     2.2850   -26.2260    55.4780    11.8920    10.0160    17.7450    25.5000 
   73.1250     2.2330   -26.9580    53.4040    12.4050    10.7240    14.5830    25.2810 
   73.2500     2.1630   -27.6410    54.9770    11.9240    10.6410    14.2020    25.3180 
   73.3750     2.1090   -28.2540    55.9840    10.8530     9.9720    15.4270    25.4530 
   73.5000     2.0860   -28.7880    55.4850     9.7710     9.1420    13.7020    25.5480 
   73.6250     2.0850   -29.2430    55.7460     9.0130     8.4560    10.7960    25.5990 
   73.7500     2.0890   -29.6110    58.3070     8.6400     8.0160     9.4070    25.6190 
   73.8750     2.0860   -29.8990    61.2740     8.6270     7.8480     9.2030    25.5660 
   74.0000     2.0780   -30.1340    61.6240     8.8700     7.9040     9.8360    25.4160 
   74.1250     2.0690   -30.3270    59.0780     9.2410     8.1010    10.7650    25.2260 
   74.2500     2.0620   -30.4860    55.6490     9.6180     8.3560    11.3830    25.1390 
   74.3750     2.0580   -30.6300    53.1900     9.8680     8.5750    11.5800    25.2320 
   74.5000     2.0540   -30.7590    51.7530     9.9450     8.7000    11.6080    25.4000 
   74.6250     2.0540   -30.8600    51.4900     9.8850     8.7270    11.6320    25.5130 
   74.7500     2.0560   -30.9310    52.8810     9.7630     8.6840    11.6110    25.5150 
   74.8750     2.0600   -30.9660    54.5220     9.6600     8.6150    11.4800    25.4440 
   75.0000     2.0650   -30.9530    54.8140     9.6310     8.5700    11.2880    25.3610 
   75.1250     2.0720   -30.8960    54.4130     9.6990     8.5800    11.2430    25.2530 
   75.2500     2.0870   -30.8070    54.3220     9.8610     8.6590    11.3860    25.0920 
   75.3750     2.1160   -30.6850    54.0790    10.0830     8.7930    11.5890    24.9650 
   75.5000     2.1570   -30.5360    53.4170    10.2920     8.9300    11.4540    24.9810 
   75.6250     2.1990   -30.3830    53.0730    10.4030     9.0090    10.7160    25.1670 
   75.7500     2.2200   -30.2420    53.4600    10.3650     8.9870     9.9770    25.4460 
   75.8750     2.2010   -30.1180    54.4420    10.1930     8.8670     9.4990    25.6080 
   76.0000     2.1520   -30.0080    55.4560    10.0150     8.7270     9.1150    25.5010 
   76.1250     2.1050   -29.9070    55.9550     9.9820     8.6740     8.6770    25.1610 
   76.2500     2.0770   -29.8190    56.2560    10.1950     8.7850     8.3890    24.7560 
   76.3750     2.0690   -29.7570    57.1210    10.6570     9.0830     8.7050    24.4070 
   76.5000     2.0720   -29.6990    58.3970    11.2110     9.4700     9.8590    24.1650 
   76.6250     2.0850   -29.6050    59.1460    11.6150     9.7870    11.6560    24.0720 
   76.7500     2.1060   -29.4540    58.5660    11.6760     9.8910    12.8800    24.1490 
   76.8750     2.1230   -29.2470    56.0880    11.3190     9.7020    12.5420    24.3530 
   77.0000     2.1260   -29.0000    53.0760    10.7020     9.3040    11.7360    24.5580 
   77.1250     2.1200   -28.7210    51.8530    10.0610     8.8510    11.3370    24.6700 
   77.2500     2.1110   -28.4100    52.4160     9.5550     8.4620    11.0060    24.7120 
   77.3750     2.1000   -28.0640    52.3930     9.2650     8.2240    10.4550    24.7500 
