~V
VERS. 2.00: Ver 2.00
~W
STRT.M 56.0000:
STOP.M 221.0000:
STEP.M 0.1250:
NULL. -999.2500:
UWI. F10169:
~C
DEPT.M :
GR.API :
RML.OHMM :
RI. :
RXO.OHMM :
CALI.CM :
SP.MV :
DEN.GM/CC :
~A
# ...
  134.7500    69.4440    29.5710    25.1190    23.3460    27.8660   -19.8520     2.3100 
  134.8750    70.6920    30.2140    25.6390    23.3870    27.8140   -19.9250     2.2990 
  135.0000    70.9140    30.7890    26.1340    23.8010    27.6310   -20.0030     2.3030 
  135.1250    70.6130    31.2620    26.5740    25.0100    27.4890   -20.0870     2.3100 
  135.2500    71.1620    31.5870    26.9250    26.6930    27.3560   -20.1520     2.3020 
  135.3750    72.3700    31.7300    27.1580    28.0500    27.1090   -20.1930     2.2980 
  135.5000    73.4720    31.6430    27.2330    28.1070    26.8020   -20.1840     2.3160 
  135.6250    73.6920    31.3250    27.1300    26.9610    26.5800   -20.1110     2.3560 
  135.7500    73.8580    30.8140    26.8420    26.1540    26.5730   -19.9770     2.3870 
  135.8750    73.9170    30.2230    26.4290    25.7490    26.6110   -19.8060     2.4000 
  136.0000    72.7800    29.5780    25.9060    24.6550    26.5870   -19.5800     2.4110 
  136.1250    70.5890    28.7820    25.2090    25.2720    26.5180   -19.2750     2.4340 
  136.2500    71.2330    27.4530    24.0400    25.2230    26.4960   -18.8980     2.4570 
  136.3750    74.7100    25.3560    22.2010    23.8020    26.5660   -18.4660     2.4670 
  136.5000    79.2860    22.4800    19.6780    21.1650    26.7060   -18.0250     2.4580 
  136.6250    81.3180    19.1580    16.7600    19.3260    26.8620   -17.5350     2.4320 
  136.7500    78.6920    16.0380    14.0030    15.1610    26.9330   -17.0680     2.3890 
  136.8750    78.1160    13.6200    11.8120    10.7000    26.8840   -16.5860     2.3450 
  137.0000    84.3660    12.1090    10.3450     8.0980    26.7190   -16.1180     2.3120 
  137.1250    95.2030    11.5150     9.6070     7.7110    26.5220   -15.6860     2.2900 
  137.2500    99.5560    11.8440     9.6280     8.6370    26.3800   -15.3210     2.2720 
  137.3750    92.9710    12.7500    10.1710     9.9960    26.3130   -14.9960     2.2550 
  137.5000    81.6070    13.9570    11.0570    11.2390    26.2820   -14.6990     2.2410 
  137.6250    72.5120    15.1320    12.0340    12.1050    26.2480   -14.4530     2.2320 
  137.7500    67.7510    15.8670    12.7510    12.4810    26.2180   -14.2010     2.2370 
  137.8750    63.5660    16.0370    13.0290    12.3690    26.1800   -13.9890     2.2550 
  138.0000    60.8060    15.6430    12.8220    11.8860    26.1340   -13.7950     2.2730 
  138.1250    62.0680    14.7980    12.2020    11.2230    26.0680   -13.6350     2.2750 
  138.2500    65.8750    13.6790    11.3020    10.4230    26.0030   -13.4920     2.2630 
  138.3750    68.2920    12.5610    10.3590     9.5760    25.9580   -13.3730     2.2560 
  138.5000    68.4800    11.6260     9.5210     8.7350    25.9390   -13.2950     2.2550 
  138.6250    68.1200    10.9990     8.8910     7.8890    25.9360   -13.2380     2.2550 
  138.7500    69.5160    10.7740     8.5570     7.3500    25.9360   -13.2420     2.2510 
  138.8750    71.7250    10.7900     8.4320     7.4150    25.9360   -13.2350     2.2450 
  139.0000    72.3330    10.8460     8.3890     7.6660    25.9360   -13.2340     2.2380 
  139.1250    71.2570    10.7150     8.2660     7.7680    25.9360   -13.2020     2.2320 
  139.2500    72.9490    10.2050     7.9040     7.6400    25.9360   -13.1500     2.2330 
  139.3750    77.9610     9.4350     7.3520     7.1640    25.9360   -13.0740     2.2420 
  139.5000    82.0780     8.6100     6.7310     6.0560    25.9350   -12.9750     2.2620 
  139.6250    81.2650     7.9530     6.1920     4.9040    25.9340   -12.8660     2.2830 
  139.7500    78.1500     7.6630     5.8850     4.6590    25.9340   -12.7140     2.2910 
  139.8750    78.1300     7.6940     5.8030     4.9240    25.9350   -12.5520     2.2870 
  140.0000    80.1630     7.9530     5.9050     5.1540    25.9350   -12.3580     2.2790 
  140.1250    79.6380     8.2980     6.1050     5.3210    25.9340   -12.1520     2.2750 
  140.2500    75.1040     8.5270     6.2740     5.5830    25.9340   -11.9060     2.2800 
  140.3750    72.0010     8.5390     6.3190     5.5910    25.9350   -11.6790     2.2860 
  140.5000    71.6610     8.3350     6.2160     5.3220    25.9410   -11.4470     2.2910 
  140.6250    73.3310     7.9980     6.0050     4.9510    25.9560   -11.2240     2.2960 
  140.7500    76.8180     7.6540     5.7610     4.7040    25.9860   -11.0080     2.3060 
  140.8750    78.4690     7.4260     5.5750     4.5840    26.0140   -10.8610     2.3200 
  141.0000    76.3440     7.3870     5.5040     4.5430    26.0520   -10.7740     2.3330 
  141.1250    73.1080     7.5540     5.5730     4.5580    26.1030   -10.7790     2.3410 
  141.2500    74.3560     7.8930     5.7740     4.8550    26.1610   -10.8760     2.3410 
  141.3750    77.4490     8.2570     6.0170     5.3750    26.1920   -11.0260     2.3360 
  141.5000    77.2530     8.5180     6.2210     5.9470    26.1860   -11.2260     2.3290 
  141.6250    74.5610     8.5770     6.3130     5.8620    26.1760   -11.4680     2.3200 
  141.7500    76.3550     8.3850     6.2390     5.4020    26.1950   -11.7800     2.3110 
  141.8750    80.9710     8.0770     6.0660     5.1090    26.2210   -12.0970     2.3030 
  142.0000    82.3030     7.7750     5.8630     5.1590    26.2690   -12.4420     2.2970 
  142.1250    79.0130     7.5800     5.7020     5.2140    26.3120   -12.7810     2.2920 
  142.2500    75.3870     7.5830     5.6540     4.9670    26.3220   -13.1240     2.2770 
  142.3750    73.2450     7.7580     5.7210     4.9700    26.2410   -13.4550     2.2590 
  142.5000    72.8120     8.0490     5.8770     5.3150    26.0950   -13.7820     2.2470 
  142.6250    74.6540     8.3600     6.0640     5.6910    25.9980   -14.1050     2.2460 
  142.7500    76.1030     8.5460     6.1860     5.7670    25.9070   -14.3920     2.2510 
  142.8750    74.1550     8.5330     6.1810     5.7200    25.7800   -14.6480     2.2580 
  143.0000    73.1270     8.3230     6.0420     5.4600    25.6570   -14.8730     2.2740 
  143.1250    75.3120     8.0100     5.8190     5.0750    25.5700   -15.0390     2.2970 
  143.2500    76.9550     7.7660     5.6240     4.9170    25.5190   -15.1780     2.3100 
  143.3750    76.5620     7.7430     5.5640     4.9290    25.5010   -15.2740     2.3060 
  143.5000    76.8990     8.0440     5.7180     5.0520    25.4970   -15.3470     2.2960 
  143.6250    78.7090     8.7100     6.1370     5.4790    25.4880   -15.3930     2.2860 
  143.7500    78.9210     9.7340     6.8590     6.3960    25.4640   -15.4310     2.2800 
  143.8750    77.1020    10.9000     7.7610     7.9520    25.4360   -15.4660     2.2820 
  144.0000    74.5010    12.0000     8.7080    10.0510    25.4240   -15.5010     2.2930 
  144.1250    73.2220    12.8490     9.5430    10.8890    25.4220   -15.5400     2.3040 
  144.2500    73.4100    13.3290    10.1180    10.0250    25.4200   -15.5730     2.3050 
  144.3750    74.2380    13.5610    10.4610     9.1790    25.4190   -15.6250     2.2970 
  144.5000    74.4400    13.6030    10.5940     9.1590    25.4110   -15.7000     2.2860 
  144.6250    73.4940    13.4380    10.5130     9.5290    25.3920   -15.8020     2.2720 
  144.7500    73.4050    12.9370    10.1410     9.3530    25.3630   -15.9010     2.2600 
  144.8750    76.8150    12.1190     9.5220     8.5460    25.3440   -16.0090     2.2570 
  145.0000    82.1980    11.0800     8.7310     7.1800    25.3200   -16.1500     2.2640 
  145.1250    84.8060    10.0190     7.9070     5.9710    25.2760   -16.3270     2.2780 
  145.2500    82.0630     9.2320     7.2540     5.5760    25.2350   -16.5420     2.2870 
  145.3750    79.0940     8.8960     6.9040     5.6120    25.2160   -16.7690     2.2920 
  145.5000    77.4210     9.1800     6.9740     5.8580    25.2290   -16.9830     2.2930 
  145.6250    76.8110    10.2590     7.5850     6.2860    25.2680   -17.1630     2.2890 
  145.7500    76.7250    12.4330     8.9870     7.6880    25.3240   -17.3720     2.2800 
  145.8750    75.0580    15.4350    11.0970    11.1870    25.3920   -17.5600     2.2680 
