~V
VERS. 2.00: Ver 2.00
~W
STRT.M 56.0000:
STOP.M 214.0000:
STEP.M 0.1250:
NULL. -999.2500:
UWI. F10128:
~C
DEPT.M :
SP.MV :
GR.API :
RML.OHMM :
RI. :
RXO.OHMM :
CALI.CM :
DEN.GM/CC :
~A
# ...
  112.2500    -9.4410    71.8870     9.9620     7.9180    10.3080    24.3710     2.2190 
  112.3750    -9.1850    77.5550     9.0120     7.1610     8.0480    24.3860     2.2310 
  112.5000    -9.0520    82.9650     8.3030     6.5690     6.8010    24.3570     2.2360 
  112.6250    -9.0840    85.5900     7.9640     6.2520     6.6260    24.2810     2.2330 
  112.7500    -9.2680    84.4400     7.9900     6.2320     6.8870    24.2060     2.2260 
  112.8750    -9.5890    79.8500     8.3120     6.4990     7.3640    24.1390     2.2150 
  113.0000    -9.9370    76.3400     8.7480     6.9110     7.9760    24.0880     2.2040 
  113.1250   -10.2490    75.3930     9.1890     7.3660     8.4760    24.0590     2.1950 
  113.2500   -10.4260    75.6970     9.5550     7.7740     8.7050    24.0650     2.1920 
  113.3750   -10.4240    74.2000     9.7450     8.0320     8.7980    24.1090     2.1970 
  113.5000   -10.2160    73.1100     9.7160     8.0890     8.8110    24.1330     2.2120 
  113.6250    -9.8090    75.5190     9.4330     7.9010     8.7380    24.1490     2.2360 
  113.7500    -9.2150    80.2150     8.9130     7.4750     8.3640    24.1660     2.2670 
  113.8750    -8.5360    84.8510     8.2340     6.8730     7.3920    24.2850     2.3000 
  114.0000    -7.8380    89.3340     7.5730     6.2560     6.3340    24.5370     2.3260 
  114.1250    -7.1940    93.4260     7.0630     5.7390     5.5770    24.7450     2.3370 
  114.2500    -6.6870    95.4350     6.7840     5.3940     5.4080    24.7320     2.3320 
  114.3750    -6.4720    92.5540     6.7880     5.2760     5.5500    24.5340     2.3130 
  114.5000    -6.5340    88.8710     6.9640     5.3180     5.7910    24.3590     2.2920 
  114.6250    -6.7850    87.4700     7.2190     5.4590     6.2250    24.2550     2.2730 
  114.7500    -7.1860    87.3340     7.4760     5.6400     6.4790    24.2170     2.2580 
  114.8750    -7.7200    87.0770     7.7220     5.8400     6.6170    24.2250     2.2430 
  115.0000    -8.3600    86.9120     8.0240     6.0820     6.4280    24.2810     2.2270 
  115.1250    -9.0750    85.2130     8.4580     6.4150     6.6350    24.4140     2.2130 
  115.2500    -9.8270    80.4110     9.0440     6.8660     8.1270    24.5520     2.2060 
  115.3750   -10.5040    73.5220     9.7050     7.4130    11.2890    24.6110     2.2070 
  115.5000   -11.1210    69.0700    10.2580     7.9290    12.3670    24.6110     2.2110 
  115.6250   -11.7330    67.7100    10.5640     8.2890    11.6050    24.6350     2.2130 
  115.7500   -12.3550    67.1820    10.5760     8.4140    10.7610    24.6590     2.2120 
  115.8750   -12.9020    66.2790    10.3470     8.2950     9.9530    24.6180     2.2090 
  116.0000   -13.3560    66.2450    10.0840     8.0940     9.2530    24.4800     2.2060 
  116.1250   -13.6610    68.3180     9.9120     7.9240     9.0850    24.3020     2.2020 
  116.2500   -13.7990    70.5540     9.8880     7.8500     9.2320    24.2110     2.1960 
  116.3750   -13.6810    70.5180     9.9890     7.8900     9.1930    24.1960     2.1870 
  116.5000   -13.3360    69.8470    10.0700     7.9560     9.0050    24.2360     2.1760 
  116.6250   -12.7480    70.1190     9.9870     7.9340     8.6810    24.3010     2.1660 
  116.7500   -11.9230    70.7000     9.6230     7.7050     8.3080    24.2680     2.1630 
  116.8750   -10.8500    71.9760     8.9200     7.1920     7.8980    24.1370     2.1770 
  117.0000    -9.6540    76.9100     8.0580     6.5310     7.0970    24.0840     2.2070 
  117.1250    -8.4380    85.6990     7.2280     5.8680     5.7790    24.2220     2.2480 
  117.2500    -7.3260    96.4510     6.6050     5.3410     4.9620    24.4880     2.2890 
  117.3750    -6.4210   103.1940     6.3400     5.0750     4.8670    24.5590     2.3170 
  117.5000    -5.7290   103.0450     6.3560     5.0340     5.1450    24.4840     2.3270 
  117.6250    -5.2620    98.0860     6.5480     5.1570     5.5460    24.2790     2.3210 
  117.7500    -5.0370    92.1290     6.7840     5.3500     5.7220    24.1190     2.3060 
  117.8750    -5.0550    89.3910     6.9290     5.5010     5.8100    24.0280     2.2930 
  118.0000    -5.2170    90.1900     6.9400     5.5550     5.8570    24.1150     2.2870 
  118.1250    -5.4480    93.1380     6.8380     5.5170     5.4920    24.4500     2.2880 
  118.2500    -5.6560    95.2120     6.6750     5.4310     5.2930    24.6810     2.2900 
  118.3750    -5.7820    94.9680     6.5130     5.3390     5.6660    24.6400     2.2860 
  118.5000    -5.8350    96.0140     6.3950     5.2660     5.9340    24.5250     2.2770 
  118.6250    -5.8440    98.1050     6.3560     5.2310     5.7250    24.4990     2.2670 
  118.7500    -5.8290    97.8590     6.4300     5.2630     5.3700    24.5950     2.2600 
  118.8750    -5.8390    95.2330     6.6600     5.3960     5.5360    24.8260     2.2650 
  119.0000    -5.8720    91.3010     6.9890     5.6050     5.7940    24.8980     2.2800 
  119.1250    -5.9000    87.1010     7.3270     5.8450     6.5800    24.9110     2.3030 
  119.2500    -5.9090    84.4530     7.5600     6.0420     7.8830    24.9040     2.3290 
  119.3750    -5.9520    84.9720     7.5740     6.0920     8.3280    24.8820     2.3490 
  119.5000    -6.0220    89.3530     7.4300     6.0100     6.7580    24.8710     2.3600 
  119.6250    -6.1360    95.6130     7.2390     5.8760     5.9970    24.8670     2.3600 
  119.7500    -6.2810   100.5330     7.1280     5.7870     5.8980    24.8720     2.3500 
  119.8750    -6.4710   100.3080     7.2190     5.8450     6.4330    24.9470     2.3260 
  120.0000    -6.6600    96.7460     7.4940     6.0590     6.5720    25.0330     2.2940 
  120.1250    -6.8950    92.1140     7.9090     6.4100     6.7450    25.1000     2.2610 
  120.2500    -7.1590    86.3620     8.3920     6.8410     6.9220    25.1070     2.2370 
  120.3750    -7.4190    83.3430     8.8510     7.2800     7.3750    25.1430     2.2280 
  120.5000    -7.6250    84.4940     9.2000     7.6580     8.3200    25.2140     2.2250 
  120.6250    -7.7410    85.7030     9.3610     7.9000     9.5380    25.3210     2.2220 
  120.7500    -7.7250    82.6700     9.2710     7.9270     8.7790    25.4600     2.2160 
  120.8750    -7.5530    79.2100     8.8850     7.6710     7.8580    25.5050     2.2140 
  121.0000    -7.2460    82.3070     8.3360     7.2400     7.0800    25.3550     2.2230 
  121.1250    -6.8280    90.0560     7.7660     6.7550     6.4250    25.1280     2.2440 
  121.2500    -6.3810    95.1130     7.3300     6.3450     5.6960    24.9460     2.2700 
  121.3750    -5.9450    92.2980     7.1850     6.1430     5.2980    24.7970     2.2890 
  121.5000    -5.5960    88.9400     7.2960     6.1400     5.3990    24.5710     2.2940 
  121.6250    -5.3460    88.9390     7.5630     6.2850     5.7250    24.2940     2.2880 
  121.7500    -5.2430    91.5780     7.8360     6.4820     6.2300    24.0810     2.2780 
  121.8750    -5.3060    95.1850     7.9480     6.5900     6.6660    24.0220     2.2720 
  122.0000    -5.4990    96.0280     7.9210     6.5780     6.3030    23.9540     2.2690 
  122.1250    -5.8120    93.1500     7.9200     6.5500     5.6430    23.8890     2.2650 
  122.2500    -6.1750    89.0770     8.2110     6.6930     5.5540    23.9050     2.2630 
  122.3750    -6.5540    88.0540     9.2100     7.3010     6.2940    24.0560     2.2790 
  122.5000    -6.9430    86.7030    10.9890     8.5020     8.5420    24.3580     2.3280 
  122.6250    -7.2970    81.2070    13.4350    10.3550    14.0630    24.6600     2.4090 
  122.7500    -7.6120    74.4950    16.1160    12.6800    20.3650    24.8120     2.5040 
  122.8750    -7.8890    72.0150    18.1980    14.8090    22.5940    24.8500     2.5720 
  123.0000    -8.1370    73.1270    19.2130    16.0270    22.1480    24.9310     2.5830 
  123.1250    -8.3650    75.5440    19.2190    16.1980    18.5750    25.1360     2.5300 
  123.2500    -8.6100    78.4560    18.7360    15.7880    14.6820    25.3840     2.4290 
  123.3750    -8.8240    80.0300    18.5150    15.5120    13.9800    25.6500     2.3130 
