~V
VERS. 2.00: Ver 2.00
~W
STRT.M 63.0000:
STOP.M 800.0000:
STEP.M 0.1250:
NULL. -999.2500:
UWI. F10168:
~C
DEPT.M :
SP.MV :
GR.API :
RML.OHMM :
RI. :
RXO.OHMM :
CALI.CM :
DEN.GM/CC :
~A
# ...
  749.2500    -6.3050    85.4460    10.0510     9.6340     9.8070    23.5130     2.4290 
  749.3750    -6.1650    89.7180    10.3140    10.0100    10.2380    23.3430     2.4160 
  749.5000    -6.1070    93.8880    10.5360    10.4230    10.8230    23.1570     2.4130 
  749.6250    -6.0670    97.9430    10.6210    10.7270    10.5120    23.0510     2.4180 
  749.7500    -6.0360    99.2870    10.5500    10.8280    10.4930    23.0620     2.4210 
  749.8750    -5.9940    96.8170    10.3330    10.6880    10.7240    23.1740     2.4170 
  750.0000    -5.9140    92.2520    10.0060    10.3160    10.2390    23.3250     2.4060 
  750.1250    -5.8170    86.7480     9.6130     9.7610     9.5580    23.4240     2.3940 
  750.2500    -5.7050    80.2100     9.2230     9.1570     9.0110    23.3880     2.3900 
  750.3750    -5.5790    74.3920     8.8850     8.6060     8.5110    23.2040     2.3990 
  750.5000    -5.4240    71.7960     8.6420     8.1900     7.9990    22.9380     2.4230 
  750.6250    -5.2640    71.8340     8.5500     7.9910     7.9160    22.7490     2.4530 
  750.7500    -5.1180    69.6140     8.5940     7.9780     8.2210    22.7570     2.4770 
  750.8750    -4.9930    66.5010     8.7450     8.1090     8.4550    22.9670     2.4880 
  751.0000    -4.9060    67.3410     8.9440     8.3160     8.1980    23.2850     2.4810 
  751.1250    -4.8400    71.6670     9.0990     8.5100     8.2130    23.5330     2.4570 
  751.2500    -4.7880    74.9320     9.1580     8.6200     8.6780    23.7000     2.4240 
  751.3750    -4.7490    75.9150     9.1360     8.6320     9.3900    23.8120     2.3890 
  751.5000    -4.7560    78.0940     9.1280     8.5940     9.8470    23.8840     2.3630 
  751.6250    -4.8000    84.4070     9.3190     8.6360     9.7650    23.9120     2.3620 
  751.7500    -4.8630    91.2210     9.8210     8.8800     9.8450    23.9140     2.3840 
  751.8750    -4.9380    95.6400    10.6720     9.4120    10.7400    23.8890     2.4210 
  752.0000    -5.0230    98.0210    11.8030    10.2460    13.2040    23.7990     2.4570 
  752.1250    -5.1180   101.1810    12.9760    11.2790    15.8330    23.7100     2.4730 
  752.2500    -5.2220   104.0040    13.8440    12.2040    16.5590    23.6670     2.4740 
  752.3750    -5.3280   103.1290    14.1630    12.7480    15.5510    23.6740     2.4680 
  752.5000    -5.4140    97.7130    13.8590    12.7480    15.5040    23.6890     2.4630 
  752.6250    -5.4690    89.1180    13.0190    12.1590    14.0050    23.6950     2.4630 
  752.7500    -5.4960    81.3580    11.9970    11.2670    12.3660    23.6990     2.4630 
  752.8750    -5.4870    75.3810    11.0040    10.2840    11.2890    23.7030     2.4630 
  753.0000    -5.4430    71.3440    10.1730     9.3780    10.7370    23.7020     2.4630 
  753.1250    -5.3740    68.6280     9.6210     8.7140    10.3200    23.6890     2.4640 
  753.2500    -5.3050    68.2840     9.3460     8.3330     9.7810    23.6680     2.4660 
  753.3750    -5.2370    70.9010     9.3350     8.2520     9.3210    23.6420     2.4690 
  753.5000    -5.1640    74.9940     9.5280     8.4330     9.2510    23.6210     2.4740 
  753.6250    -5.0570    76.3200     9.8190     8.8010     9.8950    23.6240     2.4820 
  753.7500    -4.9220    72.7930    10.0550     9.1820    10.3890    23.6590     2.4920 
  753.8750    -4.7850    67.3190    10.1390     9.4430    10.4630    23.7100     2.5010 
  754.0000    -4.6600    63.4090    10.0370     9.4950    10.2110    23.7410     2.5040 
  754.1250    -4.5440    62.0950     9.7860     9.3070    10.1430    23.7550     2.5010 
  754.2500    -4.4100    63.4060     9.5240     9.0070    10.2080    23.7680     2.4930 
  754.3750    -4.2790    67.0740     9.3450     8.7000    10.1380    23.7800     2.4800 
  754.5000    -4.1780    72.8160     9.2890     8.4690     9.8150    23.7890     2.4630 
  754.6250    -4.1630    79.4520     9.3710     8.3920     9.8920    23.7950     2.4470 
  754.7500    -4.2210    84.4320     9.5770     8.4950    10.7780    23.7920     2.4360 
  754.8750    -4.3210    86.4090     9.9430     8.8180    11.9610    23.7860     2.4350 
  755.0000    -4.4190    86.9350    10.5050     9.3780    12.0760    23.7870     2.4440 
  755.1250    -4.5320    90.2560    11.2580    10.1470    11.8170    23.7810     2.4630 
  755.2500    -4.6950    95.6930    12.0360    10.9540    13.8490    23.7550     2.4820 
  755.3750    -4.8830    99.0660    12.6700    11.6270    18.2800    23.7190     2.4980 
  755.5000    -5.0830    99.6580    13.0380    12.0150    21.0950    23.6930     2.5030 
  755.6250    -5.2430   100.0340    13.1030    12.0160    15.6240    23.6860     2.4960 
  755.7500    -5.3660   102.0220    13.0290    11.7810    12.8720    23.6860     2.4840 
  755.8750    -5.4810   102.7100    12.9210    11.4590    12.5710    23.6890     2.4720 
  756.0000    -5.6380   101.6500    12.8240    11.1800    13.2930    23.6970     2.4610 
  756.1250    -5.7860   102.8150    12.7140    11.0200    14.0400    23.7160     2.4540 
  756.2500    -5.8560   104.8360    12.5470    10.9230    13.6880    23.7430     2.4460 
  756.3750    -5.8840   104.6300    12.3120    10.8280    12.4980    23.7670     2.4410 
  756.5000    -5.8880   101.6780    12.0540    10.7080    11.4030    23.7780     2.4390 
  756.6250    -5.9200   100.7140    11.8910    10.6180    11.6570    23.7610     2.4420 
  756.7500    -5.9480   101.2760    11.8880    10.6270    12.2890    23.7290     2.4470 
  756.8750    -5.9200   101.9630    12.0250    10.7550    12.3360    23.6900     2.4520 
  757.0000    -5.8500   102.6840    12.1950    10.9490    12.1070    23.6460     2.4570 
  757.1250    -5.7860   103.3180    12.2150    11.0790    12.4780    23.6110     2.4620 
  757.2500    -5.7590   102.3610    12.0260    11.0570    13.1110    23.5940     2.4670 
  757.3750    -5.7310    99.5180    11.6820    10.8700    12.6140    23.6080     2.4690 
  757.5000    -5.6850    98.1780    11.3080    10.5660    10.7600    23.6870     2.4670 
  757.6250    -5.6460    99.8520    11.0540    10.2310     9.8540    23.7150     2.4620 
  757.7500    -5.6470   100.3620    10.9560     9.9510    10.1770    23.6260     2.4550 
  757.8750    -5.7190    99.0610    10.9870     9.7750    11.1740    23.4370     2.4460 
  758.0000    -5.7890    97.2690    11.0780     9.7210    10.7340    23.3280     2.4370 
  758.1250    -5.8350    96.3800    11.1550     9.7900     9.9230    23.4150     2.4290 
  758.2500    -5.8720    95.7000    11.1880     9.9100     9.4890    23.5590     2.4270 
  758.3750    -5.9200    96.5760    11.1650    10.0150     9.8700    23.6570     2.4310 
  758.5000    -5.9980    99.5740    11.0660    10.0440    10.7660    23.6740     2.4400 
  758.6250    -6.0330   101.9770    10.8740     9.9660    10.3890    23.6000     2.4510 
  758.7500    -6.0000   104.4510    10.6950     9.8740    10.0670    23.4920     2.4540 
  758.8750    -5.8840   107.2630    10.7110     9.9120     9.6450    23.4050     2.4470 
  759.0000    -5.7560   110.3920    11.1030    10.2210     9.3140    23.3990     2.4320 
  759.1250    -5.6270   112.3890    11.9500    10.8780     9.7130    23.5010     2.4190 
  759.2500    -5.4900   111.6670    12.8630    11.6280    12.7000    23.6160     2.4210 
  759.3750    -5.3160   112.1480    13.3470    12.1120    18.0260    23.6900     2.4390 
  759.5000    -5.0920   115.7000    13.0080    12.0010    20.5520    23.7070     2.4640 
  759.6250    -4.8980   116.4410    11.7970    11.1680    13.3040    23.7190     2.4750 
  759.7500    -4.7450   108.6250    10.3730    10.0690     9.4490    23.7550     2.4640 
  759.8750    -4.6390    96.9060     9.2250     9.0900     8.0910    23.8330     2.4380 
  760.0000    -4.5150    90.1850     8.5940     8.4750     8.4130    23.9330     2.4140 
  760.1250    -4.3950    92.1600     8.5110     8.3310     9.1130    24.0090     2.4040 
  760.2500    -4.2970    94.2600     8.6920     8.4590     9.9810    24.0440     2.4020 
  760.3750    -4.2600    91.4130     8.9540     8.6850    10.4880    24.0500     2.3950 
