~V
VERS. 2.00: Ver 2.00
~W
STRT.M 53.0000:
STOP.M 242.0000:
STEP.M 0.1250:
NULL. -999.2500:
UWI. F10177:
~C
DEPT.M :
SP.MV :
GR.API :
RML.OHMM :
RI. :
RXO.OHMM :
CALI.CM :
DEN.GM/CC :
~A
# ...
  109.2500    -3.5990    88.3830     4.2970     3.5420     4.5690    23.6780     2.3230 
  109.3750    -4.2300    84.5170     4.9920     4.0020     5.3050    23.7880     2.3460 
  109.5000    -4.8390    78.9780     5.6430     4.5060     6.1340    24.1050     2.3800 
  109.6250    -5.4440    74.3440     6.0140     4.8640     6.7050    24.4390     2.4050 
  109.7500    -6.0350    72.3060     5.9630     4.9210     6.9130    24.5980     2.4030 
  109.8750    -6.5280    71.2650     5.4900     4.6480     6.6030    24.6060     2.3670 
  110.0000    -6.9060    71.1010     4.8920     4.2760     6.0520    24.5890     2.3180 
  110.1250    -7.2020    76.7340     4.4180     3.9740     5.6830    24.5660     2.2680 
  110.2500    -7.4060    85.9370     4.2980     3.8730     6.3060    24.6090     2.2230 
  110.3750    -7.4750    87.6580     4.8540     4.1600     7.1940    24.2030     2.1980 
  110.5000    -7.4130    82.5470     6.1370     4.9160     7.8150    24.2030     2.2130 
  110.6250    -7.1940    77.6100     8.0620     6.2240     8.5540    24.2030     2.2870 
  110.7500    -6.7920    73.6920    10.1530     7.9690    11.6570    24.0700     2.4060 
  110.8750    -6.1900    68.0220    11.2760     9.3650    22.4260    24.0700     2.5230 
  111.0000    -5.3980    67.3920    10.7820     9.3480    33.5110    24.0700     2.5870 
  111.1250    -4.4440    75.5350     8.8260     7.8250    26.2440    24.0700     2.5800 
  111.2500    -3.4420    86.4580     6.3230     5.7530    11.8800    24.3370     2.5220 
  111.3750    -2.6030    92.5050     4.4230     4.1210     5.1290    24.3700     2.4510 
  111.5000    -2.0340    94.8700     3.4140     3.1050     3.4510    24.4700     2.3950 
  111.6250    -1.7850    94.3680     3.1400     2.6350     3.4750    24.4700     2.3550 
  111.7500    -1.8810    91.5240     3.3820     2.6060     4.2360    24.4700     2.3230 
  111.8750    -2.4180    88.8060     3.9940     2.9510     4.8200    24.4700     2.2910 
  112.0000    -3.3080    87.6800     4.7120     3.4780     5.0850    24.3510     2.2590 
  112.1250    -4.4180    86.1380     5.3730     4.0480     5.8460    24.3260     2.2310 
  112.2500    -5.5900    81.7350     5.8870     4.5460     6.5650    24.4490     2.2120 
  112.3750    -6.7040    77.2440     6.2060     4.8920     6.7050    24.3730     2.2010 
  112.5000    -7.7390    74.6900     6.3990     5.1150     6.8490    24.2480     2.1960 
  112.6250    -8.7010    72.7450     6.5210     5.2550     7.2980    24.2430     2.1940 
  112.7500    -9.5610    71.5160     6.6240     5.3530     7.9430    24.3780     2.1970 
  112.8750   -10.2160    72.6600     6.7540     5.4420     8.2710    24.5230     2.2020 
  113.0000   -10.7010    74.8540     6.9140     5.5360     8.5590    24.6330     2.2010 
  113.1250   -11.0780    74.5890     7.0750     5.6210     8.6580    24.9220     2.1880 
  113.2500   -11.3830    72.1270     7.1870     5.6660     8.7180    25.4090     2.1650 
  113.3750   -11.5160    70.1300     7.1940     5.6370     8.6570    26.0460     2.1440 
  113.5000   -11.4130    69.4400     7.1140     5.5520     8.3150    25.5390     2.1410 
  113.6250   -11.1240    69.8060     6.9940     5.4440     7.8150    24.9480     2.1580 
  113.7500   -10.7950    69.1340     6.8950     5.3550     7.4900    24.3890     2.1870 
  113.8750   -10.5110    66.7140     6.8820     5.3290     7.4200    24.1050     2.2130 
  114.0000   -10.2240    66.7170     6.9500     5.3640     7.9400    23.9440     2.2280 
  114.1250    -9.9020    71.7220     7.0680     5.4400     8.6950    23.9340     2.2330 
  114.2500    -9.5940    78.1300     7.1900     5.5240     8.8700    24.1100     2.2340 
  114.3750    -9.4350    80.5530     7.2670     5.5750     8.1360    24.3280     2.2350 
  114.5000    -9.4440    80.9990     7.2830     5.5780     7.9450    24.5240     2.2340 
  114.6250    -9.5400    81.6860     7.2340     5.5330     8.1790    24.8050     2.2290 
  114.7500    -9.5680    80.7530     7.1130     5.4460     8.2220    25.0900     2.2190 
  114.8750    -9.4390    77.3260     6.9040     5.3160     8.1190    25.2120     2.2060 
  115.0000    -9.2350    75.1620     6.6450     5.1650     7.8020    25.0670     2.1910 
  115.1250    -8.9820    75.9690     6.4060     5.0290     7.4590    24.7170     2.1750 
  115.2500    -8.6600    77.2660     6.2820     4.9710     7.3150    24.4270     2.1590 
  115.3750    -8.2960    77.4500     6.4130     5.0800     7.4160    24.2120     2.1480 
  115.5000    -8.0230    77.0500     6.7960     5.3680     7.8020    24.0350     2.1420 
  115.6250    -7.8830    76.9720     7.3590     5.8160     8.6690    23.9010     2.1410 
  115.7500    -7.8570    76.6480     7.9360     6.3390     9.4850    23.8590     2.1430 
  115.8750    -7.9040    74.0940     8.2160     6.7210     9.7680    23.8670     2.1510 
  116.0000    -7.9250    71.2500     8.0400     6.7590     9.1850    23.8570     2.1660 
  116.1250    -7.8880    72.1460     7.4040     6.3840     8.6210    23.8350     2.1890 
  116.2500    -7.8110    77.4170     6.4850     5.7170     8.1020    23.8740     2.2180 
  116.3750    -7.7230    81.1970     5.5860     5.0030     7.3070    23.9640     2.2440 
  116.5000    -7.5860    81.0140     4.9400     4.4460     5.7940    23.9680     2.2600 
  116.6250    -7.4090    79.6420     4.6230     4.1150     5.0970    23.8670     2.2660 
  116.7500    -7.2620    79.1560     4.5950     4.0010     5.3460    23.7150     2.2670 
  116.8750    -7.1630    79.1160     4.7330     4.0460     6.1070    23.6690     2.2690 
  117.0000    -7.0990    81.4510     4.8330     4.1010     6.6730    23.7460     2.2740 
  117.1250    -7.0400    86.6930     4.7750     4.0570     6.3750    23.8130     2.2800 
  117.2500    -6.9550    91.9700     4.5300     3.8640     5.3530    23.7460     2.2890 
  117.3750    -6.8260    94.5230     4.1630     3.5570     4.9090    23.6140     2.2990 
  117.5000    -6.6680    96.7470     3.8300     3.2610     4.2200    23.5430     2.3080 
  117.6250    -6.5000    99.9100     3.6330     3.0530     3.7940    23.5270     2.3110 
  117.7500    -6.3350    99.4760     3.6220     2.9740     3.5090    23.5410     2.3020 
  117.8750    -6.2780    91.0680     3.8170     3.0490     3.5380    23.5330     2.2810 
  118.0000    -6.3710    81.0010     4.1290     3.2290     4.0650    23.5110     2.2560 
  118.1250    -6.6210    76.0420     4.4810     3.4650     4.8990    23.5050     2.2360 
  118.2500    -7.0080    77.7140     4.7910     3.7030     5.5790    23.5320     2.2260 
  118.3750    -7.4960    79.2400     4.9940     3.8860     6.0960    23.6040     2.2270 
  118.5000    -8.0070    77.5540     5.1200     4.0160     6.2680    23.6820     2.2300 
  118.6250    -8.4880    75.8110     5.2380     4.1310     6.3320    23.7460     2.2320 
  118.7500    -8.9150    77.6420     5.4320     4.2890     6.6820    23.7790     2.2330 
  118.8750    -9.2540    78.8570     5.7930     4.5610     7.2430    23.6830     2.2350 
  119.0000    -9.5380    77.7160     6.2950     4.9460     7.5830    23.5330     2.2370 
  119.1250    -9.8080    76.2310     6.8680     5.4050     7.9860    23.5830     2.2330 
  119.2500   -10.0840    76.1990     7.3960     5.8580     8.4960    24.6060     2.2170 
  119.3750   -10.3730    77.4170     7.7180     6.1770     9.1020    24.3370     2.1920 
  119.5000   -10.6710    78.1590     7.7940     6.3090     8.8600    24.3370     2.1740 
  119.6250   -10.9360    76.5910     7.6490     6.2630     8.1950    24.3370     2.1750 
  119.7500   -11.1350    73.1430     7.3600     6.0920     7.6660    24.3370     2.1990 
  119.8750   -11.2980    72.0800     7.0210     5.8620     7.4290    24.6430     2.2340 
  120.0000   -11.4620    74.4880     6.7080     5.6360     7.1790    24.6570     2.2550 
  120.1250   -11.6300    76.8530     6.4490     5.4430     7.0250    25.1340     2.2490 
  120.2500   -11.7950    78.1180     6.2540     5.2920     6.9250    25.6650     2.2150 
  120.3750   -11.8860    78.9350     6.1410     5.1980     6.9380    25.8110     2.1670 
