~V
VERS. 2.00: Ver 2.00
~W
STRT.M 55.0000:
STOP.M 224.0000:
STEP.M 0.1250:
NULL. -999.2500:
UWI. F10137:
~C
DEPT.M :
DEN.GM/CC :
SP.MV :
GR.API :
RML.OHMM :
RI. :
RXO.OHMM :
CALI.CM :
~A
# ...
  167.5000     2.4010   -22.7580    71.9080    24.8230    23.3630    31.4590    25.0840 
  167.6250     2.3830   -22.8580    70.6230    24.1430    23.1380    28.3310    25.1200 
  167.7500     2.3660   -22.9280    68.4090    22.5170    21.9090    25.8280    25.1190 
  167.8750     2.3620   -22.9650    67.3130    20.7280    20.3620    23.1680    25.1330 
  168.0000     2.3660   -23.0090    67.5950    19.3900    19.0950    21.5790    25.1750 
  168.1250     2.3690   -23.0960    68.4280    18.7630    18.3950    20.8320    25.1740 
  168.2500     2.3680   -23.2230    69.5310    18.9350    18.3760    19.8320    25.0360 
  168.3750     2.3640   -23.3610    70.3430    20.0080    19.1760    19.9510    24.8260 
  168.5000     2.3610   -23.4730    69.7950    21.7930    20.7240    22.2200    24.7690 
  168.6250     2.3610   -23.5510    68.4890    23.8130    22.7090    25.1700    24.8660 
  168.7500     2.3610   -23.6150    68.5340    25.4400    24.6180    28.9830    24.9180 
  168.8750     2.3510   -23.7010    69.2890    25.9210    25.6740    30.8300    24.8390 
  169.0000     2.3230   -23.8160    68.0110    25.1250    25.5420    31.2750    24.8240 
  169.1250     2.2770   -23.9350    65.2050    23.5740    24.5350    29.9100    24.9940 
  169.2500     2.2180   -24.0430    63.8440    21.9620    23.2550    24.5100    25.2480 
  169.3750     2.1650   -24.1320    65.3540    20.8550    22.2560    19.7310    25.3800 
  169.5000     2.1360   -24.1950    67.8680    20.3230    21.6870    18.6710    25.2700 
  169.6250     2.1430   -24.2440    69.4400    20.0990    21.3720    20.7350    24.9800 
  169.7500     2.1860   -24.3060    69.6560    19.8560    21.0240    23.5930    24.6880 
  169.8750     2.2530   -24.3780    69.3990    19.2920    20.3460    22.8590    24.5460 
  170.0000     2.3150   -24.4250    70.7730    18.3760    19.2940    19.3660    24.5070 
  170.1250     2.3540   -24.4190    73.8590    17.3140    18.0670    16.7270    24.4680 
  170.2500     2.3750   -24.3560    75.7080    16.4120    16.9640    15.9140    24.3900 
  170.3750     2.3830   -24.2630    74.4590    16.1520    16.4110    16.1160    24.2870 
  170.5000     2.3770   -24.1910    72.2420    17.0040    16.7810    16.4490    24.2200 
  170.6250     2.3620   -24.1440    70.4350    19.4770    18.4720    17.2020    24.2330 
  170.7500     2.3440   -24.0720    67.6790    24.2780    22.1410    20.7960    24.2940 
  170.8750     2.3310   -23.9410    63.0730    32.7820    29.3000    34.4420    24.3620 
  171.0000     2.3170   -23.7770    58.6680    45.9320    41.1880    66.0990    24.4220 
  171.1250     2.2960   -23.6240    56.3670    63.7830    57.9840   105.9520    24.4640 
  171.2500     2.2740   -23.5040    56.0150    84.6600    77.8550   133.0390    24.4680 
  171.3750     2.2600   -23.4120    56.5020   103.4210    95.7630   139.1000    24.4080 
  171.5000     2.2520   -23.3280    57.1900   115.4610   107.4950   134.8810    24.3260 
  171.6250     2.2430   -23.2470    58.5170   120.8500   112.9650   132.8530    24.2820 
  171.7500     2.2330   -23.1720    59.6660   123.0540   114.9400   134.7670    24.3130 
  171.8750     2.2280   -23.1070    58.5440   125.6970   116.6100   133.0630    24.4250 
  172.0000     2.2300   -23.0390    56.1670   130.3860   119.7880   129.5620    24.5720 
  172.1250     2.2340   -22.9610    55.4160   137.2420   124.9500   131.8140    24.6780 
  172.2500     2.2340   -22.8710    56.8760   145.7630   131.8110   138.9150    24.7130 
  172.3750     2.2270   -22.7670    57.7180   154.6340   139.2770   146.8110    24.6980 
  172.5000     2.2140   -22.6430    56.6670   161.9650   145.6990   155.1100    24.6870 
  172.6250     2.1970   -22.4890    54.6970   166.4150   149.9020   160.9530    24.7040 
  172.7500     2.1790   -22.3100    52.6310   168.1990   152.0040   163.9720    24.7560 
  172.8750     2.1630   -22.1180    51.2710   169.5860   153.7980   162.4210    24.8850 
  173.0000     2.1540   -21.9320    51.5980   173.8050   157.9630   157.4530    25.0770 
  173.1250     2.1690   -21.7570    53.1780   183.5700   166.8870   161.8710    25.1850 
  173.2500     2.2310   -21.5950    54.0490   200.5280   182.0220   190.9860    25.0890 
  173.3750     2.3460   -21.4070    54.5160   225.1570   203.5750   252.5170    24.9180 
  173.5000     2.4830   -21.1630    55.7820   253.2370   227.9270   325.6070    24.7980 
  173.6250     2.5910   -20.9060    56.5100   274.0160   247.3180   391.1080    24.7250 
  173.7500     2.6510   -20.6890    54.7350   271.0270   250.6400   452.8930    24.6860 
  173.8750     2.6750   -20.5210    51.5490   231.3990   225.5700   494.6470    24.6870 
  174.0000     2.6890   -20.3710    49.5310   170.6650   177.2280   466.5650    24.7100 
  174.1250     2.7040   -20.2040    48.8440   114.2170   123.8350   341.4620    24.7280 
  174.2500     2.7170   -19.9910    49.0210    73.1250    79.7140   192.9380    24.7380 
  174.3750     2.7230   -19.7760    49.6350    47.6750    50.8170    90.4580    24.7620 
  174.5000     2.7140   -19.6170    48.8040    32.6030    33.9940    42.2780    24.7980 
  174.6250     2.6860   -19.5080    46.2150    23.3180    24.1690    24.2350    24.7970 
  174.7500     2.6330   -19.4120    44.4050    17.6070    18.3570    16.8250    24.6880 
  174.8750     2.5590   -19.3180    45.5870    14.2660    14.9400    12.8990    24.5140 
  175.0000     2.4800   -19.2300    47.6950    12.3830    12.9300    10.0760    24.4260 
  175.1250     2.4110   -19.1640    48.4860    11.3340    11.7440     8.4200    24.4870 
  175.2500     2.3550   -19.1370    48.6010    10.7910    11.0870     7.6060    24.5980 
  175.3750     2.3110   -19.1610    48.3050    10.5240    10.7500     7.1800    24.5960 
  175.5000     2.2670   -19.2200    46.6590    10.3430    10.5520     7.1000    24.4730 
  175.6250     2.2070   -19.2850    44.2850    10.1350    10.3630     7.3960    24.3780 
  175.7500     2.1340   -19.3440    42.8240     9.8790    10.1400     7.8980    24.5500 
  175.8750     2.0840   -19.3880    42.4830     9.6370     9.9070     8.1990    24.9870 
  176.0000     2.0900   -19.4230    42.2360     9.4830     9.7160     8.0300    25.3250 
  176.1250     2.1500   -19.4740    42.3050     9.4430     9.5970     7.7970    25.2660 
  176.2500     2.2320   -19.5230    43.6750     9.4940     9.5490     8.0540    25.0050 
  176.3750     2.3010   -19.5720    45.7340     9.5990     9.5660     8.8070    24.9910 
  176.5000     2.3440   -19.6250    46.8120     9.7430     9.6310     9.7080    25.2950 
  176.6250     2.3650   -19.6790    46.6220     9.9310     9.7330    10.5070    25.4490 
  176.7500     2.3750   -19.7310    45.3110    10.1650     9.8530    11.1870    25.2480 
  176.8750     2.3780   -19.7760    43.1350    10.3880     9.9420    11.5440    24.9250 
  177.0000     2.3770   -19.8320    41.5810    10.4980     9.9330    11.3210    24.7260 
  177.1250     2.3710   -19.9160    41.8920    10.4110     9.7780    10.1790    24.6630 
  177.2500     2.3680   -20.0160    43.1530    10.1230     9.4730     8.7240    24.6520 
  177.3750     2.3730   -20.1210    43.3420     9.7210     9.0770     7.9220    24.6720 
  177.5000     2.3800   -20.2200    42.5240     9.3490     8.6920     7.7430    24.7380 
  177.6250     2.3780   -20.3040    41.9030     9.1100     8.4070     7.9580    24.8230 
  177.7500     2.3680   -20.3840    41.5540     9.0380     8.2650     8.6450    24.8650 
  177.8750     2.3580   -20.4660    41.1980     9.1090     8.2630     9.5380    24.8420 
  178.0000     2.3500   -20.5340    40.5540     9.2350     8.3400    10.1860    24.7860 
  178.1250     2.3380   -20.5750    40.0180     9.3240     8.4150    10.1030    24.7470 
  178.2500     2.3220   -20.6000    40.7150     9.3240     8.4330     9.0570    24.7570 
  178.3750     2.3110   -20.6210    42.9080     9.2240     8.3740     8.0090    24.8340 
  178.5000     2.3080   -20.6420    44.4820     9.0680     8.2670     7.2700    24.9370 
  178.6250     2.3090   -20.6630    44.1890     8.9250     8.1700     6.8350    24.9980 
