~V
VERS. 2.00: Ver 2.00
~W
STRT.M 60.0000:
STOP.M 241.0000:
STEP.M 0.1250:
NULL. -999.2500:
UWI. F10158:
~C
DEPT.M :
SP.MV :
DEN.GM/CC :
GR.API :
RML.OHMM :
RI. :
RXO.OHMM :
CALI.CM :
~A
# ...
  172.5000    73.1580     2.1090    57.2210   106.5200    94.8270    93.9360    26.9540 
  172.6250    73.0670     2.0990    58.6270   112.5820   101.3620    94.8450    27.5030 
  172.7500    73.0290     2.0930    60.6440   119.9020   108.8250    96.1960    26.7150 
  172.8750    73.0480     2.0930    61.6700   126.5820   115.4020    98.3060    25.1600 
  173.0000    73.1140     2.1070    61.0600   131.2130   119.6960   101.6980    23.8400 
  173.1250    73.2020     2.1130    59.1670   133.5520   121.3230   106.1650    23.3360 
  173.2500    73.2990     2.1240    58.0860   135.3870   122.0350   111.0970    23.2310 
  173.3750    73.3920     2.1400    59.2160   138.2070   123.3230   116.1050    23.2150 
  173.5000    73.4810     2.1840    61.9050   143.1500   126.3660   120.7540    23.1750 
  173.6250    73.5720     2.2070    61.8390   150.9450   131.8300   124.0210    23.1150 
  173.7500    73.6750     2.2160    60.4630   159.6100   137.8780   123.1590    23.0510 
  173.8750    73.7940     2.1980    61.0410   165.8230   141.4810   118.4320    23.0180 
  174.0000    73.9140     2.1540    62.7970   165.2300   138.8430   110.3130    23.1700 
  174.1250    74.0130     2.1050    62.1650   151.9060   125.4130    99.5680    23.7580 
  174.2500    74.0700     2.0800    59.2040   128.1950   104.2180    87.6350    24.5280 
  174.3750    74.0690     2.0970    56.6170    99.9620    80.6020    75.3860    24.9990 
  174.5000    74.0080     2.1530    55.3510    74.3700    60.0360    63.7660    24.8540 
  174.6250    73.8950     2.2150    55.1140    57.1320    46.5950    53.1630    24.2840 
  174.7500    73.7560     2.2430    55.4080    47.7290    39.7440    41.0620    23.8360 
  174.8750    73.6170     2.2330    55.9240    45.7660    39.3430    36.5250    23.6600 
  175.0000    73.5000     2.2010    55.8430    51.8230    45.7480    33.1010    23.6500 
  175.1250    73.4280     2.1670    55.6610    70.1690    61.7870    35.6220    23.6580 
  175.2500    73.4010     2.1410    56.0320   102.0940    88.2670    47.3070    23.6560 
  175.3750    73.4180     2.1280    56.9460   146.9180   125.6070    69.0410    23.6570 
  175.5000    73.4610     2.1280    57.5460   195.5290   167.9490    96.8050    23.6710 
  175.6250    73.5260     2.1420    56.3900   226.1850   196.1600   122.5090    23.7090 
  175.7500    73.6130     2.1590    55.2240   231.3640   200.8610   125.3030    23.7550 
  175.8750    73.7190     2.1730    55.8940   217.6300   188.3500   129.9590    23.7910 
  176.0000    73.8430     2.1800    57.7960   195.3180   169.0360   128.9510    23.8090 
  176.1250    73.9820     2.1840    58.3210   170.6340   148.4240   125.4290    23.8120 
  176.2500    74.1250     2.1880    56.9730   146.4480   128.5820   121.2400    23.8050 
  176.3750    74.2710     2.1930    55.2210   124.8060   111.1840   109.1500    23.7630 
  176.5000    74.4190     2.2000    54.6490   108.0630    98.1770   103.3400    23.6530 
  176.6250    74.5500     2.2120    57.0330    99.1440    92.0060   100.6780    23.5000 
  176.7500    74.6500     2.2260    60.1330    97.9860    92.5600    98.9820    23.4050 
  176.8750    74.7070     2.2330    61.4110   106.2790   101.0400    99.6610    23.4370 
  177.0000    74.7170     2.2230    59.7890   126.9970   119.4900   104.1850    23.5940 
  177.1250    74.6700     2.1850    56.0680   167.1860   153.6110   115.9690    23.8680 
  177.2500    74.5750     2.1330    52.1030   226.3380   204.5440   132.8290    24.2240 
  177.3750    74.4390     2.0880    49.0060   297.6540   268.9260   152.6370    24.5790 
  177.5000    74.2770     2.0650    48.2260   356.7670   323.8330   172.6150    24.7970 
  177.6250    74.1050     2.0770    50.2950   356.6220   317.9810   188.2710    24.7510 
  177.7500    73.9470     2.1060    54.1410   305.0560   265.5680   197.2700    24.5570 
  177.8750    73.8190     2.1380    57.6260   238.8570   208.3290   198.8660    24.3430 
  178.0000    73.7410     2.1700    58.9080   186.7150   168.4190   193.4390    24.2440 
  178.1250    73.7170     2.2120    59.2450   160.7320   150.8540   183.3410    24.3650 
  178.2500    73.7310     2.2770    58.1380   154.1790   148.4300   172.6920    24.5220 
  178.3750    73.7780     2.3630    54.7320   161.9010   157.3890   164.5760    24.5110 
  178.5000    73.8550     2.4530    51.2780   177.8190   173.2180   159.3410    24.3290 
  178.6250    73.9590     2.5230    51.0360   193.8550   188.3330   157.2430    24.1780 
  178.7500    74.0780     2.5710    52.1960   202.1410   194.3030   156.2580    24.1390 
  178.8750    74.1950     2.6070    52.4080   197.7700   185.9460   154.3900    24.1670 
  179.0000    74.2920     2.6390    53.1910   179.1070   162.9510   148.7910    24.2370 
  179.1250    74.3690     2.6700    56.1960   147.9210   130.2610   138.0270    24.3560 
  179.2500    74.4510     2.6940    58.2330   112.9120    97.4390   122.9270    24.4650 
  179.3750    74.5490     2.7060    56.8110    79.6790    68.7900   104.7650    24.5280 
  179.5000    74.6910     2.6970    52.4690    52.2400    45.9550    85.2850    24.5470 
  179.6250    74.9250     2.6650    48.3600    33.6340    30.0020    66.2010    24.5460 
  179.7500    75.2490     2.6170    46.6300    21.4790    19.0640    48.9320    24.5500 
  179.8750    75.6590     2.5620    47.7670    13.8770    12.0600    34.4750    24.5550 
  180.0000    76.1390     2.5070    50.4590     9.3260     7.9590    14.5040    24.5560 
  180.1250    76.6600     2.4670    52.7820     7.0000     6.0440     8.8730    24.5730 
  180.2500    77.1690     2.4450    54.4420     5.8230     5.2060     5.7870    24.6050 
  180.3750    77.6280     2.4230    56.3460     5.3930     5.0130     4.5090    24.6470 
  180.5000    78.0110     2.3730    58.3280     5.4420     5.1830     4.2250    24.7040 
  180.6250    78.3170     2.2860    59.3900     5.7540     5.4760     4.4230    24.7990 
  180.7500    78.5750     2.1950    59.0820     6.0770     5.6870     4.7200    24.9820 
  180.8750    78.7810     2.1350    57.5630     6.3160     5.7820     4.8420    25.2350 
  181.0000    78.9140     2.1340    55.1410     6.4790     5.8300     4.7830    25.3920 
  181.1250    78.9440     2.1930    53.8420     6.6000     5.9040     4.8020    25.3100 
  181.2500    78.8910     2.2560    55.5960     6.6930     5.9950     4.9990    25.1700 
  181.3750    78.7690     2.2900    61.0120     6.7440     6.0690     5.3980    25.1440 
  181.5000    78.5970     2.2930    67.6970     6.7380     6.1060     5.9430    25.2720 
  181.6250    78.3770     2.2770    69.5340     6.6730     6.1150     6.2440    25.4700 
  181.7500    78.1310     2.2440    66.0360     6.5910     6.1460     6.0530    25.5960 
  181.8750    77.8800     2.1970    60.0440     6.5260     6.2270     5.6220    25.6550 
  182.0000    77.6540     2.1450    53.5340     6.5450     6.3020     5.3730    25.8690 
  182.1250    77.4520     2.1160    48.6640     6.6900     6.2910     5.4820    26.3250 
  182.2500    77.2520     2.1380    48.5580     6.8030     6.2760     5.6200    26.6080 
  182.3750    77.0380     2.2060    52.5270     6.8630     6.2450     5.5800    26.5000 
  182.5000    76.8130     2.2720    55.2560     6.8670     6.1960     5.4460    26.1500 
  182.6250    76.5870     2.2690    53.4900     6.8380     6.1470     5.4630    25.7850 
  182.7500    76.3790     2.2100    51.3990     6.8200     6.1230     5.6770    25.5630 
  182.8750    76.2000     2.1400    51.2110     6.8520     6.1380     5.9260    25.6730 
  183.0000    76.0350     2.1070    53.7950     6.9490     6.1910     6.0280    26.0900 
  183.1250    75.8790     2.1460    59.5750     7.1090     6.2700     5.8330    26.3740 
  183.2500    75.7260     2.2170    66.0710     7.2800     6.3460     5.5980    26.2620 
  183.3750    75.5510     2.2610    70.8270     7.4130     6.3990     5.6220    25.9170 
  183.5000    75.3260     2.2500    73.8290     7.4780     6.4210     5.9120    25.7020 
  183.6250    75.0160     2.2060    77.2940     7.4830     6.4220     6.2040    25.9860 
