~V
VERS. 2.00: Ver 2.00
~W
STRT.M 43.0000:
STOP.M 249.0000:
STEP.M 0.1250:
NULL. -999.2500:
UWI. F10197:
~C
DEPT.M :
GR.API :
RML.OHMM :
RI. :
RXO.OHMM :
CALI.CM :
SP.MV :
DEN.GM/CC :
~A
# ...
  200.5000    82.6440    10.4160     8.0150    11.1160    24.4790   -18.8480     2.2830 
  200.6250    79.9420    11.3670     8.6230    12.8140    24.0770   -18.9450     2.3240 
  200.7500    79.6510    12.6320     9.4970    14.8130    23.7490   -18.9330     2.3920 
  200.8750    79.0160    14.1690    10.6160    17.2500    23.5020   -18.8110     2.4580 
  201.0000    74.9920    15.8440    11.8910    19.0900    23.3600   -18.6340     2.5020 
  201.1250    71.6880    17.3170    13.0870    19.4630    23.5960   -18.4230     2.5300 
  201.2500    73.2490    18.1820    13.8890    19.6520    23.9030   -18.1610     2.5590 
  201.3750    75.1690    18.0890    14.0090    19.6960    24.0050   -17.7930     2.5880 
  201.5000    73.4540    16.9570    13.3400    18.5780    23.7860   -17.3950     2.6120 
  201.6250    70.7060    15.0770    12.0350    16.4880    23.3000   -16.9860     2.6210 
  201.7500    71.7570    13.2090    10.6380    14.5820    23.0180   -16.5250     2.6100 
  201.8750    75.0980    11.8040     9.4820    12.2220    23.0640   -16.0740     2.5770 
  202.0000    77.2380    11.0860     8.7610     9.6400    23.3840   -15.5940     2.5240 
  202.1250    77.6280    11.1550     8.6060     9.2440    23.7100   -15.1000     2.4730 
  202.2500    77.4760    11.6930     8.8570    10.1220    23.7030   -14.6420     2.4470 
  202.3750    77.5180    12.4170     9.3540    10.8620    23.4100   -14.1850     2.4510 
  202.5000    77.2260    13.0200     9.8850    10.9990    23.0790   -13.7450     2.4690 
  202.6250    78.7740    13.1860    10.1880    10.9240    22.8560   -13.2980     2.4850 
  202.7500    83.8700    12.8940    10.1540    10.4140    22.7620   -12.8300     2.4940 
  202.8750    87.5630    12.1950     9.7630     9.7980    22.9480   -12.3610     2.4960 
  203.0000    85.4340    11.1860     9.0650    10.2260    23.3480   -11.8840     2.4890 
  203.1250    80.8400     9.9840     8.1520    10.9120    23.6320   -11.3050     2.4740 
  203.2500    79.0090     8.8050     7.2160     9.8320    23.6830   -10.6870     2.4560 
  203.3750    75.8920     7.8250     6.4060     7.4150    23.5790   -10.1010     2.4390 
  203.5000    68.7630     7.1750     5.8290     5.8870    23.3210    -9.4910     2.4190 
  203.6250    62.4770     6.9540     5.5700     5.6640    22.9050    -8.9810     2.4000 
  203.7500    61.5570     7.0380     5.5600     5.9450    22.7240    -8.5820     2.3840 
  203.8750    65.4590     7.3080     5.7320     6.0300    22.9980    -8.2230     2.3730 
  204.0000    70.9250     7.6070     5.9840     5.8830    23.5030    -7.9410     2.3630 
  204.1250    74.0060     7.7570     6.1770     5.7420    23.9650    -7.7760     2.3500 
  204.2500    74.2760     7.7290     6.2430     5.6680    24.2940    -7.6630     2.3310 
  204.3750    73.6800     7.5850     6.1930     5.6560    24.5910    -7.6000     2.3060 
  204.5000    74.5990     7.4160     6.0780     5.5890    24.8790    -7.5930     2.2790 
  204.6250    79.6100     7.3060     5.9530     5.5000    24.8660    -7.6190     2.2670 
  204.7500    88.2960     7.2740     5.8540     5.5280    24.6640    -7.7000     2.2810 
  204.8750    95.7860     7.3080     5.7900     5.7920    24.3830    -7.8120     2.3140 
  205.0000    98.9730     7.3930     5.7600     6.1620    24.2240    -7.9710     2.3480 
  205.1250    99.3430     7.5550     5.7900     6.3510    24.1830    -8.1530     2.3680 
  205.2500    99.7800     7.8260     5.9080     6.6440    24.1740    -8.3830     2.3770 
  205.3750   100.7650     8.2410     6.1430     7.2430    24.1800    -8.6680     2.3770 
  205.5000   100.1980     8.8160     6.5050     8.0000    24.2290    -8.9970     2.3680 
  205.6250    97.4340     9.5330     6.9950     7.8170    24.3650    -9.3140     2.3440 
  205.7500    95.1100    10.2720     7.5350     8.2150    24.5290    -9.6040     2.3110 
  205.8750    94.3540    10.9230     8.0520     9.6030    24.5370    -9.9120     2.2810 
  206.0000    95.3160    11.4190     8.4970    11.4030    24.3080   -10.1930     2.2670 
  206.1250    96.9170    11.7890     8.8640    11.6350    24.0570   -10.5150     2.2770 
  206.2500    97.8540    12.2310     9.2400    10.9490    23.8890   -10.7970     2.2930 
  206.3750    96.3820    12.9530     9.7450    10.0430    23.8480   -11.0560     2.3050 
  206.5000    92.1120    14.0740    10.4850    10.4820    23.7590   -11.2850     2.3100 
  206.6250    90.8670    15.5110    11.4850    12.4800    23.2860   -11.4840     2.3050 
  206.7500    92.1020    16.8300    12.5030    13.2080    22.3950   -11.6760     2.2950 
  206.8750    91.2550    17.6690    13.2830    13.2580    21.5050   -11.8640     2.2860 
  207.0000    87.9040    17.9510    13.7050    13.9850    21.3890   -12.0540     2.2840 
  207.1250    85.0530    18.0540    13.9270    14.3820    22.0080   -12.2330     2.2840 
  207.2500    83.6420    18.6470    14.3910    15.0460    22.9100   -12.4480     2.2810 
  207.3750    80.9190    20.1910    15.4490    17.2370    23.7040   -12.6310     2.2740 
  207.5000    76.6430    22.9280    17.3490    23.2630    24.1200   -12.8300     2.2650 
  207.6250    71.8060    28.5320    20.3720    29.7790    24.2260   -13.0510     2.2580 
  207.7500    67.1620    38.2940    24.2190    33.0930    24.2670   -13.2960     2.2530 
  207.8750    63.7080    44.0830    28.4010    34.6440    24.2980   -13.5190     2.2500 
  208.0000    62.8330    48.5630    32.1310    36.8500    24.3120   -13.7510     2.2530 
  208.1250    63.9120    50.5360    34.4640    43.3710    24.2470   -13.9400     2.2600 
  208.2500    63.6950    50.6120    35.4720    48.6570    24.1770   -14.0810     2.2620 
  208.3750    62.3900    49.4620    35.4370    45.1830    24.1250   -14.1800     2.2560 
  208.5000    63.3170    47.6860    34.7150    38.1790    24.1730   -14.2330     2.2450 
  208.6250    68.3350    45.7110    33.6070    35.2450    24.2810   -14.2270     2.2330 
  208.7500    72.5130    43.7170    32.3700    34.8040    24.4560   -14.1570     2.2230 
  208.8750    74.4550    41.6220    31.0130    34.7200    24.6220   -14.0550     2.2110 
  209.0000    77.1890    39.3820    29.5280    31.6010    24.6430   -13.9040     2.1960 
  209.1250    77.7050    37.1320    27.9930    25.5590    24.1960   -13.7420     2.1860 
  209.2500    75.4270    35.0830    26.5470    19.6480    23.0570   -13.5350     2.1870 
  209.3750    75.8670    33.3560    25.2670    15.3450    21.5320   -13.3270     2.2030 
  209.5000    81.3000    31.9490    24.1680    12.6880    20.2210   -13.1590     2.2310 
  209.6250    82.7440    30.6950    23.1670    10.8500    18.8880   -13.0510     2.2740 
  209.7500    79.0030    29.3420    22.1040     9.4190    17.2040   -12.9300     2.3360 
  209.8750    76.8220    27.9010    20.9710     8.8670    15.5850   -12.8190     2.3890 
  210.0000    79.7490    26.6360    19.9290     9.0130    14.4120   -12.7440     2.3920 
  210.1250    82.3310    26.1200    19.3430     9.3510    13.9930   -12.6800     2.3390 
  210.2500    83.0000    26.7350    19.4810     9.4540    14.0000   -12.6530     2.2920 
  210.3750    81.4220    28.8640    20.6400     9.7610    14.2290   -12.6570     2.2730 
  210.5000    76.6690    32.8110    23.1090    10.4710    14.6320   -12.6340     2.2660 
  210.6250    69.6590    38.9950    27.3510    11.9670    15.5820   -12.6270     2.2580 
  210.7500    63.8610    46.5900    32.9390    15.1270    17.3560   -12.6980     2.2430 
  210.8750    61.7900    54.1600    39.0350    20.3160    19.4390   -12.7880     2.2230 
  211.0000    62.4550    59.4040    44.0720    26.6910    21.0290   -12.8360     2.2020 
  211.1250    63.6260    59.7010    45.8840    30.9980    21.5380   -12.8890     2.1930 
  211.2500    64.6060    56.2830    44.6750    32.3080    21.6560   -12.9610     2.1950 
  211.3750    65.5200    51.0200    41.4680    31.6050    21.6680   -13.0190     2.2050 
  211.5000    67.0030    45.5280    37.4940    30.0630    21.6930   -13.0860     2.2160 
  211.6250    68.1480    40.8210    33.7140    27.8290    21.7640   -13.0610     2.2240 
