~V
VERS. 2.00: Ver 2.00
~W
STRT.M 49.0000:
STOP.M 290.0000:
STEP.M 0.1250:
NULL. -999.2500:
UWI. F10103:
~C
DEPT.M :
DEN.GM/CC :
SP.MV :
GR.API :
RML.OHMM :
RI. :
RXO.OHMM :
CALI.CM :
~A
# ...
  195.2500     2.1490   -21.7400    46.4290    92.5420    89.7520    49.1490    23.6300 
  195.3750     2.1540   -21.5810    46.0300    78.5610    76.2060    41.4750    23.8330 
  195.5000     2.1750   -21.4100    47.7250    66.5520    64.1400    35.7610    23.8510 
  195.6250     2.2090   -21.2610    50.7650    57.9210    55.1670    32.1860    23.8230 
  195.7500     2.2510   -21.1660    53.7990    53.4630    50.1640    30.4340    23.7980 
  195.8750     2.2860   -21.1350    57.1920    52.1480    48.1780    29.4570    23.7900 
  196.0000     2.3040   -21.1610    59.7310    53.4910    48.8060    28.8590    23.7470 
  196.1250     2.3030   -21.2300    59.4680    56.9940    51.6880    28.5770    23.6700 
  196.2500     2.2840   -21.3390    56.9900    62.1670    56.5670    31.7400    23.6400 
  196.3750     2.2580   -21.4510    55.4050    67.7280    62.2630    40.0470    23.6800 
  196.5000     2.2310   -21.5340    53.6360    72.4900    67.6200    52.7750    23.7920 
  196.6250     2.2080   -21.5760    51.5860    75.2540    71.3390    65.1460    24.0190 
  196.7500     2.1950   -21.5650    50.9750    74.7520    71.8970    68.3000    24.3050 
  196.8750     2.1930   -21.5060    51.1550    71.7140    69.6930    62.0020    24.4390 
  197.0000     2.2030   -21.4250    50.7450    67.2360    65.6490    56.0300    24.4880 
  197.1250     2.2190   -21.3380    50.0280    62.6220    61.0430    54.1450    24.5590 
  197.2500     2.2340   -21.2690    50.7330    59.0180    57.0710    53.0470    24.7140 
  197.3750     2.2460   -21.2290    53.2740    56.6050    54.1070    51.8410    24.8890 
  197.5000     2.2520   -21.2360    58.1510    55.3630    52.2040    50.1070    24.9850 
  197.6250     2.2570   -21.2970    62.9600    55.3570    51.4130    47.8120    25.0100 
  197.7500     2.2610   -21.4150    64.1990    57.1820    52.2150    46.2410    25.0060 
  197.8750     2.2640   -21.5700    62.4410    61.0070    54.7580    45.6990    24.9920 
  198.0000     2.2630   -21.7630    59.2850    66.9900    59.2490    46.9040    24.9520 
  198.1250     2.2580   -21.9690    56.2400    74.8200    65.5470    54.0050    24.8700 
  198.2500     2.2460   -22.1650    53.4190    83.5200    72.9970    64.7770    24.6950 
  198.3750     2.2300   -22.3690    51.4490    91.3230    80.0290    73.3010    24.4760 
  198.5000     2.2130   -22.5800    51.2400    96.8060    85.2910    77.0890    24.3460 
  198.6250     2.1970   -22.7670    52.2640    99.1060    87.8480    71.4790    24.3330 
  198.7500     2.1840   -22.9020    54.0710    97.8220    87.1500    61.8210    24.3610 
  198.8750     2.1750   -22.9990    55.1230    94.3890    84.3890    55.9750    24.3660 
  199.0000     2.1730   -23.0550    54.9330    89.7530    80.4070    54.6850    24.3620 
  199.1250     2.1790   -23.0990    54.3460    84.7150    75.9360    54.1900    24.3440 
  199.2500     2.1940   -23.1550    53.1610    80.2180    71.7860    52.8270    24.3340 
  199.3750     2.2130   -23.2010    51.7520    77.1360    68.7290    51.3840    24.4120 
  199.5000     2.2310   -23.2380    50.7460    76.2140    67.4250    49.8560    24.5910 
  199.6250     2.2440   -23.2770    48.7100    77.8420    68.2840    56.2140    24.7870 
  199.7500     2.2460   -23.3410    45.7850    82.1340    71.5800    66.4920    24.9350 
  199.8750     2.2400   -23.4020    45.7370    87.7070    76.2580    75.7010    25.0780 
  200.0000     2.2280   -23.4530    49.6820    93.2420    81.2440    79.5790    25.2020 
  200.1250     2.2150   -23.4840    52.9830    97.3910    85.3240    76.5180    25.2550 
  200.2500     2.2060   -23.4570    51.1690    98.7200    87.1080    71.4610    25.2320 
  200.3750     2.2040   -23.3670    49.2090    97.4430    86.5700    68.2700    25.1790 
  200.5000     2.2080   -23.2260    48.9730    93.9970    83.9930    67.0640    25.0990 
  200.6250     2.2190   -23.0290    48.4200    88.9020    79.8230    70.2950    25.0130 
  200.7500     2.2350   -22.7580    47.8010    82.3880    74.2790    70.8970    24.9440 
  200.8750     2.2550   -22.4500    50.3400    75.1310    68.0030    68.4800    24.8610 
  201.0000     2.2770   -22.1180    55.5720    67.7780    61.5750    61.7460    24.7420 
  201.1250     2.2980   -21.7830    59.7680    61.0870    55.6660    53.8660    24.6200 
  201.2500     2.3120   -21.4770    60.4270    55.9720    51.0800    47.0560    24.5900 
  201.3750     2.3180   -21.2080    59.4960    52.4770    47.8970    46.9180    24.6460 
  201.5000     2.3170   -20.9880    58.7060    50.4510    46.0290    48.3580    24.7020 
  201.6250     2.3120   -20.8300    58.6950    49.5130    45.1930    49.0500    24.7480 
  201.7500     2.3060   -20.7500    58.1210    49.2500    45.0650    50.0950    24.7970 
  201.8750     2.2990   -20.7320    57.3490    49.1210    45.1290    51.0100    24.8340 
  202.0000     2.2920   -20.7630    57.7670    48.8740    45.1100    51.8950    24.8780 
  202.1250     2.2850   -20.8120    59.0160    48.4190    44.8700    52.8450    24.9420 
  202.2500     2.2770   -20.8730    59.4000    47.7860    44.3980    53.1600    25.0010 
  202.3750     2.2700   -20.9380    58.7270    47.1200    43.8320    51.6730    25.0140 
  202.5000     2.2660   -20.9840    57.5520    46.5190    43.2680    48.9380    24.9500 
  202.6250     2.2660   -21.0050    55.6130    46.0420    42.7640    44.9300    24.7820 
  202.7500     2.2700   -20.9900    54.6920    45.6760    42.3210    39.1990    24.3970 
  202.8750     2.2760   -20.9610    55.7580    45.2660    41.8280    32.8830    23.7980 
  203.0000     2.2810   -20.9410    57.4110    44.6590    41.1660    28.2680    23.1450 
  203.1250     2.2860   -20.9270    58.3410    43.7840    40.2720    26.4020    22.7310 
  203.2500     2.2890   -20.8990    57.1420    42.7530    39.2200    24.9010    22.5700 
  203.3750     2.2920   -20.8640    56.3340    41.9480    38.3150    23.5660    22.4730 
  203.5000     2.2960   -20.8330    56.3060    41.7710    37.8850    22.3040    22.3920 
  203.6250     2.2970   -20.8280    57.0770    42.5380    38.2070    21.4110    22.3120 
  203.7500     2.2950   -20.8680    57.6760    44.4660    39.5130    20.7240    22.2290 
  203.8750     2.2870   -20.9160    56.9190    47.0650    41.4670    20.0950    22.1450 
  204.0000     2.2780   -20.9560    54.4170    49.8010    43.6690    19.7880    22.0450 
  204.1250     2.2700   -20.9760    51.6100    52.0700    45.6110    19.5810    21.9500 
  204.2500     2.2680   -20.9820    51.6570    53.2040    46.6660    20.0300    21.8980 
  204.3750     2.2730   -21.0040    54.9970    53.2400    46.7540    21.7120    21.9040 
  204.5000     2.2810   -21.0260    58.1420    52.3950    46.0000    24.7830    21.9930 
  204.6250     2.2870   -21.0120    59.6100    51.0140    44.6790    29.6680    22.2110 
  204.7500     2.2890   -20.9610    58.5000    49.0550    43.1050    35.3440    22.6390 
  204.8750     2.2860   -20.8920    56.5800    47.1560    41.6460    40.5960    23.1940 
  205.0000     2.2800   -20.8030    55.4060    45.5280    40.5720    42.8930    23.7530 
  205.1250     2.2750   -20.7200    55.1590    44.0200    40.1210    43.2400    24.1130 
  205.2500     2.2720   -20.6630    54.6040    45.1370    40.6020    47.3760    24.3020 
  205.3750     2.2740   -20.6060    53.9610    47.1490    41.8910    54.7110    24.4520 
  205.5000     2.2790   -20.5700    53.8760    49.7790    43.8050    61.7980    24.6690 
  205.6250     2.2840   -20.5730    53.6610    52.5960    46.0180    65.6560    24.8830 
  205.7500     2.2870   -20.6190    52.7750    55.0270    48.0610    66.2320    25.0130 
  205.8750     2.2850   -20.6900    53.5100    56.7850    49.6060    66.0390    25.0600 
  206.0000     2.2800   -20.7750    55.2060    57.8310    50.5530    66.2130    25.0710 
  206.1250     2.2740   -20.8650    56.1780    58.3320    50.9930    66.5350    25.0710 
  206.2500     2.2660   -20.9500    54.3790    58.5210    51.1010    67.2690    25.0600 
  206.3750     2.2600   -21.0100    52.6590    58.6450    51.1100    68.0960    25.0340 
