~V
VERS. 2.00: Ver 2.00
~W
STRT.M 50.0000:
STOP.M 222.0000:
STEP.M 0.1250:
NULL. -999.2500:
UWI. F10145:
~C
DEPT.M :
DEN.GM/CC :
GR.API :
RML.OHMM :
RI. :
RXO.OHMM :
CALI.CM :
SP.MV :
~A
# ...
   95.0000     2.0740    87.4240     8.1480     6.4200     8.0430    22.8050   -10.8650 
   95.1250     2.0720    87.1010     8.3280     6.5340     7.8780    22.6830   -10.7810 
   95.2500     2.0710    84.8690     8.5120     6.6650     7.7750    22.4910   -10.6910 
   95.3750     2.0690    84.2530     8.6540     6.7920     7.7830    22.2810   -10.6340 
   95.5000     2.0670    85.3010     8.7220     6.8930     7.8110    22.0330   -10.6130 
   95.6250     2.0650    84.4490     8.6920     6.9430     7.8250    21.7790   -10.6370 
   95.7500     2.0630    83.9150     8.5990     6.9440     7.9250    21.6090   -10.6970 
   95.8750     2.0640    86.4140     8.4770     6.9060     8.2070    21.5480   -10.7520 
   96.0000     2.0650    89.5800     8.3650     6.8450     8.4700    21.5270   -10.7750 
   96.1250     2.0650    90.4970     8.2960     6.7760     8.5030    21.5050   -10.7640 
   96.2500     2.0660    91.3860     8.2650     6.7110     8.3630    21.4700   -10.7300 
   96.3750     2.0670    91.6330     8.2470     6.6500     8.2050    21.3330   -10.6620 
   96.5000     2.0720    89.8290     8.2130     6.5900     8.1420    21.0740   -10.5680 
   96.6250     2.0820    87.9550     8.1370     6.5290     8.0480    20.8590   -10.4290 
   96.7500     2.0920    88.2330     8.0190     6.4660     8.0090    20.8060   -10.2380 
   96.8750     2.1000    88.6090     7.8600     6.3970     7.9510    20.8840   -10.0180 
   97.0000     2.1050    86.9620     7.6570     6.3130     7.9250    21.0400    -9.7850 
   97.1250     2.1070    86.0550     7.4270     6.2080     7.9900    21.2030    -9.5280 
   97.2500     2.1120    87.3580     7.2380     6.1110     7.9210    21.3680    -9.2290 
   97.3750     2.1210    90.0010     7.1770     6.0810     7.7510    21.5720    -8.8760 
   97.5000     2.1360    92.1970     7.3180     6.1840     7.6480    21.8370    -8.4590 
   97.6250     2.1570    90.9180     7.6940     6.4800     7.8340    22.2100    -8.0060 
   97.7500     2.1790    87.3820     8.1270     6.8670     9.4680    22.6460    -7.5500 
   97.8750     2.1960    84.8540     8.3940     7.1810    14.8490    22.9970    -7.0690 
   98.0000     2.2000    87.3020     8.2860     7.2290    19.0100    23.0140    -6.5310 
   98.1250     2.1870    94.1320     7.6790     6.8480    14.6630    22.7280    -5.9150 
   98.2500     2.1660    99.8450     6.8270     6.1940     9.1030    22.7450    -5.2530 
   98.3750     2.1460   101.9040     5.9910     5.4680     5.8160    23.0610    -4.6210 
   98.5000     2.1360   101.9970     5.3830     4.8600     5.2180    23.3660    -4.1180 
   98.6250     2.1380   104.4540     5.1620     4.5340     5.6420    23.3640    -3.8250 
   98.7500     2.1420   108.3740     5.2650     4.4750     6.0400    23.2560    -3.7100 
   98.8750     2.1460   108.8840     5.6510     4.6620     6.3080    23.2230    -3.7500 
   99.0000     2.1530   104.6490     6.2710     5.0620     6.8380    23.2290    -3.9360 
   99.1250     2.1700    98.3710     7.0800     5.6590     7.4940    23.1450    -4.3150 
   99.2500     2.1970    96.3420     7.9550     6.3740     8.0000    23.1160    -4.8650 
   99.3750     2.2250    99.9830     8.7830     7.1320     8.9590    23.2330    -5.5260 
   99.5000     2.2450   104.7680     9.4330     7.8240    10.5600    23.3460    -6.2460 
   99.6250     2.2420   105.2320     9.7260     8.2740    10.9000    22.9870    -6.9880 
   99.7500     2.2210   101.1280     9.6840     8.4300     9.6210    22.1800    -7.7110 
   99.8750     2.1900    96.4470     9.3980     8.3170     8.6880    21.2430    -8.3910 
  100.0000     2.1600    91.3910     9.0280     8.0460     8.1630    20.6090    -9.0150 
  100.1250     2.1440    85.7240     8.7660     7.7740     7.8250    20.2700    -9.5490 
  100.2500     2.1480    81.6930     8.6900     7.6090     7.6560    20.0940    -9.9890 
  100.3750     2.1660    80.1010     8.7880     7.5740     7.5090    20.0360   -10.3510 
  100.5000     2.1900    79.8660     8.9830     7.6330     7.3070    20.0560   -10.6200 
  100.6250     2.2100    79.9330     9.1510     7.7100     7.1440    20.0650   -10.7440 
  100.7500     2.2220    80.9950     9.1950     7.7250     7.0830    20.0430   -10.7490 
  100.8750     2.2320    81.6450     9.0770     7.6400     7.0670    19.9790   -10.6670 
  101.0000     2.2410    79.8530     8.8080     7.4490     6.9950    19.8650   -10.5350 
  101.1250     2.2460    79.4500     8.4400     7.1750     6.8270    19.8110   -10.4040 
  101.2500     2.2410    82.9430     8.0640     6.8860     6.6200    19.7930   -10.3120 
  101.3750     2.2230    87.1560     7.7330     6.6230     6.4700    19.8050   -10.2540 
  101.5000     2.1990    87.9720     7.4780     6.4140     6.4650    19.8390   -10.2250 
  101.6250     2.1800    85.3280     7.3280     6.2730     6.4530    19.9310   -10.1860 
  101.7500     2.1710    83.7440     7.2610     6.1850     6.3780    20.0260   -10.1120 
  101.8750     2.1700    84.1380     7.2590     6.1440     6.1990    20.1020   -10.0230 
  102.0000     2.1730    86.0820     7.2910     6.1430     6.2520    20.0980    -9.9470 
  102.1250     2.1710    87.7090     7.3190     6.1740     6.5130    20.0990    -9.8740 
  102.2500     2.1660    87.0380     7.3250     6.2170     7.0200    20.1780    -9.7980 
  102.3750     2.1610    84.8190     7.3270     6.2650     7.4240    20.2460    -9.6930 
  102.5000     2.1610    83.1970     7.3660     6.3230     7.1960    20.2040    -9.5460 
  102.6250     2.1700    83.3770     7.5070     6.4250     6.7390    20.0570    -9.3980 
  102.7500     2.1850    85.1020     7.7520     6.5940     6.5170    19.8520    -9.2970 
  102.8750     2.2020    86.9250     8.0700     6.8350     6.6120    19.6040    -9.2380 
  103.0000     2.2140    86.7390     8.3910     7.1170     6.8520    19.4690    -9.2220 
  103.1250     2.2160    83.3180     8.5970     7.3500     7.1540    19.5760    -9.2820 
  103.2500     2.2070    80.9370     8.6260     7.4530     7.4440    19.8080    -9.3450 
  103.3750     2.1900    83.3130     8.4830     7.3900     7.6200    19.9400    -9.3790 
  103.5000     2.1700    86.4100     8.2460     7.1980     7.8150    19.9710    -9.4030 
  103.6250     2.1550    84.9340     8.0630     6.9800     7.5500    19.9970    -9.4470 
  103.7500     2.1510    83.3650     8.0350     6.8530     7.1380    20.0280    -9.5070 
  103.8750     2.1580    85.2290     8.1810     6.8780     6.8720    20.0230    -9.5760 
  104.0000     2.1720    88.0790     8.4570     7.0640     7.4520    20.0510    -9.6430 
  104.1250     2.1890    85.0010     8.7880     7.3820     8.1580    20.1920    -9.6900 
  104.2500     2.2050    78.2890     9.0960     7.7320     8.7270    20.3130    -9.7330 
  104.3750     2.2200    72.9430     9.3560     8.0470     8.9490    20.3220    -9.8110 
  104.5000     2.2360    74.5620     9.5570     8.2820     8.9170    20.3350    -9.9600 
  104.6250     2.2480    84.6790     9.6770     8.4060     9.0390    20.3730   -10.1670 
  104.7500     2.2510    94.0990     9.7010     8.4430     8.9750    20.3490   -10.4030 
  104.8750     2.2430    95.2800     9.6030     8.3960     9.3750    20.3610   -10.6580 
  105.0000     2.2200    89.6760     9.3670     8.2630    10.6800    20.4540   -10.9040 
  105.1250     2.1850    83.6960     9.0020     8.0360    11.4400    20.4130   -11.1340 
  105.2500     2.1490    80.1450     8.6150     7.7680     9.2260    20.1350   -11.3990 
  105.3750     2.1190    78.4680     8.3260     7.5310     7.6160    19.8680   -11.7180 
  105.5000     2.1000    77.1900     8.2550     7.4140     7.0100    19.7290   -12.0240 
  105.6250     2.0990    74.4400     8.5290     7.5350     7.1030    19.8560   -12.2580 
  105.7500     2.1200    71.4830     9.0600     7.8770     7.4900    20.2980   -12.3860 
  105.8750     2.1640    70.8140     9.7050     8.3760     8.2580    21.0160   -12.4020 
  106.0000     2.2250    73.0600    10.2510     8.8870     9.1850    21.7170   -12.3470 
  106.1250     2.2820    75.8800    10.4350     9.1830     9.2500    21.7890   -12.2550 
