~V
VERS. 2.00: Ver 2.00
~W
STRT.M 64.0000:
STOP.M 215.0000:
STEP.M 0.1250:
NULL. -999.2500:
UWI. F10146:
~C
DEPT.M :
DEN.GM/CC :
GR.API :
RML.OHMM :
RI. :
RXO.OHMM :
CALI.CM :
SP.MV :
~A
# ...
   97.7500     2.1320    64.3370     9.5570     5.7800     9.5100    24.1100   -24.9680 
   97.8750     2.1300    63.2170     9.3200     5.7000     9.7280    24.2480   -24.6940 
   98.0000     2.1240    62.4120     9.1500     5.6470     9.7590    24.4050   -24.3990 
   98.1250     2.1180    63.6520     9.2610     5.7230     9.8160    24.4290   -24.0550 
   98.2500     2.1230    63.6970     9.6930     5.9730     9.9840    24.4280   -23.6710 
   98.3750     2.1470    62.4980    10.3750     6.3880    10.2130    24.3850   -23.3060 
   98.5000     2.1920    62.6970    11.1070     6.8870    11.1260    24.3640   -22.9680 
   98.6250     2.2390    63.6610    11.5020     7.2790    12.7830    24.3760   -22.6590 
   98.7500     2.2600    64.5460    11.3420     7.3910    13.4060    24.4390   -22.3990 
   98.8750     2.2440    65.8030    10.6630     7.1800    10.9610    24.4920   -22.1210 
   99.0000     2.1990    66.9590     9.7400     6.7490     9.1220    24.5020   -21.7930 
   99.1250     2.1500    65.4580     8.9240     6.2690     8.6050    24.5020   -21.4100 
   99.2500     2.1210    60.8910     8.3450     5.8630     8.4410    24.5020   -20.9100 
   99.3750     2.1220    57.4830     7.9690     5.5620     8.1910    24.5020   -20.2820 
   99.5000     2.1480    58.6290     7.6870     5.3400     7.8040    24.5030   -19.5320 
   99.6250     2.1820    66.0210     7.3930     5.1480     7.0980    24.5230   -18.6490 
   99.7500     2.1950    74.6710     7.0880     4.9620     6.2540    24.6100   -17.7210 
   99.8750     2.1680    80.4580     6.8300     4.7980     5.6670    24.7930   -16.8150 
  100.0000     2.1000    80.9670     6.6530     4.6750     5.2530    25.2760   -15.9340 
  100.1250     2.0080    77.5500     6.5510     4.5980     5.0860    26.4880   -15.1890 
  100.2500     1.9300    75.6440     6.4560     4.5380     4.9050    27.6730   -14.5660 
  100.3750     1.8870    76.4490     6.3190     4.4680     4.6200    27.5630   -14.0200 
  100.5000     1.8910    80.4180     6.1060     4.3640     4.3710    26.6930   -13.6120 
  100.6250     1.9490    87.4010     5.8150     4.2110     4.2890    25.8130   -13.3310 
  100.7500     2.0350    96.6330     5.5170     4.0400     4.0980    25.3810   -13.0980 
  100.8750     2.1260   104.5540     5.2850     3.8910     3.9680    25.1560   -12.9380 
  101.0000     2.2010   107.0090     5.1930     3.8060     3.9080    24.8760   -12.8640 
  101.1250     2.2460   103.9290     5.3290     3.8450     3.8540    24.8310   -12.8560 
  101.2500     2.2680   101.2280     5.6740     4.0170     4.0530    24.8220   -12.9300 
  101.3750     2.2790   102.5240     6.1850     4.3190     4.6860    24.8370   -13.0680 
  101.5000     2.2850   103.9740     6.7620     4.7120     5.5520    24.9010   -13.2340 
  101.6250     2.2870    98.5640     7.2480     5.1030     5.7800    24.9640   -13.4350 
  101.7500     2.2820    91.4750     7.5380     5.3920     5.6940    25.1130   -13.6930 
  101.8750     2.2660    88.6100     7.6010     5.5230     5.6140    25.2520   -14.0210 
  102.0000     2.2440    90.7870     7.4820     5.5000     5.5370    25.2860   -14.3910 
  102.1250     2.2230    95.2670     7.3170     5.3940     5.4400    25.2800   -14.7910 
  102.2500     2.2160    98.2100     7.3040     5.3490     5.4610    25.2420   -15.2680 
  102.3750     2.2280    96.3850     7.5910     5.4700     5.7330    25.2120   -15.8320 
  102.5000     2.2660    90.7680     8.2450     5.8220     6.2370    25.1840   -16.4570 
  102.6250     2.3250    85.1390     9.2780     6.4410     7.3240    25.0820   -17.2240 
  102.7500     2.3840    81.1690    10.5050     7.2350    10.1580    24.9450   -18.0700 
  102.8750     2.4150    77.8530    11.7770     8.1210    15.8710    24.9080   -18.9430 
  103.0000     2.3980    74.3370    12.9510     9.0010    18.8120    24.9240   -19.8840 
  103.1250     2.3320    68.7450    13.8810     9.7500    15.8220    25.0790   -20.8220 
  103.2500     2.2560    61.1830    14.5350    10.3130    15.9640    25.5490   -21.6770 
  103.3750     2.1930    57.1750    14.8360    10.6450    24.3690    25.8340   -22.5050 
  103.5000     2.1490    59.4530    14.6670    10.6910    31.7010    25.8460   -23.2750 
  103.6250     2.1220    61.7180    13.8900    10.3540    22.8850    25.8230   -23.9160 
  103.7500     2.1040    60.1360    12.7670     9.7460    13.6860    25.7120   -24.4570 
  103.8750     2.0940    57.4280    11.6350     9.0330    10.3620    25.3500   -24.8610 
  104.0000     2.0970    56.9280    10.8260     8.4300     9.5770    24.7980   -25.1270 
  104.1250     2.1180    56.9750    10.5890     8.1510     9.4970    24.6850   -25.3100 
  104.2500     2.1540    55.8960    10.7440     8.1610     9.3940    24.6650   -25.4190 
  104.3750     2.1950    54.7440    11.0510     8.3400     9.2610    24.6650   -25.4360 
  104.5000     2.2320    55.4220    11.2600     8.5230     9.0420    24.6640   -25.4050 
  104.6250     2.2450    61.9030    11.1580     8.5360     8.7670    24.6600   -25.2700 
  104.7500     2.2290    68.2730    10.7790     8.3490     8.7000    24.6840   -25.0800 
  104.8750     2.1900    68.4920    10.2240     7.9930     8.9030    24.7400   -24.8670 
  105.0000     2.1470    64.8640     9.6500     7.5510     9.1290    24.8340   -24.6030 
  105.1250     2.1230    64.6550     9.2510     7.1600     9.1710    24.9000   -24.3330 
  105.2500     2.1220    65.9920     9.0840     6.9090     9.0360    24.9470   -24.0920 
  105.3750     2.1370    67.4040     9.1290     6.8210     8.7600    25.0260   -23.8680 
  105.5000     2.1560    70.1160     9.3440     6.8830     8.5790    25.0570   -23.6660 
  105.6250     2.1670    71.8400     9.7580     7.1080     9.7200    25.0750   -23.4680 
  105.7500     2.1720    69.6960    10.4240     7.5050    11.3900    25.1280   -23.2340 
  105.8750     2.1830    65.8660    11.4780     8.1500    11.7340    25.2500   -23.0140 
  106.0000     2.2200    62.9810    13.0420     9.1420    10.8050    25.5410   -22.8020 
  106.1250     2.2960    61.2820    15.1810    10.6200    10.3850    25.9280   -22.5670 
  106.2500     2.3910    61.7220    17.5170    12.4300    11.5690    26.1940   -22.3770 
  106.3750     2.4680    63.0580    19.5580    14.2880    15.7010    26.2850   -22.2010 
  106.5000     2.4910    62.0360    20.7560    15.7510    24.4910    26.2570   -22.0300 
  106.6250     2.4460    61.9760    20.5680    16.2140    27.3530    26.0050   -21.9320 
  106.7500     2.3750    66.9030    19.3640    15.7280    24.0620    25.7800   -21.8730 
  106.8750     2.3110    72.5320    17.6180    14.5850    23.0870    25.6900   -21.8420 
  107.0000     2.2680    70.9760    15.7470    13.1500    26.5130    25.6730   -21.8380 
  107.1250     2.2440    63.6700    13.9790    11.6770    23.6530    25.6750   -21.8100 
  107.2500     2.2250    60.3300    12.3870    10.3030    16.6950    25.6930   -21.7060 
  107.3750     2.2050    61.1430    11.0290     9.0980    11.9300    25.7570   -21.5280 
  107.5000     2.1850    61.7150     9.9470     8.1120    10.2460    25.8780   -21.2560 
  107.6250     2.1720    62.2840     9.1810     7.3990     9.7280    26.0390   -20.9220 
  107.7500     2.1670    65.3080     8.6100     6.8870     8.9820    26.1700   -20.5460 
  107.8750     2.1630    69.8920     8.1550     6.5180     8.4530    26.2230   -20.1430 
  108.0000     2.1560    72.9580     7.8270     6.2660     8.0460    26.2360   -19.7700 
  108.1250     2.1520    74.9810     7.8120     6.2250     7.6440    26.2710   -19.4350 
  108.2500     2.1650    75.8110     8.2200     6.4730     7.2230    26.3500   -19.1670 
  108.3750     2.2070    76.2310     9.0760     7.0720     7.2450    26.3980   -19.0320 
  108.5000     2.2830    75.7150    10.2590     7.9910     8.6010    26.4560   -19.0280 
  108.6250     2.3700    71.4170    11.4030     9.0290    12.5430    26.4950   -19.1780 
  108.7500     2.4270    66.0130    12.0240     9.7730    16.7620    26.5310   -19.4690 
  108.8750     2.4290    64.3060    11.8480     9.9060    15.9090    26.5370   -19.8100 
