~V
VERS. 2.00: Ver 2.00
~W
STRT.M 55.0000:
STOP.M 228.0000:
STEP.M 0.1250:
NULL. -999.2500:
UWI. F10142:
~C
DEPT.M :
DEN.GM/CC :
GR.API :
RML.OHMM :
RI. :
RXO.OHMM :
CALI.CM :
SP.MV :
~A
# ...
  111.2500     2.1520    62.6900     8.8770     7.4650     9.1290    24.2450   -14.7250 
  111.3750     2.1670    63.3450     8.9160     7.5250     9.2310    24.2410   -14.5510 
  111.5000     2.1840    65.2480     8.9350     7.5660     9.3840    24.2460   -14.3680 
  111.6250     2.1950    69.0900     8.9660     7.6000     9.6120    24.2900   -14.1600 
  111.7500     2.1980    73.3080     9.0140     7.6400     9.6190    24.3480   -13.9370 
  111.8750     2.2010    75.4520     9.0550     7.6770     9.5640    24.4130   -13.6870 
  112.0000     2.2130    72.6580     9.0440     7.6790     9.4980    24.4910   -13.4220 
  112.1250     2.2380    69.9120     8.8960     7.5760     9.7890    24.6040   -13.1150 
  112.2500     2.2660    74.2320     8.5950     7.3480     9.7670    24.7500   -12.8110 
  112.3750     2.2850    83.8390     8.1670     7.0150     8.6010    24.9490   -12.5300 
  112.5000     2.2870    90.3580     7.7090     6.6500     6.4800    25.1890   -12.2680 
  112.6250     2.2720    88.4980     7.4110     6.3900     5.7310    25.3230   -12.0620 
  112.7500     2.2550    83.7890     7.4080     6.3390     5.9590    25.2770   -11.9050 
  112.8750     2.2450    80.2080     7.7700     6.5640     7.1290    25.0440   -11.7890 
  113.0000     2.2480    76.4440     8.4660     7.0680     8.6470    24.7770   -11.6940 
  113.1250     2.2670    71.7030     9.3100     7.7590     9.5690    24.6850   -11.6230 
  113.2500     2.2930    68.6850     9.9410     8.3650    10.0690    24.7530   -11.5390 
  113.3750     2.3150    69.8870    10.0830     8.6440     9.8970    24.9540   -11.4550 
  113.5000     2.3240    75.5410     9.6460     8.4690     8.2480    25.2080   -11.3460 
  113.6250     2.3140    83.2120     8.7650     7.8670     6.5830    25.4130   -11.2080 
  113.7500     2.2920    89.5240     7.8620     7.1560     5.4930    25.5110   -11.0560 
  113.8750     2.2720    91.4840     7.2120     6.5640     5.2660    25.4620   -10.9050 
  114.0000     2.2670    89.0560     6.9640     6.2380     5.6300    25.2400   -10.7670 
  114.1250     2.2880    85.2500     7.1910     6.2800     6.6510    24.9090   -10.6450 
  114.2500     2.3270    82.5160     7.7110     6.5890     7.8510    24.7720   -10.5590 
  114.3750     2.3750    81.7990     8.3510     7.0590     9.0580    24.8930   -10.4870 
  114.5000     2.4170    82.6080     8.9140     7.5480     9.9960    25.1420   -10.4430 
  114.6250     2.4360    83.3250     9.1810     7.8730    10.5360    25.2840   -10.4290 
  114.7500     2.4290    82.8530     9.1280     7.9640    10.1950    25.3240   -10.4280 
  114.8750     2.3980    81.9970     8.8070     7.8220     9.1070    25.3350   -10.4310 
  115.0000     2.3550    81.8120     8.3290     7.5170     7.1350    25.3470   -10.4370 
  115.1250     2.3120    80.3440     7.8420     7.1590     6.2110    25.3350   -10.4680 
  115.2500     2.2790    77.7440     7.4710     6.8670     6.0230    25.3210   -10.4980 
  115.3750     2.2570    74.8660     7.2800     6.7050     5.9320    25.3170   -10.5330 
  115.5000     2.2450    73.3840     7.2810     6.6930     6.0060    25.2820   -10.5710 
  115.6250     2.2410    74.8380     7.4450     6.8220     6.2330    25.1800   -10.5830 
  115.7500     2.2450    77.3300     7.6380     6.9930     6.5110    25.0780   -10.5740 
  115.8750     2.2590    79.0940     7.7500     7.1180     6.6570    25.0840   -10.5420 
  116.0000     2.2800    80.5040     7.6910     7.1200     6.6060    25.2020   -10.4920 
  116.1250     2.3030    83.2070     7.4030     6.9420     6.2450    25.3270   -10.4230 
  116.2500     2.3180    84.4220     6.9740     6.6420     5.7140    25.4120   -10.3520 
  116.3750     2.3160    81.1040     6.5070     6.2900     5.2830    25.4590   -10.2800 
  116.5000     2.2990    76.5430     6.1170     5.9700     5.0500    25.4670   -10.2230 
  116.6250     2.2730    75.8110     5.9580     5.7940     4.9580    25.4490   -10.1880 
  116.7500     2.2530    77.3640     6.0770     5.8120     5.2190    25.4190   -10.1780 
  116.8750     2.2500    76.8510     6.4970     6.0630     5.9620    25.3420   -10.1940 
  117.0000     2.2710    72.9300     7.1800     6.5470     7.0620    25.1900   -10.2170 
  117.1250     2.3100    67.6480     7.9920     7.2010     8.2540    25.0380   -10.2280 
  117.2500     2.3490    63.8550     8.6590     7.8120     9.0720    24.9540   -10.2110 
  117.3750     2.3720    63.8180     8.9570     8.1750    10.0870    24.9980   -10.1580 
  117.5000     2.3760    67.2490     8.7960     8.1730    12.1440    25.1560   -10.0590 
  117.6250     2.3710    72.3060     8.2870     7.8400     9.3210    25.3010    -9.9430 
  117.7500     2.3820    74.0610     7.8390     7.4870     6.9380    25.3990    -9.8110 
  117.8750     2.4200    71.4830     7.8010     7.3980     6.8730    25.4050    -9.6660 
  118.0000     2.4780    66.2900     8.4700     7.8250     8.9180    25.3530    -9.5210 
  118.1250     2.5340    60.6800    10.2480     9.1400    14.3890    25.3310    -9.3830 
  118.2500     2.5710    56.9170    13.0680    11.3800    22.5810    25.3160    -9.2800 
  118.3750     2.5850    54.5310    16.7140    14.4760    29.2250    25.2890    -9.2060 
  118.5000     2.5850    52.3230    20.5760    18.0160    30.5380    25.2560    -9.1490 
  118.6250     2.5810    49.0210    23.5600    21.1360    28.6840    25.2220    -9.1050 
  118.7500     2.5800    46.9310    25.1740    23.2300    28.4410    25.1760    -9.0670 
  118.8750     2.5860    47.2230    25.5600    24.2190    29.7390    25.1340    -9.0290 
  119.0000     2.5950    47.2870    25.3140    24.4540    27.4130    25.0530    -9.0030 
  119.1250     2.6030    46.5760    25.1200    24.4460    28.5680    25.0110    -8.9970 
  119.2500     2.6080    47.2490    25.2920    24.5930    31.6280    25.0210    -9.0000 
  119.3750     2.6080    48.3410    25.8040    24.9790    33.1640    25.0370    -9.0120 
  119.5000     2.6040    47.3980    26.4720    25.5240    32.2120    25.0800    -9.0270 
  119.6250     2.5960    45.3400    26.9830    26.0130    35.2610    25.1700    -9.0410 
  119.7500     2.5840    44.7430    27.1170    26.2310    35.8300    25.2370    -9.0450 
  119.8750     2.5690    45.2760    26.7510    26.0640    31.1960    25.2860    -9.0410 
  120.0000     2.5550    45.8700    25.9610    25.5100    24.7370    25.3410    -9.0450 
  120.1250     2.5470    46.4800    25.2790    24.6720    21.9360    25.3380    -9.0620 
  120.2500     2.5460    46.1230    25.0180    23.8160    22.7890    25.2990    -9.0480 
  120.3750     2.5490    45.4150    25.0080    23.1550    25.0320    25.2730    -9.0390 
  120.5000     2.5550    47.0240    25.0460    22.8680    25.1760    25.2700    -9.0450 
  120.6250     2.5650    50.6040    25.3730    23.1420    21.9930    25.2570    -9.0380 
  120.7500     2.5820    51.3320    26.2450    23.8870    22.3830    25.2590    -9.0390 
  120.8750     2.6060    48.4770    27.5540    25.0090    26.3750    25.2620    -9.0590 
  121.0000     2.6300    46.1030    29.0580    26.3440    33.2430    25.2460    -9.0580 
  121.1250     2.6430    46.8890    30.4120    27.6090    31.5490    25.2140    -9.0320 
  121.2500     2.6370    47.8440    31.2840    28.5010    30.1380    25.1970    -9.0300 
  121.3750     2.6100    48.5150    31.4590    28.8080    30.7270    25.1620    -9.0290 
  121.5000     2.5700    50.9000    30.8910    28.4700    30.6420    25.0880    -9.0150 
  121.6250     2.5330    54.6250    29.6830    27.5420    28.3390    25.0270    -9.0010 
  121.7500     2.5120    55.9390    28.2640    26.3790    25.5210    24.9930    -8.9900 
  121.8750     2.5100    54.4910    26.9210    25.2240    24.4790    24.9940    -8.9750 
  122.0000     2.5220    52.6050    25.8700    24.2690    24.0360    25.0420    -8.9720 
  122.1250     2.5400    53.6840    25.3340    23.7170    22.3510    25.0620    -8.9740 
  122.2500     2.5560    56.1230    25.3060    23.5920    21.6930    25.0080    -8.9840 
  122.3750     2.5690    56.1150    25.7520    23.8940    23.2870    24.9980    -8.9950 
