~V
VERS. 2.00: Ver 2.00
~W
STRT.M 57.0000:
STOP.M 281.0000:
STEP.M 0.1250:
NULL. -999.2500:
UWI. F10139:
~C
DEPT.M :
SP.MV :
GR.API :
RML.OHMM :
RI. :
RXO.OHMM :
CALI.CM :
DEN.GM/CC :
~A
# ...
  225.7500   -26.4360    53.3340    63.8930    61.9370    49.9700    24.7640     2.2710 
  225.8750   -25.8890    58.4130    57.5880    55.6300    42.3260    24.5720     2.2780 
  226.0000   -25.3420    65.4850    53.2270    51.1520    39.9070    24.3920     2.2920 
  226.1250   -24.8900    67.5680    51.0790    48.7850    36.8600    24.3710     2.3140 
  226.2500   -24.4720    65.8030    50.7600    48.1760    37.6920    24.4960     2.3330 
  226.3750   -24.0580    64.0800    52.1600    49.2250    40.9690    24.6730     2.3410 
  226.5000   -23.7730    63.6730    55.1630    51.8150    45.3790    24.8160     2.3360 
  226.6250   -23.7070    62.6310    59.7790    55.9390    51.9610    24.8620     2.3210 
  226.7500   -23.7730    60.3630    65.2250    60.8260    64.5270    24.8680     2.3060 
  226.8750   -23.9230    57.5580    70.5410    65.5500    73.2880    24.8560     2.2950 
  227.0000   -24.1360    55.4190    74.5120    68.9760    75.5320    24.8380     2.2920 
  227.1250   -24.3940    54.1230    75.7290    69.8290    76.3610    24.8410     2.3030 
  227.2500   -24.7290    53.7910    74.6450    68.5090    68.6790    24.8460     2.3280 
  227.3750   -25.1380    55.8180    72.3420    65.9450    63.3960    24.7990     2.3660 
  227.5000   -25.5460    60.0820    70.1930    63.3710    61.5750    24.6910     2.4110 
  227.6250   -25.8810    63.7410    69.4120    61.9600    57.3450    24.5360     2.4490 
  227.7500   -26.1460    65.5360    70.0310    61.8610    58.8770    24.4330     2.4710 
  227.8750   -26.3470    66.9370    71.8050    62.9030    68.8830    24.3690     2.4700 
  228.0000   -26.4690    67.7260    74.5590    64.8890    80.0010    24.2980     2.4470 
  228.1250   -26.4590    65.5630    78.9970    68.3030    73.9920    24.1360     2.4050 
  228.2500   -26.2910    62.7000    85.5950    73.4580    66.1310    24.0260     2.3550 
  228.3750   -25.9750    61.7150    93.5030    79.6450    66.6850    23.9170     2.3080 
  228.5000   -25.5130    62.1280    98.7340    83.8190    72.0630    23.6900     2.2850 
  228.6250   -24.9120    60.9600    92.6580    79.4260    65.3770    23.2330     2.3180 
  228.7500   -24.2180    57.2130    75.4570    65.7980    60.7420    22.7960     2.4060 
  228.8750   -23.4350    52.7900    54.0720    47.6610    40.9200    22.3960     2.5220 
  229.0000   -22.5540    49.7130    35.7860    31.4830    19.1620    21.8010     2.6210 
  229.1250   -21.5730    48.6990    24.1480    21.1490    11.1970    20.7920     2.6520 
  229.2500   -20.5630    47.2610    17.1580    14.9970     8.7130    19.9500     2.6180 
  229.3750   -19.6020    44.3240    11.9610    11.5380     7.7390    19.4020     2.5480 
  229.5000   -18.7900    40.9410     9.8230     9.7110     7.3150    19.0400     2.4770 
  229.6250   -18.1820    38.5660     9.3580     8.9800     7.4070    18.9950     2.4330 
  229.7500   -17.7750    36.9040     9.3260     8.7520     7.5840    19.2120     2.4160 
  229.8750   -17.5500    36.5410     9.4280     8.7580     7.5340    19.6570     2.4190 
  230.0000   -17.4980    38.0570     9.4880     8.8150     7.5320    20.2070     2.4340 
  230.1250   -17.6020    39.8250     9.3950     8.8010     7.5960    20.9840     2.4510 
  230.2500   -17.8240    39.7040     9.1730     8.7030     7.5960    22.0520     2.4550 
  230.3750   -18.1110    38.8560     8.8990     8.5620     7.4800    23.2660     2.4380 
  230.5000   -18.3940    39.4550     8.6760     8.4410     7.3910    24.1650     2.4010 
  230.6250   -18.6640    41.3940     8.6390     8.4200     7.7210    24.3970     2.3610 
  230.7500   -18.8590    42.5150     8.8240     8.5270     8.2910    24.3720     2.3380 
  230.8750   -18.9450    42.3390     9.2250     8.7710     8.6740    24.4160     2.3420 
  231.0000   -18.9610    41.0990     9.7500     9.1070     8.6990    24.4860     2.3700 
  231.1250   -18.9550    39.2370    10.1890     9.3930     9.1510    24.5370     2.4160 
  231.2500   -18.8850    38.4230    10.3460     9.4650     9.8490    24.6000     2.4660 
  231.3750   -18.6780    39.4940    10.1490     9.2470     9.6100    24.7040     2.5090 
  231.5000   -18.3220    42.6960     9.6730     8.7920     8.7140    24.7900     2.5320 
  231.6250   -17.8420    46.8990     9.0880     8.2400     7.6990    24.8450     2.5240 
  231.7500   -17.3330    49.1140     8.5860     7.7520     7.1770    24.9240     2.4980 
  231.8750   -16.8730    48.2430     8.2530     7.4060     7.3870    25.0470     2.4690 
  232.0000   -16.4430    47.0830     8.1040     7.2300     7.7740    25.2010     2.4510 
  232.1250   -16.0050    48.4540     8.1280     7.2220     7.8020    25.2900     2.4440 
  232.2500   -15.6320    50.2500     8.2500     7.3080     7.5010    25.3490     2.4380 
  232.3750   -15.3930    50.2140     8.4340     7.4410     7.4320    25.3610     2.4230 
  232.5000   -15.2830    49.0810     8.6500     7.5900     7.6760    25.3770     2.3990 
  232.6250   -15.2500    48.6830     8.8750     7.7340     7.9780    25.3940     2.3780 
  232.7500   -15.2070    48.8340     9.0770     7.8610     7.9430    25.3790     2.3710 
  232.8750   -15.1540    48.5040     9.2110     7.9440     7.7630    25.3910     2.3800 
  233.0000   -15.1440    47.3310     9.2250     7.9430     7.6080    25.4140     2.3990 
  233.1250   -15.2200    48.4230     9.0630     7.8030     7.5340    25.4420     2.4180 
  233.2500   -15.2760    54.3160     8.7540     7.5380     7.4850    25.5440     2.4240 
  233.3750   -15.2830    63.0010     8.3390     7.1740     7.3520    25.7110     2.4120 
  233.5000   -15.3290    70.5480     7.8990     6.7800     6.7450    25.8870     2.3800 
  233.6250   -15.5190    75.6840     7.5940     6.4770     6.0740    25.9080     2.3290 
  233.7500   -15.8400    79.9650     7.5410     6.3480     5.8700    25.7460     2.2760 
  233.8750   -16.2160    82.1350     7.7940     6.4330     6.2270    25.4760     2.2420 
  234.0000   -16.5550    80.6860     8.3210     6.7330     6.8200    25.2450     2.2460 
  234.1250   -16.8240    76.7660     9.0170     7.2250     8.3140    25.1830     2.2950 
  234.2500   -17.1060    72.6730     9.6840     7.7830     9.0060    25.2250     2.3590 
  234.3750   -17.4610    70.9700    10.2030     8.3070     9.2640    25.2570     2.4110 
  234.5000   -17.8080    74.4970    10.5240     8.7140     9.2360    25.2610     2.4380 
  234.6250   -18.0400    83.1020    10.6230     8.9280     9.1420    25.2600     2.4390 
  234.7500   -18.1960    92.8900    10.5820     8.9850     9.0590    25.2600     2.4340 
  234.8750   -18.2940   101.0410    10.4630     8.9280     9.0300    25.2640     2.4340 
  235.0000   -18.3150   105.0430    10.3210     8.7970     8.9900    25.2770     2.4400 
  235.1250   -18.3230   103.6560    10.1580     8.5950     8.9950    25.3040     2.4460 
  235.2500   -18.3710   101.7400     9.9500     8.3370     8.7980    25.3160     2.4490 
  235.3750   -18.4140   102.1280     9.7190     8.0630     8.6520    25.3190     2.4490 
  235.5000   -18.4400   103.1330     9.5660     7.8550     8.5360    25.3190     2.4470 
  235.6250   -18.5010   106.5460     9.7130     7.8690     8.5310    25.3070     2.4460 
  235.7500   -18.6320   111.8010    10.2850     8.1890     9.0000    25.2350     2.4440 
  235.8750   -18.8460   112.2510    11.3420     8.8800    10.7590    25.0950     2.4410 
  236.0000   -19.1790   104.7600    12.8330     9.9480    14.7300    25.0120     2.4360 
  236.1250   -19.5740    96.5180    14.6520    11.3710    16.4880    25.0220     2.4290 
  236.2500   -19.9700    92.0680    16.6200    12.9920    17.6310    25.0120     2.4210 
  236.3750   -20.3750    88.7120    18.7130    14.7580    17.5290    24.9890     2.4130 
  236.5000   -20.7940    84.2630    20.9580    16.6630    18.4800    24.9470     2.4040 
  236.6250   -21.1840    78.8290    23.3460    18.7150    20.6100    24.8930     2.3950 
  236.7500   -21.4890    73.5970    25.6110    20.7410    24.8150    24.7960     2.3870 
  236.8750   -21.7050    71.1340    27.3380    22.4440    29.4200    24.6540     2.3810 
