~V
VERS. 2.00: Ver 2.00
~W
STRT.M 53.0000:
STOP.M 242.0000:
STEP.M 0.1250:
NULL. -999.2500:
UWI. F10177:
~C
DEPT.M :
SP.MV :
GR.API :
RML.OHMM :
RI. :
RXO.OHMM :
CALI.CM :
DEN.GM/CC :
~A
# ...
  210.5000    -9.2970    71.2910    27.7580    27.4200    30.1660    24.4910     2.5280 
  210.6250    -8.3870    72.3730    24.2140    23.9790    25.0580    24.5020     2.5180 
  210.7500    -7.5690    75.8690    21.2700    21.0420    20.7500    24.5420     2.4930 
  210.8750    -6.9540    79.6590    19.1520    18.8580    19.8820    24.5970     2.4570 
  211.0000    -6.5110    81.4470    17.6540    17.2560    19.5220    24.6490     2.4150 
  211.1250    -6.2500    80.0690    16.6560    16.1480    17.6410    24.6860     2.3740 
  211.2500    -6.1850    76.2400    16.0570    15.4550    15.8710    24.6910     2.3410 
  211.3750    -6.2190    75.7790    15.8120    15.1380    15.4650    24.7100     2.3240 
  211.5000    -6.3090    77.7960    15.7990    15.0600    15.8220    24.7160     2.3180 
  211.6250    -6.4380    77.1050    15.9790    15.1740    16.2610    24.7150     2.3200 
  211.7500    -6.5830    73.9370    16.3280    15.4520    16.4890    24.7140     2.3250 
  211.8750    -6.6790    76.1250    16.8460    15.8930    17.2400    24.7090     2.3300 
  212.0000    -6.7330    81.1370    17.4680    16.4480    17.7100    24.7060     2.3320 
  212.1250    -6.7530    82.2270    18.1300    17.0770    18.4880    24.7100     2.3300 
  212.2500    -6.7200    78.8720    18.7420    17.7070    19.7220    24.7070     2.3210 
  212.3750    -6.6270    77.1140    19.1880    18.1970    21.1150    24.7170     2.3020 
  212.5000    -6.5110    77.8610    19.4630    18.4930    21.9050    24.7250     2.2790 
  212.6250    -6.3560    78.0600    19.5980    18.6280    21.5990    24.7330     2.2680 
  212.7500    -6.1910    79.1790    19.6040    18.6460    21.5210    24.7390     2.2810 
  212.8750    -6.0260    81.1480    19.3500    18.4300    22.2220    24.7330     2.3300 
  213.0000    -5.8840    80.3460    18.6960    17.8180    21.6370    24.7040     2.3910 
  213.1250    -5.7420    75.9320    17.5410    16.6860    20.0290    24.6310     2.4400 
  213.2500    -5.5970    72.5280    15.9390    15.0820    17.4330    24.5790     2.4600 
  213.3750    -5.4190    74.0110    14.1370    13.2800    14.0200    24.5740     2.4480 
  213.5000    -5.2380    76.8890    12.5130    11.6830    11.4140    24.5630     2.4300 
  213.6250    -5.0370    79.4110    11.2820    10.4890    10.5680    24.5620     2.4220 
  213.7500    -4.8000    81.0410    10.5110     9.7240    10.3040    24.5530     2.4250 
  213.8750    -4.5600    82.6140    10.1910     9.3640     9.8920    24.5240     2.4310 
  214.0000    -4.3500    82.9580    10.1190     9.2500     9.3870    24.4620     2.4320 
  214.1250    -4.1590    80.9290    10.1790     9.2820     9.2000    24.4040     2.4290 
  214.2500    -3.9710    78.1770    10.2940     9.3860     9.3300    24.3520     2.4270 
  214.3750    -3.7880    79.6210    10.4290     9.5370    10.0560    24.2620     2.4320 
  214.5000    -3.5690    84.2800    10.5590     9.7130    11.0490    24.0550     2.4420 
  214.6250    -3.3750    86.5220    10.6650     9.8740    11.3390    23.9030     2.4550 
  214.7500    -3.1940    84.6960    10.7290     9.9710    12.0910    23.8560     2.4670 
  214.8750    -3.0060    84.3750    10.7320     9.9580    12.5730    23.7690     2.4740 
  215.0000    -2.7760    85.6430    10.6820     9.8560    12.4490    23.5490     2.4750 
  215.1250    -2.5500    86.2230    10.5820     9.6770    11.5560    23.3730     2.4670 
  215.2500    -2.3970    85.0250    10.4400     9.4440    10.6470    23.4890     2.4520 
  215.3750    -2.3940    83.3200    10.2720     9.1820    10.1480    23.7540     2.4360 
  215.5000    -2.4790    82.6980    10.1100     8.9250    10.1410    23.8320     2.4230 
  215.6250    -2.5440    80.2660     9.9780     8.6980     9.9050    23.6820     2.4110 
  215.7500    -2.5410    75.9010     9.8900     8.5140     8.6970    23.5230     2.4000 
  215.8750    -2.4750    73.1510     9.8590     8.3970     7.1480    23.5540     2.3890 
  216.0000    -2.3840    74.2640     9.8750     8.3460     6.5030    23.8560     2.3820 
  216.1250    -2.2780    74.7820     9.9380     8.3650     6.7310    24.2740     2.3810 
  216.2500    -2.1030    69.8550    10.0490     8.4490     7.2880    24.5760     2.3830 
  216.3750    -1.8170    64.8640    10.2310     8.6050     7.6930    24.6430     2.3870 
  216.5000    -1.5090    66.9570    10.4870     8.8270     8.3560    24.6170     2.3930 
  216.6250    -1.2540    73.5630    10.8240     9.1180     9.3050    24.5900     2.4030 
  216.7500    -1.0970    77.9290    11.2320     9.4680    10.5920    24.6540     2.4190 
  216.8750    -1.0570    77.3800    11.6750     9.8490    11.5060    24.6600     2.4360 
  217.0000    -1.0840    76.7510    12.0850    10.2040    11.6780    24.6260     2.4500 
  217.1250    -1.1270    78.2970    12.4070    10.4850    11.0400    24.6380     2.4580 
  217.2500    -1.1950    80.4360    12.6080    10.6570    10.2990    24.6220     2.4620 
  217.3750    -1.2970    79.9640    12.6630    10.6960     9.7720    24.6200     2.4580 
  217.5000    -1.4170    76.7030    12.6180    10.6460     9.7970    24.6040     2.4460 
  217.6250    -1.5530    73.6510    12.5170    10.5470     9.9740    24.5720     2.4250 
  217.7500    -1.6850    73.2350    12.4060    10.4480    10.0050    24.5300     2.3970 
  217.8750    -1.7570    75.0330    12.3420    10.4020     9.9170    24.6160     2.3700 
  218.0000    -1.7730    75.8830    12.3450    10.4230     9.2280    24.7210     2.3550 
  218.1250    -1.7750    74.3700    12.4060    10.5080     8.6480    24.6750     2.3550 
  218.2500    -1.7770    71.7780    12.4830    10.6270     8.7330    24.5040     2.3660 
  218.3750    -1.7810    72.0870    12.4910    10.7090     8.4630    24.5160     2.3810 
  218.5000    -1.7960    75.7990    12.3720    10.6920     7.8280    24.4600     2.3920 
  218.6250    -1.7910    78.2550    12.1020    10.5370     7.4080    24.3540     2.3940 
  218.7500    -1.7700    77.2550    11.7040    10.2450     7.1970    24.3600     2.3880 
  218.8750    -1.7570    75.1080    11.2440     9.8540     6.6870    24.4270     2.3810 
  219.0000    -1.7570    74.6790    10.8250     9.4630     6.2490    24.4000     2.3780 
  219.1250    -1.7520    74.3160    10.5180     9.1520     6.1810    24.2160     2.3800 
  219.2500    -1.7370    72.3350    10.3650     8.9740     6.4510    24.0850     2.3840 
  219.3750    -1.7800    71.9690    10.3770     8.9570     6.7040    24.3010     2.3820 
  219.5000    -1.8940    73.8840    10.4690     9.0280     7.2340    24.5350     2.3700 
  219.6250    -2.1010    74.5810    10.5670     9.1140     8.1020    24.6250     2.3510 
  219.7500    -2.3710    73.1090    10.6170     9.1540     8.3720    24.5790     2.3330 
  219.8750    -2.6530    71.6660    10.5970     9.1200     8.6980    24.6220     2.3230 
  220.0000    -2.9230    71.3290    10.5570     9.0550     8.7380    24.7470     2.3210 
  220.1250    -3.1430    72.1330    10.5520     9.0080     8.4550    24.9000     2.3230 
  220.2500    -3.2850    74.1040    10.6210     9.0220     8.2770    25.0630     2.3310 
  220.3750    -3.2830    74.8270    10.7880     9.1370     8.6930    24.6790     2.3560 
  220.5000    -3.1250    72.6320    11.0200     9.3290     9.8060    24.5420     2.3990 
  220.6250    -2.8250    70.0590    11.3080     9.5750    11.2380    24.6170     2.4510 
  220.7500    -2.4430    70.5310    11.6670     9.8710    12.6680    24.6520     2.4930 
  220.8750    -2.0380    73.5750    12.1400    10.2480    14.2840    24.6520     2.5020 
  221.0000    -1.6660    76.7520    12.7020    10.7030    14.6980    24.6710     2.4820 
  221.1250    -1.3720    79.5540    13.2740    11.1880    14.3340    24.5670     2.4460 
  221.2500    -1.1430    81.8290    13.7220    11.5970    14.3270    24.4090     2.4120 
  221.3750    -0.9590    83.4430    13.8590    11.7520    15.6780    24.5740     2.3920 
  221.5000    -0.7840    82.2020    13.6840    11.6280    17.6960    24.7040     2.3870 
  221.6250    -0.5900    79.0930    13.2820    11.2910    17.1560    24.7610     2.3920 
