~V
VERS. 2.00: Ver 2.00
~W
STRT.M 50.0000:
STOP.M 251.0000:
STEP.M 0.1250:
NULL. -999.2500:
UWI. F10193:
~C
DEPT.M :
DEN.GM/CC :
GR.API :
RML.OHMM :
RI. :
RXO.OHMM :
CALI.CM :
SP.MV :
~A
# ...
  173.7500     2.1740    60.5900   222.0830   195.4930   100.6390    26.9720   -13.0150 
  173.8750     2.1690    59.4600   230.1680   201.2210   101.9200    27.0490   -12.7220 
  174.0000     2.1680    58.3930   230.5550   199.9290    97.8110    27.0710   -12.4720 
  174.1250     2.1720    59.9800   222.1910   190.8630    90.5190    27.0670   -12.2500 
  174.2500     2.1810    61.4370   208.6910   177.3940    84.1010    27.0700   -12.0230 
  174.3750     2.1930    60.5210   192.9470   162.1980    77.9380    27.0680   -11.7790 
  174.5000     2.2080    59.9190   177.5840   147.6590    73.2910    26.9920   -11.5280 
  174.6250     2.2230    63.6750   164.8260   135.8140    72.5630    26.7830   -11.3050 
  174.7500     2.2390    67.7710   154.8790   126.7680    73.0650    26.5520   -11.1390 
  174.8750     2.2520    67.6470   147.4140   120.2420    74.2430    26.4270   -11.0420 
  175.0000     2.2560    65.5370   141.6680   115.6440    76.1040    26.4370   -11.0010 
  175.1250     2.2460    67.8970   136.8270   112.4690    81.4570    26.4970   -10.9820 
  175.2500     2.2300    73.4330   132.3630   110.1360    84.9750    26.5300   -10.9470 
  175.3750     2.2180    76.5420   128.5790   108.7010    86.8950    26.5340   -10.8890 
  175.5000     2.2160    75.1620   126.0900   108.4220    92.9790    26.5410   -10.8290 
  175.6250     2.2210    72.2130   125.5880   109.6770    99.3040    26.5340   -10.8050 
  175.7500     2.2230    69.6680   126.1340   111.6740   100.7040    26.3890   -10.8290 
  175.8750     2.2130    68.1030   125.7910   112.7980   108.7750    26.0660   -10.8980 
  176.0000     2.1930    66.8130   121.8180   110.6600   107.1790    25.6970   -10.9940 
  176.1250     2.1750    64.3690   111.1010   102.2710    95.1380    25.5060   -11.0910 
  176.2500     2.1720    60.8370    95.2800    88.7530    73.3190    25.4910   -11.1660 
  176.3750     2.1920    58.5820    77.2820    72.5560    45.6480    25.5430   -11.2130 
  176.5000     2.2230    61.5840    60.5080    56.9400    25.3610    25.5900   -11.2370 
  176.6250     2.2470    68.6860    48.1050    45.1240    17.7270    25.6030   -11.2680 
  176.7500     2.2480    74.3340    40.2580    37.4430    16.9210    25.6010   -11.3410 
  176.8750     2.2310    78.1790    36.9250    33.7250    15.2370    25.6000   -11.4780 
  177.0000     2.2090    80.1850    38.1800    33.8410    13.4010    25.5990   -11.6890 
  177.1250     2.2030    78.0640    45.4480    39.0320    15.9180    25.5990   -11.9840 
  177.2500     2.2100    72.8090    58.5360    49.5570    26.1940    25.6320   -12.3370 
  177.3750     2.2190    67.9940    77.2790    65.7400    50.0900    25.7140   -12.7150 
  177.5000     2.2220    65.1980    99.6210    85.9490    74.7720    25.8110   -13.0730 
  177.6250     2.2220    63.4980   119.6750   104.5350    80.4620    25.8620   -13.3490 
  177.7500     2.2240    62.0350   132.1730   115.7660    79.6900    25.8700   -13.5420 
  177.8750     2.2290    62.3730   136.9310   118.7420    82.9210    25.8670   -13.6600 
  178.0000     2.2350    64.8520   137.8530   116.7590    90.7200    25.8680   -13.7050 
  178.1250     2.2350    67.5610   138.9470   113.7160   100.5870    25.8630   -13.6480 
  178.2500     2.2300    67.0410   141.0980   111.2990   106.5510    25.8720   -13.4820 
  178.3750     2.2220    63.4660   143.8410   109.5490   112.0920    25.9470   -13.2040 
  178.5000     2.2170    61.0940   147.2760   108.7140   113.5090    26.0890   -12.8300 
  178.6250     2.2190    63.6760   153.0930   110.1660   111.8970    26.2150   -12.3820 
  178.7500     2.2280    67.2730   163.1810   115.3040   107.9080    26.2670   -11.9010 
  178.8750     2.2400    67.3130   179.7150   126.0390   118.8070    26.2740   -11.4050 
  179.0000     2.2470    62.7340   204.3470   144.1370   157.2270    26.2610   -10.9030 
  179.1250     2.2360    58.3020   237.9710   171.2790   209.6960    26.1720   -10.3930 
  179.2500     2.2090    57.1160   273.9500   202.6390   277.5890    26.0280    -9.8560 
  179.3750     2.1760    56.7390   301.4320   230.0210   360.7790    25.9070    -9.2860 
  179.5000     2.1510    54.6930   307.6600   242.7030   402.0150    25.8620    -8.6870 
  179.6250     2.1460    52.0650   284.2410   231.0310   369.0810    25.8450    -8.0810 
  179.7500     2.1590    52.8760   245.7580   203.9520   279.4450    25.8000    -7.4980 
  179.8750     2.1840    57.0310   204.7100   171.5620   184.3660    25.7530    -6.9620 
  180.0000     2.2100    60.7530   169.3410   141.9960   134.2610    25.7310    -6.4870 
  180.1250     2.2220    61.0740   144.9730   120.9140   123.8990    25.7320    -6.0960 
  180.2500     2.2210    59.5020   130.6110   108.2090   110.8950    25.7340    -5.7780 
  180.3750     2.2120    58.0910   125.6340   103.5930    92.3010    25.7340    -5.5320 
  180.5000     2.2030    58.0560   128.9510   106.4560    93.6730    25.7320    -5.3460 
  180.6250     2.2030    58.6330   138.6250   115.9520   118.6120    25.7320    -5.1890 
  180.7500     2.2110    58.5500   146.8600   125.9140   184.6940    25.7730    -5.0230 
  180.8750     2.2170    58.0820   143.6600   127.4460   240.1380    25.8890    -4.8330 
  181.0000     2.2190    57.8540   122.1620   112.4680   234.7620    26.0820    -4.6380 
  181.1250     2.2220    60.1030    88.0430    83.1560   178.6180    26.3370    -4.4810 
  181.2500     2.2370    65.0190    57.6180    55.2520   107.5860    26.5840    -4.3600 
  181.3750     2.2700    70.5960    36.6670    35.5600    46.4790    26.7600    -4.2430 
  181.5000     2.3160    74.6310    24.5370    24.1250    18.6250    26.8440    -4.0860 
  181.6250     2.3600    77.1200    19.0540    18.9510    15.0100    26.8780    -3.8560 
  181.7500     2.3910    78.7450    16.6510    16.6290    15.3500    26.9120    -3.5930 
  181.8750     2.4070    79.2990    15.9040    15.8980    15.5340    26.9410    -3.3520 
  182.0000     2.4120    80.9650    15.8460    15.9580    14.7660    27.0890    -3.1850 
  182.1250     2.4080    83.7570    15.7070    16.1100    13.5240    27.3970    -3.1390 
  182.2500     2.4020    84.3790    15.1680    15.8860    12.4180    27.4880    -3.1870 
  182.3750     2.3990    84.0750    14.3400    15.2710    11.7570    27.1610    -3.3100 
  182.5000     2.4020    86.3300    13.4970    14.4920    10.6700    26.5990    -3.4820 
  182.6250     2.4120    89.7000    12.8930    13.8200     9.8730    26.0120    -3.6880 
  182.7500     2.4240    88.7880    12.5460    13.3600     9.3350    25.4890    -3.9210 
  182.8750     2.4310    84.8560    12.4340    13.1180     9.2280    25.5060    -4.1810 
  183.0000     2.4320    82.2050    12.5310    13.0540     9.5680    25.4910    -4.4670 
  183.1250     2.4270    82.1880    12.8670    13.1430    10.5220    25.4610    -4.7850 
  183.2500     2.4200    83.3400    13.4540    13.3730    11.2040    25.4510    -5.1290 
  183.3750     2.4110    84.2130    14.4190    13.8390    11.2300    25.4390    -5.4970 
  183.5000     2.4040    83.8170    15.9800    14.7200    11.5870    25.4280    -5.8890 
  183.6250     2.3940    79.6290    18.5810    16.3670    13.4960    25.4150    -6.3170 
  183.7500     2.3810    74.1990    22.2760    18.8590    17.5320    25.4000    -6.7680 
  183.8750     2.3610    71.1790    27.0110    22.2110    23.3730    25.3700    -7.2220 
  184.0000     2.3350    71.1020    32.4400    26.2150    29.6210    25.3370    -7.6490 
  184.1250     2.3090    72.1760    37.9990    30.4120    32.4420    25.2990    -8.0310 
  184.2500     2.2890    71.8990    43.3090    34.3450    34.1770    25.2670    -8.3860 
  184.3750     2.2760    69.7640    48.5000    37.9800    36.2120    25.2490    -8.7250 
  184.5000     2.2670    66.1090    53.9250    41.5590    39.9920    25.2420    -9.0380 
  184.6250     2.2610    63.7820    59.8500    45.3600    47.5450    25.2430    -9.2910 
  184.7500     2.2590    63.3820    65.9660    49.3280    53.1070    25.2420    -9.4830 
  184.8750     2.2600    63.7390    71.9310    53.2830    59.2620    25.2400    -9.6260 
