~V
VERS. 2.00: Ver 2.00
~W
STRT.M 49.0000:
STOP.M 223.0000:
STEP.M 0.1250:
NULL. -999.2500:
UWI. F10156:
~C
DEPT.M :
SP.MV :
GR.API :
RML.OHMM :
RI. :
RXO.OHMM :
CALI.CM :
DEN.GM/CC :
~A
# ...
  161.5000   -15.7200    80.4510    25.4240    23.8730    25.5710    24.7460     2.3700 
  161.6250   -15.7290    79.5960    25.6900    23.9740    25.6100    24.6740     2.3760 
  161.7500   -15.7300    79.6120    25.9800    24.0810    27.4960    24.6190     2.3800 
  161.8750   -15.7530    78.0980    25.7920    23.7870    33.1880    24.6220     2.3790 
  162.0000   -15.7940    74.4290    24.8470    22.8480    32.8620    24.6890     2.3740 
  162.1250   -15.8080    71.9010    23.2080    21.3390    25.3130    24.7420     2.3710 
  162.2500   -15.8720    75.2720    21.2440    19.6070    21.7530    24.7400     2.3770 
  162.3750   -15.9610    80.5460    19.4520    18.0420    18.7220    24.6840     2.3870 
  162.5000   -16.0080    83.5290    18.0850    16.8280    17.7510    24.6560     2.3920 
  162.6250   -16.1070    84.2280    17.2420    16.0450    18.9960    24.6550     2.3870 
  162.7500   -16.2340    85.2200    17.0570    15.8110    20.3070    24.6470     2.3800 
  162.8750   -16.3210    87.2950    17.6140    16.1460    19.3150    24.6220     2.3790 
  163.0000   -16.4440    89.2140    19.2320    17.2360    17.4460    24.6050     2.3810 
  163.1250   -16.6140    88.3030    22.1660    19.3120    19.1620    24.6110     2.3730 
  163.2500   -16.7830    80.7760    26.3350    22.6200    26.6210    24.6350     2.3500 
  163.3750   -16.9280    72.5440    30.4560    26.4330    36.0210    24.6340     2.3260 
  163.5000   -17.0910    71.5020    32.9310    29.3620    43.2060    24.6050     2.3110 
  163.6250   -17.2550    75.5140    32.4000    29.7010    44.0000    24.6050     2.3110 
  163.7500   -17.4190    77.1050    28.6350    26.7640    33.8760    24.5680     2.3290 
  163.8750   -17.6020    77.9530    24.0530    22.8640    22.7910    24.5270     2.3580 
  164.0000   -17.7900    83.0170    20.3630    19.5620    16.3190    24.4910     2.3870 
  164.1250   -17.9690    89.3350    18.3140    17.4610    15.1470    24.4670     2.4030 
  164.2500   -18.1090    87.6680    18.0920    16.7150    16.7310    24.4640     2.4000 
  164.3750   -18.2860    81.5330    19.1110    16.9490    18.8920    24.4850     2.3890 
  164.5000   -18.5000    76.5550    21.2110    18.0770    22.1990    24.5230     2.3750 
  164.6250   -18.6830    73.3740    24.4410    20.1160    26.0750    24.5600     2.3610 
  164.7500   -18.8870    70.7210    29.3840    23.4530    28.1240    24.5480     2.3490 
  164.8750   -19.1560    68.2090    36.3570    28.3700    30.5730    24.5050     2.3370 
  165.0000   -19.4110    65.5810    45.8470    35.4610    42.0500    24.4610     2.3220 
  165.1250   -19.6290    62.8860    58.0260    45.1810    74.0870    24.4180     2.3000 
  165.2500   -19.8620    59.9310    72.5430    57.5930   112.1930    24.3790     2.2780 
  165.3750   -20.1170    57.2890    87.3550    70.7880   111.9200    24.2880     2.2640 
  165.5000   -20.3810    54.9230   100.9690    83.1720   103.4990    24.1560     2.2560 
  165.6250   -20.6480    54.2200   113.3770    94.4500   103.8960    24.0910     2.2520 
  165.7500   -20.9300    53.7780   126.7270   106.3980   143.4800    24.1300     2.2510 
  165.8750   -21.2010    53.6610   142.5870   120.6030   169.4200    24.1770     2.2550 
  166.0000   -21.4520    56.4170   159.4460   136.1970   166.9960    24.2340     2.2610 
  166.1250   -21.7280    61.9410   171.6190   149.0710   164.5660    24.3460     2.2640 
  166.2500   -22.0410    63.5920   168.6040   150.9670   168.2140    24.5020     2.2650 
  166.3750   -22.3360    61.2720   150.9230   140.3190   169.9200    24.5990     2.2690 
  166.5000   -22.5940    60.3550   125.5020   120.6590   156.1470    24.6060     2.2810 
  166.6250   -22.8940    63.6430   100.4690    98.4900   112.8970    24.5520     2.3010 
  166.7500   -23.1690    68.3870    81.4650    79.9790    75.1780    24.4720     2.3210 
  166.8750   -23.3890    72.0930    68.6150    66.8110    59.5290    24.4040     2.3320 
  167.0000   -23.6500    74.8540    61.5560    58.9800    55.0230    24.4270     2.3340 
  167.1250   -23.9320    76.5270    60.0430    56.1320    52.0040    24.5220     2.3320 
  167.2500   -24.1640    78.0750    65.5020    59.4290    52.5640    24.6030     2.3280 
  167.3750   -24.3870    78.9610    78.4090    69.7440    55.2210    24.5730     2.3190 
  167.5000   -24.6370    76.5090   101.3670    90.5010    67.3200    24.4460     2.3000 
  167.6250   -24.8840    68.4200   138.5470   126.5900   117.3020    24.2830     2.2750 
  167.7500   -25.1190    58.3110   199.7790   186.4310   199.0530    24.2120     2.2550 
  167.8750   -25.3880    54.1440   284.6220   265.2620   227.8750    24.2450     2.2480 
  168.0000   -25.6420    56.5460   379.7340   348.1880   216.8930    24.2970     2.2480 
  168.1250   -25.8360    60.0940   449.7580   407.6610   277.1790    24.2660     2.2490 
  168.2500   -26.0180    59.7510   458.7720   417.0670   339.5380    24.1990     2.2500 
  168.3750   -26.2240    58.4070   436.0710   397.2160   360.4340    24.2540     2.2550 
  168.5000   -26.3980    59.5980   409.3520   370.5630   319.4940    24.3570     2.2660 
  168.6250   -26.5320    60.8480   391.4040   350.1100   267.5830    24.2630     2.2840 
  168.7500   -26.6880    58.6490   387.9770   342.5950   237.1890    24.0690     2.3100 
  168.8750   -26.8070    55.8910   397.8110   347.7800   253.5280    24.0570     2.3430 
  169.0000   -26.9160    53.6250   419.8420   365.1460   305.8070    24.0740     2.3730 
  169.1250   -27.0570    50.9860   450.5290   391.8860   334.5020    24.1000     2.3760 
  169.2500   -27.1700    49.1830   481.7230   421.7710   333.1570    24.2710     2.3350 
  169.3750   -27.2370    48.9090   501.8690   444.8150   361.3880    24.4730     2.2770 
  169.5000   -27.2720    48.8480   502.3740   453.1280   426.6710    24.6370     2.2340 
  169.6250   -27.2160    48.2270   481.4110   443.5140   498.7970    24.7670     2.2180 
  169.7500   -27.0830    49.2810   443.2370   417.3600   455.7330    24.9770     2.2210 
  169.8750   -26.8980    52.0440   399.7460   384.2470   353.2240    25.0810     2.2300 
  170.0000   -26.5760    54.3740   357.2950   349.8570   285.5970    25.1110     2.2360 
  170.1250   -26.1780    56.1020   319.1810   317.8010   293.5220    25.1090     2.2370 
  170.2500   -25.7630    59.3070   286.2960   289.6740   287.7780    25.1040     2.2350 
  170.3750   -25.2720    62.3040   262.4140   263.8680   262.4830    25.0930     2.2360 
  170.5000   -24.7210    62.4990   239.6390   239.1800   230.7730    25.0880     2.2420 
  170.6250   -24.2190    60.4320   212.8190   215.6040   212.8920    25.0980     2.2500 
  170.7500   -23.7060    60.7240   191.4910   195.4020   195.8140    25.1210     2.2600 
  170.8750   -23.1840    63.9000   176.4780   180.2800   171.6820    25.1180     2.2700 
  171.0000   -22.7580    64.9190   167.8880   171.0630   150.3710    25.1000     2.2780 
  171.1250   -22.3330    62.3290   164.7400   167.1960   139.3730    25.0730     2.2810 
  171.2500   -21.8490    61.1390   165.2960   167.1030   147.6830    25.0530     2.2770 
  171.3750   -21.4540    62.4100   166.2090   167.4120   156.9300    25.0260     2.2660 
  171.5000   -21.1140    64.1220   165.8880   166.3940   137.0420    24.9480     2.2540 
  171.6250   -20.7340    63.2180   164.7570   164.2440    92.6730    24.7590     2.2480 
  171.7500   -20.4100    60.1480   165.8780   163.7460    66.1980    24.4230     2.2590 
  171.8750   -20.1140    56.7250   172.5020   168.3380    74.1570    24.1710     2.2740 
  172.0000   -19.7540    53.3250   187.6540   181.3590   105.3880    24.2200     2.2760 
  172.1250   -19.4460    51.9820   213.6650   205.0960   157.3750    24.5550     2.2560 
  172.2500   -19.2320    53.7620   248.9520   240.0920   274.2350    24.8500     2.2300 
  172.3750   -18.9240    56.0200   281.3760   277.8410   359.2370    25.0080     2.2130 
  172.5000   -18.6020    55.1130   314.9340   307.4950   381.2570    25.0610     2.2080 
  172.6250   -18.3110    53.9640   329.2470   319.4720   370.1770    25.0830     2.2120 
