~V
VERS. 2.00: Ver 2.00
~W
STRT.M 62.0000:
STOP.M 275.0000:
STEP.M 0.1250:
NULL. -999.2500:
UWI. F10141:
~C
DEPT.M :
GR.API :
RML.OHMM :
RI. :
RXO.OHMM :
CALI.CM :
DEN.GM/CC :
SP.MV :
~A
# ...
  264.5000    65.7330    12.2100    11.7780    16.1630    23.0840     2.5070     1.5640 
  264.6250    64.0540    11.2100    10.9750    14.4940    23.1040     2.4980     1.5400 
  264.7500    63.0180    10.2390    10.1340    11.4510    23.1460     2.4850     1.5290 
  264.8750    63.0180     9.4200     9.3780     9.0360    23.1690     2.4720     1.5770 
  265.0000    63.0180     8.8150     8.7800     8.2430    23.1740     2.4610     1.7260 
  265.1250    63.0180     8.4720     8.4090     8.1070    23.1760     2.4500     1.8540 
  265.2500    63.0180     8.3310     8.2320     7.9380    23.1850     2.4370     1.9050 
  265.3750    63.0180     8.3550     8.2290     7.7620    23.2060     2.4260     1.8870 
  265.5000    63.0180     8.5030     8.3660     7.9880    23.2420     2.4200     1.8590 
  265.6250    63.0180     8.7370     8.6140     8.8780    23.2890     2.4260     1.8980 
  265.7500    63.0180     8.9900     8.9040    10.1110    23.3190     2.4420     2.0030 
  265.8750    63.0180     9.2250     9.1940    11.1730    23.2780     2.4650     2.1140 
  266.0000    63.0180     9.4220     9.4540    11.7330    23.1630     2.4880     2.1400 
  266.1250    63.0180     9.5720     9.6640    11.2140    22.8800     2.5060     2.1120 
  266.2500    63.0180     9.6950     9.8320    10.7390    22.4490     2.5150     2.0800 
  266.3750    63.0180     9.8060     9.9630    10.8670    21.9760     2.5170     2.0700 
  266.5000    63.0180     9.9150    10.0650    10.8310    21.4460     2.5130     2.0770 
  266.6250    63.0180    10.0230    10.1400    10.7680    21.1120     2.5060     2.0610 
  266.7500    63.0180    10.1310    10.2070    10.5700    21.0310     2.5020     1.9860 
  266.8750    63.0180    10.2570    10.2880    10.9510    21.1660     2.5010     1.8420 
  267.0000    63.0180    10.4220    10.4110    12.1200    21.4910     2.5050     1.6980 
  267.1250    63.0180    10.6500    10.5990    13.3780    21.8760     2.5130     1.5780 
  267.2500    63.0180    10.9110    10.8310    13.4350    22.2610     2.5230     1.4840 
  267.3750    63.0180    11.1560    11.0700    12.8240    22.6260     2.5320     1.4050 
  267.5000    63.0180    11.3360    11.2770    12.6890    22.9770     2.5370     1.3190 
  267.6250    63.0180    11.4270    11.4210    13.0200    23.2710     2.5380     1.1940 
  267.7500    63.0180    11.4890    11.5380    13.5150    23.5080     2.5370     1.0270 
  267.8750    63.0180    11.5960    11.6790    14.1740    23.7040     2.5340     0.8500 
  268.0000    63.0180    11.8140    11.8960    15.2720    23.8270     2.5300     0.6450 
  268.1250    63.0180    12.1910    12.2260    15.5290    23.8540     2.5250     0.4270 
  268.2500    63.0180    12.6610    12.6340    15.1360    23.8750     2.5200     0.2340 
  268.3750    63.0180    13.1490    13.0780    15.3270    23.8830     2.5130     0.0780 
  268.5000    63.0180    13.5760    13.5060    16.1190    23.8850     2.5070    -0.1130 
  268.6250    63.0180    13.8680    13.8580    16.0000    23.8970     2.5060    -0.3310 
  268.7500    63.0180    14.0510    14.1260    15.4680    23.9450     2.5140    -0.4780 
  268.8750    63.0180    14.1760    14.3290    14.3720    24.0420     2.5290    -0.5310 
  269.0000    63.0180    14.3140    14.5130    14.0350    24.1460     2.5430    -0.4990 
  269.1250    63.0180    14.5400    14.7420    14.8200    24.2010     2.5460    -0.4310 
  269.2500    63.0180    14.8430    15.0290    15.2500    24.1960     2.5330    -0.4040 
  269.3750    63.0180    15.1550    15.3280    15.6980    24.2100     2.5100    -0.4470 
  269.5000    63.0180    15.3920    15.5650    16.0910    24.2990     2.4850    -0.4080 
  269.6250    63.0180    15.4620    15.6680    17.7720    24.4990     2.4700    -0.2410 
  269.7500    63.0180    15.3920    15.6720    17.4100    24.6690     2.4660    -0.1060 
  269.8750    63.0180    15.2540    15.6280    15.5040    24.7290     2.4710    -0.0710 
  270.0000    63.0180    15.1390    15.5880    13.7190    24.7240     2.4800    -0.0850 
  270.1250    63.0180    15.1010    15.5740    13.8380    24.7150     2.4920    -0.0970 
  270.2500    63.0180    15.0980    15.5720    14.7400    24.7130     2.5050    -0.0640 
  270.3750    63.0180    15.0980    15.5720    13.9470    24.7140     2.5190     0.0320 
  270.5000    63.0180    15.1000    15.5710    12.2000    24.7150     2.5320     0.1400 
  270.6250    63.0180    15.1010    15.5700    11.3910    24.7170     2.5430     0.1890 
  270.7500    63.0180    15.1010    15.5700    11.7480    24.7180     2.5500     0.2410 
  270.8750    63.0180    15.1010    15.5700    13.2790    24.7230     2.5570     0.3780 
  271.0000    63.0180    15.1010    15.5700    15.6800    24.7120     2.5620     0.5610 
  271.1250    63.0180    15.1010    15.5700    17.8020    24.6910     2.5590     0.6850 
  271.2500    63.0180    15.1010    15.5700    19.9530    24.6630     2.5390     0.7920 
  271.3750    63.0180    15.1010    15.5700    22.5820    24.6490     2.5020     0.9150 
  271.5000    63.0180    15.1010    15.5700    21.7670    24.6560     2.4570     1.0100 
  271.6250    63.0180    15.1010    15.5700    22.1790    24.6760     2.4260     1.0730 
  271.7500    63.0180    15.1010    15.5700    20.6440    24.7010     2.4200     1.1190 
  271.8750    63.0180    15.1010    15.5700    19.3690    24.7120     2.4380     1.1590 
  272.0000    63.0180    15.1010    15.5700    17.3490    24.7130     2.4660     1.1430 
  272.1250    63.0180    15.1010    15.5700    16.0700    24.7120     2.4910     1.2010 
  272.2500    63.0180    15.1010    15.5700    16.8460    24.7060     2.5080     1.2630 
  272.3750    63.0180    15.1010    15.5700    18.9600    24.6870     2.5220     1.2770 
  272.5000    63.0180    15.1010    15.5700    20.3900    24.6490     2.5340     1.2840 
  272.6250    63.0180    15.1010    15.5700    20.9960    24.6140     2.5430     1.3190 
  272.7500    63.0180    15.1010    15.5700    20.9800    24.5940     2.5460     1.3470 
  272.8750    63.0180    15.1010    15.5700    20.2770    24.5660     2.5420     1.3430 
  273.0000    63.0180    15.1010    15.5700    19.3120    24.5110     2.5330     1.3400 
  273.1250    63.0180    15.1010    15.5700    18.3080    24.4290     2.5300     1.3400 
  273.2500    63.0180    15.1010    15.5700    17.6500    24.3550     2.5350     1.3400 
  273.3750    63.0180    15.1010    15.5700    17.5540    24.3230     2.5470     1.3400 
  273.5000    63.0180    15.1010    15.5700    18.9720    24.3310     2.5490  -999.2500 
  273.6250    63.0180    15.1010    15.5700    23.6530    24.2920     2.5260  -999.2500 
  273.7500    63.0180    15.1010    15.5700    29.9280    24.2290     2.4680  -999.2500 
  273.8750    63.0180    15.1010    15.5700    27.6350    24.1040     2.3850  -999.2500 
  274.0000    63.0180    15.1010    15.5700    23.3770    23.9090     2.3050  -999.2500 
  274.1250    63.0180    15.1010    15.5700    17.6720    23.2400     2.2450  -999.2500 
  274.2500    63.0180    15.1010    15.5700    11.7620    21.5200     2.2110  -999.2500 
  274.3750    63.0180    15.1010    15.5700     7.1680    18.5480     2.1980  -999.2500 
  274.5000    63.0180    15.1010    15.5700     5.3470    16.0990     2.1920  -999.2500 
  274.6250    63.0180    15.1010    15.5700     5.0270    15.2400     2.1860  -999.2500 
  274.7500    63.0180    15.1010    15.5700     5.0150    15.1110     2.1760  -999.2500 
  274.8750    63.0180    15.1010    15.5700     5.0150    15.1010     2.1820  -999.2500 
  275.0000    63.0180    15.1010    15.5700     5.0140    15.1000  -999.2500  -999.2500 
