~V
VERS. 2.00: Ver 2.00
~W
STRT.M 50.0000:
STOP.M 233.0000:
STEP.M 0.1250:
NULL. -999.2500:
UWI. F10166:
~C
DEPT.M :
SP.MV :
DEN.GM/CC :
GR.API :
RML.OHMM :
RI. :
RXO.OHMM :
CALI.CM :
~A
# ...
  218.7500   -14.7350     2.2890    86.4360     7.4010     6.7560     6.2840    24.8810 
  218.8750   -14.6950     2.2740    86.0310     7.1370     6.5020     6.1710    24.9330 
  219.0000   -14.6850     2.2630    84.6730     7.0640     6.3720     5.9650    24.9490 
  219.1250   -14.7450     2.2670    84.0770     7.2250     6.4260     5.9600    24.9320 
  219.2500   -14.8820     2.2860    82.3270     7.5110     6.6090     6.3690    24.9090 
  219.3750   -15.0800     2.3130    80.0360     7.8260     6.8630     7.0480    24.8900 
  219.5000   -15.3090     2.3390    80.4820     8.0900     7.1240     7.6100    24.8710 
  219.6250   -15.5030     2.3510    82.0590     8.2430     7.3220     7.7800    24.8470 
  219.7500   -15.6220     2.3520    81.0290     8.3080     7.4320     7.7570    24.8290 
  219.8750   -15.6540     2.3470    78.1380     8.3240     7.4570     7.6510    24.8140 
  220.0000   -15.5980     2.3440    76.5470     8.3330     7.4270     7.5210    24.7940 
  220.1250   -15.4440     2.3480    77.6690     8.3640     7.3800     7.4330    24.7800 
  220.2500   -15.2420     2.3570    77.6690     8.3930     7.3420     7.4360    24.7750 
  220.3750   -15.0240     2.3660    77.6690     8.4000     7.3180     7.4780    24.7740 
  220.5000   -14.8340     2.3720    77.6690     8.3820     7.3070     7.5390    24.7710 
  220.6250   -14.6940     2.3730    77.6690     8.3700     7.3160     7.6620    24.7700 
  220.7500   -14.5460     2.3740    77.6690     8.4030     7.3540     7.6980    24.7640 
  220.8750   -14.3880     2.3780    77.6690     8.5020     7.4320     7.6160    24.7470 
  221.0000   -14.2160     2.3890    77.6690     8.6500     7.5510     7.6380    24.7250 
  221.1250   -14.0190     2.4020    77.6690     8.7910     7.6830     8.1330    24.7100 
  221.2500   -13.8180     2.4070    77.6690     8.8510     7.7780     8.8350    24.7040 
  221.3750   -13.6110     2.4000    77.6690     8.7840     7.8000     9.0770    24.7020 
  221.5000   -13.3850     2.3840    77.6690     8.5940     7.7360     8.5020    24.7030 
  221.6250   -13.1390     2.3680    77.6690     8.3510     7.6120     7.6060    24.7070 
  221.7500   -12.8630     2.3570    77.6690     8.1690     7.4990     7.2010    24.7040 
  221.8750   -12.5310     2.3530    77.6690     8.1030     7.4440     7.3250    24.6800 
  222.0000   -12.1110     2.3560    77.6690     8.1420     7.4560     7.5090    24.6380 
  222.1250   -11.5890     2.3620    77.6690     8.1870     7.4810     7.3840    24.6000 
  222.2500   -10.9500     2.3630    77.6690     8.1040     7.4200     7.2630    24.5790 
  222.3750   -10.2040     2.3550    77.6690     7.8200     7.2080     7.1520    24.5740 
  222.5000    -9.3820     2.3370    77.6690     7.3440     6.8380     6.6430    24.5750 
  222.6250    -8.5370     2.3150    77.6690     6.7720     6.3650     5.6460    24.5760 
  222.7500    -7.7360     2.2960    77.6690     6.2530     5.9150     4.9110    24.5780 
  222.8750    -7.0210     2.2820    77.6690     5.8730     5.5670     4.7520    24.5780 
  223.0000    -6.4350     2.2740    77.6690     5.6680     5.3640     4.8640    24.5770 
  223.1250    -6.0100     2.2770    77.6690     5.6490     5.3330     4.8330    24.5780 
  223.2500    -5.7040     2.2920    77.6690     5.7370     5.4080     4.7560    24.5780 
  223.3750    -5.5040     2.3140    77.6690     5.8710     5.5370     4.8280    24.5770 
  223.5000    -5.3600     2.3340    77.6690     5.9950     5.6650     5.0500    24.5760 
  223.6250    -5.2330     2.3390    77.6690     6.0770     5.7530     5.1730    24.5750 
  223.7500    -5.1000     2.3340    77.6690     6.1280     5.8000     5.0940    24.5730 
  223.8750    -4.9660     2.3260    77.6690     6.1660     5.8150     4.9420    24.5710 
  224.0000    -4.8400     2.3200    77.6690     6.1950     5.8060     4.8710    24.5700 
  224.1250    -4.7440     2.3200    77.6690     6.2000     5.7760     4.8940    24.5730 
  224.2500    -4.6930     2.3310    77.6690     6.1790     5.7420     4.8890    24.5750 
  224.3750    -4.6680     2.3510    77.6690     6.1420     5.7190     4.8740    24.5760 
  224.5000    -4.6890     2.3700    77.6690     6.1110     5.7190     5.0770    24.5770 
  224.6250    -4.7540     2.3680    77.6690     6.1100     5.7460     5.6150    24.5770 
  224.7500    -4.8440     2.3450    77.6690     6.1230     5.7790     6.0080    24.5640 
  224.8750    -4.9430     2.3130    77.6690     6.1340     5.8050     5.9170    24.5410 
  225.0000    -5.0360     2.2900    77.6690     6.1350     5.8150     5.5850    24.5200 
  225.1250    -5.1150     2.2900    77.6690     6.1360     5.8160     5.5710    24.5160 
  225.2500    -5.1650     2.3070    77.6690     6.1450     5.8180     5.7810    24.5280 
  225.3750    -5.1940     2.3290    77.6690     6.1520     5.8210     5.9060    24.5470 
  225.5000    -5.1790     2.3460    77.6690     6.1480     5.8230     5.8910    24.5650 
  225.6250    -5.1360     2.3510    77.6690     6.1350     5.8230     5.8520    24.5720 
  225.7500    -5.0750     2.3470    77.6690     6.1220     5.8210     5.9210    24.5740 
  225.8750    -5.0170     2.3350    77.6690     6.1130     5.8190     6.1090    24.5750 
  226.0000    -4.9650     2.3210    77.6690     6.1110     5.8170     6.2990    24.5760 
  226.1250    -4.9560     2.3140    77.6690     6.1110     5.8170     6.4460    24.5770 
  226.2500    -4.9640     2.3190    77.6690     6.1110     5.8170     6.8250    24.5780 
  226.3750    -4.9950     2.3350    77.6690     6.1110     5.8170     7.5550    24.5770 
  226.5000    -5.0590     2.3560    77.6690     6.1110     5.8170     8.4310    24.5760 
  226.6250    -5.1440     2.3730    77.6690     6.1110     5.8170     9.0770    24.5740 
  226.7500    -5.2350     2.3770    77.6690     6.1110     5.8170     9.6170    24.5820 
  226.8750    -5.3390     2.3680    77.6690     6.1110     5.8170     9.9930    24.6010 
  227.0000    -5.4440     2.3520    77.6690     6.1110     5.8170     9.9070    24.4710 
  227.1250    -5.5470     2.3390    77.6690     6.1110     5.8170     9.5430    24.0180 
  227.2500    -5.6230     2.3400    77.6690     6.1110     5.8170     9.5140    23.4950 
  227.3750    -5.6280     2.3600    77.6690     6.1110     5.8170     9.7460    23.1720 
  227.5000    -5.5520     2.3930    77.6690     6.1110     5.8170     9.8170    23.0790 
  227.6250    -5.4090     2.4010    77.6690     6.1110     5.8170     8.9530    23.0210 
  227.7500    -5.2280     2.3420    77.6690     6.1110     5.8170     6.6960    22.9320 
  227.8750    -5.0330     2.2160    77.6690     6.1110     5.8170     4.2230    22.8120 
  228.0000    -4.8630     2.0610    77.6690     6.1110     5.8170     3.6720    22.4110 
  228.1250    -4.7440     1.9250    77.6690     6.1110     5.8170     5.1600    21.4100 
  228.2500    -4.7100     1.8310    77.6690     6.1110     5.8170     6.0640    20.2390 
  228.3750    -4.7310     1.8030    77.6690     6.1110     5.8170     5.8460    19.4580 
  228.5000    -4.7510     1.7790    77.6690     6.1110     5.8170     5.5360    19.2350 
  228.6250  -999.2500     1.7910    77.6690     6.1110     5.8170     5.5330    19.2660 
  228.7500  -999.2500     1.8010    77.6690     6.1110     5.8170     5.5430    19.2710 
  228.8750  -999.2500     1.8030    77.6690     6.1110     5.8170     5.5450    19.2690 
  229.0000  -999.2500     1.8000    77.6690     6.1110     5.8170     5.5450    19.2710 
  229.1250  -999.2500     1.7960    77.6690     6.1110     5.8170     5.5410    19.2730 
  229.2500  -999.2500     1.7960    77.6690     6.1110     5.8170     5.5350    19.2730 
  229.3750  -999.2500     1.8000    77.6690     6.1110     5.8170     5.5320    19.2710 
  229.5000  -999.2500     1.8050    77.6690     6.1110     5.8170     5.5330    19.2690 
  229.6250  -999.2500     1.8070    77.6690     6.1110     5.8170     5.5340    19.2690 
  229.7500  -999.2500     1.8070    77.6690     6.1110     5.8170     5.5320    19.2690 
  229.8750  -999.2500     1.8050    77.6690     6.1110     5.8170     5.5320    19.2690 
