~V
VERS. 2.00: Ver 2.00
~W
STRT.M 57.0000:
STOP.M 281.0000:
STEP.M 0.1250:
NULL. -999.2500:
UWI. F10139:
~C
DEPT.M :
SP.MV :
GR.API :
RML.OHMM :
RI. :
RXO.OHMM :
CALI.CM :
DEN.GM/CC :
~A
# ...
   90.7500   -11.9280    85.9320     7.0120     5.6140     6.3140    24.8430     2.2600 
   90.8750   -11.2210    87.7390     6.9160     5.5050     6.1140    24.9890     2.2930 
   91.0000   -10.8600    88.1730     7.1220     5.5970     6.0160    25.0050     2.3370 
   91.1250   -11.0870    83.2940     7.6950     5.9540     6.2750    24.9950     2.3750 
   91.2500   -11.8720    76.3750     8.4700     6.5010     7.3180    24.9950     2.3820 
   91.3750   -13.0660    71.2700     9.2670     7.1340     8.3450    24.9980     2.3470 
   91.5000   -14.4000    67.8150     9.9080     7.7080     8.4920    24.9930     2.2750 
   91.6250   -15.5890    66.1090    10.2270     8.0620     8.4230    24.9100     2.1960 
   91.7500   -16.3940    68.1120    10.2320     8.1840     8.6430    24.7810     2.1480 
   91.8750   -16.6890    74.5890     9.9510     8.0990     8.8490    24.6570     2.1470 
   92.0000   -16.5220    81.8770     9.4800     7.8750     7.9920    24.6200     2.1860 
   92.1250   -15.8660    84.9700     8.9540     7.5760     7.7790    24.6370     2.2390 
   92.2500   -14.7950    85.0070     8.4870     7.2650     7.2890    24.6520     2.2780 
   92.3750   -13.4270    84.8230     8.1260     6.9770     7.2060    24.6630     2.2960 
   92.5000   -12.0070    86.1030     7.8700     6.7410     7.0740    24.6620     2.2990 
   92.6250   -10.7380    86.3650     7.6950     6.5720     6.7300    24.6460     2.2990 
   92.7500    -9.8320    84.0560     7.5620     6.4510     6.6850    24.6270     2.3000 
   92.8750    -9.4000    80.7920     7.4860     6.3760     6.6660    24.6180     2.2980 
   93.0000    -9.2840    80.5260     7.4890     6.3520     6.7040    24.6150     2.2930 
   93.1250    -9.3630    81.9670     7.5620     6.3820     6.4940    24.5900     2.2830 
   93.2500    -9.5510    81.4360     7.6610     6.4440     6.6450    24.5220     2.2730 
   93.3750    -9.7890    80.0640     7.7660     6.5230     7.0400    24.4540     2.2640 
   93.5000   -10.0560    79.4460     7.8700     6.6040     7.1740    24.4230     2.2560 
   93.6250   -10.4300    77.8370     7.9560     6.6610     6.9060    24.4150     2.2500 
   93.7500   -10.8960    75.2720     7.9790     6.6590     6.8360    24.3790     2.2430 
   93.8750   -11.3670    74.5980     7.8880     6.5590     7.1460    24.3380     2.2360 
   94.0000   -11.7630    75.1910     7.6890     6.3740     7.5580    24.3100     2.2280 
   94.1250   -11.9130    75.5070     7.5720     6.2480     7.5110    24.3510     2.2220 
   94.2500   -11.8750    75.9690     7.8540     6.3810     7.2640    24.4560     2.2230 
   94.3750   -11.8070    76.1710     8.8140     6.9510     7.2740    24.5620     2.2450 
   94.5000   -11.7960    73.8690    10.5820     8.0780     8.6720    24.6150     2.3010 
   94.6250   -11.8900    70.1580    12.9980     9.8070    13.4420    24.6320     2.3940 
   94.7500   -12.1120    67.7910    15.1540    11.5970    21.8340    24.6300     2.4940 
   94.8750   -12.5030    64.8670    16.0660    12.6670    25.6860    24.6190     2.5610 
   95.0000   -13.1340    61.8860    15.2590    12.4660    18.2060    24.6020     2.5670 
   95.1250   -14.1190    61.0150    13.2310    11.1940    12.3400    24.5780     2.5010 
   95.2500   -15.3390    61.6470    11.2860     9.8080    10.4270    24.5800     2.4020 
   95.3750   -16.6280    63.0710     9.9840     8.7410     9.9790    24.5880     2.3050 
   95.5000   -17.8080    65.1770     9.4060     8.1180     9.6400    24.5640     2.2320 
   95.6250   -18.6550    66.6940     9.4030     7.9230     9.2940    24.4980     2.1930 
   95.7500   -19.0960    66.4110     9.5910     7.9410     9.1530    24.4240     2.1760 
   95.8750   -19.1970    65.9050     9.7820     8.0430     9.2190    24.3740     2.1710 
   96.0000   -19.0860    66.6280     9.8900     8.1460     9.4910    24.3510     2.1720 
   96.1250   -18.8260    68.1520     9.9030     8.1990     9.1050    24.3450     2.1770 
   96.2500   -18.4440    69.9120     9.8600     8.1970     9.0020    24.3460     2.1850 
   96.3750   -18.0170    70.5730     9.7800     8.1390     9.1290    24.3530     2.1930 
   96.5000   -17.7150    68.1220     9.6650     8.0320     8.8400    24.3760     2.1970 
   96.6250   -17.6920    62.8190     9.5240     7.9010     9.0530    24.4170     2.1950 
   96.7500   -17.8410    58.9210     9.4660     7.8330     9.4680    24.4420     2.1910 
   96.8750   -18.0230    58.9490     9.6920     7.9640     9.9410    24.4360     2.1890 
   97.0000   -18.1170    62.6680    10.4230     8.4490    10.3790    24.4490     2.1970 
   97.1250   -18.0380    67.3570    11.8630     9.4790    11.3800    24.5170     2.2300 
   97.2500   -17.8640    69.5810    13.6950    10.9110    14.5520    24.5880     2.2920 
   97.3750   -17.7140    67.9410    15.3700    12.4020    23.0080    24.5800     2.3690 
   97.5000   -17.6630    63.2310    16.1930    13.3860    32.1940    24.4400     2.4320 
   97.6250   -17.7480    59.1700    15.6610    13.3070    29.7820    24.1640     2.4300 
   97.7500   -17.9950    58.7410    14.4590    12.5640    19.8280    23.9190     2.3680 
   97.8750   -18.3710    60.7510    13.2680    11.6520    13.0830    23.8550     2.2800 
   98.0000   -18.8620    62.6650    12.5120    10.9230    10.9150    23.8730     2.2220 
   98.1250   -19.5310    62.4000    12.2780    10.5270    11.6080    23.8220     2.2350 
   98.2500   -20.3980    60.3040    12.1740    10.2870    12.3750    23.6820     2.2850 
   98.3750   -21.3740    57.6240    11.8930    10.0100    10.8500    23.5370     2.3220 
   98.5000   -22.3100    56.7920    11.3160     9.5830     9.6590    23.4850     2.3110 
   98.6250   -23.0640    58.5350    10.5690     9.0490     9.9350    23.5750     2.2460 
   98.7500   -23.6910    60.0580     9.9300     8.5830    10.5480    23.7770     2.1700 
   98.8750   -24.2920    59.1400     9.5430     8.2870    10.7130    23.9980     2.1130 
   99.0000   -24.8610    57.5660     9.4120     8.1890    10.6550    24.2390     2.0890 
   99.1250   -25.2930    58.8260     9.4390     8.2490    10.6730    24.4180     2.0970 
   99.2500   -25.5530    60.8510     9.4850     8.3530    10.5300    24.3950     2.1180 
   99.3750   -25.6750    60.5760     9.5140     8.4500    10.3420    24.2940     2.1400 
   99.5000   -25.6910    58.3470     9.5280     8.5190    10.2910    24.2620     2.1560 
   99.6250   -25.6060    58.3230     9.5430     8.5630    10.3110    24.3100     2.1600 
   99.7500   -25.3980    60.2150     9.5750     8.5990    10.4020    24.3610     2.1580 
   99.8750   -25.0870    60.8070     9.6340     8.6380    10.5780    24.3940     2.1520 
  100.0000   -24.7620    59.9200     9.7170     8.6730    10.8530    24.4220     2.1400 
  100.1250   -24.5230    60.9560     9.8140     8.6870    10.9690    24.4540     2.1170 
  100.2500   -24.3170    63.9860     9.8960     8.6700    10.9100    24.4580     2.0800 
  100.3750   -24.1110    65.6630     9.9400     8.6250    10.7290    24.4420     2.0370 
  100.5000   -23.9450    63.7910     9.9350     8.5520    10.6160    24.3980     2.0000 
  100.6250   -23.8900    60.9180     9.8570     8.4340    10.6980    24.3290     1.9830 
  100.7500   -23.9410    60.0950     9.6970     8.2630    10.5830    24.2460     1.9850 
  100.8750   -24.0420    61.0330     9.4490     8.0470    10.2280    24.1770     1.9990 
  101.0000   -24.1030    61.9420     9.1520     7.8190     9.8480    24.1490     2.0170 
  101.1250   -24.0570    62.4790     8.9110     7.6440     9.6010    24.1460     2.0330 
  101.2500   -24.0010    64.0490     8.8180     7.5670     9.4220    24.1150     2.0480 
  101.3750   -23.9890    65.2940     8.9070     7.6090     9.4710    24.0060     2.0600 
  101.5000   -24.0040    63.4770     9.1490     7.7680     9.8290    23.8000     2.0670 
  101.6250   -23.9510    59.8330     9.4690     8.0190    10.2960    23.4890     2.0690 
  101.7500   -23.7930    57.5380     9.7630     8.2910    10.5380    23.2030     2.0720 
  101.8750   -23.6100    56.9070     9.9840     8.5290    10.5940    22.9670     2.0800 
