~V
VERS. 2.00: Ver 2.00
~W
STRT.M 63.0000:
STOP.M 207.0000:
STEP.M 0.1250:
NULL. -999.2500:
UWI. F10132:
~C
DEPT.M :
SP.MV :
DEN.GM/CC :
GR.API :
RML.OHMM :
RI. :
RXO.OHMM :
CALI.CM :
~A
# ...
  175.5000   -32.5180     2.4320    80.9560     7.5930     6.1600     5.9710    23.6700 
  175.6250   -33.0360     2.3880    82.3350     7.6780     6.1420     6.0220    23.6200 
  175.7500   -33.6480     2.3320    88.1600     7.8940     6.2110     6.1680    23.6350 
  175.8750   -34.3190     2.2800    95.0950     8.2220     6.3710     6.4130    23.8370 
  176.0000   -35.0290     2.2480    97.1040     8.6190     6.6080     6.7420    24.2360 
  176.1250   -35.7450     2.2550    94.5700     9.0000     6.8820     7.2170    24.6030 
  176.2500   -36.4300     2.2890    92.2790     9.2800     7.1270     7.7270    24.7610 
  176.3750   -37.0380     2.3270    92.0930     9.4150     7.2940     8.1510    24.7600 
  176.5000   -37.5370     2.3480    93.4470     9.4130     7.3600     8.3410    24.7030 
  176.6250   -37.8960     2.3520    94.8720     9.3160     7.3270     8.2950    24.6160 
  176.7500   -38.1370     2.3530    96.0150     9.2140     7.2510     8.1750    24.5410 
  176.8750   -38.2670     2.3600    96.1710     9.1550     7.1750     8.0590    24.5050 
  177.0000   -38.2960     2.3750    95.4970     9.1600     7.1260     7.9310    24.4980 
  177.1250   -38.2310     2.3870    94.0540     9.2310     7.1200     7.8310    24.4990 
  177.2500   -38.1110     2.3900    93.8530     9.3470     7.1510     7.8110    24.5000 
  177.3750   -37.9430     2.3820    93.5350     9.5050     7.2190     7.9200    24.5020 
  177.5000   -37.7160     2.3710    91.2120     9.7110     7.3290     8.1750    24.4990 
  177.6250   -37.3990     2.3660    87.9690    10.0350     7.5210     8.6750    24.4710 
  177.7500   -37.0060     2.3710    85.8360    10.5790     7.8440     9.5040    24.4210 
  177.8750   -36.5300     2.3870    83.8380    11.4900     8.3790    10.6930    24.3730 
  178.0000   -35.9640     2.4180    81.6360    12.8830     9.2010    12.1010    24.3490 
  178.1250   -35.2980     2.4660    81.3860    14.7080    10.3250    13.3730    24.3460 
  178.2500   -34.5690     2.5200    82.3540    16.3830    11.4460    14.3780    24.3010 
  178.3750   -33.8050     2.5570    83.5070    17.1520    12.1130    15.0840    24.1520 
  178.5000   -33.0330     2.5570    86.4120    16.4080    11.9030    15.2210    23.9080 
  178.6250   -32.2950     2.5200    92.4660    14.1400    10.6980    14.4980    23.7180 
  178.7500   -31.6010     2.4750    98.0470    11.5710     9.1750    12.5330    23.7590 
  178.8750   -30.9670     2.4430    98.4760     9.5240     7.8400     9.8460    24.0760 
  179.0000   -30.4070     2.4360    93.0710     8.3380     6.9580     7.6370    24.5380 
  179.1250   -29.9490     2.4500    85.5880     8.0350     6.6240     6.8450    24.8670 
  179.2500   -29.5840     2.4650    80.4340     8.1550     6.6170     6.8940    24.9430 
  179.3750   -29.2990     2.4710    77.1240     8.3490     6.7440     7.1310    24.8480 
  179.5000   -29.0700     2.4700    72.0140     8.3390     6.8140     7.1690    24.8270 
  179.6250   -28.8800     2.4640    64.4850     7.9900     6.6960     6.7690    25.0780 
  179.7500   -28.6920     2.4570    57.8590     7.4960     6.4570     6.1260    25.3580 
  179.8750   -28.5090     2.4530    54.6060     7.0330     6.1950     5.4430    25.4630 
  180.0000   -28.3310     2.4510    53.8560     6.7020     5.9840     4.9480    25.6110 
  180.1250   -28.1450     2.4560    52.7480     6.5240     5.8580     4.7510    26.1250 
  180.2500   -27.9590     2.4640    50.8520     6.4110     5.7790     4.6970    26.6030 
  180.3750   -27.7940     2.4690    50.8490     6.3100     5.7100     4.6980    26.6840 
  180.5000   -27.6670     2.4670    55.2510     6.2000     5.6320     4.7110    26.5960 
  180.6250   -27.5950     2.4570    62.1830     6.1060     5.5570     4.7190    26.8210 
  180.7500   -27.5640     2.4410    65.9370     6.0680     5.5120     4.7660    27.1700 
  180.8750   -27.5680     2.4220    66.4040     6.1050     5.5220     4.8670    27.0650 
  181.0000   -27.5980     2.4050    66.9840     6.2060     5.5840     5.0270    26.2760 
  181.1250   -27.6570     2.3950    69.5430     6.3130     5.6680     5.2750    25.2650 
  181.2500   -27.7320     2.3910    71.2200     6.3500     5.7170     5.5160    24.7020 
  181.3750   -27.8010     2.3890    71.1980     6.2740     5.6900     5.6600    24.6210 
  181.5000   -27.8520     2.3900    71.0910     6.0870     5.5750     5.6420    24.6990 
  181.6250   -27.8790     2.3890    67.4020     5.8400     5.3970     5.4420    24.7040 
  181.7500   -27.8890     2.3780    58.4840     5.6220     5.2190     5.1690    24.6470 
  181.8750   -27.9030     2.3500    49.2970     5.4810     5.0780     4.9120    24.5100 
  182.0000   -27.9440     2.3100    45.3070     5.4230     4.9900     4.7290    24.4060 
  182.1250   -28.0410     2.2760    46.1600     5.4300     4.9490     4.6800    24.5340 
  182.2500   -28.2020     2.2670    47.2530     5.4560     4.9240     4.7040    24.8020 
  182.3750   -28.4370     2.2960    50.2380     5.4730     4.9000     4.7580    25.0090 
  182.5000   -28.7410     2.3530    55.2990     5.4730     4.8680     4.8510    25.0330 
  182.6250   -29.0860     2.4060    60.7540     5.4730     4.8400     4.9930    24.9000 
  182.7500   -29.4280     2.4360    65.0970     5.5260     4.8490     5.1960    24.7440 
  182.8750   -29.7420     2.4440    66.6910     5.6960     4.9370     5.4790    24.6460 
  183.0000   -30.0140     2.4390    67.5870     6.0640     5.1530     5.8980    24.6510 
  183.1250   -30.2420     2.4270    73.9270     6.7750     5.5900     6.5810    24.7080 
  183.2500   -30.4270     2.4140    82.8710     7.8390     6.2640     7.5460    24.7350 
  183.3750   -30.5710     2.4040    87.3980     9.2180     7.1710     8.7830    24.7380 
  183.5000   -30.6790     2.3990    84.5990    10.7430     8.2320    10.1610    24.7350 
  183.6250   -30.7610     2.3970    81.2750    11.9860     9.1990    11.3890    24.7360 
  183.7500   -30.8080     2.3970    81.2800    12.5360     9.7640    12.1260    24.7410 
  183.8750   -30.7940     2.3950    82.5250    12.1960     9.7410    12.3030    24.7490 
  184.0000   -30.7020     2.3920    83.9600    11.1450     9.1800    11.9980    24.7280 
  184.1250   -30.5250     2.3930    86.7200     9.8900     8.3610    11.0330    24.6120 
  184.2500   -30.2960     2.4040    90.5810     8.9420     7.6530     9.7950    24.4260 
  184.3750   -30.0420     2.4320    91.7470     8.4610     7.2100     8.6920    24.2520 
  184.5000   -29.7810     2.4720    89.0130     8.3840     7.0410     8.2720    24.1470 
  184.6250   -29.5550     2.5040    85.4300     8.5130     7.0670     8.4290    24.0970 
  184.7500   -29.3710     2.5110    82.7870     8.6240     7.1420     8.8130    24.0590 
  184.8750   -29.2180     2.4950    80.5090     8.7310     7.2500     9.3070    24.0320 
  185.0000   -29.0850     2.4760    78.0230     9.0050     7.4730     9.6200    24.0240 
  185.1250   -28.9560     2.4880    76.4670     9.6780     7.9550     9.7670    24.0250 
  185.2500   -28.8230     2.5360    74.9630    10.6190     8.6390    10.0920    24.0270 
  185.3750   -28.6900     2.5960    71.7450    11.4920     9.3380    11.1040    24.0680 
  185.5000   -28.5800     2.6310    67.7160    11.8230     9.7400    12.4700    24.1670 
  185.6250   -28.5010     2.6110    67.5750    11.1620     9.4860    13.3650    24.2760 
  185.7500   -28.4430     2.5610    71.9270     9.9200     8.7650    13.1140    24.3310 
  185.8750   -28.4170     2.5040    78.3590     8.6610     7.9150    11.1160    24.3360 
  186.0000   -28.4040     2.4560    83.3470     7.8130     7.2500     8.3190    24.3320 
  186.1250   -28.3990     2.4200    84.0560     7.5880     6.9790     7.2430    24.3330 
  186.2500   -28.3960     2.3960    82.0430     7.7290     7.0020     7.1730    24.3340 
  186.3750   -28.3930     2.3830    79.6670     7.9680     7.1620     7.3540    24.3330 
  186.5000   -28.3800     2.3840    79.1790     8.0520     7.2770     7.4730    24.3310 
  186.6250   -28.3500     2.3940    81.5190     7.8370     7.2070     7.3850    24.3310 
