~V
VERS. 2.00: Ver 2.00
~W
STRT.M 30.0000:
STOP.M 209.0000:
STEP.M 0.1250:
NULL. -999.2500:
UWI. F10150:
~C
DEPT.M :
SP.MV :
DEN.GM/CC :
GR.API :
RML.OHMM :
RI. :
RXO.OHMM :
CALI.CM :
~A
# ...
  153.7500   -23.9720     2.2120    81.0320    15.9610    13.3630    13.2760    24.5370 
  153.8750   -24.1320     2.2120    79.2050    16.3170    13.6070    13.3940    24.4370 
  154.0000   -24.2950     2.2140    74.9510    16.8990    14.0120    13.8040    24.3190 
  154.1250   -24.4060     2.2150    72.4140    17.9550    14.7780    14.4330    24.2690 
  154.2500   -24.5260     2.2130    69.5730    19.5270    15.9740    15.6970    24.2850 
  154.3750   -24.6180     2.2120    65.7540    21.5630    17.6110    18.1950    24.3740 
  154.5000   -24.7020     2.2130    64.2340    23.8440    19.5650    21.6170    24.5260 
  154.6250   -24.7530     2.2200    66.0170    25.9630    21.5470    24.2050    24.6930 
  154.7500   -24.7650     2.2310    67.8710    27.6370    23.2560    24.8450    24.8200 
  154.8750   -24.7630     2.2430    68.5950    28.7900    24.5860    24.6700    24.8670 
  155.0000   -24.6940     2.2510    69.2300    29.3640    25.5010    24.0220    24.8730 
  155.1250   -24.6110     2.2530    69.6560    28.8750    25.6260    23.7800    24.8710 
  155.2500   -24.4920     2.2540    67.9920    26.9980    24.5960    24.5500    24.8530 
  155.3750   -24.3900     2.2580    66.5060    23.6900    22.2360    25.5550    24.7970 
  155.5000   -24.3010     2.2660    69.4020    19.5550    18.9560    24.4180    24.7090 
  155.6250   -24.2460     2.2760    75.1730    17.2980    15.6720    18.1040    24.6210 
  155.7500   -24.2400     2.2840    78.1040    14.1990    13.0930    11.6890    24.5510 
  155.8750   -24.2470     2.2860    78.4220    12.3180    11.3990     8.6770    24.5050 
  156.0000   -24.3060     2.2820    79.2650    11.4130    10.4930     8.2590    24.4670 
  156.1250   -24.3860     2.2750    78.9390    11.1950    10.2280     8.5150    24.4290 
  156.2500   -24.5220     2.2690    76.5130    11.2280    10.2600     8.5260    24.3980 
  156.3750   -24.6610     2.2660    73.1020    11.3020    10.3900     8.3680    24.4310 
  156.5000   -24.8170     2.2670    72.0370    11.3370    10.4920     8.1270    24.5440 
  156.6250   -24.9980     2.2700    73.9360    11.3870    10.5630     7.7690    24.6040 
  156.7500   -25.1730     2.2720    77.4700    11.5300    10.6740     8.1300    24.6250 
  156.8750   -25.3800     2.2710    80.8040    11.7850    10.8610     8.9230    24.6600 
  157.0000   -25.5960     2.2670    82.7440    12.1440    11.1250     9.7060    24.7380 
  157.1250   -25.8400     2.2650    84.6680    12.6470    11.4750     9.9130    24.6920 
  157.2500   -26.1630     2.2660    83.6720    13.3530    11.9300    10.0620    24.5720 
  157.3750   -26.5320     2.2700    77.7300    14.4230    12.5800    10.5730    24.5040 
  157.5000   -26.9190     2.2760    69.5220    16.1180    13.6000    11.9130    24.5640 
  157.6250   -27.3180     2.2800    67.1360    19.0100    15.3960    14.7690    24.6820 
  157.7500   -27.7420     2.2790    70.1820    23.4000    18.2440    18.1420    24.7740 
  157.8750   -28.1890     2.2730    72.4570    29.6740    22.5400    21.3160    24.8200 
  158.0000   -28.6440     2.2630    69.8900    37.9900    28.5980    25.3320    24.8550 
  158.1250   -29.1690     2.2520    65.3620    48.0420    36.5060    32.6760    24.9140 
  158.2500   -29.6230     2.2440    62.8440    57.9200    44.8310    43.4880    24.9790 
  158.3750   -30.0590     2.2430    61.8460    65.4900    51.7990    50.4100    25.0170 
  158.5000   -30.4920     2.2480    62.3660    69.1950    55.8810    49.4400    25.0460 
  158.6250   -30.9280     2.2580    67.3560    68.8990    56.4620    46.8270    25.0560 
  158.7500   -31.3850     2.2690    73.4580    67.4210    55.5270    44.0960    25.0620 
  158.8750   -31.8430     2.2780    74.7290    66.8370    54.7460    41.4330    25.0280 
  159.0000   -32.3390     2.2830    70.6650    68.5330    55.4200    42.7980    24.9840 
  159.1250   -32.8110     2.2840    67.4020    73.9100    58.8960    48.8500    24.9420 
  159.2500   -33.3180     2.2810    68.0350    83.0090    65.4390    52.5600    24.9030 
  159.3750   -33.8300     2.2760    68.8380    96.0770    75.4130    54.2270    24.8640 
  159.5000   -34.3270     2.2690    65.4070   112.7750    88.6580    60.3160    24.8470 
  159.6250   -34.8030     2.2620    60.5200   131.4350   103.9850    67.0560    24.8200 
  159.7500   -35.1930     2.2550    58.5550   148.0360   118.2040    66.6780    24.7310 
  159.8750   -35.5100     2.2460    59.7650   158.9380   128.4720    56.1210    24.5160 
  160.0000   -35.7660     2.2360    61.8830   162.3370   133.1150    46.4400    24.2870 
  160.1250   -35.9380     2.2250    63.8120   158.9650   132.0240    44.9550    24.2950 
  160.2500   -36.0190     2.2150    65.9130   153.5740   128.6620    52.1850    24.5780 
  160.3750   -36.0030     2.2080    67.0180   148.7460   125.3280    64.3770    24.9620 
  160.5000   -35.9600     2.2030    66.9910   145.4750   123.2550    73.5800    25.2170 
  160.6250   -35.8300     2.2040    66.0200   143.4700   122.6510    80.1490    25.2740 
  160.7500   -35.6810     2.2090    63.5970   141.1070   122.2960    81.0940    25.2540 
  160.8750   -35.5510     2.2180    61.3550   136.7950   120.8090    80.2910    25.2430 
  161.0000   -35.4020     2.2300    60.3070   129.3090   116.8410    78.3670    25.2550 
  161.1250   -35.2770     2.2370    60.2200   118.0680   109.2200    76.0190    25.2680 
  161.2500   -35.1450     2.2350    60.9270   105.0440    99.1960    74.0040    25.2920 
  161.3750   -35.0550     2.2270    62.5730    92.0290    88.2420    70.1130    25.2930 
  161.5000   -34.9370     2.2220    63.5650    80.4840    77.8530    60.4550    25.1460 
  161.6250   -34.8490     2.2350    63.9690    71.7190    69.4820    45.1430    24.7040 
  161.7500   -34.7990     2.2660    64.9280    65.6600    63.3760    33.7860    24.2040 
  161.8750   -34.7520     2.3050    65.9100    62.3230    59.6510    27.3950    23.8600 
  162.0000   -34.7280     2.3360    66.3850    61.6200    58.2800    24.1290    23.7270 
  162.1250   -34.7300     2.3390    67.4030    63.7810    59.5100    23.1900    23.7130 
  162.2500   -34.7720     2.3170    67.2650    68.2260    62.8270    24.3710    23.7200 
  162.3750   -34.8560     2.2820    65.0830    74.9260    68.1860    27.2300    23.7370 
  162.5000   -35.0740     2.2510    64.2370    83.9650    75.6240    29.8680    23.7590 
  162.6250   -35.3630     2.2400    65.6050    96.0440    85.6320    29.9290    23.7750 
  162.7500   -35.6980     2.2450    64.0650   111.0840    98.0610    30.7820    23.7950 
  162.8750   -36.0660     2.2560    60.5890   129.1600   113.0120    39.0390    23.9230 
  163.0000   -36.4390     2.2600    59.9660   149.5170   129.9370    59.6300    24.2250 
  163.1250   -36.8280     2.2510    62.3780   169.1460   146.4830    99.5530    24.5710 
  163.2500   -37.2070     2.2400    62.6370   183.3930   158.8880   127.5850    24.8050 
  163.3750   -37.5680     2.2360    61.8160   188.9440   164.3020   131.3230    24.9090 
  163.5000   -37.8410     2.2450    62.1200   186.4410   162.8020   116.1040    24.9070 
  163.6250   -38.0340     2.2630    63.8850   180.6460   157.9580   100.1840    24.8690 
  163.7500   -38.2160     2.2800    65.9510   176.6930   154.6650    94.0560    24.8480 
  163.8750   -38.3280     2.2870    66.3110   175.2450   154.2340    88.0690    24.8700 
  164.0000   -38.3950     2.2810    63.6200   174.0680   155.2740    85.3140    24.9320 
  164.1250   -38.3870     2.2640    59.7340   168.2600   153.7610    96.2740    24.9990 
  164.2500   -38.3480     2.2480    59.1900   155.4580   146.5900   107.3680    25.0230 
  164.3750   -38.2770     2.2390    62.4540   136.1300   132.8880    99.1590    25.0290 
  164.5000   -38.1550     2.2410    65.1090   113.3290   114.3300    74.8150    25.0240 
  164.6250   -38.0550     2.2540    64.5890    91.5010    94.4720    56.1190    25.0140 
  164.7500   -37.9100     2.2710    63.4180    73.5800    77.0350    44.0780    24.9970 
  164.8750   -37.7780     2.2880    62.3490    60.6700    63.7800    36.9520    24.9760 
