~V
VERS. 2.00: Ver 2.00
~W
STRT.M 52.0000:
STOP.M 326.0000:
STEP.M 0.1250:
NULL. -999.2500:
UWI. F10108:
~C
DEPT.M :
DEN.GM/CC :
SP.MV :
GR.API :
RML.OHMM :
RI. :
RXO.OHMM :
CALI.CM :
~A
# ...
  243.2500     2.2800   -25.8600    48.4750    34.7930    29.9020    39.1020    24.8940 
  243.3750     2.2460   -25.9620    46.7400    40.2740    35.1340    50.8120    24.8920 
  243.5000     2.2210   -26.0850    46.4610    44.4610    39.5590    63.3130    24.9260 
  243.6250     2.2130   -26.1970    48.3790    45.4740    41.2590    68.8060    24.9360 
  243.7500     2.2190   -26.3050    51.2510    43.2370    39.8330    71.6110    24.8590 
  243.8750     2.2320   -26.3960    53.1170    38.5440    35.9030    71.9870    24.7110 
  244.0000     2.2430   -26.4460    53.0470    33.0110    31.0100    65.7860    24.5620 
  244.1250     2.2450   -26.4350    52.1920    28.5340    26.9170    47.9150    24.5130 
  244.2500     2.2380   -26.3340    52.3920    25.8740    24.3270    34.1090    24.5370 
  244.3750     2.2250   -26.1400    52.6770    25.1190    23.3350    29.5530    24.5550 
  244.5000     2.2140   -25.8520    50.8830    25.9460    23.7290    30.9940    24.5330 
  244.6250     2.2080   -25.4670    48.8630    27.7390    25.0920    35.8510    24.5330 
  244.7500     2.2100   -25.0040    48.3790    29.2980    26.4170    40.3180    24.6240 
  244.8750     2.2200   -24.4730    48.5160    29.6390    26.8060    42.4040    24.7720 
  245.0000     2.2390   -23.8940    47.9820    28.0900    25.5580    42.1960    24.8910 
  245.1250     2.2690   -23.2880    48.5030    24.4700    22.3770    40.0110    24.9300 
  245.2500     2.3050   -22.6870    53.6550    20.0940    18.4560    34.8970    24.9310 
  245.3750     2.3400   -22.1530    62.3710    16.1170    14.8580    23.3760    24.9600 
  245.5000     2.3660   -21.7540    70.9750    13.3570    12.2700    13.4270    25.0230 
  245.6250     2.3740   -21.5790    72.8600    12.3450    11.1140     9.5870    25.0340 
  245.7500     2.3650   -21.6090    68.6090    12.6650    11.1000     9.8830    24.9250 
  245.8750     2.3420   -21.8540    61.4610    13.9660    12.0490    11.5210    24.7160 
  246.0000     2.3100   -22.2780    54.0060    15.7740    13.6780    14.5530    24.4970 
  246.1250     2.2780   -22.8550    48.3410    17.4390    15.5370    19.0370    24.3600 
  246.2500     2.2530   -23.5020    45.5260    18.4300    17.0250    22.7160    24.3120 
  246.3750     2.2390   -24.1240    46.1250    18.5390    17.7580    22.7640    24.2800 
  246.5000     2.2360   -24.6310    48.4610    17.8960    17.6540    21.0570    24.1980 
  246.6250     2.2390   -24.9190    50.3530    16.8740    16.9130    19.8210    24.0920 
  246.7500     2.2390   -25.0040    52.7450    15.9290    16.0330    18.3970    24.0370 
  246.8750     2.2320   -24.8940    55.6630    15.2320    15.2410    17.3050    24.0650 
  247.0000     2.2170   -24.5990    57.0870    14.7950    14.6070    16.7670    24.1210 
  247.1250     2.2020   -24.0860    56.2900    14.5610    14.1210    16.3480    24.1010 
  247.2500     2.1960   -23.4050    56.2470    14.4000    13.6970    15.9220    24.0040 
  247.3750     2.2040   -22.5760    57.9590    14.2470    13.2910    15.7390    23.9130 
  247.5000     2.2280   -21.6100    58.8740    14.0960    12.9010    15.8630    23.9070 
  247.6250     2.2640   -20.4950    56.2410    14.1660    12.6810    16.5370    23.9940 
  247.7500     2.3060   -19.2730    54.4160    14.8980    12.9330    17.7350    24.0990 
  247.8750     2.3490   -17.9770    56.3690    16.9590    14.1450    18.7990    24.1910 
  248.0000     2.3950   -16.6630    59.9910    21.1030    16.9530    20.1390    24.2950 
  248.1250     2.4460   -15.4190    60.6900    28.0690    22.2390    28.8680    24.4920 
  248.2500     2.5040   -14.2790    58.6400    36.2780    29.0460    53.0390    24.7350 
  248.3750     2.5670   -13.2530    55.1360    43.2210    35.4820    95.2730    24.9260 
  248.5000     2.6230   -12.3290    49.9930    45.8530    38.9230   158.8720    24.9680 
  248.6250     2.6520   -11.5270    45.9700    40.6650    35.7170   218.7520    24.8720 
  248.7500     2.6430   -10.8330    46.6670    30.5070    27.5780   154.0950    24.7640 
  248.8750     2.6010   -10.2520    52.3430    20.3060    18.8790    67.0390    24.7130 
  249.0000     2.5450    -9.7850    61.3590    13.3050    12.6900    22.0620    24.7070 
  249.1250     2.4950    -9.4230    70.9950     9.9950     9.5520    10.6720    24.6730 
  249.2500     2.4580    -9.1300    77.7570     8.6220     8.0990     7.7360    24.5690 
  249.3750     2.4320    -8.9040    81.9610     8.3620     7.7070     7.4480    24.4180 
  249.5000     2.4140    -8.7650    85.6450     8.7290     8.0030     7.7120    24.2940 
  249.6250     2.4060    -8.7300    88.1040     9.4280     8.7540     7.6380    24.2510 
  249.7500     2.4090    -8.7540    85.0640    10.1460     9.6100     7.9450    24.2440 
  249.8750     2.4200    -8.7920    76.9450    10.6870    10.3340     8.6690    24.2220 
  250.0000     2.4310    -8.8130    70.5810    10.9150    10.7460     9.7570    24.1410 
  250.1250     2.4320    -8.8150    70.3480    10.7350    10.6950    10.5710    24.0470 
  250.2500     2.4250    -8.8080    71.8270    10.3110    10.3130     9.8470    23.9930 
  250.3750     2.4150    -8.7720    73.2510     9.8060     9.7570     8.2580    23.9980 
  250.5000     2.4100    -8.7240    75.8110     9.3670     9.1880     7.4700    24.0110 
  250.6250     2.4120    -8.6800    78.6220     9.0830     8.7230     7.3940    23.9560 
  250.7500     2.4170    -8.6470    78.8900     8.8840     8.3580     7.3730    23.8690 
  250.8750     2.4180    -8.6410    78.5240     8.7020     8.0640     7.2340    23.8100 
  251.0000     2.4150    -8.6680    80.4790     8.5220     7.8160     6.9770    23.8220 
  251.1250     2.4070    -8.7140    83.6620     8.3580     7.6540     6.7460    23.8870 
  251.2500     2.4000    -8.7880    84.0740     8.3020     7.6460     6.5070    23.9200 
  251.3750     2.4000    -8.9080    80.4240     8.5050     7.8830     6.2660    23.8920 
  251.5000     2.4080    -9.0510    75.3180     9.0570     8.4370     6.4780    23.8560 
  251.6250     2.4170    -9.1900    73.7280    10.1650     9.3950     7.4690    23.9170 
  251.7500     2.4190    -9.3320    73.8940    11.7380    10.6520     9.2600    24.0630 
  251.8750     2.4080    -9.4730    72.1300    13.3210    12.0780    11.8550    24.2310 
  252.0000     2.3850    -9.6120    67.2660    14.7590    13.4800    14.1710    24.3650 
  252.1250     2.3610    -9.7510    63.0470    15.8020    14.5810    14.7500    24.4430 
  252.2500     2.3480    -9.8870    61.6750    16.4190    15.2680    16.3470    24.5360 
  252.3750     2.3500   -10.0080    62.5450    16.6310    15.5180    17.9950    24.6830 
  252.5000     2.3640   -10.1190    63.7270    16.5150    15.3970    17.7290    24.8520 
  252.6250     2.3760   -10.2080    63.2400    16.1630    15.0040    17.0390    24.9500 
  252.7500     2.3790   -10.2830    62.9580    15.7320    14.5130    16.9170    24.9600 
  252.8750     2.3690   -10.3680    63.7670    15.3190    14.0180    16.7640    24.9170 
  253.0000     2.3530   -10.4690    66.3840    14.9990    13.5950    15.7000    24.8830 
  253.1250     2.3390   -10.5790    70.0900    14.8500    13.3220    14.8860    24.9210 
  253.2500     2.3310   -10.6710    71.5500    14.8720    13.2100    14.4740    24.9640 
  253.3750     2.3280   -10.7500    68.9970    15.1050    13.2880    14.4700    24.9570 
  253.5000     2.3260   -10.8150    64.1450    15.6020    13.5920    14.2030    24.9090 
  253.6250     2.3240   -10.8730    63.6570    16.4520    14.1950    14.0680    24.8790 
  253.7500     2.3230   -10.9210    66.5470    17.5790    15.0570    14.9250    24.9120 
  253.8750     2.3230   -10.9310    67.0120    18.9000    16.1390    16.3020    24.9640 
  254.0000     2.3250   -10.9070    62.4640    20.2970    17.3720    18.2550    24.9760 
  254.1250     2.3290   -10.8260    56.9660    21.6300    18.6570    20.6570    24.9340 
  254.2500     2.3340   -10.7100    56.5020    22.8450    19.8970    22.1080    24.8900 
  254.3750     2.3420   -10.5830    58.8660    23.9720    21.0580    22.7220    24.9070 
