~V
VERS. 2.00: Ver 2.00
~W
STRT.M 50.0000:
STOP.M 246.0000:
STEP.M 0.1250:
NULL. -999.2500:
UWI. F10164:
~C
DEPT.M :
GR.API :
RML.OHMM :
RI. :
RXO.OHMM :
CALI.CM :
SP.MV :
DEN.GM/CC :
~A
# ...
  140.0000    93.7980     8.3730     6.9390     8.3750    25.2500   -13.6290     2.3100 
  140.1250    90.7100     9.0750     7.5000     9.0370    25.1320   -13.7080     2.2900 
  140.2500    87.7330     9.7210     8.0210     9.8140    25.0960   -13.7840     2.2750 
  140.3750    86.0560    10.2850     8.4720    10.1810    25.1500   -13.8790     2.2630 
  140.5000    86.3080    10.7560     8.8400     9.9760    25.2660   -13.9220     2.2550 
  140.6250    88.3340    11.1290     9.1220     9.8160    25.4220   -13.9400     2.2500 
  140.7500    91.3380    11.4280     9.3470    10.2350    25.5690   -13.9430     2.2500 
  140.8750    94.4950    11.6470     9.5190    11.2930    25.6910   -13.8410     2.2530 
  141.0000    94.6680    11.7620     9.6240    12.4140    25.7180   -13.6900     2.2550 
  141.1250    88.1990    11.7090     9.6140    12.6790    25.6560   -13.5890     2.2530 
  141.2500    85.4660    11.4970     9.4820    12.2230    25.6380   -13.4580     2.2480 
  141.3750    94.1100    11.1500     9.2330    11.5750    25.6840   -13.2860     2.2420 
  141.5000   106.2470    10.7260     8.9030    11.0700    25.7440   -13.1530     2.2410 
  141.6250   104.1410    10.2930     8.5470    10.6230    25.7480   -13.0600     2.2470 
  141.7500    94.5590     9.9050     8.2180    10.1500    25.7540   -12.9820     2.2560 
  141.8750    89.0450     9.5760     7.9360     9.7110    25.7940   -12.9910     2.2660 
  142.0000    88.1300     9.2950     7.6980     9.3570    25.8360   -13.0190     2.2730 
  142.1250    88.7910     9.0150     7.4770     8.9790    25.8310   -12.9680     2.2740 
  142.2500    92.7060     8.6680     7.2160     8.4150    25.8090   -12.9510     2.2730 
  142.3750    96.5220     8.2010     6.8670     7.7400    25.8010   -12.9350     2.2750 
  142.5000    97.4710     7.6040     6.4090     7.1710    25.8150   -12.8170     2.2850 
  142.6250    97.0860     6.9280     5.8600     6.7560    25.8390   -12.6580     2.3060 
  142.7500   100.2840     6.3000     5.3150     6.1540    25.8060   -12.4840     2.3320 
  142.8750   105.1660     5.8140     4.8570     5.3340    25.6810   -12.2240     2.3540 
  143.0000   106.9100     5.5250     4.5420     4.6730    25.5010   -11.9380     2.3660 
  143.1250   104.5480     5.4600     4.4170     4.6400    25.3350   -11.7720     2.3660 
  143.2500   100.0810     5.5240     4.4250     5.0570    25.2410   -11.6270     2.3630 
  143.3750    96.8730     5.6440     4.5140     5.4380    25.1220   -11.4770     2.3630 
  143.5000    97.4950     5.7470     4.6240     5.4490    24.8740   -11.4250     2.3700 
  143.6250   103.1350     5.7800     4.6990     5.1810    24.5290   -11.4270     2.3810 
  143.7500   108.4900     5.7510     4.7250     4.9280    24.2850   -11.4190     2.3900 
  143.8750   109.9790     5.6800     4.7060     4.7150    24.1050   -11.5030     2.3950 
  144.0000   109.1460     5.5880     4.6530     4.5100    24.0000   -11.6270     2.3960 
  144.1250   108.5110     5.4770     4.5690     4.4040    23.9710   -11.6480     2.4000 
  144.2500   109.1460     5.3430     4.4560     4.4260    23.9780   -11.6850     2.4080 
  144.3750   110.7750     5.1840     4.3140     4.4170    23.9730   -11.7400     2.4170 
  144.5000   109.8810     5.0110     4.1550     4.2350    23.9600   -11.7250     2.4200 
  144.6250   105.9500     4.8510     4.0000     3.9560    23.9460   -11.7050     2.4100 
  144.7500   104.9130     4.7280     3.8730     3.7320    23.9820   -11.7090     2.3920 
  144.8750   108.4910     4.6570     3.7890     3.5860    24.0100   -11.6410     2.3740 
  145.0000   112.0830     4.6370     3.7560     3.6330    23.9910   -11.6020     2.3630 
  145.1250   113.1940     4.6610     3.7730     4.1260    23.9050   -11.6500     2.3600 
  145.2500   114.8190     4.7010     3.8170     4.9730    23.8160   -11.6210     2.3630 
  145.3750   116.0280     4.7400     3.8730     5.5980    23.7870   -11.6100     2.3690 
  145.5000   114.0320     4.7670     3.9250     5.3840    23.8250   -11.6820     2.3780 
  145.6250   111.9780     4.7760     3.9610     4.6010    23.8890   -11.7030     2.3880 
  145.7500   111.7520     4.7700     3.9780     4.0290    23.8720   -11.7090     2.3960 
  145.8750   110.9490     4.7500     3.9780     3.7930    23.7690   -11.7610     2.3990 
  146.0000   110.4250     4.7190     3.9610     3.7160    23.6800   -11.7490     2.3960 
  146.1250   112.6530     4.6800     3.9280     3.6900    23.7220   -11.6820     2.3920 
  146.2500   115.4060     4.6410     3.8830     3.6940    23.8040   -11.7120     2.3890 
  146.3750   115.9240     4.6060     3.8320     3.6820    23.7940   -11.7430     2.3890 
  146.5000   115.0940     4.5570     3.7800     3.6520    23.6810   -11.6760     2.3920 
  146.6250   114.5490     4.4750     3.7360     3.6390    23.5900   -11.6500     2.3960 
  146.7500   113.0310     4.4260     3.7380     3.6700    23.5590   -11.6540     2.3960 
  146.8750   111.6320     4.5520     3.8880     3.7460    23.5450   -11.6090     2.3890 
  147.0000   111.9840     5.0050     4.3200     3.8560    23.5120   -11.6090     2.3760 
  147.1250   112.3160     5.8950     5.1600     4.1240    23.4120   -11.6650     2.3600 
  147.2500   109.2390     7.0220     6.2290     4.6640    23.2710   -11.6570     2.3510 
  147.3750   101.9940     8.1630     7.3110     5.4610    23.0940   -11.6640     2.3520 
  147.5000    95.1010     9.1330     8.2310     6.5820    22.9780   -11.7180     2.3620 
  147.6250    93.4110     9.8550     8.9150     8.2150    22.9460   -11.7250     2.3690 
  147.7500    95.0870    10.4520     9.4800     9.6250    22.8990   -11.7490     2.3610 
  147.8750    96.0330    10.9710     9.9720     9.9250    22.8200   -11.8100     2.3360 
  148.0000    94.3830    11.3310    10.3130     9.4670    22.8140   -11.8160     2.2980 
  148.1250    91.6150    11.3120    10.2960     9.3600    23.1200   -11.8390     2.2650 
  148.2500    88.8630    10.9270     9.9310     9.4930    23.8260   -11.9170     2.2480 
  148.3750    87.1450    10.3200     9.3550     9.2570    24.6760   -11.9530     2.2510 
  148.5000    87.5780     9.7110     8.7780     8.2390    25.2740   -12.0050     2.2690 
  148.6250    88.3310     9.3650     8.4510     6.9480    25.4540   -12.1350     2.2920 
  148.7500    86.3820     9.4110     8.4930     6.5770    25.4740   -12.2040     2.3090 
  148.8750    82.1790     9.9400     8.9960     7.7670    25.4690   -12.2220     2.3160 
  149.0000    81.1690    11.0070    10.0070    10.3330    25.4460   -12.2740     2.3150 
  149.1250    83.7850    12.6840    11.5960    12.1690    25.4490   -12.2890     2.3080 
  149.2500    83.8900    14.7510    13.5560    12.3940    25.4420   -12.2490     2.2990 
  149.3750    80.3660    16.9610    15.6500    12.9250    25.4360   -12.2690     2.2930 
  149.5000    76.6230    18.9730    17.5570    14.9250    25.4500   -12.3470     2.2960 
  149.6250    76.8280    20.3270    18.8410    16.9460    25.4120   -12.3790     2.3150 
  149.7500    78.8910    20.9280    19.4120    16.9600    25.3150   -12.4630     2.3430 
  149.8750    81.4150    20.8350    19.3170    15.2050    25.1770   -12.6710     2.3690 
  150.0000    81.9330    20.2310    18.7390    13.3800    24.9630   -12.9090     2.3790 
  150.1250    81.8870    19.2530    17.9060    12.9670    24.6390   -13.1630     2.3650 
  150.2500    84.3800    18.1910    17.0800    13.4070    24.2820   -13.4610     2.3380 
  150.3750    86.5230    17.3190    16.3890    13.3090    23.8790   -13.7220     2.3080 
  150.5000    85.0260    16.8360    15.9150    12.0420    23.5760   -13.9400     2.2870 
  150.6250    82.8450    16.8190    15.7670    10.9980    23.6800   -14.1630     2.2810 
  150.7500    83.6840    17.1060    15.9360    11.1180    23.8120   -14.3340     2.2860 
  150.8750    86.2820    17.6480    16.4080    12.1640    23.8130   -14.4500     2.2960 
  151.0000    87.9430    18.3670    17.1200    13.4640    23.7380   -14.5500     2.3080 
  151.1250    88.1790    19.1780    17.9900    13.8920    23.6340   -14.5670     2.3140 
