~V
VERS. 2.00: Ver 2.00
~W
STRT.M 62.0000:
STOP.M 275.0000:
STEP.M 0.1250:
NULL. -999.2500:
UWI. F10141:
~C
DEPT.M :
GR.API :
RML.OHMM :
RI. :
RXO.OHMM :
CALI.CM :
DEN.GM/CC :
SP.MV :
~A
# ...
  118.2500    69.1880    11.6010    10.3750    11.4160    24.9180     2.1190   -16.9480 
  118.3750    69.8890    11.5480    10.2930    11.4230    24.8720     2.1250   -17.0360 
  118.5000    71.1480    11.4840    10.2220    11.4100    24.8150     2.1310   -17.0640 
  118.6250    72.8780    11.3810    10.1490    11.2580    24.7980     2.1340   -17.0660 
  118.7500    72.1490    11.2270    10.0630    11.1610    24.7800     2.1350   -17.0610 
  118.8750    70.3110    11.0200     9.9570    11.2060    24.7130     2.1390   -17.0180 
  119.0000    69.8370    10.7770     9.8380    11.1500    24.5640     2.1470   -16.9520 
  119.1250    69.7330    10.5690     9.7440    10.8680    24.3960     2.1490   -16.8220 
  119.2500    66.9620    10.5060     9.7410    10.6820    24.2910     2.1320   -16.5940 
  119.3750    64.2370    10.6990     9.9060    10.4990    24.2120     2.0920   -16.2660 
  119.5000    66.1970    11.2020    10.2910    10.5900    24.1660     2.0510   -15.8710 
  119.6250    70.2750    11.9330    10.8690    11.5360    24.2350     2.0600   -15.3850 
  119.7500    72.1560    12.5310    11.3860    12.4580    24.4240     2.1390   -14.7690 
  119.8750    72.3570    12.6170    11.5180    11.9970    24.6050     2.2660   -14.0060 
  120.0000    75.6350    11.9470    11.0180    10.3680    24.6300     2.3930   -13.1190 
  120.1250    83.5370    10.5800     9.9030     9.2620    24.5830     2.4640   -12.1840 
  120.2500    90.1520     9.1290     8.6780     8.5730    24.6080     2.4760   -11.2800 
  120.3750    93.1950     8.0280     7.6850     7.7060    24.6470     2.4490   -10.4450 
  120.5000    92.0100     7.5060     7.1030     7.2430    24.6690     2.4090    -9.7360 
  120.6250    87.9550     7.6460     7.0390     7.7300    24.6550     2.3720    -9.2240 
  120.7500    84.0990     8.1590     7.3430     9.1630    24.5360     2.3380    -8.9190 
  120.8750    83.5840     8.8350     7.8950     9.9400    24.2990     2.3110    -8.8610 
  121.0000    85.7200     9.5620     8.5860     9.9910    24.0480     2.2980    -9.0060 
  121.1250    83.8450    10.4240     9.4070    10.6220    23.9340     2.3140    -9.2940 
  121.2500    77.7670    11.5590    10.3950    11.3750    23.9790     2.3610    -9.6700 
  121.3750    70.3350    13.0040    11.5890    12.9720    24.2200     2.4300   -10.1080 
  121.5000    64.2660    14.5720    12.9070    16.2200    24.4910     2.4960   -10.5790 
  121.6250    61.8700    15.6770    13.9640    20.7580    24.5690     2.5210   -11.0940 
  121.7500    62.0790    15.8530    14.3410    19.5580    24.4000     2.4960   -11.6450 
  121.8750    63.6710    15.0320    13.9010    15.5780    24.0190     2.4290   -12.2230 
  122.0000    64.6310    13.6070    12.9000    12.7020    23.6540     2.3480   -12.8320 
  122.1250    65.2950    12.2260    11.8140    11.4630    23.4110     2.2810   -13.4350 
  122.2500    66.0220    11.3000    10.9970    11.1820    23.3190     2.2370   -13.9720 
  122.3750    65.1500    10.8930    10.5440    11.2060    23.4040     2.2110   -14.4350 
  122.5000    61.7830    10.8900    10.4200    11.1100    23.6460     2.1920   -14.8180 
  122.6250    59.0740    11.0980    10.5330    10.6040    23.9380     2.1760   -15.0390 
  122.7500    59.5350    11.2780    10.6840    10.1350    24.1080     2.1700   -15.0570 
  122.8750    61.4060    11.2950    10.7410     9.9340    24.0920     2.1820   -14.8690 
  123.0000    61.8960    11.0940    10.6290    10.0960    23.9230     2.2170   -14.5020 
  123.1250    61.8360    10.6840    10.3360    10.3920    23.6930     2.2680   -14.0140 
  123.2500    63.9240    10.2300     9.9870     9.8070    23.4990     2.3140   -13.5090 
  123.3750    67.1440     9.8910     9.7090     8.3930    23.4090     2.3450   -13.0300 
  123.5000    69.3550     9.7910     9.6050     8.2730    23.4120     2.3600   -12.5720 
  123.6250    70.1060     9.9830     9.7450     8.3600    23.4540     2.3600   -12.1490 
  123.7500    70.7590    10.3140    10.0430     9.0140    23.4980     2.3510   -11.8240 
  123.8750    71.4080    10.6400    10.3980     9.3910    23.5060     2.3320   -11.6050 
  124.0000    71.2140    10.8510    10.7020     9.5180    23.4770     2.3010   -11.4700 
  124.1250    69.0220    10.9280    10.8920     9.4620    23.4850     2.2660   -11.4100 
  124.2500    66.6390    11.0120    11.0410     9.4530    23.5260     2.2360   -11.3960 
  124.3750    66.2140    11.2180    11.2360     9.6170    23.5490     2.2180   -11.3610 
  124.5000    66.9990    11.5750    11.5170    10.1210    23.5530     2.2120   -11.2730 
  124.6250    66.8560    11.9880    11.8370    10.9040    23.5640     2.2190   -11.0750 
  124.7500    64.7480    12.2620    12.0530    11.6080    23.5830     2.2400   -10.7400 
  124.8750    63.5780    12.2290    12.0190    12.0720    23.6030     2.2730   -10.2730 
  125.0000    63.9040    11.8230    11.6600    11.9570    23.6200     2.3090    -9.7360 
  125.1250    64.1440    11.1670    11.0670    11.1640    23.6280     2.3340    -9.1470 
  125.2500    66.3130    10.6680    10.5710    10.1500    23.5960     2.3460    -8.5110 
  125.3750    71.2800    10.7340    10.4710     9.4940    23.4900     2.3590    -7.8760 
  125.5000    74.8300    11.7520    11.0410     9.5560    23.3690     2.3900    -7.2230 
  125.6250    70.0560    14.2780    12.7410    11.6980    23.4030     2.4560    -6.5530 
  125.7500    61.7760    18.7690    15.6490    17.2160    23.6140     2.5380    -5.9350 
  125.8750    56.5700    24.3040    19.6960    25.4110    23.9460     2.6120    -5.4130 
  126.0000    53.3320    29.1270    24.1360    34.2290    24.3160     2.6620    -4.9560 
  126.1250    49.3140    31.4750    26.9850    37.2400    24.5360     2.6750    -4.5810 
  126.2500    47.5550    30.7430    27.2160    36.1020    24.6190     2.6650    -4.2580 
  126.3750    49.9050    27.9490    25.4310    32.9360    24.6260     2.6420    -3.9720 
  126.5000    52.8740    24.8680    23.0720    30.3040    24.6100     2.6190    -3.7630 
  126.6250    52.5360    23.0100    21.4020    21.7130    24.6100     2.6090    -3.6930 
  126.7500    50.8740    22.5050    20.6880    19.1510    24.6270     2.6140    -3.7070 
  126.8750    50.2140    23.0610    20.8200    22.7380    24.6220     2.6250    -3.7420 
  127.0000    51.3080    24.1860    21.5240    29.8170    24.6070     2.6310    -3.7770 
  127.1250    53.7400    25.3440    22.4630    27.3840    24.6030     2.6240    -3.8310 
  127.2500    54.6850    26.2330    23.3280    22.6640    24.6050     2.6130    -3.8750 
  127.3750    52.0890    26.9280    24.0870    21.3250    24.6410     2.6080    -3.8670 
  127.5000    47.7800    27.6940    24.8800    26.0450    24.7290     2.6120    -3.8190 
  127.6250    46.0550    28.7330    25.8690    30.0470    24.7640     2.6180    -3.7720 
  127.7500    46.8020    29.7560    26.8730    28.6220    24.7740     2.6190    -3.7560 
  127.8750    48.1330    30.2640    27.4910    28.0330    24.7730     2.6120    -3.7820 
  128.0000    50.7620    29.8370    27.3270    29.4900    24.7710     2.6000    -3.8750 
  128.1250    56.4000    28.3340    26.1810    28.1620    24.7440     2.5860    -4.0140 
  128.2500    60.6930    26.3830    24.5800    25.4780    24.6780     2.5720    -4.2160 
  128.3750    60.0970    24.4780    22.9600    23.9940    24.6050     2.5590    -4.5020 
  128.5000    56.9910    22.9340    21.6130    21.4360    24.5800     2.5480    -4.8230 
  128.6250    54.6100    21.9710    20.7390    20.1190    24.5780     2.5400    -5.1120 
  128.7500    54.6440    21.5090    20.2890    20.5920    24.5490     2.5370    -5.3600 
  128.8750    57.0760    21.5080    20.2410    22.9650    24.4540     2.5390    -5.5860 
  129.0000    59.4750    21.9320    20.5690    23.6920    24.3060     2.5440    -5.7630 
  129.1250    58.7660    22.7600    21.2630    21.5180    24.2250     2.5480    -5.8480 
  129.2500    57.4520    23.7300    22.1090    20.2920    24.1910     2.5450    -5.8580 
  129.3750    57.8320    24.5130    22.8330    21.9780    24.1720     2.5310    -5.8110 
