~V
VERS. 2.00: Ver 2.00
~W
STRT.M 57.0000:
STOP.M 281.0000:
STEP.M 0.1250:
NULL. -999.2500:
UWI. F10139:
~C
DEPT.M :
SP.MV :
GR.API :
RML.OHMM :
RI. :
RXO.OHMM :
CALI.CM :
DEN.GM/CC :
~A
# ...
  113.2500   -25.6480    64.0240    10.0940     8.7040    10.0490    23.9070     2.1390 
  113.3750   -25.6370    61.4740    10.1010     8.6950    10.0150    23.9330     2.1340 
  113.5000   -25.5590    62.6940    10.1530     8.6890    10.0260    23.9050     2.1310 
  113.6250   -25.4160    65.8840    10.2010     8.6700    10.1620    23.8980     2.1270 
  113.7500   -25.2600    66.5490    10.2020     8.6280    10.1820    23.9180     2.1250 
  113.8750   -25.1130    63.8770    10.1510     8.5740    10.1560    23.9350     2.1240 
  114.0000   -24.9860    60.9320    10.0680     8.5250    10.1120    23.9880     2.1280 
  114.1250   -24.8850    62.7880    10.0080     8.5030    10.0820    24.1140     2.1340 
  114.2500   -24.8280    65.5900    10.0040     8.5100    10.1250    24.2240     2.1380 
  114.3750   -24.8150    64.5270    10.0380     8.5420    10.1310    24.3070     2.1380 
  114.5000   -24.8340    61.4490    10.0700     8.5820    10.0380    24.3920     2.1340 
  114.6250   -24.8200    61.9620    10.0540     8.6130    10.0700    24.3820     2.1310 
  114.7500   -24.7850    64.2210    10.0000     8.6310    10.1610    24.3150     2.1330 
  114.8750   -24.7850    64.0180     9.9350     8.6440    10.3610    24.3070     2.1400 
  115.0000   -24.8280    61.8190     9.8890     8.6680    10.5330    24.4070     2.1490 
  115.1250   -24.8970    62.5060     9.8880     8.7110    10.6570    24.4740     2.1520 
  115.2500   -24.9100    64.2370     9.9210     8.7660    10.6460    24.3920     2.1510 
  115.3750   -24.8440    64.2650     9.9610     8.8130    10.5710    24.1870     2.1450 
  115.5000   -24.7820    62.4270     9.9740     8.8240    10.5410    24.0210     2.1400 
  115.6250   -24.8280    61.8860     9.9200     8.7690    10.5430    23.9520     2.1390 
  115.7500   -24.9130    63.4880     9.8080     8.6570    10.5170    23.9350     2.1410 
  115.8750   -24.9350    65.1310     9.6500     8.5030    10.3880    23.9920     2.1460 
  116.0000   -24.8940    65.6270     9.4570     8.3280     9.9910    24.1580     2.1530 
  116.1250   -24.8770    65.4380     9.2470     8.1480     9.3730    24.3190     2.1570 
  116.2500   -24.9600    66.3600     9.0530     7.9800     9.1670    24.3490     2.1550 
  116.3750   -25.0870    68.6330     8.9190     7.8390     9.2100    24.2610     2.1500 
  116.5000   -25.1900    70.2280     8.8770     7.7520     8.9470    24.1080     2.1460 
  116.6250   -25.2500    69.2870     8.9320     7.7600     8.7240    23.9940     2.1510 
  116.7500   -25.3060    68.0350     9.0370     7.8590     8.4660    23.9560     2.1640 
  116.8750   -25.4850    68.2560     9.1860     8.0310     8.4360    23.9520     2.1770 
  117.0000   -25.8170    68.7250     9.3790     8.2420     9.1290    23.9760     2.1800 
  117.1250   -26.1730    68.1090     9.5940     8.4360     9.7410    24.0560     2.1680 
  117.2500   -26.5050    68.2980     9.7700     8.5690    10.0250    24.1600     2.1490 
  117.3750   -26.8780    69.0930     9.8710     8.6240    10.0270    24.1980     2.1290 
  117.5000   -27.3000    68.5190     9.8840     8.6130     9.9780    24.1970     2.1130 
  117.6250   -27.6950    66.9060     9.8280     8.5540     9.9140    24.1900     2.1050 
  117.7500   -27.9590    66.5820     9.7560     8.4790     9.8350    24.1250     2.1040 
  117.8750   -27.9950    68.2350     9.6800     8.3990     9.7820    24.0490     2.1100 
  118.0000   -27.8010    70.9210     9.6010     8.3230     9.7390    24.0050     2.1210 
  118.1250   -27.5140    72.4500     9.5230     8.2700     9.8200    23.9920     2.1320 
  118.2500   -27.2170    71.8470     9.4750     8.2480     9.8600    23.9990     2.1390 
  118.3750   -26.8320    72.1360     9.4850     8.2540     9.8690    23.9930     2.1410 
  118.5000   -26.3110    74.3130     9.5690     8.2690     9.8480    23.9690     2.1390 
  118.6250   -25.8030    74.0220     9.7160     8.2690     9.7130    23.9440     2.1360 
  118.7500   -25.4670    72.0370     9.8730     8.2510     9.6220    23.9010     2.1310 
  118.8750   -25.2650    72.0360    10.0060     8.2280     9.5930    23.8260     2.1260 
  119.0000   -25.1110    73.4740    10.1020     8.2240     9.5420    23.7180     2.1240 
  119.1250   -24.9650    71.5680    10.1570     8.2630     9.5580    23.5790     2.1270 
  119.2500   -24.8480    67.2870    10.1690     8.3340     9.6390    23.4110     2.1320 
  119.3750   -24.8290    64.1000    10.1290     8.4150     9.7270    23.2140     2.1330 
  119.5000   -24.9660    63.7170    10.0520     8.4830     9.7820    23.0460     2.1270 
  119.6250   -25.1800    65.0400     9.9940     8.5240     9.7850    22.9490     2.1150 
  119.7500   -25.4010    66.7910    10.0110     8.5520     9.7950    22.8950     2.1040 
  119.8750   -25.6320    67.6180    10.1140     8.5820     9.8180    22.8710     2.0960 
  120.0000   -25.8500    66.9010    10.2460     8.6260     9.8870    22.8770     2.0890 
  120.1250   -26.0090    64.5520    10.3150     8.6880     9.9830    22.9850     2.0820 
  120.2500   -26.1000    61.9960    10.3000     8.7660    10.1300    23.2110     2.0770 
  120.3750   -26.1560    61.0130    10.2560     8.8630    10.1990    23.4360     2.0810 
  120.5000   -26.1590    61.7630    10.2660     8.9820    10.1560    23.5810     2.0940 
  120.6250   -26.0280    62.3380    10.3650     9.1040    10.1090    23.6070     2.1080 
  120.7500   -25.6720    62.1290    10.4380     9.1690    10.2160    23.5860     2.1130 
  120.8750   -25.0340    63.1730    10.3460     9.1100    10.2760    23.5510     2.1080 
  121.0000   -24.0960    67.0810    10.0070     8.8820    10.1280    23.5820     2.1040 
  121.1250   -22.8350    70.7580     9.4630     8.4730     9.3450    23.7220     2.1200 
  121.2500   -21.4100    72.7540     8.9160     7.9980     8.0820    23.8670     2.1560 
  121.3750   -19.9200    74.1040     8.5000     7.5690     7.0300    23.9340     2.2020 
  121.5000   -18.4340    75.6270     8.2660     7.2720     6.7300    23.9480     2.2380 
  121.6250   -17.0430    77.0920     8.2030     7.1610     6.8200    23.9480     2.2480 
  121.7500   -15.9030    77.7140     8.1930     7.1630     7.1340    23.9490     2.2390 
  121.8750   -15.0980    76.6630     8.1510     7.2040     7.5890    23.9500     2.2220 
  122.0000   -14.5640    75.5720     8.0750     7.2400     7.9860    23.9520     2.2080 
  122.1250   -14.1940    77.3500     8.1200     7.3180     7.8820    23.9520     2.2030 
  122.2500   -13.9120    79.9460     8.4150     7.5170     7.3700    23.9550     2.2110 
  122.3750   -13.6550    78.8840     8.9460     7.8500     7.0740    23.9640     2.2360 
  122.5000   -13.3780    74.4260     9.5030     8.2100     7.6750    23.9870     2.2770 
  122.6250   -13.0530    71.9430     9.6120     8.2760     9.7800    23.9960     2.3300 
  122.7500   -12.6030    72.4540     9.0610     7.8640    10.7570    23.9820     2.3750 
  122.8750   -12.0550    75.4870     8.0120     7.0670     8.7980    23.9630     2.4010 
  123.0000   -11.5780    79.3050     6.9130     6.2050     6.3650    23.9620     2.4050 
  123.1250   -11.3670    80.5540     6.2960     5.6560     5.3420    23.9810     2.3960 
  123.2500   -11.3670    79.0170     6.2970     5.5360     5.5310    23.9870     2.3860 
  123.3750   -11.6150    75.3070     6.8900     5.8700     6.9890    23.9450     2.3760 
  123.5000   -12.1850    69.6480     7.8900     6.5980     9.7680    23.8470     2.3560 
  123.6250   -13.1370    62.4500     8.9410     7.5410    10.2570    23.6490     2.3140 
  123.7500   -14.3800    58.9540     9.6690     8.3590     9.5590    23.3650     2.2590 
  123.8750   -15.7900    60.8190     9.9380     8.8480     9.3360    23.0520     2.2030 
  124.0000   -17.2540    62.8420     9.8340     8.9820     9.6610    22.7890     2.1580 
  124.1250   -18.6610    60.4570     9.5690     8.8610    10.0440    22.6220     2.1340 
  124.2500   -19.9330    58.0850     9.3330     8.6580    10.2670    22.4720     2.1240 
  124.3750   -20.9490    60.0800     9.1300     8.4210    10.2790    22.3230     2.1260 
