~V
VERS. 2.00: Ver 2.00
~W
STRT.M 62.0000:
STOP.M 235.0000:
STEP.M 0.1250:
NULL. -999.2500:
UWI. F10157:
~C
DEPT.M :
SP.MV :
DEN.GM/CC :
GR.API :
RML.OHMM :
RI. :
RXO.OHMM :
CALI.CM :
~A
# ...
  118.2500   -10.5760     2.1160    61.3490    10.1400     8.6330     9.8150    25.4740 
  118.3750    -9.9910     2.2170    58.4130    10.7950     9.0900     9.9150    25.4930 
  118.5000    -9.3600     2.3700    58.3520    11.9440     9.9390    11.5460    25.5130 
  118.6250    -8.7030     2.5280    59.5510    13.4880    11.1760    17.5550    25.5320 
  118.7500    -8.0690     2.6340    59.4670    14.9300    12.4640    27.1870    25.5490 
  118.8750    -7.4850     2.6630    59.3150    15.7340    13.3710    32.5140    25.5630 
  119.0000    -6.9660     2.6170    59.8950    15.5350    13.5210    28.5640    25.5730 
  119.1250    -6.5410     2.5190    60.4830    14.3190    12.7710    19.6010    25.5750 
  119.2500    -6.1600     2.4090    60.0030    12.7730    11.6260    12.4240    25.5770 
  119.3750    -5.7920     2.3140    61.0740    11.3270    10.4440     9.6830    25.5780 
  119.5000    -5.4010     2.2500    64.4270    10.1560     9.4120     9.1960    25.5770 
  119.6250    -4.9370     2.2270    66.4290     9.2530     8.5740     9.4660    25.5750 
  119.7500    -4.4360     2.2260    66.3940     8.4590     7.8390     9.2760    25.5730 
  119.8750    -3.9150     2.2350    65.8270     7.7200     7.1660     8.2090    25.5700 
  120.0000    -3.4080     2.2430    65.9790     7.0550     6.5630     6.5330    25.5660 
  120.1250    -2.9760     2.2420    68.7950     6.5660     6.1030     5.9390    25.5660 
  120.2500    -2.6180     2.2300    72.5020     6.2980     5.8200     5.6080    25.5660 
  120.3750    -2.3440     2.2120    75.1230     6.2600     5.7340     5.4190    25.5670 
  120.5000    -2.1520     2.2000    76.2810     6.4020     5.8230     5.6530    25.5670 
  120.6250    -2.0000     2.2050    75.8400     6.6110     6.0210     5.9590    25.5670 
  120.7500    -1.8680     2.2220    72.9940     6.7380     6.1990     6.2350    25.5670 
  120.8750    -1.7440     2.2410    68.3620     6.7120     6.2740     6.2170    25.5660 
  121.0000    -1.6140     2.2530    66.7190     6.5410     6.2180     5.8780    25.5640 
  121.1250    -1.5200     2.2540    70.6300     6.3130     6.0680     5.4870    25.5580 
  121.2500    -1.4660     2.2530    75.0180     6.1500     5.9270     5.5510    25.5500 
  121.3750    -1.4790     2.2550    77.3460     6.1060     5.8540     5.3650    25.5400 
  121.5000    -1.5790     2.2610    77.7780     6.1810     5.8640     5.2090    25.5310 
  121.6250    -1.7570     2.2700    78.0190     6.3210     5.9290     5.3480    25.5220 
  121.7500    -2.0220     2.2810    79.5570     6.4290     5.9760     5.7040    25.5140 
  121.8750    -2.3430     2.2880    82.0610     6.4500     5.9590     5.6470    25.5080 
  122.0000    -2.7050     2.2820    82.5520     6.3890     5.8740     5.4530    25.5030 
  122.1250    -3.1110     2.2590    80.5360     6.3280     5.7690     5.4690    25.4930 
  122.2500    -3.5400     2.2280    79.7140     6.3810     5.7280     5.3320    25.4650 
  122.3750    -3.9860     2.2030    79.3260     6.6190     5.8160     5.4100    25.4180 
  122.5000    -4.4410     2.1940    76.5600     7.0430     6.0530     5.8170    25.3630 
  122.6250    -4.8360     2.2040    71.1120     7.5690     6.4020     6.9060    25.3190 
  122.7500    -5.1640     2.2190    67.1840     8.0570     6.7590     8.0900    25.2960 
  122.8750    -5.4080     2.2360    65.6910     8.4790     7.0890     9.3550    25.2920 
  123.0000    -5.5590     2.2610    65.2900     8.9400     7.4400    10.0700    25.3080 
  123.1250    -5.6430     2.3060    63.7940     9.7150     7.9670     9.2630    25.3440 
  123.2500    -5.6810     2.3560    62.3550    10.9450     8.7780     9.5590    25.3890 
  123.3750    -5.7290     2.3820    62.7330    12.5730     9.8900    12.8280    25.4250 
  123.5000    -5.8350     2.3640    62.9170    14.2410    11.1370    18.6280    25.4320 
  123.6250    -6.0040     2.3050    59.5600    15.1610    12.0430    20.0910    25.4000 
  123.7500    -6.2280     2.2410    55.5010    14.9550    12.2460    17.3140    25.3470 
  123.8750    -6.4660     2.1940    55.8630    13.8200    11.7380    13.4300    25.2800 
  124.0000    -6.6640     2.1710    60.1720    12.3970    10.8650    10.7370    25.2010 
  124.1250    -6.7690     2.1710    64.2100    11.3910    10.1080     9.9510    25.1110 
  124.2500    -6.7230     2.1820    65.6160    10.9500     9.6900     9.6100    25.0230 
  124.3750    -6.5060     2.2040    64.7560    10.9210     9.5870     9.3840    24.9530 
  124.5000    -6.1340     2.2330    62.3200    10.9990     9.6230     9.5430    24.9150 
  124.6250    -5.6050     2.2600    61.1180    10.7490     9.4760     9.9780    24.9270 
  124.7500    -5.0250     2.2710    63.5230     9.9820     8.9480    10.0490    24.9780 
  124.8750    -4.4420     2.2640    70.0280     8.7680     8.0450     9.0590    25.0590 
  125.0000    -3.9130     2.2440    78.0630     7.3990     6.9630     7.0650    25.1580 
  125.1250    -3.5330     2.2220    84.1490     6.3110     6.0110     4.9470    25.2580 
  125.2500    -3.2990     2.2100    87.8160     5.7030     5.3750     4.2910    25.3320 
  125.3750    -3.1980     2.2080    88.5320     5.5930     5.1090     4.4430    25.3630 
  125.5000    -3.1900     2.2140    85.5980     5.8680     5.1730     4.7610    25.3570 
  125.6250    -3.2290     2.2250    80.3780     6.3280     5.4620     5.2240    25.3360 
  125.7500    -3.2620     2.2350    77.0640     6.6950     5.7640     6.1050    25.3210 
  125.8750    -3.2640     2.2390    78.2320     6.8490     5.9650     6.6950    25.3190 
  126.0000    -3.2430     2.2310    81.7330     6.8430     6.0550     6.2170    25.3260 
  126.1250    -3.1830     2.2230    81.4160     6.8920     6.1490     5.2590    25.3470 
  126.2500    -3.0890     2.2340    76.9300     7.1530     6.3770     5.5360    25.3800 
  126.3750    -2.9740     2.2730    71.8700     7.6170     6.7660     6.7920    25.4210 
  126.5000    -2.8420     2.3270    69.8600     8.1430     7.2390     7.8670    25.4560 
  126.6250    -2.6890     2.3610    71.2920     8.4710     7.6020     8.5360    25.4720 
  126.7500    -2.5150     2.3560    73.2470     8.4670     7.7100     8.6840    25.4800 
  126.8750    -2.3160     2.3220    74.9590     8.1610     7.5460     7.5680    25.4910 
  127.0000    -2.0950     2.2860    76.8110     7.7210     7.2230     6.3590    25.5030 
  127.1250    -1.8580     2.2700    79.9140     7.3420     6.8890     6.3230    25.5080 
  127.2500    -1.6340     2.2730    82.2640     7.0610     6.6000     6.9960    25.5040 
  127.3750    -1.4290     2.2860    82.2790     6.8220     6.3260     6.6930    25.5220 
  127.5000    -1.2510     2.3010    82.1190     6.5650     6.0280     5.6670    25.5600 
  127.6250    -1.1220     2.3120    85.1010     6.2560     5.6920     5.0850    25.5930 
  127.7500    -1.0460     2.3230    90.1160     5.9320     5.3550     4.8010    25.6190 
  127.8750    -1.0280     2.3350    91.9860     5.6590     5.0710     4.9180    25.6320 
  128.0000    -1.0710     2.3440    88.4400     5.5180     4.9030     5.0450    25.6240 
  128.1250    -1.1760     2.3440    84.6900     5.6740     4.9740     5.2510    25.5960 
  128.2500    -1.3110     2.3250    85.2000     6.2500     5.3630     5.3760    25.5550 
  128.3750    -1.4590     2.2640    86.0110     7.3630     6.1630     5.9880    25.5060 
  128.5000    -1.5880     2.1620    81.3740     9.0010     7.3940     8.6180    25.4560 
  128.6250    -1.6790     2.0460    72.5540    10.8040     8.8710    14.0260    25.4220 
  128.7500    -1.7230     1.9600    66.6750    11.9640     9.9960    18.1310    25.4050 
  128.8750    -1.7290     1.9350    65.1090    11.8470    10.2130    15.1150    25.4000 
  129.0000    -1.7120     1.9880    68.3620    10.4810     9.4230     8.8630    25.4050 
  129.1250    -1.6860     2.1090    74.0600     8.6280     8.0990     6.5180    25.4160 
  129.2500    -1.6580     2.2240    78.9630     7.1360     6.9170     5.8700    25.4330 
  129.3750    -1.6360     2.2880    82.0990     6.2340     6.1120     5.2390    25.4500 
