~V
VERS. 2.00: Ver 2.00
~W
STRT.M 59.0000:
STOP.M 216.0000:
STEP.M 0.1250:
NULL. -999.2500:
UWI. F10129:
~C
DEPT.M :
GR.API :
RML.OHMM :
RI. :
RXO.OHMM :
CALI.CM :
DEN.GM/CC :
SP.MV :
~A
# ...
  149.0000    69.0950   148.2960   136.3660   143.6920    24.8720     2.2230   -28.4100 
  149.1250    71.1200   147.0130   134.7580   128.8470    24.8250     2.2160   -27.4880 
  149.2500    70.0270   144.6810   132.2450   112.6360    24.8570     2.2160   -25.9090 
  149.3750    65.0270   141.6430   129.2520   114.0450    24.9860     2.2210   -23.7230 
  149.5000    61.2560   138.4360   126.3510   125.2850    25.1620     2.2260   -21.2330 
  149.6250    63.2570   135.7780   124.2870   126.3070    25.3160     2.2280   -19.1730 
  149.7500    67.2330   134.1410   123.4030   118.9380    25.4070     2.2260   -17.8210 
  149.8750    69.3690   133.8580   123.9390   113.2350    25.3470     2.2230   -17.1400 
  150.0000    69.2550   135.0390   125.9860   115.9090    25.2320     2.2220   -17.0340 
  150.1250    69.9150   137.5560   129.5020   120.5420    25.1910     2.2230   -17.0860 
  150.2500    70.7140   140.3310   133.4670   126.1700    25.2780     2.2230   -17.0310 
  150.3750    70.3930   142.0060   136.6570   133.0310    25.3170     2.2200   -17.1170 
  150.5000    68.8890   140.6910   137.3300   138.2030    25.2900     2.2120   -17.2950 
  150.6250    69.0030   133.2670   132.0150   135.6020    25.1980     2.2040   -17.0700 
  150.7500    71.0070   119.7620   119.7160   133.3040    25.1100     2.2000   -16.5600 
  150.8750    72.9770   101.8290   101.7590   131.9340    25.0300     2.2050   -16.0800 
  151.0000    74.5800    82.9470    82.2820   123.5180    24.9400     2.2230   -15.8130 
  151.1250    75.1360    67.7910    66.6840    91.0150    24.8950     2.2480   -15.7930 
  151.2500    72.9630    58.3910    56.8580    57.9710    24.9210     2.2720   -15.8620 
  151.3750    68.4020    55.4480    53.1650    38.9650    24.9960     2.2850   -15.7590 
  151.5000    64.8200    58.8990    55.4510    33.9900    25.0810     2.2830   -15.4800 
  151.6250    66.4900    69.0640    64.3970    46.1770    25.1960     2.2680   -15.2020 
  151.7500    70.5170    83.4770    78.1850    72.8760    25.2300     2.2480   -14.9280 
  151.8750    73.1110    99.6940    94.5950    95.7360    25.1950     2.2320   -14.4870 
  152.0000    72.6870   114.6730   109.9670   103.0610    25.1210     2.2220   -13.8860 
  152.1250    70.1170   125.3000   120.0360    85.1270    25.0680     2.2200   -13.2250 
  152.2500    68.6870   132.0220   125.4000    72.0930    25.0920     2.2220   -12.6060 
  152.3750    68.8360   136.3000   128.1850    73.2520    25.1830     2.2240   -12.2960 
  152.5000    67.5730   139.6580   130.2890    80.6690    25.2820     2.2210   -12.2990 
  152.6250    64.4930   142.7450   132.4310    90.4190    25.3110     2.2120   -12.4770 
  152.7500    63.6690   145.3340   134.3610    97.7980    25.2280     2.2030   -12.6490 
  152.8750    65.6780   146.8070   135.5930    98.9710    25.0910     2.1990   -12.7560 
  153.0000    68.2070   146.4570   135.5170    92.4040    25.0970     2.2000   -12.8870 
  153.1250    69.1280   143.2870   133.0830    89.7630    25.4020     2.2080   -12.9690 
  153.2500    67.9230   137.7930   128.4740    96.1860    25.5390     2.2170   -13.0080 
  153.3750    65.9950   130.8970   122.4450   101.0350    25.4320     2.2280   -12.9930 
  153.5000    66.9540   124.0050   116.3390    90.4970    25.2730     2.2400   -12.8800 
  153.6250    70.1650   118.7950   111.7960    76.7840    25.1700     2.2500   -12.7190 
  153.7500    69.4320   115.6250   109.2230    71.3800    25.1300     2.2560   -12.6490 
  153.8750    66.8800   114.1790   108.3030    79.1780    25.1210     2.2560   -12.7150 
  154.0000    68.4810   113.6960   108.2360    85.8210    25.1220     2.2510   -12.8480 
  154.1250    71.1270   113.4090   108.1960    92.9100    25.1090     2.2450   -13.0110 
  154.2500    70.2850   113.1080   107.8640    85.3580    25.0850     2.2420   -13.2330 
  154.3750    70.4750   113.3760   107.6680    76.6850    25.0770     2.2420   -13.4800 
  154.5000    74.5260   115.2780   108.6930    73.0130    25.1180     2.2430   -13.7100 
  154.6250    74.9500   120.4320   112.7550    84.4410    25.1820     2.2430   -14.0640 
  154.7500    67.5900   128.7720   119.9950   100.3040    25.2490     2.2360   -14.3990 
  154.8750    58.8960   139.7360   129.9240    97.0830    25.3130     2.2250   -14.7140 
  155.0000    56.8960   152.0900   141.3900    96.1300    25.3780     2.2100   -15.0620 
  155.1250    62.8860   164.1020   152.5720   122.6760    25.3050     2.1970   -15.3470 
  155.2500    69.0790   174.5950   162.0690   133.1110    25.2610     2.1900   -15.5420 
  155.3750    70.0160   183.3510   169.6440   129.1470    25.2430     2.1900   -15.7070 
  155.5000    67.9110   190.8530   175.8970   126.6830    25.2440     2.1940   -15.8850 
  155.6250    66.7840   197.8500   181.7720   139.5350    25.2440     2.2000   -15.9920 
  155.7500    66.7930   204.7730   187.9390   149.9240    25.2390     2.2050   -16.0970 
  155.8750    67.4980   211.1300   194.1150   156.3860    25.2220     2.2100   -16.2450 
  156.0000    68.2980   215.8580   199.1370   156.1160    25.1760     2.2170   -16.3680 
  156.1250    68.7150   217.5080   201.2260   155.7740    25.1160     2.2250   -16.4580 
  156.2500    67.7350   216.6380   200.7670   157.3900    25.0800     2.2300   -16.6320 
  156.3750    66.5410   214.4750   198.9360   150.8450    25.0980     2.2310   -16.7680 
  156.5000    65.0050   212.7290   197.3990   148.9880    25.1420     2.2250   -16.7990 
  156.6250    62.1200   213.3470   198.2060   149.0200    25.1770     2.2150   -16.7910 
  156.7500    62.2080   216.3860   201.6860   158.1450    25.2060     2.2060   -16.6980 
  156.8750    65.9560   220.6830   206.8890   161.4030    25.2300     2.1990   -16.4580 
  157.0000    69.2060   223.9270   211.5030   170.4900    25.2370     2.1940   -16.2310 
  157.1250    68.4630   222.8690   211.7490   183.6870    25.2270     2.1910   -16.1250 
  157.2500    66.6910   217.4080   206.9430   211.1240    25.2150     2.1890   -15.9920 
  157.3750    64.9370   209.3830   198.8740   230.0160    25.1730     2.1910   -15.8010 
  157.5000    62.7330   202.0640   191.0800   203.3460    25.1450     2.1960   -15.5840 
  157.6250    62.9310   199.7520   188.0390   158.7920    25.1440     2.2030   -15.4520 
  157.7500    65.5310   203.7430   191.2190   142.4580    25.1310     2.2070   -15.5190 
  157.8750    67.7010   213.9540   200.7600   160.6910    25.1020     2.2050   -15.8060 
  158.0000    68.4650   228.5900   214.9980   197.8840    25.0900     2.1990   -16.2630 
  158.1250    69.7620   243.9460   229.9300   201.9240    25.0970     2.1930   -16.8610 
  158.2500    71.3310   255.6250   240.7970   198.9190    25.0890     2.1920   -17.5430 
  158.3750    71.2090   260.9960   244.9930   201.9770    25.0550     2.1980   -18.3830 
  158.5000    70.2720   259.4540   242.0330   207.8850    24.9740     2.2070   -19.3260 
  158.6250    69.8300   252.0360   233.0750   187.8700    24.8620     2.2140   -20.1070 
  158.7500    68.6890   242.8940   222.4900   161.8260    24.7610     2.2160   -20.5310 
  158.8750    66.1800   235.0300   213.3050   158.7580    24.7070     2.2110   -20.6670 
  159.0000    64.5140   230.9300   207.8690   138.4310    24.7280     2.2030   -20.6650 
  159.1250    65.8170   233.2270   209.2330   109.4620    24.7130     2.1920   -20.6140 
  159.2500    66.9370   240.7300   216.9460   123.8880    24.6480     2.1820   -20.2700 
  159.3750    66.5460   250.6020   228.6620   169.2050    24.6150     2.1710   -19.5040 
  159.5000    64.8630   257.9160   239.5070   204.1030    24.6380     2.1620   -18.4510 
  159.6250    61.7420   255.6160   241.9010   197.3770    24.7110     2.1560   -17.1650 
  159.7500    60.3920   242.7540   233.5550   182.1960    24.7770     2.1570   -15.8880 
  159.8750    63.4170   221.5280   216.0200   121.9510    24.7310     2.1660   -14.6310 
  160.0000    69.2780   196.4140   193.8520    70.0450    24.5300     2.1830   -13.2330 
  160.1250    72.0880   172.0610   171.9370    59.1490    24.3120     2.2030   -11.7160 
