~V
VERS. 2.00: Ver 2.00
~W
STRT.M 50.0000:
STOP.M 252.0000:
STEP.M 0.1250:
NULL. -999.2500:
UWI. F10101:
~C
DEPT.M :
DEN.GM/CC :
SP.MV :
GR.API :
RML.OHMM :
RI. :
RXO.OHMM :
CALI.CM :
~A
# ...
  218.7500     2.2140   -12.7240    64.8970   100.1580    98.5960    93.3550    24.6240 
  218.8750     2.2210   -12.6590    67.6730    92.0130    90.7510    81.6840    24.6140 
  219.0000     2.2290   -12.6240    66.4080    86.1190    84.6940    75.4070    24.6260 
  219.1250     2.2310   -12.4540    63.7030    83.5720    81.7250    74.3390    24.6290 
  219.2500     2.2280   -12.3280    65.3120    84.2030    81.8780    74.7940    24.6400 
  219.3750     2.2240   -12.1600    69.4610    88.0300    85.1730    76.1620    24.6290 
  219.5000     2.2220   -11.8970    70.7810    94.7060    91.2410    80.8250    24.5950 
  219.6250     2.2190   -11.6640    67.8160   103.1430    99.0340    97.9210    24.5280 
  219.7500     2.2140   -11.4180    65.2690   110.4960   105.9310   112.5600    24.4720 
  219.8750     2.2110   -11.1080    64.1480   114.0040   109.4500   113.8510    24.4190 
  220.0000     2.2130   -10.7990    62.4710   112.0250   107.9750   110.6110    24.3990 
  220.1250     2.2210   -10.4450    61.8720   104.6720   101.2890   108.6240    24.4290 
  220.2500     2.2270   -10.0630    64.0250    95.5340    92.6210    98.1100    24.4500 
  220.3750     2.2330    -9.7230    67.0490    87.1190    84.4670    81.9500    24.3920 
  220.5000     2.2420    -9.3090    69.3410    81.1010    78.5650    71.3700    24.2850 
  220.6250     2.2580    -8.8060    70.3310    79.2170    76.5050    67.8910    24.2290 
  220.7500     2.2820    -8.3760    70.1500    81.8100    78.5510    65.7300    24.1870 
  220.8750     2.3230    -7.8860    69.3260    89.2200    85.3250    67.1870    24.1290 
  221.0000     2.3820    -7.2950    69.4150    99.8280    95.8300    79.1570    24.0920 
  221.1250     2.4580    -6.7920    69.5360   106.5200   104.1220   111.0200    24.0920 
  221.2500     2.5430    -6.2060    67.1340   101.5610   102.4590   155.2890    24.0140 
  221.3750     2.6230    -5.5790    63.8020    84.6030    88.5330   165.7010    23.8340 
  221.5000     2.6790    -5.0670    62.8250    62.9670    67.3250    99.6110    23.7590 
  221.6250     2.6790    -4.5270    65.4940    44.6710    47.1660    47.3080    23.9040 
  221.7500     2.6350    -3.9660    69.1440    31.3110    32.1780    30.4800    24.1160 
  221.8750     2.5740    -3.5320    72.1640    21.9820    22.1710    29.3170    24.2010 
  222.0000     2.5190    -3.1750    72.8650    15.5550    15.6550    25.0060    24.1690 
  222.1250     2.4830    -2.8780    68.8530    11.6630    11.7530    12.5050    24.1410 
  222.2500     2.4580    -2.7020    60.8420     9.4190     9.4170     8.1910    24.1710 
  222.3750     2.4390    -2.5770    53.9510     8.3480     8.2080     7.3650    24.3730 
  222.5000     2.4270    -2.5040    52.3390     8.0660     7.7900     7.8350    24.6830 
  222.6250     2.4250    -2.5510    52.8590     8.3790     8.0130     8.2770    24.7230 
  222.7500     2.4280    -2.5710    50.5720     8.9530     8.5780     8.6990    24.5820 
  222.8750     2.4320    -2.5500    47.9520     9.5460     9.2600     8.8780    24.3590 
  223.0000     2.4360    -2.6080    48.3870     9.9760     9.8450     9.4100    24.2300 
  223.1250     2.4360    -2.5650    50.4850    10.1150    10.1380    10.0800    24.2310 
  223.2500     2.4340    -2.4700    50.4530     9.9670    10.1040    10.1570    24.2930 
  223.3750     2.4310    -2.4120    49.0410     9.4990     9.7090     9.3210    24.3750 
  223.5000     2.4280    -2.2540    49.8370     8.7400     8.9860     8.4860    24.4260 
  223.6250     2.4270    -2.0480    57.1270     7.8250     8.0610     7.9860    24.3400 
  223.7500     2.4320    -1.9730    66.7350     7.0130     7.1760     7.2670    24.1860 
  223.8750     2.4380    -1.9260    73.5430     6.4820     6.4930     6.7220    24.0810 
  224.0000     2.4430    -1.8330    78.0550     6.3180     6.1130     6.6820    24.0760 
  224.1250     2.4560    -1.8970    83.1050     6.5600     6.1210     7.2550    24.1550 
  224.2500     2.4770    -1.9850    85.4970     7.0560     6.4280     7.9040    24.3090 
  224.3750     2.4920    -2.0920    81.6270     7.6900     6.9520     8.6420    24.4380 
  224.5000     2.4900    -2.3150    73.8330     8.3320     7.5700     9.0970    24.5640 
  224.6250     2.4760    -2.5560    71.1280     8.8300     8.1160     9.4030    24.5560 
  224.7500     2.4670    -2.7140    74.1860     9.1450     8.4980     9.9000    24.4960 
  224.8750     2.4660    -2.9140    79.5500     9.3000     8.7010    10.5440    24.4610 
  225.0000     2.4650    -3.1390    84.8470     9.3560     8.7490    10.3860    24.4410 
  225.1250     2.4620    -3.2810    88.7440     9.3470     8.6520     9.9530    24.4760 
  225.2500     2.4600    -3.4900    92.8590     9.2820     8.4530     9.5930    24.4930 
  225.3750     2.4600    -3.6620    97.2240     9.1340     8.1730     9.4840    24.4890 
  225.5000     2.4570    -3.7730   102.6870     8.9080     7.8480     9.5250    24.4870 
  225.6250     2.4460    -3.9990   110.0990     8.7500     7.6030     9.5130    24.4920 
  225.7500     2.4330    -4.2560   117.9770     8.9220     7.6060     9.4480    24.4740 
  225.8750     2.4190    -4.4800   121.5390     9.7370     8.0600     9.4120    24.4240 
  226.0000     2.3990    -4.7620   116.0180    11.5520     9.2120    10.1550    24.2750 
  226.1250     2.3700    -5.0140   105.0150    15.0470    11.6380    13.9120    23.9880 
  226.2500     2.3420    -5.1650    96.1590    20.3280    15.6220    22.7290    23.6430 
  226.3750     2.3220    -5.3210    89.0650    27.3820    21.4350    32.1740    23.4120 
  226.5000     2.3100    -5.4090    83.1420    35.5760    28.8100    36.6660    23.3390 
  226.6250     2.3080    -5.2510    80.5510    42.8600    36.1070    41.9160    23.2830 
  226.7500     2.3130    -5.0060    79.8520    46.6040    40.6050    47.6380    23.1720 
  226.8750     2.3210    -4.7030    79.5320    45.1450    40.3970    48.5570    23.0640 
  227.0000     2.3320    -4.2130    80.7610    38.9230    35.5070    40.2860    23.0990 
  227.1250     2.3500    -3.6560    85.9740    30.3060    27.9170    28.3090    23.3820 
  227.2500     2.3790    -3.0960    91.7430    22.3720    20.6910    18.4240    23.7130 
  227.3750     2.4130    -2.4580    97.1080    15.4690    15.0530    11.4880    24.0560 
  227.5000     2.4430    -1.8940   102.1400    11.4070    11.2220     8.6310    24.2850 
  227.6250     2.4590    -1.4770   103.0430     9.4920     9.1150     8.0690    24.3510 
  227.7500     2.4670    -1.0670   100.6830     8.6700     8.0890     7.9890    24.3620 
  227.8750     2.4700    -0.6930    99.3790     8.7000     7.9050     8.0630    24.3600 
  228.0000     2.4710    -0.4350   102.0750     9.4780     8.4370     8.4890    24.3420 
  228.1250     2.4650    -0.2170   107.3970    11.0640     9.7390     9.6870    24.3440 
  228.2500     2.4570    -0.0410   108.1650    13.2000    11.6190    12.4450    24.3430 
  228.3750     2.4530     0.0890   102.8220    15.5620    13.8530    16.8530    24.3480 
  228.5000     2.4610     0.2850    92.8620    17.5910    15.9680    18.8040    24.3510 
  228.6250     2.4760     0.4940    82.8370    18.2890    16.9820    20.3660    24.3270 
  228.7500     2.4830     0.6030    77.2600    17.3760    16.4360    19.2100    24.2450 
  228.8750     2.4740     0.7290    77.4180    15.1800    14.5530    15.9250    24.1010 
  229.0000     2.4530     0.8960    82.3400    12.5200    12.1070    12.7130    24.0020 
  229.1250     2.4340     0.9450    87.9070    10.2960     9.9430    10.1430    24.1310 
  229.2500     2.4260     0.9930    91.7510     8.8830     8.4170     8.1890    24.2760 
  229.3750     2.4220     1.0510    94.4960     8.3940     7.6270     7.9870    24.3380 
  229.5000     2.4140     1.0120    97.3550     8.8190     7.5800     9.0830    24.3150 
  229.6250     2.3990     0.9230   100.3780    10.1740     8.3400    10.2650    24.2730 
  229.7500     2.3840     0.9260   102.9770    12.0590     9.6600    12.0530    24.2280 
  229.8750     2.3720     0.8930   102.3540    13.9920    11.2430    16.4740    24.2030 
