~V
VERS. 2.00: Ver 2.00
~W
STRT.M 49.0000:
STOP.M 245.0000:
STEP.M 0.1250:
NULL. -999.2500:
UWI. F10179:
~C
DEPT.M :
DEN.GM/CC :
GR.API :
RML.OHMM :
RI. :
RXO.OHMM :
CALI.CM :
SP.MV :
~A
# ...
  116.5000     2.1860    61.6620     9.7580     7.8870     8.5950    23.2890   -28.1620 
  116.6250     2.2010    62.8670    10.5950     8.5010     9.3560    23.3820   -28.1580 
  116.7500     2.2230    63.6650    11.5140     9.2190    10.4730    23.4450   -28.1540 
  116.8750     2.2580    62.9850    12.2160     9.8400    11.7890    23.5290   -28.2160 
  117.0000     2.3060    60.9920    12.4710    10.1640    12.3730    23.5790   -28.3880 
  117.1250     2.3470    59.9910    12.2000    10.0890    11.6500    23.6660   -28.6460 
  117.2500     2.3470    61.5940    11.5200     9.6650    10.2640    23.7980   -28.9500 
  117.3750     2.2960    63.3940    10.6830     9.0550     9.6140    24.0440   -29.2680 
  117.5000     2.2420    65.1210     9.9510     8.4780     9.3360    24.2780   -29.5920 
  117.6250     2.2100    65.6860     9.4250     8.0280     9.0740    24.4010   -29.9530 
  117.7500     2.1990    63.3420     9.1060     7.7230     8.7140    24.3680   -30.3630 
  117.8750     2.2020    60.9070     8.9470     7.5510     8.5070    24.2460   -30.7570 
  118.0000     2.2080    62.1290     8.8590     7.4570     8.3210    24.1120   -31.0510 
  118.1250     2.2100    64.3970     8.8050     7.4190     8.3090    24.0650   -31.2440 
  118.2500     2.2050    62.6360     8.7660     7.4200     8.3810    24.0980   -31.3720 
  118.3750     2.1930    57.6610     8.7330     7.4420     8.2850    24.1770   -31.4660 
  118.5000     2.1780    54.2090     8.6940     7.4550     8.2330    24.2200   -31.5410 
  118.6250     2.1670    54.9350     8.6400     7.4390     8.3540    24.2290   -31.5710 
  118.7500     2.1600    58.3090     8.5690     7.3880     8.5290    24.2120   -31.5030 
  118.8750     2.1610    59.6720     8.4960     7.3100     8.6310    24.1190   -31.3630 
  119.0000     2.1670    59.7880     8.4470     7.2380     8.4320    23.8960   -31.2330 
  119.1250     2.1800    61.4020     8.4360     7.2010     8.1870    23.5610   -31.1200 
  119.2500     2.1950    63.4610     8.4730     7.2140     8.4520    23.3220   -30.9870 
  119.3750     2.2050    64.5100     8.5600     7.2730     8.7920    23.2470   -30.8040 
  119.5000     2.2040    67.9650     8.6500     7.3330     8.8660    23.2440   -30.5940 
  119.6250     2.1980    72.1430     8.6880     7.3540     8.6480    23.1550   -30.3840 
  119.7500     2.1930    73.0390     8.6280     7.3140     8.3900    23.0990   -30.2140 
  119.8750     2.1930    69.1030     8.4720     7.2170     8.3900    22.9500   -30.0680 
  120.0000     2.1990    65.2130     8.3110     7.1140     8.4960    22.7060   -29.9220 
  120.1250     2.2110    65.4270     8.2300     7.0470     8.3650    22.4060   -29.7540 
  120.2500     2.2280    70.8740     8.2830     7.0460     8.2220    22.1580   -29.5760 
  120.3750     2.2430    77.1350     8.4630     7.1220     8.1130    21.9830   -29.4100 
  120.5000     2.2510    76.0360     8.6640     7.2290     8.1800    21.8370   -29.2750 
  120.6250     2.2510    67.6820     8.7900     7.3150     7.9810    21.8000   -29.1490 
  120.7500     2.2430    60.0630     8.7790     7.3300     7.6140    21.8930   -28.9860 
  120.8750     2.2260    59.2690     8.6060     7.2350     7.3120    22.1890   -28.7550 
  121.0000     2.2040    61.8930     8.3730     7.0820     7.1130    22.6110   -28.4350 
  121.1250     2.1810    63.3930     8.2000     6.9480     6.9970    23.0880   -28.0600 
  121.2500     2.1660    62.9930     8.2290     6.9380     6.8930    23.3980   -27.6890 
  121.3750     2.1680    61.8230     8.6500     7.1900     6.9710    23.5180   -27.3020 
  121.5000     2.1810    60.0620     9.4460     7.7170     7.3870    23.5210   -26.8450 
  121.6250     2.2020    59.2490    10.5340     8.4830     8.1900    23.3530   -26.3190 
  121.7500     2.2440    59.7990    11.7160     9.3770     8.6450    23.1090   -25.7750 
  121.8750     2.3180    59.0760    12.6050    10.1470     8.6220    23.2930   -25.2690 
  122.0000     2.3940    58.4460    12.8910    10.5210     8.4170    23.5000   -24.8480 
  122.1250     2.4170    59.8680    12.4140    10.3230     8.4780    23.5730   -24.4550 
  122.2500     2.3720    62.3440    11.2540     9.5640     8.6840    23.6430   -24.0320 
  122.3750     2.3100    63.5590     9.6970     8.4300     8.5490    23.6050   -23.5820 
  122.5000     2.2770    64.5250     8.2160     7.2920     7.9330    23.3960   -23.1720 
  122.6250     2.2720    67.3380     7.0860     6.3630     6.8890    23.1240   -22.8630 
  122.7500     2.2810    71.1250     6.4500     5.7530     5.5940    22.9170   -22.6850 
  122.8750     2.2890    74.1020     6.4170     5.5550     4.9530    22.9650   -22.6740 
  123.0000     2.2800    75.1930     6.8300     5.6960     5.3100    23.0810   -22.7380 
  123.1250     2.2480    73.3410     7.5440     6.1210     6.3660    23.3830   -22.8810 
  123.2500     2.2060    67.8180     8.3350     6.7140     7.6520    23.9540   -23.0910 
  123.3750     2.1740    60.0900     8.8510     7.2430     8.0840    24.4070   -23.3550 
  123.5000     2.1550    54.8620     8.9290     7.5030     8.1810    24.5820   -23.5890 
  123.6250     2.1540    54.0900     8.6700     7.4830     8.1370    24.5290   -23.6950 
  123.7500     2.1730    55.7240     8.3870     7.3590     7.9960    24.4340   -23.5940 
  123.8750     2.2120    55.8060     8.4400     7.3740     7.5030    24.3960   -23.2050 
  124.0000     2.2610    54.9780     8.8060     7.5750     6.9090    24.3600   -22.6370 
  124.1250     2.3240    54.6280     9.2390     7.8380     7.3250    24.2420   -21.9810 
  124.2500     2.4020    56.5960     9.3520     7.9120    10.0250    24.0230   -21.2830 
  124.3750     2.4750    63.3150     8.6940     7.4480    12.8490    23.9600   -20.5780 
  124.5000     2.4960    72.2220     7.4550     6.5430     9.8510    23.9720   -19.9350 
  124.6250     2.4530    80.0450     6.0720     5.4980     5.8190    23.9020   -19.4150 
  124.7500     2.3830    84.6440     4.9990     4.6290     4.0860    23.6850   -19.1060 
  124.8750     2.3360    86.7930     4.5930     4.1990     3.8180    23.4820   -19.0860 
  125.0000     2.3100    87.8050     4.7780     4.1940     4.0550    23.4670   -19.2450 
  125.1250     2.2920    84.3650     5.4150     4.5660     4.7190    23.6770   -19.5050 
  125.2500     2.2720    79.2080     6.2500     5.1810     5.5840    23.8670   -19.8660 
  125.3750     2.2570    77.4880     6.9120     5.7950     6.3470    24.0630   -20.3320 
  125.5000     2.2550    76.8020     7.1900     6.1730     6.9040    24.2000   -20.8560 
  125.6250     2.2640    73.3550     7.1050     6.2510     7.0500    24.3010   -21.4030 
  125.7500     2.2740    69.5830     6.8430     6.1220     6.3450    24.3590   -21.8950 
  125.8750     2.2790    70.3930     6.6420     5.9640     5.4140    24.3610   -22.2870 
  126.0000     2.2750    70.4830     6.5720     5.8770     5.4790    24.3350   -22.6310 
  126.1250     2.2560    66.9040     6.5390     5.8260     6.3900    24.3330   -22.9290 
  126.2500     2.2260    64.4980     6.4090     5.7220     6.9370    24.3490   -23.1420 
  126.3750     2.2120    67.8520     6.1230     5.5090     6.7000    24.1900   -23.2500 
  126.5000     2.2310    74.4060     5.8620     5.2860     6.0110    23.8240   -23.2780 
  126.6250     2.2810    82.1010     5.8820     5.2020     5.1320    23.4370   -23.2050 
  126.7500     2.3430    87.1370     6.4160     5.4100     4.7500    23.1860   -23.0530 
  126.8750     2.4000    82.8790     7.5960     6.0530     5.8360    23.3070   -22.8280 
  127.0000     2.4490    73.8890     9.0210     6.9650     8.5190    23.5540   -22.5720 
  127.1250     2.4890    67.8100    10.1270     7.8280    11.5020    23.6810   -22.3390 
  127.2500     2.5120    67.8200    10.3330     8.1940    11.7740    23.7050   -22.1280 
  127.3750     2.4980    74.0270     9.3420     7.7180    11.0990    23.7060   -21.9120 
  127.5000     2.4520    83.1940     7.9210     6.8510     8.1190    23.6960   -21.7230 
  127.6250     2.3860    90.2130     6.7580     6.0570     5.8400    23.6530   -21.6350 
