~V
VERS. 2.00: Ver 2.00
~W
STRT.M 49.0000:
STOP.M 251.0000:
STEP.M 0.1250:
NULL. -999.2500:
UWI. F10165:
~C
DEPT.M :
GR.API :
RML.OHMM :
RI. :
RXO.OHMM :
CALI.CM :
SP.MV :
DEN.GM/CC :
~A
# ...
  184.0000    60.2480   168.1780   160.0090    33.2460    24.2060   -34.9140     2.1440 
  184.1250    60.1640   154.2240   146.3880    33.8710    24.1660   -34.8530     2.1520 
  184.2500    60.1060   145.7200   137.5660    35.8740    24.1580   -34.7430     2.1530 
  184.3750    62.4990   140.7780   131.7180    37.2680    24.2010   -34.6240     2.1520 
  184.5000    65.5820   137.4930   127.1450    36.0600    24.2730   -34.5550     2.1550 
  184.6250    64.7050   134.3050   122.5680    36.5840    24.3050   -34.4810     2.1610 
  184.7500    61.3130   130.6200   117.7150    40.0180    24.3090   -34.4100     2.1680 
  184.8750    59.8000   126.9020   113.1840    42.8700    24.2280   -34.3640     2.1750 
  185.0000    63.1730   123.9780   109.6890    44.3980    24.1100   -34.2800     2.1800 
  185.1250    67.6560   122.0460   107.2250    43.6720    24.0540   -34.1860     2.1870 
  185.2500    69.4400   119.5290   104.2870    44.3410    24.0500   -34.1580     2.1960 
  185.3750    69.5680   114.9490    99.7210    45.5820    24.1030   -34.1410     2.2050 
  185.5000    70.3200   108.1410    93.6090    46.2400    24.2500   -34.0820     2.2090 
  185.6250    72.5040   100.9470    87.7480    42.1710    24.4310   -34.0420     2.2090 
  185.7500    71.9190    96.1790    84.3940    34.4410    24.4880   -34.0070     2.2080 
  185.8750    68.4540    95.9140    85.1440    28.8550    24.4140   -33.9520     2.2030 
  186.0000    65.3520   101.4310    90.8810    29.8810    24.3010   -33.9340     2.1930 
  186.1250    64.7680   113.6610   102.2580    36.3700    24.2700   -33.9460     2.1820 
  186.2500    63.6480   129.6630   116.7710    40.4770    24.3710   -33.9170     2.1760 
  186.3750    61.5260   145.6820   131.1070    42.1110    24.6210   -33.8580     2.1680 
  186.5000    61.5300   156.7860   140.7070    49.9400    24.9660   -33.8300     2.1490 
  186.6250    62.5370   157.8190   140.9330    62.0450    25.2590   -33.8030     2.1250 
  186.7500    62.1970   151.4110   134.7140    73.3870    25.3440   -33.7410     2.1150 
  186.8750    62.5750   141.5750   125.9510    83.0100    25.1690   -33.6980     2.1260 
  187.0000    65.2030   131.7440   117.5730    88.4870    24.8460   -33.6590     2.1470 
  187.1250    66.8530   124.0120   111.2740    95.6690    24.6810   -33.5590     2.1600 
  187.2500    66.4270   118.6240   107.1910   111.2370    24.6100   -33.4460     2.1610 
  187.3750    65.7450   115.5880   105.2400   136.5180    24.5120   -33.3670     2.1580 
  187.5000    65.1210   114.6580   105.0370   156.8310    24.3750   -33.2720     2.1560 
  187.6250    64.0790   115.5870   106.1900   145.9640    24.2730   -33.1420     2.1550 
  187.7500    64.8680   117.5670   108.1090   126.4150    24.2500   -33.0360     2.1450 
  187.8750    67.6040   120.4070   110.8590   127.1970    24.2290   -32.9150     2.1190 
  188.0000    69.1480   124.3110   114.8190   134.9280    24.1920   -32.7560     2.0820 
  188.1250    66.8270   130.0680   120.7240   137.0360    24.1770   -32.6380     2.0580 
  188.2500    62.2900   137.7730   128.3330   122.1880    24.2160   -32.5370     2.0620 
  188.3750    58.0160   146.9020   136.7750   125.6410    24.2800   -32.3890     2.0900 
  188.5000    56.5240   155.2290   143.5790   151.7650    24.3020   -32.2180     2.1240 
  188.6250    59.6140   157.0410   142.9350   185.1580    24.2670   -32.0860     2.1510 
  188.7500    64.0660   149.1780   132.7080   183.7170    24.2310   -31.9400     2.1750 
  188.8750    66.5800   132.4300   115.2390   146.1620    24.1890   -31.7780     2.1960 
  189.0000    65.4810   111.9240    96.4330    97.1990    24.1410   -31.6540     2.2100 
  189.1250    64.5930    94.7400    82.5240    68.7680    24.1090   -31.5350     2.2150 
  189.2500    65.9650    83.8900    74.7870    60.4420    24.0810   -31.3890     2.2150 
  189.3750    67.6630    79.6630    72.9700    64.3100    24.0610   -31.2440     2.2090 
  189.5000    66.9810    81.2440    76.3510    80.7850    24.0730   -31.1180     2.2040 
  189.6250    65.4120    88.4180    84.9990    98.3790    24.1300   -30.9870     2.2010 
  189.7500    66.2960    99.6340    97.7130   103.5230    24.2260   -30.8430     2.1970 
  189.8750    66.6660   114.6280   114.4010   101.1550    24.4080   -30.7160     2.1950 
  190.0000    63.2760   133.9800   135.6570   106.7410    24.6530   -30.5770     2.2170 
  190.1250    57.2320   160.6110   164.3010   127.7780    24.7070   -30.3950     2.2910 
  190.2500    53.3190   193.7750   199.6340   186.2070    24.5770   -30.2360     2.4030 
  190.3750    52.9590   226.7590   233.6340   282.1870    24.5540   -30.1210     2.5210 
  190.5000    54.0910   242.3480   243.4080   410.5500    24.7100   -29.9960     2.6100 
  190.6250    54.2920   213.6880   201.2040   451.8280    24.8770   -29.8490     2.6570 
  190.7500    54.9050   155.8440   138.9240   352.9700    24.9600   -29.7400     2.6860 
  190.8750    56.5230    97.6620    86.8930   183.1050    24.9890   -29.6280     2.7070 
  191.0000    56.7240    56.6880    53.1450    76.0130    25.0180   -29.5040     2.7180 
  191.1250    54.2380    35.3910    35.0510    37.8450    25.0650   -29.4290     2.7110 
  191.2500    52.5750    24.0830    24.6600    22.0640    25.0840   -29.3500     2.6880 
  191.3750    52.9830    18.5680    18.2500    15.9720    25.0970   -29.2460     2.6520 
  191.5000    54.6000    15.3090    14.7290    12.8280    25.0880   -29.1760     2.6050 
  191.6250    56.6770    13.2760    12.8070    12.8850    24.8940   -29.1500     2.5380 
  191.7500    58.6100    11.7580    11.4410    13.4480    24.6450   -29.1080     2.4610 
  191.8750    58.5530    10.5020    10.3680    11.3100    24.6750   -29.0910     2.3920 
  192.0000    56.3300     9.4720     9.5040     8.2080    25.0070   -29.1190     2.3440 
  192.1250    53.7590     8.7880     8.9100     7.3030    25.2350   -29.1360     2.3270 
  192.2500    52.8160     8.4490     8.5830     7.7440    25.2550   -29.1680     2.3350 
  192.3750    52.9050     8.4470     8.5340     8.6150    25.2130   -29.2540     2.3570 
  192.5000    52.8250     8.7250     8.7360     8.7390    25.2090   -29.3600     2.3820 
  192.6250    53.4740     9.2030     9.1380     9.4530    25.2010   -29.4430     2.4020 
  192.7500    54.4740     9.7220     9.5920    10.0650    25.1520   -29.5430     2.4180 
  192.8750    53.6770    10.1820     9.9900    11.1740    25.1240   -29.6570     2.4240 
  193.0000    50.4000    10.5110    10.2550    12.1030    25.1170   -29.7410     2.4150 
  193.1250    49.0450    10.6340    10.3130    11.4460    25.0850   -29.8220     2.3990 
  193.2500    50.6820    10.5880    10.2030    10.9280    25.0970   -29.9240     2.3930 
  193.3750    52.5930    10.4320     9.9810    10.6990    25.1320   -29.9970     2.4030 
  193.5000    53.1420    10.2460     9.7140    10.8630    25.1090   -30.0310     2.4220 
  193.6250    52.7430    10.1110     9.4660    12.1030    25.0220   -30.0860     2.4290 
  193.7500    52.8850    10.0530     9.2720    12.6330    24.9300   -30.1500     2.4180 
  193.8750    53.7730    10.0690     9.1470    12.0800    24.9100   -30.1820     2.3940 
  194.0000    54.7590    10.1480     9.1000    11.3970    24.9610   -30.2180     2.3700 
  194.1250    54.9560    10.2920     9.1440    10.6160    25.0420   -30.2700     2.3600 
  194.2500    54.7550    10.4900     9.2610    11.0650    25.0920   -30.2920     2.3570 
  194.3750    55.4390    10.7410     9.4390    11.3950    25.0580   -30.3150     2.3470 
  194.5000    57.3710    11.0340     9.6610    11.5120    24.9940   -30.3670     2.3270 
  194.6250    56.7530    11.3390     9.9020    11.5470    24.9840   -30.3970     2.3130 
  194.7500    53.7470    11.6070    10.1260    11.8720    25.0060   -30.3960     2.3160 
  194.8750    52.0430    11.8050    10.2990    11.5690    24.9950   -30.4140     2.3270 
  195.0000    53.5310    11.9190    10.3990    11.5960    24.8900   -30.4510     2.3340 
  195.1250    54.8450    11.9390    10.4010    11.6980    24.7400   -30.4650     2.3310 
