~V
VERS. 2.00: Ver 2.00
~W
STRT.M 60.0000:
STOP.M 241.0000:
STEP.M 0.1250:
NULL. -999.2500:
UWI. F10158:
~C
DEPT.M :
SP.MV :
DEN.GM/CC :
GR.API :
RML.OHMM :
RI. :
RXO.OHMM :
CALI.CM :
~A
# ...
  195.0000    75.7590     2.2200    69.5280    29.1300    24.0210    25.7840    23.8840 
  195.1250    75.7790     2.2090    63.9360    38.0910    31.0030    32.7440    24.0090 
  195.2500    75.8080     2.1900    57.6600    51.3900    42.2330    46.0330    24.0270 
  195.3750    75.8540     2.1690    56.5440    67.6870    56.6390    72.1470    24.0230 
  195.5000    75.9240     2.1560    59.8140    81.9770    70.0820   116.3550    23.9740 
  195.6250    76.0430     2.1580    62.0900    84.5940    74.8810   143.2920    23.8730 
  195.7500    76.2260     2.1690    64.7120    76.2810    70.4430   133.8780    23.7870 
  195.8750    76.4820     2.1840    68.9600    63.5520    60.7830    99.2000    23.7510 
  196.0000    76.7940     2.1990    72.2580    51.9660    50.6310    62.9060    23.7500 
  196.1250    77.1330     2.2160    73.6670    43.6680    42.7320    44.9480    23.7530 
  196.2500    77.4710     2.2330    74.8210    37.4890    36.6990    38.1920    23.7560 
  196.3750    77.7930     2.2470    76.5740    32.6020    31.8950    36.1950    23.7600 
  196.5000    78.0970     2.2560    77.8690    28.5300    27.9110    34.3640    23.7610 
  196.6250    78.3910     2.2600    77.4100    25.2700    24.7260    29.6460    23.7610 
  196.7500    78.6770     2.2600    76.2640    22.8140    22.2820    24.1210    23.7610 
  196.8750    78.9610     2.2560    75.1520    21.2470    20.6390    20.2910    23.7610 
  197.0000    79.2440     2.2500    75.0340    20.5130    19.7760    18.5420    23.7610 
  197.1250    79.5120     2.2430    74.0910    20.4390    19.6040    18.2530    23.7580 
  197.2500    79.7370     2.2380    69.4140    20.5410    19.7050    18.5540    23.7610 
  197.3750    79.9000     2.2330    64.7050    20.5780    19.8320    19.6100    23.8060 
  197.5000    79.9880     2.2300    64.1890    20.6100    19.9680    21.4730    23.9740 
  197.6250    79.9960     2.2310    65.8090    21.1850    20.5050    22.6740    24.2780 
  197.7500    79.9600     2.2500    64.6990    22.9190    21.9540    22.5680    24.5380 
  197.8750    79.8900     2.3040    61.2740    26.3200    24.8370    23.4740    24.6180 
  198.0000    79.7960     2.4060    57.6300    31.4250    29.3520    30.5330    24.5060 
  198.1250    79.6680     2.5340    53.4210    37.0830    34.7150    52.5960    24.3210 
  198.2500    79.5140     2.6150    50.1110    40.4890    38.3730    80.0100    24.1640 
  198.3750    79.3270     2.6100    49.1020    39.4570    38.0980    92.1040    24.0350 
  198.5000    79.1050     2.5340    49.0500    34.3190    33.8390    86.4790    23.9300 
  198.6250    78.8430     2.4340    51.4700    27.9260    27.9660    61.7910    23.8410 
  198.7500    78.5580     2.3540    57.4350    22.9110    23.0700    36.9410    23.7410 
  198.8750    78.2800     2.3050    63.3490    19.7940    19.7930    23.7120    23.6210 
  199.0000    78.0340     2.2840    65.1900    18.5470    17.7710    19.3060    23.5210 
  199.1250    77.8550     2.2780    64.3130    18.0760    17.6110    18.9330    23.4950 
  199.2500    77.7480     2.2720    65.7690    18.4280    18.1170    18.7570    23.4950 
  199.3750    77.6970     2.2660    68.0350    19.2710    18.9470    18.7050    23.4940 
  199.5000    77.6820     2.2650    67.7370    20.2780    19.8130    18.9770    23.5060 
  199.6250    77.6970     2.2750    65.0320    21.1390    20.4570    19.7440    23.5280 
  199.7500    77.7270     2.2890    63.8460    21.7060    20.7950    21.0580    23.5490 
  199.8750    77.7680     2.2950    64.2330    21.9460    20.8250    22.1820    23.5670 
  200.0000    77.8080     2.2830    64.5620    21.9130    20.6330    22.3600    23.5930 
  200.1250    77.8530     2.2500    63.3890    21.6740    20.3270    22.1010    23.7640 
  200.2500    77.9030     2.2120    60.8570    21.3350    20.0130    22.4760    24.1170 
  200.3750    77.9590     2.1850    58.3850    20.9810    19.7560    23.1520    24.4970 
  200.5000    78.0170     2.1770    57.7240    20.7550    19.6660    23.1970    24.6900 
  200.6250    78.0380     2.1860    59.6510    20.9410    20.0120    22.7180    24.6350 
  200.7500    78.0030     2.1950    61.5410    21.7030    20.9800    21.8130    24.5250 
  200.8750    77.9030     2.2030    60.1210    23.1740    22.7010    21.1310    24.4330 
  201.0000    77.7460     2.2170    56.1570    25.3490    25.1060    22.7860    24.3780 
  201.1250    77.5470     2.2510    54.3730    28.0190    27.8360    28.8260    24.3540 
  201.2500    77.3320     2.2930    56.9320    30.5930    30.2530    36.4930    24.2900 
  201.3750    77.1130     2.3240    60.5030    32.6350    31.9880    40.4500    24.1990 
  201.5000    76.9020     2.3250    61.5680    33.9790    33.0180    39.1260    24.1770 
  201.6250    76.7170     2.2900    61.9200    34.7600    33.6170    36.6660    24.2840 
  201.7500    76.5680     2.2440    60.3700    35.3940    34.1690    35.6530    24.4320 
  201.8750    76.4510     2.2020    55.4770    35.9640    34.6550    36.9190    24.5480 
  202.0000    76.3570     2.1720    50.9560    36.2790    34.7920    40.3450    24.6010 
  202.1250    76.2720     2.1610    52.8320    35.8920    34.1110    43.4980    24.5820 
  202.2500    76.2050     2.1610    58.3110    34.7700    32.6620    43.1870    24.5440 
  202.3750    76.1700     2.1700    61.9300    33.1270    30.7180    39.9110    24.5150 
  202.5000    76.1740     2.1850    62.2300    31.3860    28.7370    36.1300    24.4370 
  202.6250    76.2130     2.2030    60.5690    30.0940    27.2830    32.7410    24.2310 
  202.7500    76.2660     2.2180    59.8830    29.4630    26.5260    29.5080    23.9900 
  202.8750    76.3250     2.2250    61.4360    29.4800    26.4040    27.1580    23.8280 
  203.0000    76.3820     2.2220    62.3830    29.9310    26.6690    26.7130    23.7790 
  203.1250    76.4210     2.2100    61.5140    30.4600    26.9760    28.1820    23.7900 
  203.2500    76.4260     2.1980    61.2610    30.7190    27.0510    29.3050    23.7990 
  203.3750    76.3830     2.1930    61.9740    30.5430    26.7990    28.2840    23.8030 
  203.5000    76.2870     2.1940    62.7330    29.8760    26.1990    25.9610    23.8040 
  203.6250    76.1280     2.1970    62.9530    28.6400    25.1760    24.9870    23.8240 
  203.7500    75.9170     2.1990    63.6030    27.0110    23.8380    25.7850    23.9060 
  203.8750    75.6560     2.1990    62.7670    25.2200    22.3720    26.6450    24.0640 
  204.0000    75.3490     2.2040    60.7780    23.6290    21.1270    24.8770    24.2230 
  204.1250    74.9950     2.2190    60.4220    22.8790    20.8160    20.4320    24.2530 
  204.2500    74.6070     2.2410    61.9340    23.4600    22.0060    17.1030    24.1800 
  204.3750    74.1900     2.2600    64.1140    26.0180    25.3660    16.7330    24.0980 
  204.5000    73.7510     2.2680    65.9290    31.3650    31.6070    19.7850    24.0590 
  204.6250    73.2910     2.2650    66.2190    43.4100    40.0390    28.6840    24.0530 
  204.7500    72.8270     2.2550    63.2710    58.4370    53.9630    48.3450    24.0450 
  204.8750    72.3620     2.2410    58.7400    76.6840    71.1710    84.2690    24.0800 
  205.0000    71.9030     2.2240    55.9110    95.2550    88.6270   123.9010    24.2120 
  205.1250    71.4710     2.2080    56.5320   108.9700   101.5310   131.5670    24.4210 
  205.2500    71.0840     2.1960    58.7260   116.4450   108.7730   125.7940    24.5820 
  205.3750    70.7590     2.1910    59.9000   119.2590   111.6040   127.0460    24.6520 
  205.5000    70.5010     2.1920    59.0680   120.2270   112.4140   131.9990    24.6660 
  205.6250    70.3330     2.1970    57.7880   121.5570   113.3150   134.1190    24.6640 
  205.7500    70.2440     2.2040    57.8780   123.5690   114.9110   135.0790    24.6570 
  205.8750    70.2300     2.2100    58.7850   125.5340   116.7490   136.5050    24.6510 
  206.0000    70.2790     2.2080    58.8880   125.9710   117.6810   138.7640    24.6460 
  206.1250    70.3840     2.1990    58.9310   121.3830   114.7940   142.9430    24.6440 
