~V
VERS. 2.00: Ver 2.00
~W
STRT.M 63.0000:
STOP.M 308.0000:
STEP.M 0.1250:
NULL. -999.2500:
UWI. F10102:
~C
DEPT.M :
DEN.GM/CC :
SP.MV :
GR.API :
RML.OHMM :
RI. :
RXO.OHMM :
CALI.CM :
~A
# ...
  130.5000     2.1750   -19.8230    72.2940     8.5880     7.6270     9.0600    23.4560 
  130.6250     2.1560   -20.0010    74.0540     8.6140     7.6200     8.9620    23.5700 
  130.7500     2.1530   -20.2520    71.9210     8.6530     7.6130     8.6360    23.4500 
  130.8750     2.1640   -20.5850    69.9460     8.7390     7.6440     8.7490    23.3870 
  131.0000     2.1760   -21.0410    70.4520     8.8730     7.7240     9.1130    23.4270 
  131.1250     2.1800   -21.5200    70.7390     9.0400     7.8520     9.0280    23.5110 
  131.2500     2.1740   -22.0400    69.1110     9.2140     8.0050     9.1040    23.6340 
  131.3750     2.1610   -22.5680    67.1910     9.3520     8.1400     9.2240    23.7880 
  131.5000     2.1490   -22.9180    65.0700     9.4370     8.2300     9.8360    23.8430 
  131.6250     2.1440   -23.2310    63.1970     9.4660     8.2660    10.3580    23.7390 
  131.7500     2.1470   -23.5380    62.7890     9.4500     8.2550    11.0290    23.6180 
  131.8750     2.1580   -23.6640    62.9280     9.4090     8.2090    11.2610    23.7080 
  132.0000     2.1710   -23.7160    63.3560     9.3700     8.1550    11.3070    23.9490 
  132.1250     2.1840   -23.7320    64.0720     9.3490     8.1130    11.1750    24.1540 
  132.2500     2.1930   -23.5560    65.7190     9.3500     8.0940    10.8820    24.1950 
  132.3750     2.1950   -23.1950    67.0200     9.3600     8.0970    10.7390    24.1510 
  132.5000     2.1920   -22.7300    67.8700     9.3500     8.0910    10.7310    24.1840 
  132.6250     2.1850   -22.1030    68.0630     9.2980     8.0490    10.7130    24.3370 
  132.7500     2.1760   -21.3490    67.7730     9.1960     7.9580    10.4300    24.4890 
  132.8750     2.1670   -20.5960    69.7130     9.0510     7.8190     9.8060    24.4650 
  133.0000     2.1570   -19.8850    73.0720     8.9030     7.6670     9.1440    24.3700 
  133.1250     2.1470   -19.1650    74.8890     8.7810     7.5340     8.7950    24.1940 
  133.2500     2.1400   -18.4390    73.4740     8.7080     7.4440     8.7640    23.9310 
  133.3750     2.1430   -17.8340    71.5690     8.7030     7.4270     8.8760    23.7250 
  133.5000     2.1570   -17.3950    72.3630     8.7500     7.4730     9.0410    23.5570 
  133.6250     2.1770   -17.1450    75.1390     8.8330     7.5720     9.3660    23.4370 
  133.7500     2.1960   -17.0520    77.6390     8.9350     7.7050     9.7280    23.4110 
  133.8750     2.2050   -17.1340    79.1390     9.0330     7.8430     9.5920    23.4190 
  134.0000     2.2040   -17.3610    78.8870     9.1090     7.9580     9.4380    23.4290 
  134.1250     2.1990   -17.6800    76.6970     9.1490     8.0370     9.5360    23.4230 
  134.2500     2.1990   -18.0700    74.0690     9.1500     8.0780     9.6600    23.4010 
  134.3750     2.2090   -18.4780    72.5530     9.1240     8.0900     9.6600    23.3470 
  134.5000     2.2230   -18.8590    72.0700     9.1060     8.0990     9.6310    23.2740 
  134.6250     2.2340   -19.1050    72.3780     9.1160     8.1250     9.7140    23.1700 
  134.7500     2.2340   -19.1610    73.9380     9.1430     8.1680    10.0290    23.0740 
  134.8750     2.2230   -18.8860    74.5200     9.1140     8.1820     9.9040    23.0660 
  135.0000     2.2120   -18.1500    74.1050     8.9480     8.0920     9.5210    23.1610 
  135.1250     2.2090   -16.9690    74.4750     8.6010     7.8380     8.7540    23.2780 
  135.2500     2.2230   -15.4310    77.2180     8.0960     7.4200     7.7510    23.3270 
  135.3750     2.2610   -13.5300    83.2300     7.5310     6.9260     6.4930    23.3190 
  135.5000     2.3150   -11.5170    91.6060     7.0310     6.4890     5.6370    23.3110 
  135.6250     2.3760    -9.5270    99.4280     6.6550     6.1610     5.4850    23.3270 
  135.7500     2.4270    -7.5960   102.2280     6.4130     5.9430     5.8920    23.3890 
  135.8750     2.4530    -5.9130   101.2440     6.3220     5.8460     6.6350    23.5010 
  136.0000     2.4600    -4.5480    99.9800     6.3560     5.8620     6.5400    23.5920 
  136.1250     2.4610    -3.5610   100.0000     6.5000     5.9920     5.6190    23.6420 
  136.2500     2.4700    -2.9360   100.3070     6.7050     6.2120     5.3900    23.6920 
  136.3750     2.4900    -2.4960    99.4710     6.8450     6.4330     6.7700    23.7920 
  136.5000     2.5040    -2.1280    98.9010     6.7790     6.5150     8.6220    23.9070 
  136.6250     2.4990    -1.7550   100.1100     6.5420     6.3550     8.5430    24.0550 
  136.7500     2.4730    -1.3950   102.9640     6.2780     5.9540     6.3670    24.2500 
  136.8750     2.4380    -1.0830   104.3440     6.0290     5.4170     4.8620    24.5160 
  137.0000     2.4120    -0.7660   105.3990     5.7250     4.9140     4.3760    24.7210 
  137.1250     2.4010    -0.4530   107.8960     5.4080     4.5330     4.4350    24.7940 
  137.2500     2.4020    -0.1180   110.0920     5.2150     4.3030     4.4950    24.7890 
  137.3750     2.4060     0.1300   109.3050     5.2150     4.2220     4.4300    24.7280 
  137.5000     2.4070     0.2360   108.8620     5.3270     4.2370     4.4130    24.5950 
  137.6250     2.4020     0.1480   111.1550     5.5480     4.3400     4.6500    24.4400 
  137.7500     2.3900    -0.0880   113.7060     5.8760     4.5370     4.9800    24.3630 
  137.8750     2.3700    -0.4110   109.5800     6.2920     4.8310     5.4840    24.3960 
  138.0000     2.3450    -0.9040   100.7950     6.7150     5.1620     5.8170    24.5040 
  138.1250     2.3190    -1.5090    91.7740     7.0780     5.4650     5.9820    24.6240 
  138.2500     2.2970    -2.3250    86.2340     7.3500     5.6940     6.1720    24.6980 
  138.3750     2.2840    -3.5740    86.4330     7.5730     5.8560     6.3270    24.6980 
  138.5000     2.2790    -5.0870    90.2030     7.8570     6.0400     6.2930    24.6660 
  138.6250     2.2760    -6.8870    93.0070     8.2910     6.3260     6.2730    24.5840 
  138.7500     2.2700    -8.9770    90.1980     8.9040     6.7620     6.7970    24.3610 
  138.8750     2.2550   -11.1070    81.8050     9.6460     7.3600     8.5980    24.0190 
  139.0000     2.2300   -13.0610    74.1570    10.3500     7.9980    10.8790    23.8080 
  139.1250     2.1990   -14.7560    69.8140    10.8860     8.5490    12.0420    23.8400 
  139.2500     2.1680   -16.0110    68.8820    11.1780     8.9140    11.3750    23.8910 
  139.3750     2.1460   -16.6060    71.1230    11.1940     9.0360    10.9860    23.7550 
  139.5000     2.1370   -16.5320    76.1730    11.0260     8.9820    10.5580    23.4890 
  139.6250     2.1460   -15.7270    80.0590    10.7080     8.7790    10.0360    23.4000 
  139.7500     2.1710   -14.2410    81.1080    10.2520     8.4350     9.0080    23.5750 
  139.8750     2.2110   -12.2520    83.7400     9.6560     7.9330     8.4110    23.7570 
  140.0000     2.2550   -10.1700    89.2560     9.0020     7.3440     7.7440    23.8680 
  140.1250     2.2960    -8.1660    94.7880     8.3760     6.7500     6.5590    24.0200 
  140.2500     2.3280    -6.3760    97.5480     7.8590     6.2350     5.6140    24.2690 
  140.3750     2.3460    -4.8610    95.1570     7.5110     5.8710     5.4430    24.5760 
  140.5000     2.3520    -3.6910    90.4460     7.2890     5.6360     5.5810    24.8040 
  140.6250     2.3500    -2.9740    87.4870     7.1670     5.5050     5.7440    24.8960 
  140.7500     2.3420    -2.7570    88.3460     7.1500     5.4620     5.7670    24.9060 
  140.8750     2.3280    -3.1340    89.1020     7.3430     5.5540     5.8460    24.8930 
  141.0000     2.3130    -3.8510    87.1750     7.8170     5.8450     5.9060    24.8550 
  141.1250     2.3050    -4.7940    84.9620     8.6040     6.4010     6.1450    24.7230 
  141.2500     2.3140    -5.7280    81.3930     9.6040     7.2190     7.0560    24.5460 
  141.3750     2.3440    -6.5030    76.1210    10.5030     8.1440     9.8530    24.4630 
  141.5000     2.3800    -7.2540    72.8810    10.9470     8.8100    12.7070    24.3350 
  141.6250     2.4070    -7.9210    72.8840    10.7660     8.9250    11.9940    24.1270 
