~V
VERS. 2.00: Ver 2.00
~W
STRT.M 50.0000:
STOP.M 236.0000:
STEP.M 0.1250:
NULL. -999.2500:
UWI. F10144:
~C
DEPT.M :
DEN.GM/CC :
GR.API :
RML.OHMM :
RI. :
RXO.OHMM :
CALI.CM :
SP.MV :
~A
# ...
  218.7500     2.2460    72.3630     8.4520     7.3810     8.9030    24.9950   -16.2590 
  218.8750     2.3020    71.8100     8.5110     7.4050     8.2570    24.8060   -16.0420 
  219.0000     2.3540    68.2560     8.6170     7.4700     8.5300    24.4330   -15.8620 
  219.1250     2.3920    64.8820     8.6380     7.4950     8.4980    24.2150   -15.7460 
  219.2500     2.4050    64.2530     8.4920     7.4190     8.3650    24.2860   -15.6710 
  219.3750     2.3970    64.8980     8.1800     7.2280     7.3840    24.4760   -15.6190 
  219.5000     2.3720    64.8020     7.7820     6.9610     6.5770    24.5950   -15.5810 
  219.6250     2.3400    63.5640     7.4180     6.6870     5.8090    24.6550   -15.5780 
  219.7500     2.3110    61.5880     7.1580     6.4610     5.4260    24.7660   -15.6160 
  219.8750     2.2960    59.3600     7.0110     6.3040     5.4730    24.9130   -15.6790 
  220.0000     2.2950    59.0900     6.9490     6.2120     5.8470    25.0090   -15.7490 
  220.1250     2.3090    60.0490     6.9360     6.1770     6.2450    24.9520   -15.8160 
  220.2500     2.3330    60.3290     6.9430     6.1730     6.4060    24.8660   -15.8630 
  220.3750     2.3560    59.6350     6.9670     6.1920     6.2450    24.9480   -15.8750 
  220.5000     2.3810    57.8770     7.0080     6.2270     5.4780    25.2990   -15.8530 
  220.6250     2.4060    57.0730     7.0470     6.2620     4.9690    25.9270   -15.7920 
  220.7500     2.4150    58.5010     7.0610     6.2790     4.6550    26.5970   -15.7290 
  220.8750     2.3940    60.8260     7.0450     6.2750     4.2980    26.9430   -15.6950 
  221.0000     2.3460    61.3420     7.0190     6.2630     3.9490    26.6140   -15.7120 
  221.1250     2.2840    59.8340     7.0380     6.2770     3.8270    25.7210   -15.7470 
  221.2500     2.2260    58.6420     7.1410     6.3480     3.8880    25.0100   -15.7840 
  221.3750     2.1720    58.3500     7.3560     6.4980     4.1300    24.7340   -15.8270 
  221.5000     2.1160    59.5330     7.6950     6.7390     4.5700    24.7600   -15.8740 
  221.6250     2.0660    61.0310     8.1530     7.0740     5.2280    24.9220   -15.9140 
  221.7500     2.0470    60.2170     8.6450     7.4470     5.9890    25.0990   -15.9360 
  221.8750     2.0800    56.9800     9.0730     7.7890     7.0260    25.1830   -15.9400 
  222.0000     2.1630    54.5950     9.3320     8.0220     8.2070    25.1930   -15.9310 
  222.1250     2.2630    55.3410     9.3180     8.0640     9.4750    25.2200   -15.9090 
  222.2500     2.3330    57.4240     9.0980     7.9470    10.3250    25.3210   -15.8530 
  222.3750     2.3540    58.6510     8.7730     7.7300    10.8300    25.5150   -15.7490 
  222.5000     2.3340    58.5160     8.4530     7.4870    10.1570    25.8730   -15.6140 
  222.6250     2.2790    57.2010     8.2310     7.2930     9.2880    26.6260   -15.4700 
  222.7500     2.1970    56.4210     8.1110     7.1720     6.7710    27.8530   -15.3310 
  222.8750     2.1150    56.4210     8.0710     7.1230     5.4810    29.2980   -15.2230 
  223.0000     2.0570    56.4210     8.0820     7.1300     4.8830    30.3240   -15.1430 
  223.1250     2.0410    56.4210     8.1270     7.1790     4.8680    30.3590   -15.0930 
  223.2500     2.0800    56.4210     8.2000     7.2540     4.8630    29.9000   -15.0790 
  223.3750     2.1550    56.4210     8.2980     7.3490     4.8320    29.4160   -15.0800 
  223.5000     2.2430    56.4210     8.4060     7.4520     5.2730    28.9650   -15.0750 
  223.6250     2.3140    56.4210     8.4790     7.5320     7.0360    28.3630   -15.0760 
  223.7500     2.3380    56.4210     8.4800     7.5580     8.4150    27.8830   -15.0900 
  223.8750     2.3200    56.4210     8.3960     7.5200     8.3220    27.8050   -15.1170 
  224.0000     2.2770    56.4210     8.2390     7.4230     7.0890    27.7070   -15.1590 
  224.1250     2.2350    56.4210     8.0600     7.2960     6.7060    26.7860   -15.2020 
  224.2500     2.2220    56.4210     7.9170     7.1810     6.8510    25.5650   -15.2230 
  224.3750     2.2410    56.4210     7.8350     7.1030     6.8320    24.8430   -15.2210 
  224.5000     2.2770    56.4210     7.8110     7.0660     6.3590    24.7580   -15.1850 
  224.6250     2.3060    56.4210     7.8260     7.0650     6.1650    24.7910   -15.0800 
  224.7500     2.3150    56.4210     7.8560     7.0820     6.3360    24.7220   -14.9170 
  224.8750     2.3150    56.4210     7.9040     7.1140     6.6970    24.6460   -14.7160 
  225.0000     2.3160    56.4210     7.9810     7.1640     7.2470    24.5950   -14.5020 
  225.1250     2.3260    56.4210     8.0960     7.2330     7.7450    24.5830   -14.2920 
  225.2500     2.3480    56.4210     8.2190     7.3070     8.1660    24.5840   -14.0850 
  225.3750     2.3740    56.4210     8.3160     7.3640     8.0920    24.5650   -13.8940 
  225.5000     2.3990    56.4210     8.3640     7.3910     8.4410    24.5480   -13.7180 
  225.6250     2.4150    56.4210     8.3550     7.3780     9.1490    24.6950   -13.5630 
  225.7500     2.4060    56.4210     8.3190     7.3470     9.1490    24.9740   -13.4110 
  225.8750     2.3670    56.4210     8.2770     7.3150     8.1830    25.1850   -13.2660 
  226.0000     2.3130    56.4210     8.2430     7.2930     6.9270    25.1640   -13.1380 
  226.1250     2.2690    56.4210     8.2210     7.2840     5.9630    24.9680   -13.0700 
  226.2500     2.2640    56.4210     8.2080     7.2810     5.6740    24.7670   -13.0440 
  226.3750     2.2970    56.4210     8.2020     7.2780     5.7720    24.5750   -13.0430 
  226.5000     2.3510    56.4210     8.2020     7.2740     5.7220    24.4200   -13.0640 
  226.6250     2.3980    56.4210     8.2030     7.2670     5.5990    24.3600   -13.1440 
  226.7500     2.4190    56.4210     8.1990     7.2590     5.6970    24.3610   -13.2400 
  226.8750     2.4210    56.4210     8.1910     7.2500     6.5010    24.3760   -13.3440 
  227.0000     2.4180    56.4210     8.1820     7.2450     7.9390    24.3760   -13.4550 
  227.1250     2.4120    56.4210     8.1750     7.2410     9.4080    24.3740   -13.5800 
  227.2500     2.4050    56.4210     8.1700     7.2380    10.3660    24.3720   -13.6950 
  227.3750     2.3990    56.4210     8.1640     7.2310    10.9870    24.3680   -13.8140 
  227.5000     2.4000    56.4210     8.1570     7.2230    12.7030    24.3670   -13.9410 
  227.6250     2.4060    56.4210     8.1510     7.2160    13.4460    24.3720   -14.0760 
  227.7500     2.4150    56.4210     8.1490     7.2130    13.7740    24.3780   -14.2020 
  227.8750     2.4240    56.4210     8.1520     7.2140    12.3020    24.3800   -14.2930 
  228.0000     2.4310    56.4210     8.1570     7.2170    10.8440    24.3780   -14.3310 
  228.1250     2.4340    56.4210     8.1620     7.2200     9.9720    24.3650   -14.2920 
  228.2500     2.4290    56.4210     8.1650     7.2250     9.4420    24.2180   -14.2240 
  228.3750     2.4190    56.4210     8.1660     7.2330     9.0360    23.8850   -14.1340 
  228.5000     2.4080    56.4210     8.1460     7.2440     8.0730    23.5940   -14.0270 
  228.6250     2.4080    56.4210     8.0200     7.2910     7.4940    23.7080   -13.9100 
  228.7500     2.4250    56.4210     8.0200     7.2910     7.1710    24.0270   -13.8110 
  228.8750     2.4530    56.4210     8.0200     7.2910     6.7200    24.2410   -13.7490 
  229.0000     2.4800    56.4210     8.0200     7.2910     6.2950    24.3140   -13.7150 
  229.1250     2.4970    56.4210     8.0200     7.2910     6.7820    24.4150   -13.6800 
  229.2500     2.4960    56.4210     8.0200     7.2910     7.8470    24.5350   -13.6640 
  229.3750     2.4810    56.4210     8.0200     7.2910     9.0130    24.6080   -13.6710 
  229.5000     2.4590    56.4210     8.0200     7.2910    10.3990    24.6570   -13.6980 
  229.6250     2.4380    56.4210     8.0200     7.2910    11.4780    24.7280   -13.7620 
  229.7500     2.4210    56.4210     8.0200     7.2910    11.6030    24.7890   -13.8410 
  229.8750     2.3910    56.4210     8.0200     7.2910    10.9080    24.8230   -13.8770 
