~V
VERS. 2.00: Ver 2.00
~W
STRT.M 50.0000:
STOP.M 236.0000:
STEP.M 0.1250:
NULL. -999.2500:
UWI. F10144:
~C
DEPT.M :
DEN.GM/CC :
GR.API :
RML.OHMM :
RI. :
RXO.OHMM :
CALI.CM :
SP.MV :
~A
# ...
  106.2500     2.1470    69.2510     9.6320     7.9780     8.3080    21.9890   -46.9960 
  106.3750     2.1590    71.0300     9.6810     7.9420     8.2230    21.9900   -46.9510 
  106.5000     2.1730    71.5290    10.1750     8.1810     8.3280    21.9830   -46.8720 
  106.6250     2.1800    70.7920    11.2000     8.7880     9.2200    21.9760   -46.8120 
  106.7500     2.1780    69.3060    12.6310     9.7010    10.9100    21.9740   -46.8060 
  106.8750     2.1710    66.7400    14.3350    10.8600    12.7180    21.9760   -46.8730 
  107.0000     2.1630    64.5360    16.0810    12.1320    14.0290    21.9820   -47.0290 
  107.1250     2.1570    63.1100    17.4950    13.2770    15.0540    21.9900   -47.3210 
  107.2500     2.1530    60.8740    18.3540    14.0910    16.3690    21.9940   -47.7150 
  107.3750     2.1500    58.6450    18.5790    14.4730    17.3060    21.9950   -48.1870 
  107.5000     2.1460    58.3300    18.2540    14.4390    16.9920    21.9950   -48.6940 
  107.6250     2.1400    60.3890    17.5240    14.0600    15.8250    21.9950   -49.1700 
  107.7500     2.1310    62.2960    16.6350    13.5120    14.8420    21.9920   -49.5660 
  107.8750     2.1210    63.6740    15.6950    12.8720    14.1640    21.9860   -49.8670 
  108.0000     2.1120    63.4780    14.7890    12.2070    13.8140    21.9990   -50.0520 
  108.1250     2.1050    62.2420    13.9950    11.5900    13.5900    22.0510   -50.0900 
  108.2500     2.1000    62.5690    13.3320    11.0610    12.5760    22.1080   -50.0030 
  108.3750     2.0970    65.6700    12.8430    10.6570    11.3790    22.1350   -49.8060 
  108.5000     2.1000    68.5230    12.5790    10.4080    11.2090    22.1460   -49.5310 
  108.6250     2.1130    67.1230    12.5720    10.3440    12.3250    22.2180   -49.2120 
  108.7500     2.1390    64.1180    12.6620    10.3750    13.0580    22.3660   -48.8990 
  108.8750     2.1660    62.0270    12.6730    10.3960    13.2870    22.5360   -48.6320 
  109.0000     2.1740    61.5650    12.4350    10.2910    13.9460    22.6620   -48.4540 
  109.1250     2.1520    62.0830    11.8060     9.9450    13.1260    22.6900   -48.4220 
  109.2500     2.1020    61.8130    10.9470     9.4210    10.3660    22.6440   -48.5080 
  109.3750     2.0510    60.8350    10.0500     8.8230     8.9630    22.5550   -48.6870 
  109.5000     2.0180    60.5400     9.2860     8.2620     8.8230    22.4660   -48.9170 
  109.6250     2.0110    62.6130     8.7770     7.8380     9.1590    22.5020   -49.1730 
  109.7500     2.0280    65.6460     8.4920     7.5590     9.3900    22.7150   -49.4170 
  109.8750     2.0480    67.8240     8.3840     7.4140     9.5390    23.0130   -49.6240 
  110.0000     2.0620    68.1940     8.3720     7.3930     9.5660    23.0740   -49.7780 
  110.1250     2.0660    70.1440     8.3850     7.3570     9.6090    23.2370   -49.8600 
  110.2500     2.0600    70.5440     8.4150     7.3470     9.5860    23.2660   -49.8670 
  110.3750     2.0530    67.3220     8.4360     7.3370     9.4610    23.2560   -49.7960 
  110.5000     2.0520    61.7030     8.4440     7.3180     9.2820    23.2620   -49.6340 
  110.6250     2.0610    59.1590     8.4440     7.2930     9.2370    23.2860   -49.3780 
  110.7500     2.0800    61.2160     8.4370     7.2620     9.3380    23.3260   -49.0590 
  110.8750     2.0980    64.9750     8.4130     7.2270     9.4720    23.3660   -48.7080 
  111.0000     2.1090    67.9970     8.3590     7.1840     9.5800    23.3900   -48.3380 
  111.1250     2.1120    68.3620     8.2650     7.1280     9.6360    23.3940   -47.9520 
  111.2500     2.1080    66.5750     8.1570     7.0670     9.6670    23.4020   -47.5390 
  111.3750     2.0980    63.8340     8.0830     7.0230     9.7010    23.4390   -47.0760 
  111.5000     2.0850    62.1200     8.1080     7.0340     9.7520    23.4990   -46.9790 
  111.6250     2.0700    62.6750     8.3270     7.1690     9.8360    23.5790   -46.4070 
  111.7500     2.0550    64.5220     8.7480     7.4440    10.1180    23.6700   -45.7280 
  111.8750     2.0450    66.7580     9.3360     7.8460    10.7690    23.7320   -44.9030 
  112.0000     2.0430    67.2480     9.9730     8.3040    12.0870    23.7340   -43.9190 
  112.1250     2.0530    65.3090    10.3890     8.6500    13.2250    23.6990   -42.7520 
  112.2500     2.0770    62.5290    10.3800     8.7320    12.9580    23.6830   -41.4460 
  112.3750     2.1150    61.4290     9.8840     8.4880    11.3620    23.6880   -40.0290 
  112.5000     2.1590    64.9730     9.0480     7.9830     9.3770    23.6910   -38.5390 
  112.6250     2.1990    71.0460     8.2020     7.3990     7.6680    23.6950   -37.0330 
  112.7500     2.2220    74.3960     7.6310     6.9400     6.9600    23.6980   -35.6010 
  112.8750     2.2320    75.4900     7.4260     6.7020     6.6670    23.7000   -34.3100 
  113.0000     2.2400    77.9380     7.5620     6.7030     6.8980    23.7000   -33.2020 
  113.1250     2.2570    82.0520     7.9580     6.9210     7.6660    23.7000   -32.3270 
  113.2500     2.2800    84.9940     8.4120     7.2200     8.3580    23.6980   -31.6350 
  113.3750     2.3000    87.0460     8.7750     7.4850     8.1820    23.6960   -31.0990 
  113.5000     2.3090    87.7590     8.9150     7.6110     7.5550    23.6970   -30.6840 
  113.6250     2.3120    86.0820     8.6810     7.4820     7.6790    23.6960   -30.3540 
  113.7500     2.3160    86.3630     8.1550     7.1440     7.9740    23.6870   -30.0690 
  113.8750     2.3230    89.6190     7.5570     6.7210     8.0040    23.6820   -29.8150 
  114.0000     2.3290    92.7010     7.2260     6.4240     7.7900    23.7170   -29.6100 
  114.1250     2.3350    92.3970     7.6740     6.5640     7.1790    23.8980   -29.4950 
  114.2500     2.3480    88.1320     9.1220     7.2920     7.7400    24.1950   -29.4880 
  114.3750     2.3660    79.1470    11.7310     8.7390    12.1430    24.4730   -29.6000 
  114.5000     2.3760    67.2540    15.3920    10.9070    26.1920    24.6000   -29.8210 
  114.6250     2.3670    60.8050    19.3390    13.4910    41.6850    24.5800   -30.1320 
  114.7500     2.3370    62.3260    22.1100    15.6430    38.0220    24.5720   -30.4840 
  114.8750     2.3060    67.4580    22.8100    16.7220    26.4660    24.6040   -30.8300 
  115.0000     2.2890    71.7290    21.7150    16.6490    20.2620    24.6410   -31.1200 
  115.1250     2.2900    73.7660    19.9750    15.8710    20.3280    24.6640   -31.2930 
  115.2500     2.3090    75.3250    18.5590    15.0460    21.3860    24.6610   -31.3380 
  115.3750     2.3420    76.0070    17.5620    14.3640    22.7560    24.6140   -31.2710 
  115.5000     2.3900    75.1740    16.7940    13.8180    19.8970    24.5110   -31.1310 
  115.6250     2.4420    74.4650    16.0370    13.3160    15.0380    24.3610   -30.9750 
  115.7500     2.4700    74.2660    15.1310    12.7290    15.0140    24.1740   -30.8340 
  115.8750     2.4570    72.1610    14.0180    11.9910    17.5060    23.9150   -30.7240 
  116.0000     2.4110    68.0510    12.7890    11.1530    17.1610    23.6010   -30.6470 
  116.1250     2.3510    67.8470    11.6980    10.3870    13.7990    23.4000   -30.5620 
  116.2500     2.3020    71.2120    10.9200     9.8060    10.3170    23.4450   -30.4500 
  116.3750     2.2750    73.5250    10.4970     9.4330     8.6290    23.6890   -30.2890 
  116.5000     2.2650    71.6210    10.3020     9.1940     9.8770    23.9640   -30.0720 
  116.6250     2.2580    66.7450     9.9600     8.8890    12.3960    24.2520   -29.8120 
  116.7500     2.2430    63.4770     9.1840     8.3560    11.3500    24.6930   -29.5610 
  116.8750     2.2190    62.6790     8.0250     7.6060     7.7560    25.2180   -29.3600 
  117.0000     2.1950    65.4480     6.7850     6.7850     5.3800    25.5560   -29.2260 
  117.1250     2.1820    72.4780     5.8380     6.1020     4.7880    25.5250   -29.1800 
  117.2500     2.1860    77.5190     5.2910     5.6450     5.0980    25.3850   -29.1930 
  117.3750     2.1970    77.4350     5.1110     5.4200     5.4970    25.3190   -29.2400 
