~V
VERS. 2.00: Ver 2.00
~W
STRT.M 59.0000:
STOP.M 212.0000:
STEP.M 0.1250:
NULL. -999.2500:
UWI. F10143:
~C
DEPT.M :
GR.API :
RML.OHMM :
RI. :
RXO.OHMM :
CALI.CM :
SP.MV :
DEN.GM/CC :
~A
# ...
  182.7500    54.9240    10.4750     9.6730    10.1750    25.3230   -25.3360     2.4150 
  182.8750    52.9310    10.6300     9.8740    11.0380    25.2940   -25.2810     2.4380 
  183.0000    49.4270    10.8170    10.1090    11.7780    25.2760   -25.2200     2.4460 
  183.1250    48.6770    10.9850    10.3210    11.2370    25.2890   -25.1570     2.4360 
  183.2500    49.2230    11.1070    10.4560    10.8840    25.3180   -25.0880     2.4220 
  183.3750    48.9040    11.2130    10.4720    11.2700    25.3190   -25.0110     2.4170 
  183.5000    49.0460    11.3470    10.3640    11.0590    25.2850   -24.9080     2.4160 
  183.6250    52.9140    11.5070    10.1660    10.4900    25.2670   -24.7910     2.4110 
  183.7500    58.4420    11.6000     9.9420    10.2330    25.2620   -24.6640     2.4070 
  183.8750    64.4530    11.5390     9.7060    10.2460    25.2670   -24.5560     2.4080 
  184.0000    69.9390    11.3210     9.4510    10.3010    25.2810   -24.4750     2.4080 
  184.1250    74.1900    11.0270     9.1880     9.9340    25.3140   -24.4220     2.3970 
  184.2500    77.3060    10.7840     8.9530     9.3860    25.3440   -24.3620     2.3820 
  184.3750    80.4660    10.6770     8.7910     9.1160    25.3720   -24.3030     2.3730 
  184.5000    85.0760    10.7450     8.7570     9.3870    25.3750   -24.2800     2.3760 
  184.6250    90.3110    11.0490     8.9130    10.4870    25.3470   -24.3010     2.3900 
  184.7500    92.1270    11.5780     9.2470    11.6000    25.3190   -24.3530     2.4070 
  184.8750    90.6090    12.3160     9.7620    12.8960    25.2880   -24.4190     2.4230 
  185.0000    88.4310    13.1950    10.4290    14.1240    25.2670   -24.4810     2.4380 
  185.1250    88.1080    14.0570    11.1550    15.3180    25.2580   -24.4960     2.4550 
  185.2500    88.2370    14.7270    11.7890    16.5040    25.2570   -24.4660     2.4730 
  185.3750    87.2400    15.0610    12.2070    17.2900    25.2560   -24.4030     2.4890 
  185.5000    86.6790    14.9820    12.3230    17.5870    25.2560   -24.3350     2.4970 
  185.6250    86.3530    14.5390    12.1120    17.5050    25.2570   -24.2550     2.4980 
  185.7500    86.4500    14.0160    11.7740    16.9130    25.2600   -24.1580     2.4930 
  185.8750    87.7040    13.5980    11.4580    15.4930    25.2800   -24.0510     2.4830 
  186.0000    90.3360    13.3600    11.2420    13.8130    25.3200   -23.9500     2.4710 
  186.1250    92.2450    13.2520    11.1200    13.2760    25.3320   -23.8780     2.4700 
  186.2500    92.8450    13.0760    10.9660    15.9580    25.2780   -23.8370     2.4710 
  186.3750    92.0480    12.6560    10.6570    17.9450    25.2350   -23.8370     2.4580 
  186.5000    87.6730    11.9240    10.1420    13.8990    25.2480   -23.8770     2.4250 
  186.6250    77.7920    10.9910     9.4890    10.3120    25.2830   -23.9560     2.3910 
  186.7500    66.6390    10.1270     8.8780     8.9470    25.2940   -24.0420     2.3730 
  186.8750    58.3690     9.5010     8.4200     8.3700    25.2700   -24.0860     2.3630 
  187.0000    53.0470     9.1650     8.1520     7.6230    25.2520   -24.0480     2.3490 
  187.1250    50.4610     9.0540     8.0360     7.0750    25.3270   -23.9210     2.3230 
  187.2500    50.6250     8.9530     7.9280     6.7640    25.4290   -23.7790     2.2920 
  187.3750    51.8440     8.7410     7.7520     6.4350    25.5120   -23.6140     2.2680 
  187.5000    53.3180     8.3960     7.4960     5.9070    25.5140   -23.3580     2.2620 
  187.6250    55.9210     7.9660     7.1960     5.5400    25.6290   -22.9890     2.2720 
  187.7500    58.4040     7.5670     6.9210     5.3700    25.9790   -22.5740     2.2790 
  187.8750    61.0710     7.2910     6.7150     5.2770    26.2300   -22.1680     2.2720 
  188.0000    65.4120     7.1900     6.6090     5.3170    26.0680   -21.7900     2.2600 
  188.1250    70.7710     7.2710     6.6250     5.4950    25.7060   -21.4310     2.2530 
  188.2500    73.9720     7.4320     6.7100     5.6270    25.5040   -21.0720     2.2560 
  188.3750    76.1370     7.5850     6.8140     5.7900    25.4350   -20.7320     2.2770 
  188.5000    80.6040     7.6620     6.8780     6.2040    25.3590   -20.4350     2.3190 
  188.6250    83.7240     7.6080     6.8520     6.4070    25.2790   -20.1420     2.3520 
  188.7500    80.6510     7.4630     6.7510     6.1310    25.2410   -19.8300     2.3480 
  188.8750    73.2360     7.2900     6.6120     5.6590    25.2530   -19.4960     2.3200 
  189.0000    66.0700     7.1490     6.4790     5.3290    25.2670   -19.1530     2.2990 
  189.1250    62.4110     7.0890     6.3940     5.3460    25.2520   -18.8190     2.2970 
  189.2500    63.2990     7.0950     6.3580     5.4610    25.2020   -18.5030     2.2960 
  189.3750    68.3640     7.1470     6.3650     5.4420    25.1600   -18.2420     2.2950 
  189.5000    74.9430     7.2200     6.4100     5.4420    25.1030   -18.0600     2.3090 
  189.6250    78.9280     7.3170     6.5000     5.5280    25.0520   -17.9930     2.3410 
  189.7500    80.7260     7.4510     6.6250     5.7770    25.0700   -18.0180     2.3690 
  189.8750    81.2400     7.6120     6.7640     6.1240    25.1570   -18.1150     2.3850 
  190.0000    79.5430     7.7490     6.8670     6.5360    25.1910   -18.2800     2.3870 
  190.1250    78.5920     7.7790     6.8620     6.8760    25.1930   -18.5210     2.3770 
  190.2500    80.6870     7.7480     6.7890     7.1180    25.1710   -18.8290     2.3610 
  190.3750    83.3650     7.8280     6.7820     7.0350    25.1170   -19.1650     2.3390 
  190.5000    83.4280     8.2890     7.0390     6.4970    25.0410   -19.4820     2.3120 
  190.6250    80.9740     9.6040     7.8900     6.5320    24.9770   -19.7800     2.2790 
  190.7500    78.5190    11.9680     9.5020     8.3730    24.9730   -20.0810     2.2530 
  190.8750    75.0880    15.5070    12.0580    14.4270    25.0410   -20.3810     2.2410 
  191.0000    69.5350    19.9940    15.5540    25.6240    25.1310   -20.6660     2.2350 
  191.1250    65.3590    24.4790    19.5060    28.0270    25.1960   -20.9300     2.2140 
  191.2500    63.8400    27.6600    22.8100    25.0240    25.2730   -21.1670     2.1820 
  191.3750    63.1100    29.0200    24.7980    23.9760    25.3740   -21.3440     2.1580 
  191.5000    61.9370    29.0590    25.5650    23.8070    25.4320   -21.4540     2.1570 
  191.6250    62.2700    28.8240    25.7420    23.3770    25.3180   -21.5190     2.1790 
  191.7500    64.6310    29.0620    26.0210    23.3750    25.0980   -21.5640     2.2080 
  191.8750    67.9420    29.8910    26.5940    24.4530    24.9210   -21.5900     2.2310 
  192.0000    70.4500    31.2110    27.4680    25.6780    24.8340   -21.6190     2.2450 
  192.1250    69.4800    32.8790    28.6150    27.1890    24.8070   -21.6570     2.2510 
  192.2500    66.6890    34.5540    29.8530    29.0090    24.8080   -21.6830     2.2390 
  192.3750    65.0940    35.9320    30.9970    31.7490    24.8780   -21.6860     2.2120 
  192.5000    64.4170    36.8410    31.9100    33.0870    25.0210   -21.7280     2.1850 
  192.6250    62.6000    37.3640    32.6360    31.4400    25.1330   -21.8150     2.1750 
  192.7500    61.0960    37.9950    33.4970    31.8820    25.1880   -21.8750     2.1800 
  192.8750    62.1240    39.1830    34.8330    34.3810    25.2360   -21.9210     2.1880 
  193.0000    62.9160    41.2770    36.9410    37.2420    25.2910   -21.9790     2.1960 
  193.1250    61.3770    44.6530    40.1890    43.0040    25.3270   -22.0290     2.2010 
  193.2500    60.2380    49.1010    44.4720    49.6980    25.3620   -22.0340     2.2050 
  193.3750    60.4250    54.2490    49.5980    54.9670    25.4000   -22.0380     2.2110 
  193.5000    60.0100    58.8760    54.6710    58.5000    25.4330   -22.0150     2.2190 
  193.6250    57.6780    59.2970    56.4640    61.1370    25.4680   -21.9150     2.2280 
  193.7500    55.7550    53.2360    52.2140    63.0270    25.4820   -21.7860     2.2340 
  193.8750    55.5410    41.8940    42.2440    64.6560    25.4220   -21.6670     2.2480 
