~V
VERS. 2.00: Ver 2.00
~W
STRT.M 56.0000:
STOP.M 214.0000:
STEP.M 0.1250:
NULL. -999.2500:
UWI. F10128:
~C
DEPT.M :
SP.MV :
GR.API :
RML.OHMM :
RI. :
RXO.OHMM :
CALI.CM :
DEN.GM/CC :
~A
   56.0000  -999.2500    62.3010     3.7850     0.6960     1.2950    25.4240     0.0000 
   56.1250  -999.2500    61.3280     3.8030     0.6900     1.2940    25.4940     0.0000 
   56.2500  -999.2500    57.5810     3.8480     0.6860     1.2810    25.5230     2.0070 
   56.3750  -999.2500    52.5280     3.9500     0.7010     1.2470    25.5210     2.0010 
   56.5000  -999.2500    48.3050     4.1310     0.7330     1.1620    25.4980     1.9950 
   56.6250  -999.2500    45.3760     4.3820     0.7770     1.0620    25.4460     1.9900 
   56.7500  -999.2500    44.5770     4.6510     0.8240     1.0370    25.4200     1.9880 
   56.8750  -999.2500    46.7250     4.8250     0.8570     1.1380    25.4470     1.9910 
   57.0000  -999.2500    48.8870     4.8580     0.8730     1.2660    25.4810     1.9950 
   57.1250  -999.2500    49.2270     4.7800     0.8690     1.3360    25.4590     1.9990 
   57.2500  -999.2500    48.7590     4.6770     0.8530     1.3440    25.4070     2.0000 
   57.3750  -999.2500    48.5370     4.6240     0.8320     1.3140    25.3510     2.0000 
   57.5000  -999.2500    47.9080     4.5870     0.8140     1.2430    25.2970     2.0020 
   57.6250  -999.2500    47.3110     4.4950     0.8010     1.1450    25.2680     2.0060 
   57.7500  -999.2500    48.0120     4.3080     0.7890     1.0540    25.2520     2.0120 
   57.8750  -999.2500    49.1880     4.0770     0.7720     0.9630    25.1940     2.0160 
   58.0000  -999.2500    49.2070     3.9230     0.7530     0.8600    25.0550     2.0190 
   58.1250  -999.2500    48.2850     3.9120     0.7440     0.7750    24.8650     2.0180 
   58.2500  -999.2500    48.1150     4.0320     0.7510     0.7550    24.6800     2.0160 
   58.3750  -999.2500    49.8250     4.1850     0.7810     0.8660    24.5150     2.0090 
   58.5000  -999.2500    52.3180     4.2500     0.8170     1.0300    24.4280     1.9890 
   58.6250  -999.2500    54.7530     4.1830     0.8440     1.0730    24.5990     1.9440 
   58.7500  -999.2500    57.1920     4.0150     0.8490     1.0100    25.0360     1.8680 
   58.8750  -999.2500    60.7290     3.8320     0.8280     1.0690    25.5550     1.7940 
   59.0000  -999.2500    62.7040     3.7050     0.7910     1.3840    25.8460     1.7790 
   59.1250  -999.2500    59.5180     3.6470     0.7520     1.6250    25.9190     1.8620 
   59.2500  -999.2500    54.7960     3.6360     0.7220     1.6040    25.8520     2.0310 
   59.3750   182.1800    56.8690     3.6360     0.7110     1.7170    25.7370     2.2120 
   59.5000   182.1800    64.0940     3.6230     0.7200     1.7400    25.5850     2.3250 
   59.6250   182.0500    69.7470     3.6110     0.7440     1.6760    25.4050     2.3480 
   59.7500   181.8070    72.7300     3.6280     0.7790     1.5410    25.2340     2.3100 
   59.8750   181.5930    74.8330     3.6940     0.8150     1.4120    25.0520     2.2600 
   60.0000   181.4480    75.4470     3.7560     0.8420     1.3070    24.8820     2.2230 
   60.1250   181.4180    73.4390     3.7410     0.8510     1.2120    24.7620     2.1930 
   60.2500   181.5280    71.2210     3.6090     0.8370     1.1740    24.8380     2.1530 
   60.3750   181.7060    72.3030     3.3940     0.8110     1.2180    25.1750     2.0970 
   60.5000   181.9800    75.4720     3.2170     0.7920     1.3020    25.5620     2.0380 
   60.6250   182.3450    77.8120     3.1530     0.7910     1.3680    25.7810     1.9940 
   60.7500   182.7190    76.8500     3.2050     0.8080     1.4200    25.8320     1.9740 
   60.8750   183.0600    72.0060     3.3150     0.8320     1.4970    25.8000     1.9840 
   61.0000   183.3370    66.6030     3.3970     0.8470     1.6310    25.7590     2.0120 
   61.1250   183.5700    62.1410     3.4250     0.8470     1.8250    25.6940     2.0470 
   61.2500   183.8700    58.3140     3.4000     0.8340     2.0060    25.6390     2.0810 
   61.3750   184.5400    53.1520     3.3300     0.8150     2.0900    25.6300     2.1060 
   61.5000   186.0480    48.0040     3.2430     0.8000     2.0250    25.5620     2.1200 
   61.6250   186.9280    44.5130     3.1700     0.7940     1.9750    25.2690     2.1200 
   61.7500   186.2650    42.8930     3.1370     0.8020     2.0660    24.6570     2.1100 
   61.8750   183.7630    42.1160     3.1550     0.8260     2.2960    23.9670     2.0970 
   62.0000   179.6050    41.4980     3.1810     0.8550     2.3270    23.6570     2.0890 
   62.1250   173.5510    41.3450     3.1700     0.8750     2.1840    23.5980     2.0880 
   62.2500   165.2950    41.0100     3.1010     0.8760     2.0370    23.6500     2.0880 
   62.3750   154.3110    39.8310     2.9900     0.8530     2.0160    23.8820     2.0790 
   62.5000   140.5960    39.1590     2.8750     0.8190     2.0180    24.4210     2.0580 
   62.6250   125.9440    40.7150     2.7540     0.7860     1.9080    25.1730     2.0280 
   62.7500   111.6270    43.9350     2.6220     0.7610     1.4990    25.5790     1.9990 
   62.8750    97.8160    44.8360     2.4980     0.7560     1.1700    25.4500     1.9800 
   63.0000    84.6300    42.9230     2.4180     0.7750     1.1040    25.0580     1.9790 
   63.1250    72.5710    41.1150     2.3870     0.8180     1.1220    24.7230     1.9990 
   63.2500    61.9700    41.3080     2.3640     0.8770     1.1380    24.5370     2.0390 
   63.3750    52.9320    43.0610     2.2670     0.9270     1.1140    24.5080     2.0930 
   63.5000    45.1250    44.4510     2.0980     0.9480     1.0660    24.5810     2.1490 
   63.6250    38.3810    44.4290     1.9310     0.9360     0.9850    24.7500     2.2000 
   63.7500    32.4320    42.9570     1.8550     0.8980     0.9330    24.9470     2.2430 
   63.8750    27.4240    42.1620     1.9060     0.8510     1.0170    25.0040     2.2780 
   64.0000    23.1780    43.7520     1.9900     0.8120     1.4650    24.9230     2.3050 
   64.1250    19.4650    45.7960     2.0310     0.7880     2.1240    24.7720     2.3220 
   64.2500    16.2250    45.5020     2.0150     0.7840     2.2000    24.6460     2.3260 
   64.3750    13.5930    43.1490     2.0210     0.7930     1.8110    24.5800     2.3200 
   64.5000    11.4550    42.2950     2.1230     0.7950     1.6120    24.6100     2.3110 
   64.6250     9.6870    43.1400     2.2720     0.7630     1.5300    24.6450     2.3060 
   64.7500     8.1490    43.8530     2.2920     0.6670     1.4770    24.6140     2.3070 
   64.8750     6.7200    44.1770     1.9710     0.4940     1.4260    24.5500     2.3190 
   65.0000     5.2680    44.5450     1.4260     0.3090     1.3630    24.5250     2.3480 
   65.1250     3.6620    44.2140     0.8670     0.1680     1.2930    24.5340     2.4000 
   65.2500     1.7820    43.0490     0.4570     0.0860     1.2460    24.5420     2.4740 
   65.3750    -0.5080    42.7910     0.2620     0.0580     1.2480    24.5060     2.5480 
   65.5000    -3.1010    45.3580     0.2210     0.0690     1.5680    24.4380     2.5900 
   65.6250    -5.8990    49.1800     0.3340     0.1350     2.5560    24.3730     2.5800 
   65.7500    -8.7430    52.2750     0.6490     0.3020     4.4730    24.2630     2.5150 
   65.8750   -11.5200    54.4740     1.3590     0.7040     6.1220    24.1240     2.4130 
   66.0000   -14.1610    57.1410     2.5080     1.4210     7.2640    23.9970     2.2980 
   66.1250   -16.5830    59.2230     3.9550     2.4610     7.9060    24.0850     2.1770 
   66.2500   -18.7090    59.2240     5.3370     3.6450     7.2710    24.6600     2.0510 
   66.3750   -20.3380    57.9270     6.2380     4.6640     6.2310    25.5090     1.9430 
   66.5000   -21.5260    57.8430     6.7330     5.4430     6.4280    25.8780     1.8830 
   66.6250   -22.3390    60.0010     7.0210     6.0370     7.2490    25.2210     1.8870 
   66.7500   -22.8670    62.7760     7.2360     6.4930     8.1930    24.4000     1.9460 
   66.8750   -23.1190    63.0230     7.4080     6.8160     8.5730    23.9670     2.0240 
   67.0000   -23.1560    62.3080     7.5700     7.0600     8.9460    23.8550     2.0800 
   67.1250   -23.0130    62.7150     7.7660     7.2650     9.2570    23.8870     2.1080 
