~V
VERS. 2.00: Ver 2.00
~W
STRT.M 55.0000:
STOP.M 242.0000:
STEP.M 0.1250:
NULL. -999.2500:
UWI. F10187:
~C
DEPT.M :
GR.API :
RML.OHMM :
RI. :
RXO.OHMM :
CALI.CM :
DEN.GM/CC :
SP.MV :
~A
# ...
  235.0000    69.0350     9.2860     8.0870    10.1340    23.9440     2.4500     5.0960 
  235.1250    69.0350     9.4710     8.2640     9.1550    23.8060     2.4710     5.0560 
  235.2500    69.0350     9.6900     8.4780     8.7510    23.7030     2.4850     5.0160 
  235.3750    69.0350     9.9100     8.6940     8.8110    23.6550     2.4900     4.9400 
  235.5000    69.0350    10.0910     8.8700     9.0560    23.6790     2.4900     4.8410 
  235.6250    69.0350    10.1910     8.9650     8.9200    23.7080     2.4910     4.7620 
  235.7500    69.0350    10.2090     8.9790     8.6430    23.7430     2.4980     4.7670 
  235.8750    69.0350    10.1520     8.9210     8.4350    23.8260     2.5090     4.8430 
  236.0000    69.0350    10.0410     8.8080     8.3670    23.9140     2.5200     4.9080 
  236.1250    69.0350     9.9060     8.6730     8.1650    23.9760     2.5240     4.9300 
  236.2500    69.0350     9.7880     8.5560     7.9620    24.0160     2.5240     4.9380 
  236.3750    69.0350     9.7110     8.4830     7.8060    24.0290     2.5240     4.9720 
  236.5000    69.0350     9.6800     8.4600     7.6380    24.0080     2.5280     5.0560 
  236.6250    69.0350     9.6840     8.4730     7.4460    24.0090     2.5310     5.1600 
  236.7500    69.0350     9.6930     8.4860     7.3930    24.0610     2.5280     5.2170 
  236.8750    69.0350     9.6910     8.4830     7.4240    24.1010     2.5170     5.1940 
  237.0000    69.0350     9.6760     8.4660     7.3450    24.0810     2.5040     5.1770 
  237.1250    69.0350     9.6570     8.4460     7.4100    24.0890     2.5010     5.1400 
  237.2500    69.0350     9.6400     8.4310     7.9860    24.0920     2.5100     5.0960 
  237.3750    69.0350     9.6310     8.4210     8.4660    24.0560     2.5220     5.0170 
  237.5000    69.0350     9.6270     8.4200     8.5970    24.0230     2.5270     4.8480 
  237.6250    69.0350     9.6260     8.4200     8.8640    24.0750     2.5160     4.6430 
  237.7500    69.0350     9.6260     8.4200     8.2970    24.1580     2.4930     4.4790 
  237.8750    69.0350     9.6260     8.4200     7.7550    24.2130     2.4670     4.3690 
  238.0000    69.0350     9.6260     8.4200     7.5050    24.2550     2.4440     4.2640 
  238.1250    69.0350     9.6260     8.4200     7.4530    24.3090     2.4240     4.1550 
  238.2500    69.0350     9.6260     8.4200     8.0310    24.3780     2.4140     4.1090 
  238.3750    69.0350     9.6260     8.4200    10.2940    24.3930     2.3980     4.1700 
  238.5000    69.0350     9.6260     8.4200    14.3060    24.3380     2.4040     4.3040 
  238.6250    69.0350     9.6260     8.4200    17.1570    24.2900     2.4230     4.5090 
  238.7500    69.0350     9.6260     8.4200    16.3810    24.2350     2.4510     4.6970 
  238.8750    69.0350     9.6260     8.4200    15.7080    24.1560     2.4820     4.7940 
  239.0000    69.0350     9.6260     8.4200    16.5410    24.1010     2.5080     4.8480 
  239.1250    69.0350     9.6260     8.4200    19.5790    24.0290     2.5210     4.9740 
  239.2500    69.0350     9.6260     8.4200    19.3900    23.9340     2.5150     5.0630 
  239.3750    69.0350     9.6260     8.4200    15.8640    23.9220     2.4910     5.0760 
  239.5000    69.0350     9.6260     8.4200    12.9780    24.0400     2.4530     5.0830 
  239.6250    69.0350     9.6260     8.4200    12.4410    24.1770     2.4200     5.0660 
  239.7500    69.0350     9.6260     8.4200    12.7450    24.2630     2.4030     5.0390 
  239.8750    69.0350     9.6260     8.4200    13.4200    24.2940     2.4030     5.0120 
  240.0000    69.0350     9.6260     8.4200    14.8400    24.2930     2.4180     5.0420 
  240.1250    69.0350     9.6260     8.4200    16.9320    24.3190     2.4350     5.0090 
  240.2500    69.0350     9.6260     8.4200    14.7660    24.3800     2.4430     4.9890 
  240.3750    69.0350     9.6260     8.4200    12.9640    24.4360     2.4320     4.9890 
  240.5000    69.0350     9.6260     8.4200    12.7370    24.4250     2.3930     4.9890 
  240.6250    69.0350     9.6260     8.4200    12.8700    24.4240     2.3450  -999.2500 
  240.7500    69.0350     9.6260     8.4200    11.9650    24.5600     2.3110  -999.2500 
  240.8750    69.0350     9.6260     8.4200    10.9180    24.6400     2.3140  -999.2500 
  241.0000    69.0350     9.6260     8.4200    10.4510    24.4650     2.3630  -999.2500 
  241.1250    69.0350     9.6260     8.4200    10.3380    24.1470     2.4250  -999.2500 
  241.2500    69.0350     9.6260     8.4200    10.0800    23.9750     2.4680  -999.2500 
  241.3750    69.0350     9.6260     8.4200     8.3330    23.8230     2.4660  -999.2500 
  241.5000    69.0350     9.6260     8.4200     7.1480    23.1440     2.4050  -999.2500 
  241.6250    69.0350     9.6260     8.4200     6.3490    21.4090     2.3130  -999.2500 
  241.7500    69.0350     9.6260     8.4200     5.3650    18.2690     2.2160  -999.2500 
  241.8750    69.0350     9.6260     8.4200     4.9260    16.8850     2.0690  -999.2500 
  242.0000    69.0350     9.6260     8.4200     4.8200    16.5460     2.0700  -999.2500 
