~V
VERS. 2.00: Ver 2.00
~W
STRT.M 49.0000:
STOP.M 251.0000:
STEP.M 0.1250:
NULL. -999.2500:
UWI. F10165:
~C
DEPT.M :
GR.API :
RML.OHMM :
RI. :
RXO.OHMM :
CALI.CM :
SP.MV :
DEN.GM/CC :
~A
# ...
  150.2500    60.8800    17.8780    16.5890    17.2040    25.3730   -23.8810     2.2130 
  150.3750    62.1320    16.5160    15.4190    14.9970    25.4710   -23.8760     2.2080 
  150.5000    65.3920    15.3630    14.3930    13.2390    25.5660   -23.8770     2.2000 
  150.6250    71.1210    14.8580    13.8600    12.1790    25.5860   -23.8870     2.1920 
  150.7500    74.6000    15.1480    13.9550    11.7440    25.5350   -23.8770     2.1920 
  150.8750    73.1110    16.2690    14.7480    12.3320    25.4900   -23.8900     2.2000 
  151.0000    68.1890    18.0120    16.1530    13.9080    25.4760   -23.9080     2.2130 
  151.1250    64.6770    19.7410    17.7540    17.6120    25.5570   -23.8760     2.2250 
  151.2500    63.4370    20.5660    18.7340    22.4220    25.6600   -23.8510     2.2330 
  151.3750    63.6800    19.9340    18.4680    25.6530    25.7630   -23.8670     2.2320 
  151.5000    64.5830    17.9690    16.9280    22.8660    25.8410   -23.8960     2.2210 
  151.6250    65.8740    15.4980    14.7660    16.2910    25.8650   -23.9120     2.2110 
  151.7500    68.2710    13.5370    12.9050    12.2310    25.8680   -23.9370     2.2100 
  151.8750    71.4140    12.5330    11.7460    10.8230    25.8840   -23.9640     2.2140 
  152.0000    72.8630    12.6220    11.4320    10.5660    25.9120   -23.9840     2.2190 
  152.1250    70.4580    13.9020    12.1020    11.6720    25.9100   -24.0380     2.2210 
  152.2500    68.0380    15.9420    13.4930    14.4740    25.9080   -24.1140     2.2190 
  152.3750    66.4290    18.3330    15.3580    18.8110    25.9440   -24.1590     2.2100 
  152.5000    64.5100    20.5810    17.3200    21.6040    25.9920   -24.1800     2.1960 
  152.6250    62.9100    22.2740    18.9680    22.5250    26.0140   -24.2380     2.1780 
  152.7500    63.5310    23.6930    20.3370    22.9820    26.0190   -24.2940     2.1660 
  152.8750    65.2810    25.4070    21.7710    23.4170    26.0260   -24.3270     2.1630 
  153.0000    64.5580    28.0620    23.7490    24.4210    26.0690   -24.3730     2.1660 
  153.1250    60.9570    32.4840    26.9550    27.7750    26.2030   -24.4030     2.1590 
  153.2500    57.5110    38.6110    31.4720    35.3500    26.3950   -24.4170     2.1420 
  153.3750    55.4890    46.0380    37.0830    45.9890    26.6020   -24.4550     2.1220 
  153.5000    54.5340    53.6650    43.0100    55.4450    26.7820   -24.4930     2.1080 
  153.6250    53.1330    59.3500    47.6830    57.8310    26.8640   -24.4850     2.0980 
  153.7500    51.5660    62.0040    50.1620    56.0060    26.9000   -24.4910     2.0870 
  153.8750    51.1100    61.8070    50.3980    53.1560    26.9550   -24.5170     2.0760 
  154.0000    51.9000    59.9700    49.1450    53.5570    27.0790   -24.5300     2.0700 
  154.1250    52.4760    57.8860    47.4020    49.5050    27.2180   -24.5730     2.0660 
  154.2500    52.2990    56.3640    45.9400    39.7440    27.3400   -24.6160     2.0580 
  154.3750    52.3650    55.6020    45.0310    29.6390    27.4070   -24.6230     2.0500 
  154.5000    52.4370    55.5320    44.7480    25.7560    27.3980   -24.6330     2.0500 
  154.6250    51.8460    55.8510    45.0280    32.9840    27.3190   -24.6980     2.0670 
  154.7500    51.6590    55.9950    45.4890    44.8810    27.2020   -24.7620     2.0890 
  154.8750    52.4010    55.6090    45.8620    52.0250    27.0200   -24.8040     2.1130 
  155.0000    53.1690    54.5980    45.9990    52.7120    26.7660   -24.8540     2.1400 
  155.1250    53.3850    53.0230    45.8320    50.8370    26.6090   -24.9060     2.1710 
  155.2500    52.4570    51.1340    45.3930    49.1110    26.5360   -24.9550     2.1900 
  155.3750    50.3750    48.9600    44.6180    47.8750    26.5010   -25.0350     2.1910 
  155.5000    49.4930    46.3080    43.3290    47.5330    26.4440   -25.1420     2.1810 
  155.6250    52.4470    42.3920    40.7670    42.5200    26.3810   -25.2200     2.1670 
  155.7500    57.1490    36.8340    36.4060    37.3980    26.3510   -25.2770     2.1360 
  155.8750    60.6510    29.8570    30.2890    28.0710    26.3360   -25.3630     2.0790 
  156.0000    62.5340    22.4310    23.3800    21.5020    26.2760   -25.4560     2.0220 
  156.1250    64.7340    15.9850    17.2100    16.8150    26.1830   -25.5290     2.0040 
  156.2500    68.1880    11.1220    12.4670    13.3620    26.0860   -25.6280     2.0180 
  156.3750    72.8480     7.8810     9.1910    10.7290    25.9460   -25.7230     2.0400 
  156.5000    76.7870     5.9620     7.1270    10.1280    25.7730   -25.7890     2.0530 
  156.6250    77.7740     5.0850     6.0730     8.8750    25.6030   -25.8840     2.0580 
  156.7500    77.0350     4.7660     5.6140     6.6830    25.4540   -26.0070     2.0630 
  156.8750    75.9250     4.7850     5.5590     5.0690    25.3380   -26.1110     2.0720 
  157.0000    75.9620     4.9430     5.7180     4.5690    25.2040   -26.2060     2.0890 
  157.1250    77.1230     5.0460     5.8940     4.5640    25.0300   -26.3400     2.1140 
  157.2500    78.4520     4.9900     5.9330     4.6530    24.8760   -26.4710     2.1280 
  157.3750    78.1950     4.7720     5.7900     4.6640    24.8910   -26.6120     2.1220 
  157.5000    77.3270     4.4990     5.5310     4.6380    25.0580   -26.8020     2.1020 
  157.6250    78.6710     4.4300     5.3810     4.4780    25.1860   -27.0060     2.0910 
  157.7500    81.0430     4.7900     5.5670     4.3130    25.2330   -27.1980     2.1000 
  157.8750    82.0780     5.7450     6.2550     4.2820    25.3130   -27.4040     2.1220 
  158.0000    79.9930     7.3350     7.5230     4.6600    25.4410   -27.6440     2.1460 
  158.1250    74.9780     9.3490     9.2700     6.4100    25.5280   -27.8870     2.1620 
  158.2500    70.1230    11.0280    10.8170    11.2910    25.6140   -28.1340     2.1760 
  158.3750    68.4480    11.6760    11.4600    18.2290    25.7040   -28.3980     2.1910 
  158.5000    71.7650    11.1850    11.0340    16.4220    25.7710   -28.6380     2.2050 
  158.6250    77.9330    10.3340    10.1740    11.7470    25.7960   -28.8480     2.2160 
  158.7500    83.4820    10.2590     9.7860    10.5730    25.8320   -29.0880     2.2250 
  158.8750    86.0410    11.6970    10.3930    12.4500    25.9000   -29.3510     2.2350 
  159.0000    85.4390    15.3200    12.5040    16.1380    25.9830   -29.5860     2.2460 
  159.1250    80.8990    22.8100    17.6240    18.8730    26.1160   -29.8070     2.2420 
  159.2500    72.5320    35.3130    27.2470    30.5590    26.3120   -30.0350     2.2140 
  159.3750    63.3050    54.6700    43.4930    87.9210    26.5050   -30.2370     2.1750 
  159.5000    57.4680    82.1660    67.4790   120.5110    26.6890   -30.4440     2.1460 
  159.6250    57.2830   116.5400    97.1590   146.5940    26.9030   -30.6580     2.1330 
  159.7500    58.0190   148.3830   124.6190   149.4210    27.1630   -30.8280     2.1270 
  159.8750    56.5530   168.6830   143.7910   169.4460    27.3740   -30.9840     2.1220 
  160.0000    54.3420   174.9370   152.6010   188.0880    27.5350   -31.1560     2.1180 
  160.1250    54.4270   171.2110   152.3130   181.0230    27.6460   -31.2980     2.1150 
  160.2500    57.5160   164.2810   147.7190   169.1050    27.7270   -31.4220     2.1130 
  160.3750    61.6910   156.7650   141.3050   157.6640    27.7970   -31.5600     2.1150 
  160.5000    63.3940   150.6370   135.3490   156.4450    27.8720   -31.6750     2.1220 
  160.6250    61.4400   147.6630   131.9710   149.4040    27.9520   -31.7760     2.1330 
  160.7500    58.6410   147.6090   131.2690   149.4040    28.0450   -31.9130     2.1390 
  160.8750    57.1070   150.0340   132.8820   144.3610    28.1220   -32.0520     2.1380 
  161.0000    56.1470   154.2470   136.1900   142.6790    28.1730   -32.1550     2.1310 
  161.1250    53.4540   159.7660   140.8450   147.1800    28.2180   -32.2530     2.1260 
  161.2500    53.6910   166.3010   146.6390   158.9400    28.2790   -32.3680     2.1230 
  161.3750    57.3990   174.1650   153.8570   167.6480    28.3340   -32.4740     2.1220 
