~V
VERS. 2.00: Ver 2.00
~W
STRT.M 55.0000:
STOP.M 288.0000:
STEP.M 0.1250:
NULL. -999.2500:
UWI. F10106:
~C
DEPT.M :
DEN.GM/CC :
SP.MV :
GR.API :
RML.OHMM :
RI. :
RXO.OHMM :
CALI.CM :
~A
# ...
   66.2500     2.1680   -11.0580    55.5330     7.9340     8.5960     7.6720    24.5450 
   66.3750     2.1480   -10.8410    54.8230     7.7180     8.3640     7.5430    24.8230 
   66.5000     2.1360   -10.5250    54.7650     7.5010     8.1330     7.2780    25.0750 
   66.6250     2.1350   -10.0460    58.6250     7.2560     7.8690     6.9200    25.2930 
   66.7500     2.1470    -9.4180    64.0520     6.9750     7.5630     6.6040    25.4400 
   66.8750     2.1710    -8.6350    68.2580     6.6490     7.2090     6.4150    25.5080 
   67.0000     2.2030    -7.8030    72.3740     6.2710     6.8000     6.3180    25.5250 
   67.1250     2.2390    -6.9890    79.1600     5.8360     6.3310     6.0810    25.4930 
   67.2500     2.2750    -6.2090    85.9120     5.3790     5.8350     5.5730    25.4170 
   67.3750     2.3110    -5.5140    87.5850     4.9490     5.3560     5.0090    25.2930 
   67.5000     2.3450    -4.9780    82.8310     4.6100     4.9500     4.5810    25.1430 
   67.6250     2.3720    -4.6910    77.7180     4.4650     4.7130     4.4460    24.9970 
   67.7500     2.3850    -4.6800    77.7990     4.5480     4.6840     4.4560    24.8980 
   67.8750     2.3780    -4.9910    80.6890     4.8900     4.8950     4.6220    24.8300 
   68.0000     2.3510    -5.5750    80.3060     5.4800     5.3450     4.9650    24.7670 
   68.1250     2.3070    -6.3840    74.6660     6.2710     6.0080     5.4950    24.6920 
   68.2500     2.2610    -7.3140    66.9040     7.0930     6.7380     6.1330    24.6040 
   68.3750     2.2240    -8.2750    60.2460     7.8030     7.4080     6.7120    24.5180 
   68.5000     2.2000    -9.1790    57.3560     8.3100     7.9150     7.0130    24.4340 
   68.6250     2.1880    -9.9500    59.5630     8.6360     8.2290     7.0930    24.3700 
   68.7500     2.1800   -10.5570    62.4810     9.0220     8.5150     7.1570    24.3440 
   68.8750     2.1770   -10.9630    62.5870     9.7140     8.9710     7.4130    24.3700 
   69.0000     2.1850   -11.1920    60.6820    10.8570     9.7470     8.3860    24.4450 
   69.1250     2.2210   -11.2170    57.6460    12.3960    10.8680    10.8700    24.5290 
   69.2500     2.2830   -11.1290    54.8040    13.8600    12.0180    13.9360    24.5520 
   69.3750     2.3540   -10.9560    53.0880    14.7370    12.8120    16.9480    24.4740 
   69.5000     2.4060   -10.7270    53.9210    14.6060    12.8760    18.1740    24.3290 
   69.6250     2.4090   -10.4690    57.2010    13.2620    11.9440    13.9840    24.2030 
   69.7500     2.3760   -10.1840    62.1640    11.3760    10.4870     9.8000    24.1630 
   69.8750     2.3310    -9.8960    68.4300     9.5440     8.9860     8.0510    24.1950 
   70.0000     2.2920    -9.6000    72.8990     8.1630     7.7820     6.9890    24.2470 
   70.1250     2.2690    -9.3010    72.8830     7.4160     7.0560     6.5020    24.2850 
   70.2500     2.2580    -9.0130    72.4470     7.0770     6.6710     6.2830    24.3180 
   70.3750     2.2570    -8.7650    73.5910     6.9730     6.5100     6.1590    24.3560 
   70.5000     2.2630    -8.5320    75.7560     6.9630     6.4580     6.1000    24.3980 
   70.6250     2.2740    -8.3240    78.0260     6.9320     6.4140     6.1930    24.4220 
   70.7500     2.2850    -8.1420    80.2480     6.8220     6.3080     6.3460    24.4510 
   70.8750     2.2910    -8.0000    81.1920     6.6320     6.1220     6.3530    24.4830 
   71.0000     2.2870    -7.9330    78.7390     6.4100     5.8850     6.1850    24.4630 
   71.1250     2.2740    -8.0070    76.4020     6.2540     5.6700     5.8620    24.3060 
   71.2500     2.2590    -8.1980    77.3240     6.2330     5.5460     5.5190    24.0140 
   71.3750     2.2450    -8.4880    78.4440     6.3710     5.5480     5.4310    23.6270 
   71.5000     2.2340    -8.9100    77.0310     6.6500     5.6780     5.6870    23.2470 
   71.6250     2.2230    -9.4490    75.6420     7.0420     5.9270     6.1240    23.0360 
   71.7500     2.2060   -10.0740    76.9270     7.5400     6.2740     6.6260    23.0550 
   71.8750     2.1860   -10.7480    75.9860     8.2510     6.7790     6.9470    23.2450 
   72.0000     2.1690   -11.4240    70.3080     9.3510     7.5630     7.2820    23.5140 
   72.1250     2.1790   -12.0540    65.5250    11.0730     8.8290     8.2790    23.7510 
   72.2500     2.2260   -12.6070    63.5700    13.2020    10.4780    10.8390    23.9190 
   72.3750     2.3100   -13.0880    59.7130    15.2930    12.2290    15.3970    24.0300 
   72.5000     2.4100   -13.4820    52.1960    16.6970    13.5980    20.6170    24.0870 
   72.6250     2.4850   -13.7970    48.5980    16.5700    13.8460    24.8380    24.0570 
   72.7500     2.5050   -14.0640    51.1860    15.0690    12.9180    24.1410    23.9750 
   72.8750     2.4670   -14.2730    55.4170    12.8040    11.2130    16.4590    23.8680 
   73.0000     2.3930   -14.4430    57.7880    10.6220     9.4190     9.2310    23.7780 
   73.1250     2.3150   -14.5960    58.9140     9.2330     8.1290     7.5700    23.7760 
   73.2500     2.2530   -14.7360    58.4760     8.5710     7.3770     7.1670    23.8030 
   73.3750     2.2130   -14.8580    55.3990     8.4160     7.0550     7.1240    23.8110 
   73.5000     2.1940   -14.9550    52.2450     8.5110     7.0050     7.1090    23.7880 
   73.6250     2.1890   -15.0180    53.6410     8.6400     7.0780     7.0580    23.7400 
   73.7500     2.1900   -15.0550    58.4350     8.7000     7.1470     7.0750    23.6900 
   73.8750     2.1920   -15.0740    63.6580     8.6930     7.1850     7.2090    23.6400 
   74.0000     2.1960   -15.0830    66.3040     8.6680     7.2110     7.3600    23.5970 
   74.1250     2.2020   -15.0890    65.3380     8.6780     7.2600     7.4980    23.5820 
   74.2500     2.2100   -15.0990    62.9560     8.7310     7.3370     7.6100    23.5780 
   74.3750     2.2180   -15.1080    60.2640     8.8140     7.4300     7.6540    23.5780 
   74.5000     2.2210   -15.1090    58.7300     8.9090     7.5200     7.5930    23.5810 
   74.6250     2.2110   -15.1100    57.3470     9.0110     7.6010     7.4830    23.5890 
   74.7500     2.1890   -15.1000    54.1270     9.1240     7.6830     7.4290    23.6070 
   74.8750     2.1540   -15.0960    49.6340     9.2580     7.7770     7.4280    23.6360 
   75.0000     2.1140   -15.0850    46.5400     9.4100     7.8870     7.4140    23.6680 
   75.1250     2.0890   -15.0440    48.1640     9.5560     7.9980     7.3810    23.6570 
   75.2500     2.0910   -14.9750    52.4180     9.6600     8.0850     7.3400    23.5860 
   75.3750     2.1240   -14.8980    57.5160     9.6960     8.1270     7.2820    23.4440 
   75.5000     2.1740   -14.8540    60.8910     9.6540     8.1130     7.2390    23.2600 
   75.6250     2.2140   -14.8750    59.5230     9.5460     8.0420     7.2350    23.2040 
   75.7500     2.2230   -14.9630    56.4140     9.4270     7.9510     7.2580    23.3520 
   75.8750     2.2030   -15.0990    53.7020     9.3380     7.8710     7.2890    23.6240 
   76.0000     2.1690   -15.2530    51.7580     9.3000     7.8260     7.3320    23.9060 
   76.1250     2.1430   -15.4260    52.9840     9.3160     7.8270     7.3810    24.0610 
   76.2500     2.1300   -15.6230    56.7040     9.3490     7.8510     7.4670    24.1160 
   76.3750     2.1290   -15.8350    59.8020     9.3730     7.8780     7.5780    24.1390 
   76.5000     2.1360   -16.0310    60.0840     9.3730     7.8910     7.6570    24.1740 
   76.6250     2.1430   -16.1770    59.3170     9.3530     7.8850     7.6750    24.2320 
   76.7500     2.1480   -16.2630    58.0960     9.3290     7.8730     7.6880    24.3030 
   76.8750     2.1510   -16.3020    56.1750     9.3150     7.8620     7.7270    24.3710 
   77.0000     2.1510   -16.3060    57.1140     9.3190     7.8590     7.8050    24.4210 
   77.1250     2.1450   -16.3040    60.3370     9.3420     7.8690     7.8550    24.4590 
   77.2500     2.1340   -16.2860    60.1120     9.3720     7.8860     7.8350    24.4830 
   77.3750     2.1220   -16.2560    57.1500     9.3950     7.9010     7.7920    24.4630 
