~V
VERS. 2.00: Ver 2.00
~W
STRT.M 55.0000:
STOP.M 248.0000:
STEP.M 0.1250:
NULL. -999.2500:
UWI. F10184:
~C
DEPT.M :
SP.MV :
GR.API :
RML.OHMM :
RI. :
RXO.OHMM :
CALI.CM :
DEN.GM/CC :
~A
# ...
   66.2500   -16.1820    65.4600    14.4470    11.2150    25.2520    24.2430     2.4340 
   66.3750   -16.3440    63.9610    13.4900    10.8840    17.4420    23.9970     2.4270 
   66.5000   -16.5700    62.5720    11.6070     9.7270    12.7720    23.8160     2.3780 
   66.6250   -16.9180    62.4260     9.7130     8.3230    12.4820    23.6590     2.3390 
   66.7500   -17.2470    62.8350     8.3300     7.1490    11.2260    23.4520     2.3200 
   66.8750   -17.5910    62.3060     7.5210     6.3320     8.5830    23.3110     2.2920 
   67.0000   -17.9980    62.0640     7.1530     5.8490     7.2870    23.2300     2.2400 
   67.1250   -18.2820    62.6930     7.0540     5.6240     7.2210    23.0090     2.1900 
   67.2500   -18.5020    62.9670     7.0410     5.5140     7.1810    22.6280     2.1670 
   67.3750   -18.7220    61.9360     7.0730     5.4730     7.0860    22.3480     2.1610 
   67.5000   -18.8650    60.5550     7.1470     5.4890     7.0630    22.3030     2.1590 
   67.6250   -18.8910    60.6860     7.2650     5.5600     7.0270    22.4890     2.1520 
   67.7500   -18.9780    61.1590     7.3950     5.6610     6.9840    22.6550     2.1440 
   67.8750   -19.0650    61.7710     7.5020     5.7590     6.9280    22.6080     2.1370 
   68.0000   -19.0300    62.4470     7.5400     5.8130     6.9270    22.3680     2.1360 
   68.1250   -19.0060    62.6620     7.4660     5.7770     6.9400    22.2190     2.1380 
   68.2500   -19.0550    63.1640     7.3220     5.6680     7.0180    22.1910     2.1400 
   68.3750   -19.0390    64.6700     7.1630     5.5170     7.1630    22.1350     2.1410 
   68.5000   -18.9570    67.5240     7.0410     5.3630     7.1920    22.0540     2.1430 
   68.6250   -18.9590    69.3970     6.9940     5.2430     7.1740    21.9870     2.1470 
   68.7500   -18.8870    70.3920     7.0070     5.1700     7.1500    22.0820     2.1530 
   68.8750   -18.7880    71.0750     7.0450     5.1420     7.1500    22.3970     2.1560 
   69.0000   -18.7010    70.9800     7.0710     5.1470     7.1640    22.8520     2.1560 
   69.1250   -18.5220    69.4710     7.0680     5.1680     7.1900    23.1030     2.1540 
   69.2500   -18.2950    68.5690     7.0550     5.1970     7.2680    23.1580     2.1510 
   69.3750   -18.1180    68.4070     7.0650     5.2410     7.3150    23.0910     2.1470 
   69.5000   -17.9620    67.4210     7.1260     5.3080     7.2660    23.0040     2.1430 
   69.6250   -17.7110    66.9380     7.2520     5.3980     7.1310    22.9070     2.1430 
   69.7500   -17.5110    67.7650     7.4010     5.4850     7.2060    22.8700     2.1480 
   69.8750   -17.3250    67.5010     7.5340     5.5440     7.4410    22.8720     2.1520 
   70.0000   -17.1260    65.4160     7.6130     5.5530     7.4910    22.8820     2.1530 
   70.1250   -17.0690    63.7240     7.6010     5.5000     7.1740    22.8630     2.1480 
   70.2500   -16.9980    63.5960     7.5170     5.4070     6.8900    22.8040     2.1410 
   70.3750   -16.8230    63.5210     7.3880     5.2920     6.7200    22.7190     2.1360 
   70.5000   -16.6750    63.5270     7.2440     5.1740     6.6980    22.6680     2.1330 
   70.6250   -16.6550    64.9950     7.1140     5.0760     6.7920    22.6570     2.1340 
   70.7500   -16.5990    66.7770     7.0150     5.0110     6.9120    22.6700     2.1350 
   70.8750   -16.5240    68.0950     6.9570     4.9820     6.9620    22.6990     2.1370 
   71.0000   -16.5530    67.1640     6.9460     4.9850     6.8850    22.7210     2.1380 
   71.1250   -16.5070    64.3970     6.9840     5.0190     6.7980    22.7150     2.1380 
   71.2500   -16.4130    64.2040     7.0490     5.0700     6.8270    22.6760     2.1400 
   71.3750   -16.4010    66.0990     7.1180     5.1290     6.9390    22.6130     2.1420 
   71.5000   -16.3520    66.2600     7.1670     5.1840     7.0180    22.5510     2.1420 
   71.6250   -16.1410    64.4040     7.1770     5.2230     7.0260    22.5170     2.1400 
   71.7500   -15.9400    63.9350     7.1590     5.2450     7.0620    22.5340     2.1360 
   71.8750   -15.6700    64.8500     7.1220     5.2550     7.1830    22.5590     2.1340 
   72.0000   -15.2470    65.9750     7.0780     5.2570     7.2510    22.5730     2.1370 
   72.1250   -14.8370    67.0560     7.0580     5.2600     7.3610    22.5880     2.1440 
   72.2500   -14.4080    67.8120     7.0920     5.2740     7.5360    22.6230     2.1520 
   72.3750   -13.8280    68.5810     7.2030     5.3120     7.8240    22.6470     2.1580 
   72.5000   -13.1850    69.5420     7.3980     5.3950     8.1620    22.6470     2.1640 
   72.6250   -12.5710    69.4450     7.6620     5.5390     8.0720    22.5930     2.1760 
   72.7500   -11.8270    68.1360     7.8960     5.6930     7.9790    22.4530     2.1920 
   72.8750   -11.0410    67.3310     7.9690     5.7680     7.7980    22.1970     2.2100 
   73.0000   -10.2490    70.3790     7.7620     5.6730     7.4910    21.8920     2.2280 
   73.1250    -9.2530    79.3510     7.2000     5.3340     7.2270    21.9600     2.2450 
   73.2500    -8.1860    90.9710     6.4590     4.8510     6.8540    22.5220     2.2610 
   73.3750    -7.2160   100.7980     5.7410     4.3530     6.3280    23.1250     2.2760 
   73.5000    -6.3310   105.8640     5.2570     3.9780     5.8890    23.4520     2.2900 
   73.6250    -5.4560   107.1570     5.2180     3.8650     5.7200    23.4900     2.3040 
   73.7500    -4.7260   107.5170     5.5810     4.0100     5.8250    23.4350     2.3200 
   73.8750    -4.1960   106.8760     6.2590     4.3890     6.6380    23.3380     2.3400 
   74.0000    -3.7800   104.3980     7.0530     4.9150     8.5070    23.2560     2.3650 
   74.1250    -3.5830    99.6180     7.5960     5.3910    10.3990    23.2540     2.3880 
   74.2500    -3.6030    96.4460     7.6770     5.6180     8.7780    23.3240     2.3910 
   74.3750    -3.6680    97.3320     7.3160     5.5260     7.4040    23.3620     2.3630 
   74.5000    -3.7250   102.2840     6.6980     5.1690     6.7600    23.3740     2.3230 
   74.6250    -3.9200   106.5800     6.0470     4.6890     6.0090    23.4170     2.3030 
   74.7500    -4.1490   106.0140     5.5670     4.2860     5.5140    23.5490     2.3050 
   74.8750    -4.3230   102.9010     5.4310     4.1130     5.2130    23.7910     2.3190 
   75.0000    -4.5730   100.5730     5.8420     4.3080     5.1230    24.0820     2.3410 
   75.1250    -4.8500    98.8620     7.1620     5.0960     5.6650    24.2530     2.3740 
   75.2500    -5.1110    93.3530     9.3880     6.5040     8.1830    24.2910     2.4160 
   75.3750    -5.5000    82.8090    12.3500     8.5140    15.9370    24.2790     2.4720 
   75.5000    -6.0390    70.7580    15.4020    10.8160    27.1200    24.2620     2.5390 
   75.6250    -6.5560    61.9430    17.1230    12.4880    22.9150    24.1560     2.5850 
   75.7500    -7.1430    58.2050    16.9320    12.8500    13.5000    23.8840     2.5800 
   75.8750    -7.8270    57.8020    15.3030    12.0120     8.7540    23.5380     2.5300 
   76.0000    -8.4310    57.9960    13.2760    10.6420     7.2460    23.3090     2.4730 
   76.1250    -8.9960    57.4730    11.7120     9.3940     6.8740    23.2810     2.4340 
   76.2500    -9.5570    58.7000    10.7150     8.4850     6.6770    23.3150     2.3920 
   76.3750   -10.0090    63.1580    10.1420     7.8810     6.5670    23.3520     2.3220 
   76.5000   -10.2990    67.0690     9.8260     7.4840     6.5290    23.3690     2.2360 
   76.6250   -10.5330    66.1770     9.6580     7.2320     6.5270    23.3760     2.1750 
   76.7500   -10.7200    64.0750     9.5310     7.0610     6.6770    23.3750     2.1470 
   76.8750   -10.7660    63.0700     9.3970     6.9450     6.8330    23.3670     2.1360 
   77.0000   -10.8430    61.7360     9.2390     6.8540     6.9240    23.3570     2.1320 
   77.1250   -10.9800    60.3650     9.0960     6.7610     6.9660    23.3630     2.1320 
   77.2500   -11.0100    60.5820     9.0260     6.6710     7.0100    23.3740     2.1370 
   77.3750   -11.0090    62.8700     9.0490     6.6110     7.1050    23.3750     2.1410 
