~V
VERS. 2.00: Ver 2.00
~W
STRT.M 55.0000:
STOP.M 239.0000:
STEP.M 0.1250:
NULL. -999.2500:
UWI. F10186:
~C
DEPT.M :
GR.API :
RML.OHMM :
RI. :
RXO.OHMM :
CALI.CM :
DEN.GM/CC :
SP.MV :
~A
# ...
  145.0000    57.8610    18.5360    18.0000    21.1350    24.3870     2.5040    -2.7720 
  145.1250    59.8650    17.9910    17.4950    20.5250    24.3980     2.5090    -2.6840 
  145.2500    60.4110    17.3140    16.8740    19.7640    24.3540     2.5100    -2.5950 
  145.3750    58.2830    16.5940    16.2120    18.6960    24.3270     2.5080    -2.5710 
  145.5000    55.2480    15.9580    15.6180    17.6820    24.3470     2.5050    -2.5710 
  145.6250    55.1960    15.5760    15.2420    16.3790    24.3740     2.5010    -2.4980 
  145.7500    57.3310    15.4780    15.1140    15.8300    24.3530     2.4980    -2.4210 
  145.8750    58.2280    15.6320    15.2150    15.9340    24.3030     2.5010    -2.4000 
  146.0000    56.9160    15.9260    15.4600    16.4890    24.3090     2.5060    -2.4060 
  146.1250    55.0000    16.1690    15.6930    17.1450    24.3300     2.5090    -2.4060 
  146.2500    54.3470    16.2100    15.7650    17.7080    24.3600     2.5050    -2.4460 
  146.3750    55.1050    16.0030    15.6120    18.1090    24.3600     2.4940    -2.4720 
  146.5000    56.6070    15.6110    15.2670    18.4690    24.3260     2.4810    -2.4490 
  146.6250    56.8560    15.1950    14.8530    17.6200    24.3430     2.4700    -2.4560 
  146.7500    55.2140    14.9310    14.5370    16.2690    24.3630     2.4630    -2.4910 
  146.8750    53.5140    14.9140    14.4150    15.0570    24.3710     2.4580    -2.4950 
  147.0000    52.8270    15.1650    14.5300    15.0940    24.3560     2.4550    -2.4550 
  147.1250    53.2570    15.6590    14.8890    15.7030    24.3510     2.4500    -2.4140 
  147.2500    54.0390    16.2530    15.3810    16.5310    24.3560     2.4440    -2.3540 
  147.3750    54.1430    16.8390    15.9140    17.3170    24.3450     2.4360    -2.2950 
  147.5000    51.6960    17.3290    16.3970    17.9610    24.3280     2.4290    -2.2600 
  147.6250    49.4800    17.6380    16.7330    18.5410    24.3310     2.4250    -2.1910 
  147.7500    51.0410    17.7850    16.9130    18.8610    24.3510     2.4250    -2.0430 
  147.8750    54.4090    17.8060    16.9590    18.8930    24.3440     2.4280    -1.8860 
  148.0000    56.0030    17.7670    16.9240    19.0430    24.3210     2.4340    -1.7770 
  148.1250    56.9020    17.7610    16.8970    18.4710    24.2820     2.4390    -1.6630 
  148.2500    58.3670    17.8560    16.9490    17.8750    24.2600     2.4450    -1.5060 
  148.3750    59.8140    18.0710    17.1120    17.6290    24.2960     2.4510    -1.3350 
  148.5000    60.5480    18.3820    17.3800    17.8890    24.4490     2.4570    -1.1980 
  148.6250    61.1830    18.7390    17.7290    18.6170    24.6630     2.4590    -1.1560 
  148.7500    60.3290    19.0890    18.1070    19.3830    24.8110     2.4550    -1.2370 
  148.8750    58.2100    19.4160    18.4920    19.6820    24.8430     2.4430    -1.4050 
  149.0000    58.9070    19.7170    18.8640    19.9270    24.7920     2.4280    -1.5940 
  149.1250    62.4690    19.9410    19.1760    20.6750    24.6980     2.4190    -1.8280 
  149.2500    62.0400    19.9870    19.3380    21.4980    24.5930     2.4200    -2.0790 
  149.3750    58.1550    19.7090    19.2190    22.2180    24.4940     2.4320    -2.3360 
  149.5000    56.2690    19.0070    18.7090    22.8290    24.4580     2.4520    -2.6140 
  149.6250    59.8530    17.8760    17.7570    21.9640    24.4590     2.4640    -2.8470 
  149.7500    64.5570    16.6270    16.6240    21.1840    24.4200     2.4550    -2.9770 
  149.8750    68.5630    15.5420    15.5660    19.3940    24.3880     2.4260    -3.0510 
  150.0000    70.7990    14.8290    14.7870    16.7680    24.3800     2.3860    -3.1380 
  150.1250    71.0590    14.5740    14.4040    15.3130    24.3810     2.3490    -3.2250 
  150.2500    70.4020    14.5370    14.2480    15.2090    24.3710     2.3230    -3.2910 
  150.3750    67.9180    14.5040    14.1530    15.6290    24.3630     2.3080    -3.3570 
  150.5000    64.8230    14.3210    13.9730    16.6460    24.3610     2.3000    -3.4070 
  150.6250    64.6860    13.9500    13.6390    15.8810    24.3820     2.2970    -3.4390 
  150.7500    66.1200    13.5510    13.2560    14.1320    24.3830     2.2980    -3.4680 
  150.8750    65.7560    13.2740    12.9490    12.2580    24.3750     2.3040    -3.4790 
  151.0000    64.0580    13.1840    12.7950    11.6970    24.3570     2.3130    -3.4990 
  151.1250    65.3870    13.2290    12.7800    12.0080    24.3530     2.3180    -3.5580 
  151.2500    67.4300    13.2840    12.7990    12.7760    24.3450     2.3170    -3.6210 
  151.3750    66.3500    13.3280    12.8180    14.1370    24.3220     2.3130    -3.6100 
  151.5000    62.6530    13.4190    12.8710    14.2410    24.2830     2.3110    -3.5960 
  151.6250    60.1800    13.6910    13.0600    13.3230    24.2750     2.3150    -3.6540 
  151.7500    59.5760    14.1530    13.4110    12.9060    24.3000     2.3230    -3.7150 
  151.8750    60.4420    14.7100    13.8680    14.5660    24.3360     2.3310    -3.7210 
  152.0000    62.4880    15.1850    14.2920    17.9700    24.3670     2.3360    -3.6760 
  152.1250    65.0740    15.3820    14.5010    19.3940    24.3880     2.3390    -3.6310 
  152.2500    68.0480    15.3360    14.4800    18.8940    24.4090     2.3380    -3.5930 
  152.3750    72.9970    15.1810    14.3150    17.8440    24.4180     2.3330    -3.5780 
  152.5000    77.8290    15.1120    14.1650    16.6820    24.3940     2.3250    -3.5840 
  152.6250    76.0190    15.2830    14.2280    16.0690    24.3600     2.3170    -3.5630 
  152.7500    69.2120    15.6990    14.5230    16.4870    24.3220     2.3130    -3.5200 
  152.8750    63.0080    16.2360    14.9790    17.9990    24.2820     2.3130    -3.5050 
  153.0000    60.3520    16.6770    15.4700    19.0240    24.2930     2.3160    -3.5350 
  153.1250    61.4570    17.1570    15.8420    20.0550    24.3000     2.3180    -3.5810 
  153.2500    64.7940    17.4470    16.0470    22.1510    24.3160     2.3170    -3.6360 
  153.3750    68.2330    17.6240    16.1350    22.8900    24.3220     2.3110    -3.6950 
  153.5000    68.6110    17.8560    16.2380    22.7990    24.3370     2.2990    -3.7370 
  153.6250    65.9170    18.3740    16.5530    23.5490    24.3650     2.2840    -3.8050 
  153.7500    62.5990    19.2520    17.1600    25.1230    24.3800     2.2710    -3.9110 
  153.8750    60.4040    20.4900    18.0900    26.5340    24.3800     2.2630    -4.0070 
  154.0000    58.9310    21.9800    19.2960    28.6350    24.3770     2.2600    -4.0480 
  154.1250    58.3790    23.5020    20.6480    31.2750    24.4280     2.2590    -4.0490 
  154.2500    59.3640    24.8270    21.9400    30.4290    24.4750     2.2590    -4.0630 
  154.3750    61.2360    25.8360    23.0380    28.6420    24.4960     2.2590    -4.0680 
  154.5000    61.9500    26.4830    23.8530    28.5290    24.4830     2.2610    -4.0110 
  154.6250    60.5150    26.6560    24.2350    30.5310    24.4730     2.2660    -3.9000 
  154.7500    59.6220    26.3040    24.1140    30.3090    24.4580     2.2720    -3.7640 
  154.8750    61.0720    25.2500    23.3230    28.5960    24.4440     2.2760    -3.6050 
  155.0000    63.5280    23.3600    21.7310    27.6270    24.4540     2.2770    -3.4130 
  155.1250    63.0000    20.6020    19.2950    26.8200    24.4570     2.2770    -3.1770 
  155.2500    61.8750    17.4680    16.4770    23.6430    24.4370     2.2790    -2.9460 
  155.3750    63.5350    14.3820    13.6780    17.8720    24.3880     2.2840    -2.7300 
  155.5000    67.6970    11.7080    11.2350    12.1000    24.3450     2.2900    -2.5160 
  155.6250    71.8300     9.7820     9.4400     9.7450    24.3320     2.2980    -2.3100 
  155.7500    75.0660     8.5280     8.2310     8.5860    24.3400     2.3060    -2.1530 
  155.8750    75.0310     7.8620     7.5460     7.6210    24.3670     2.3150    -2.0280 
  156.0000    71.1680     7.6530     7.2890     6.7060    24.4170     2.3250    -1.9120 
  156.1250    69.0230     7.7600     7.3580     6.4100    24.4510     2.3310    -1.8630 
