~V
VERS. 2.00: Ver 2.00
~W
STRT.M 47.0000:
STOP.M 242.0000:
STEP.M 0.1250:
NULL. -999.2500:
UWI. F10188:
~C
DEPT.M :
SP.MV :
DEN.GM/CC :
GR.API :
RML.OHMM :
RI. :
RXO.OHMM :
CALI.CM :
~A
# ...
  204.5000   -43.3020     2.2800    79.1970     8.2150     7.0020     7.7220    23.7560 
  204.6250   -43.2680     2.2650    77.3320     8.3690     7.1830     7.2350    23.9240 
  204.7500   -43.2160     2.2500    80.3390     8.4330     7.3000     6.9080    24.0600 
  204.8750   -43.1130     2.2350    82.7780     8.3560     7.2960     6.9080    24.0810 
  205.0000   -42.9590     2.2190    81.9260     8.1380     7.1440     7.1710    23.9780 
  205.1250   -42.7830     2.2160    82.7210     7.9030     6.9420     7.4100    23.7000 
  205.2500   -42.5760     2.2390    86.2660     7.7650     6.7930     7.3250    23.2850 
  205.3750   -42.3680     2.2820    89.2840     7.8260     6.7830     7.0380    22.8970 
  205.5000   -42.1640     2.3230    89.1010     8.1660     6.9840     7.1100    22.9010 
  205.6250   -41.9650     2.3420    87.7550     8.6830     7.3340     7.6620    23.1090 
  205.7500   -41.7760     2.3440    87.1470     9.2310     7.7410     8.1640    23.3090 
  205.8750   -41.5930     2.3390    85.5960     9.6230     8.0660     8.5990    23.4630 
  206.0000   -41.3910     2.3350    82.8170     9.6350     8.1290     9.0400    23.6110 
  206.1250   -41.1720     2.3320    79.1710     9.3100     7.9270     8.9440    23.6900 
  206.2500   -40.9250     2.3320    77.0970     8.7780     7.5370     8.4830    23.6280 
  206.3750   -40.6160     2.3340    79.6240     8.2350     7.0990     8.2680    23.4680 
  206.5000   -40.1540     2.3410    85.1420     7.9490     6.8130     8.4680    23.3280 
  206.6250   -39.5240     2.3550    87.5630     8.1070     6.8340     9.1140    23.3380 
  206.7500   -38.6790     2.3730    85.3130     8.8290     7.2880     9.9910    23.5270 
  206.8750   -37.6070     2.3930    80.4070    10.0790     8.2080    10.5950    23.8490 
  207.0000   -36.2570     2.4190    73.5940    11.5090     9.4490    11.0750    24.1040 
  207.1250   -34.6780     2.4510    67.2720    12.3500    10.4470    11.5960    24.0510 
  207.2500   -32.8600     2.4780    67.7290    11.9710    10.6230    11.8700    23.7180 
  207.3750   -30.8750     2.4770    74.4710    10.3880     9.7670    11.5620    23.3190 
  207.5000   -28.8230     2.4420    80.1610     9.7280     8.2760    10.5350    23.0170 
  207.6250   -26.8810     2.4060    83.7030     7.3750     6.8920     9.3700    22.8830 
  207.7500   -25.1300     2.3880    86.3670     6.3860     5.8930     8.4830    22.9350 
  207.8750   -23.6850     2.3870    88.1950     5.9540     5.3220     7.9810    23.0830 
  208.0000   -22.6400     2.3910    87.4850     5.9320     5.1560     7.3610    23.2240 
  208.1250   -21.9700     2.3870    85.0940     6.0750     5.2120     6.9280    23.3060 
  208.2500   -21.6850     2.3790    81.7150     6.2710     5.3820     6.8620    23.3890 
  208.3750   -21.7320     2.3710    79.2640     6.4670     5.5910     7.1470    23.5570 
  208.5000   -22.0130     2.3670    79.8310     6.6330     5.7880     6.9970    23.8980 
  208.6250   -22.3610     2.3660    79.6440     6.7360     5.9390     6.7200    24.3680 
  208.7500   -22.7040     2.3650    77.0810     6.7530     6.0240     6.6310    24.8540 
  208.8750   -22.9590     2.3650    76.5490     6.6990     6.0450     6.8280    25.1660 
  209.0000   -23.0700     2.3670    81.1110     6.6530     6.0430     7.3890    25.2660 
  209.1250   -23.0750     2.3760    85.8530     6.7080     6.0890     8.1270    25.2670 
  209.2500   -22.9920     2.3880    86.5470     6.9220     6.2340     8.6490    25.2650 
  209.3750   -22.8370     2.3980    84.1050     7.2940     6.4970     9.0580    25.2920 
  209.5000   -22.6740     2.4020    84.6270     7.7720     6.8590     9.2600    25.3180 
  209.6250   -22.5290     2.3990    87.0200     8.2530     7.2370     9.7720    25.3200 
  209.7500   -22.4200     2.3950    88.3820     8.6910     7.5810    10.4770    25.3270 
  209.8750   -22.3670     2.3890    87.1110     9.0950     7.8800    11.3690    25.3320 
  210.0000   -22.4230     2.3790    83.6100     9.5200     8.1660    12.1230    25.3640 
  210.1250   -22.5350     2.3650    79.3220     9.9770     8.4640    12.2060    25.4110 
  210.2500   -22.6830     2.3540    75.2610    10.3770     8.7360    12.1200    25.4440 
  210.3750   -22.8550     2.3540    74.6340    10.5920     8.8990    12.2500    25.4200 
  210.5000   -23.0750     2.3630    77.6290    10.6080     8.9210    12.9920    25.3710 
  210.6250   -23.3590     2.3710    78.6110    10.7980     9.0100    15.9030    25.3620 
  210.7500   -23.7390     2.3700    76.3330    11.7070     9.5100    22.0330    25.3830 
  210.8750   -24.2220     2.3580    74.1750    13.9700    10.9350    31.2100    25.4270 
  211.0000   -24.7880     2.3320    73.2860    18.8390    14.5480    45.1180    25.4560 
  211.1250   -25.4120     2.2970    71.7890    27.2260    21.5290    61.9500    25.4870 
  211.2500   -26.0820     2.2590    70.0440    43.9370    33.4660    80.8600    25.5440 
  211.3750   -26.7920     2.2260    68.4910    65.9910    51.0540    99.4200    25.5650 
  211.5000   -27.5060     2.2040    66.6260    89.6130    71.2180   110.3040    25.5440 
  211.6250   -28.2260     2.1930    65.4520   104.8360    86.0480   110.8850    25.4570 
  211.7500   -28.8960     2.1900    66.6260   108.3560    91.9510   103.3370    25.3050 
  211.8750   -29.5140     2.1910    68.2960   106.0020    91.6660    89.8980    25.1280 
  212.0000   -30.0530     2.1880    67.8620   104.5010    90.3750    79.4580    25.0350 
  212.1250   -30.5300     2.1810    67.3920   105.7130    91.0010    72.9890    24.9910 
  212.2500   -30.9580     2.1770    68.2870   108.6250    93.4130    70.0730    24.9880 
  212.3750   -31.3330     2.1780    70.0440   110.5580    95.8120    69.6380    24.9840 
  212.5000   -31.6440     2.1820    69.5500   106.8020    94.5690    69.3060    24.9500 
  212.6250   -31.8970     2.1840    65.6320    96.7050    88.1880    64.5260    24.8000 
  212.7500   -32.1100     2.1830    60.8860    82.9140    77.6270    54.0300    24.5340 
  212.8750   -32.2550     2.1860    59.4120    69.4980    65.8120    42.1090    24.2670 
  213.0000   -32.3420     2.1970    63.1100    59.8840    56.2440    35.7300    24.1020 
  213.1250   -32.3830     2.2080    66.9110    54.1690    50.0700    32.6680    23.8800 
  213.2500   -32.3460     2.2080    67.0140    51.9060    47.2850    34.8210    23.5710 
  213.3750   -32.2300     2.1980    64.3350    52.3500    47.3380    40.7840    23.4290 
  213.5000   -32.0940     2.1900    61.9230    54.6470    49.5490    49.3360    23.7410 
  213.6250   -31.9280     2.1860    61.7010    57.0450    52.2700    57.2300    24.3540 
  213.7500   -31.7390     2.1830    64.2980    58.0860    54.1150    63.3260    24.9370 
  213.8750   -31.5530     2.1800    67.8010    56.7770    53.9760    67.7240    25.1860 
  214.0000   -31.3680     2.1830    66.6900    52.9080    51.2490    69.1830    25.1610 
  214.1250   -31.1960     2.1910    63.3780    48.0100    47.1130    69.8680    25.0560 
  214.2500   -31.0740     2.2010    62.6380    43.1580    42.5840    68.3920    25.0580 
  214.3750   -31.0090     2.2070    63.7230    39.0470    38.4520    61.8280    25.2800 
  214.5000   -30.9540     2.2110    63.3010    36.1650    35.3340    50.6960    25.4770 
  214.6250   -30.9390     2.2170    62.1210    34.3120    33.2000    40.0240    25.6230 
  214.7500   -30.9650     2.2240    60.4340    33.3090    31.9630    34.7300    25.7610 
  214.8750   -31.0340     2.2320    56.8390    32.9330    31.4500    33.1560    25.9210 
  215.0000   -31.1540     2.2380    54.8000    33.0000    31.5040    35.6480    26.0110 
  215.1250   -31.2930     2.2420    56.0900    33.2990    31.8420    39.9280    26.0460 
  215.2500   -31.4370     2.2410    58.4540    33.8350    32.4000    44.5730    26.1080 
  215.3750   -31.5830     2.2390    60.5790    34.6880    33.2090    48.7560    26.1940 
  215.5000   -31.7330     2.2370    61.9460    35.9720    34.3670    51.9250    26.2270 
  215.6250   -31.8640     2.2340    61.8810    37.5050    35.7700    56.4690    26.2380 
