~V
VERS. 2.00: Ver 2.00
~W
STRT.M 53.0000:
STOP.M 242.0000:
STEP.M 0.1250:
NULL. -999.2500:
UWI. F10177:
~C
DEPT.M :
SP.MV :
GR.API :
RML.OHMM :
RI. :
RXO.OHMM :
CALI.CM :
DEN.GM/CC :
~A
# ...
  165.5000   -17.6760    66.2380   167.3300   164.9020   209.7920    24.9780     2.2460 
  165.6250   -17.7080    72.0450   146.8580   144.7130   133.5590    24.9620     2.2470 
  165.7500   -17.7700    76.8850   127.6830   125.8020    75.5330    24.9180     2.2480 
  165.8750   -17.9450    78.0570   113.6060   111.9200    92.5930    24.8330     2.2490 
  166.0000   -18.1230    75.1960   104.3840   102.8260   102.5740    24.7980     2.2520 
  166.1250   -18.3250    69.4880    99.2520    97.7640   105.4300    24.8260     2.2560 
  166.2500   -18.6780    64.9860    97.3190    95.8580   100.6030    24.9040     2.2610 
  166.3750   -19.0830    66.5470    98.3880    96.9130    96.6460    24.9700     2.2650 
  166.5000   -19.3930    69.8130   102.0860   100.5590    87.8150    24.9910     2.2670 
  166.6250   -19.6540    71.3900   109.0350   107.4130    90.2950    24.9310     2.2660 
  166.7500   -19.7430    71.3610   120.0120   118.2380   108.9760    24.7890     2.2630 
  166.8750   -19.4600    69.2940   135.9770   133.9820   144.5110    24.6070     2.2610 
  167.0000   -18.9560    66.6400   154.9890   152.7320   186.2910    24.4920     2.2580 
  167.1250   -18.3580    66.2610   174.2980   171.7740   219.8200    24.4410     2.2540 
  167.2500   -17.6200    68.7890   190.2960   187.5510   228.7680    24.5540     2.2470 
  167.3750   -16.7220    69.3890   199.1630   196.2950   231.1540    25.0090     2.2360 
  167.5000   -15.7880    68.4220   202.2960   199.3860   232.4700    25.5270     2.2230 
  167.6250   -14.8450    69.1210   202.1250   199.2170   233.1470    25.7390     2.2070 
  167.7500   -13.9690    69.5650   201.1120   198.2180   233.5010    25.5770     2.1910 
  167.8750   -13.3740    68.0000   200.7770   197.8880   229.3370    25.2520     2.1760 
  168.0000   -12.9020    67.2200   200.0920   197.2120   220.0570    25.0730     2.1690 
  168.1250   -12.3860    68.1670   196.0630   193.2390   209.1770    25.0880     2.1740 
  168.2500   -11.8800    68.5950   185.4910   182.8120   199.3920    25.0970     2.1920 
  168.3750   -11.4780    68.4190   165.4000   162.9990   179.5390    25.0090     2.2200 
  168.5000   -11.1020    70.2020   138.0580   136.0340   129.9560    25.0010     2.2480 
  168.6250   -10.7950    72.1380   106.7040   105.1130    75.1660    25.0710     2.2760 
  168.7500   -10.6000    71.8060    76.3740    75.2020    46.1070    25.1490     2.3090 
  168.8750   -10.3420    69.3050    53.1090    52.2590    40.2480    25.1540     2.3560 
  169.0000   -10.1100    67.5030    37.5780    36.9420    29.2570    25.0990     2.4090 
  169.1250    -9.9810    67.3340    28.8930    28.3760    17.1460    25.0210     2.4490 
  169.2500    -9.8420    67.6070    25.7980    25.3250    13.5930    25.0080     2.4570 
  169.3750    -9.7640    65.2750    28.9800    28.4620    19.5750    24.9960     2.4180 
  169.5000    -9.8320    61.4600    39.4040    38.7430    44.4230    24.8860     2.3530 
  169.6250    -9.9690    60.2430    59.2250    59.3080   109.7970    24.7660     2.2870 
  169.7500   -10.1880    64.3980    89.1920    92.8460   205.8560    24.6810     2.2370 
  169.8750   -10.6010    69.6710   126.7770   136.4980   236.3700    24.5670     2.2130 
  170.0000   -11.0930    70.4170   159.9420   172.3540   262.8860    24.4250     2.2060 
  170.1250   -11.5600    67.4360   179.2350   187.1970   256.4150    24.2330     2.2110 
  170.2500   -12.0170    63.2690   183.2990   183.5010   247.2830    24.0600     2.2230 
  170.3750   -12.3610    60.7350   179.1400   173.6350   232.1310    23.9300     2.2380 
  170.5000   -12.6010    60.1420   176.7030   166.9740   196.0580    23.8980     2.2470 
  170.6250   -12.7730    60.4130   179.0250   165.1990   182.0510    24.0250     2.2440 
  170.7500   -12.7680    59.9270   185.9160   167.9180   190.3550    24.2790     2.2300 
  170.8750   -12.5600    59.6840   195.8050   173.9210   200.7090    24.6070     2.2090 
  171.0000   -12.2490    62.1640   205.2170   180.2440   215.2160    24.7920     2.1920 
  171.1250   -11.8630    64.7310   211.1560   184.4840   229.7840    24.8470     2.1840 
  171.2500   -11.4620    63.4530   211.3300   184.6620   232.2640    24.8580     2.1840 
  171.3750   -11.1060    61.2130   204.1020   179.2240   224.0620    24.8660     2.1900 
  171.5000   -10.7200    61.5660   192.0610   169.9040   213.7580    24.8780     2.1970 
  171.6250   -10.3890    61.3180   177.5810   158.3620   201.2020    24.9130     2.2050 
  171.7500   -10.2080    58.2730   163.1130   146.4100   182.3040    24.9550     2.2190 
  171.8750   -10.0480    56.4060   151.1720   136.2630   159.2510    24.9330     2.2550 
  172.0000    -9.9300    57.9080   142.0610   128.9260   137.3040    24.8380     2.3190 
  172.1250    -9.8710    60.2610   134.2290   123.7270   129.3370    24.7240     2.4090 
  172.2500    -9.7770    61.6320   124.4590   117.6510   132.1590    24.6790     2.5130 
  172.3750    -9.5530    62.2480   108.9060   105.4060   147.2780    24.6310     2.6080 
  172.5000    -9.2380    60.6510    88.9660    86.9540   167.6790    24.5560     2.6770 
  172.6250    -8.7270    57.5660    68.1430    66.1060   134.8780    24.5360     2.7100 
  172.7500    -8.0330    56.9000    50.1050    47.6290    72.7930    24.5920     2.7090 
  172.8750    -7.3260    60.3520    37.4600    34.9200    37.6750    24.6270     2.6810 
  173.0000    -6.5640    63.4700    29.0140    26.7500    29.1050    24.6010     2.6460 
  173.1250    -5.7420    63.9150    23.6510    21.7450    25.2470    24.5410     2.6150 
  173.2500    -4.9440    63.0390    20.3550    18.7410    20.4380    24.4340     2.5980 
  173.3750    -4.1900    62.4510    18.5250    17.1490    17.1530    24.3360     2.6030 
  173.5000    -3.5430    61.9290    17.4350    16.2770    15.2700    24.3060     2.6200 
  173.6250    -3.0680    61.8080    16.8340    15.8560    14.8290    24.3570     2.6380 
  173.7500    -2.7230    61.1250    16.5710    15.7490    15.0210    24.3880     2.6470 
  173.8750    -2.4880    58.2180    16.4810    15.8380    15.1530    24.5050     2.6430 
  174.0000    -2.3510    55.2120    16.2220    15.7680    14.5630    24.5720     2.6310 
  174.1250    -2.2730    53.2760    15.4590    15.1120    14.0040    24.6160     2.6170 
  174.2500    -2.2470    51.6400    13.9630    13.5490    13.6040    24.6150     2.6020 
  174.3750    -2.2710    51.3110    11.7260    11.0390    13.0720    24.5720     2.5840 
  174.5000    -2.2960    53.8330     9.1630     8.2990    12.3020    24.6160     2.5600 
  174.6250    -2.3400    57.2650     6.5800     5.8850    10.4690    24.6340     2.5320 
  174.7500    -2.3970    59.3800     4.3580     4.0710     7.5540    24.5260     2.5030 
  174.8750    -2.3710    59.2890     2.9950     2.9490     5.3290    24.4600     2.4780 
  175.0000    -2.3120    57.8250     2.3930     2.3070     4.1320    24.4340     2.4570 
  175.1250    -2.2530    56.3470     2.3040     2.0510     3.5050    24.4460     2.4370 
  175.2500    -2.1290    56.6210     2.5250     2.1080     3.3720    24.4520     2.4200 
  175.3750    -1.9940    57.6470     3.0230     2.4590     3.7550    24.4610     2.4030 
  175.5000    -1.9140    57.8970     3.6330     2.9970     4.3580    24.4900     2.3850 
  175.6250    -1.8430    59.0610     4.2160     3.6330     4.9330    24.5520     2.3640 
  175.7500    -1.8030    60.3220     4.6900     4.2560     5.3730    24.6070     2.3460 
  175.8750    -1.8710    58.1980     5.0440     4.7650     5.8700    24.6740     2.3400 
  176.0000    -2.0050    56.4250     5.3400     5.1710     6.3580    24.7090     2.3470 
  176.1250    -2.2120    58.8850     5.5860     5.4870     6.6400    24.6980     2.3620 
  176.2500    -2.4950    64.0840     5.7700     5.7090     6.6150    24.7050     2.3750 
  176.3750    -2.8130    65.5930     5.8810     5.8070     6.4310    24.6600     2.3770 
  176.5000    -3.1280    62.9100     5.9460     5.8210     6.1950    24.4980     2.3730 
  176.6250    -3.4190    58.9110     6.0040     5.7960     5.9630    24.3350     2.3710 
