~V
VERS. 2.00: Ver 2.00
~W
STRT.M 57.0000:
STOP.M 214.0000:
STEP.M 0.1250:
NULL. -999.2500:
UWI. F10147:
~C
DEPT.M :
SP.MV :
GR.API :
RML.OHMM :
RI. :
RXO.OHMM :
CALI.CM :
DEN.GM/CC :
~A
# ...
  158.2500   -10.4020    63.7190   107.2890    90.8510   118.8160    25.1840     2.2940 
  158.3750   -10.4500    63.5350   114.1760    97.6640   125.4600    25.2050     2.2850 
  158.5000   -10.4890    63.4400   118.0850   102.1560   127.1220    25.2380     2.2720 
  158.6250   -10.5100    64.0430   119.6360   104.5980   124.8380    25.2680     2.2600 
  158.7500   -10.5240    63.6810   119.7080   105.6530   118.3850    25.2830     2.2490 
  158.8750   -10.5420    61.8060   119.5270   106.3380   110.6510    25.2860     2.2410 
  159.0000   -10.5510    60.5380   120.0150   107.5150   108.3450    25.2770     2.2380 
  159.1250   -10.5520    61.2810   121.3760   109.4440   114.8320    25.2670     2.2370 
  159.2500   -10.5610    63.5920   123.1230   111.7700   125.2340    25.2720     2.2370 
  159.3750   -10.5650    65.8300   124.1750   113.6130   130.4590    25.2820     2.2360 
  159.5000   -10.5600    66.5400   123.7520   114.2730   128.5280    25.2830     2.2340 
  159.6250   -10.5610    65.8380   121.9820   113.7300   122.8140    25.2770     2.2340 
  159.7500   -10.5730    65.6550   119.8140   112.6290   114.3930    25.2660     2.2360 
  159.8750   -10.5740    66.3000   118.7120   112.0970   105.1170    25.2620     2.2390 
  160.0000   -10.5700    65.2590   119.3730   112.8080   103.4370    25.2750     2.2410 
  160.1250   -10.5680    62.2280   121.3650   114.5810   115.6760    25.2930     2.2390 
  160.2500   -10.5600    60.0910   123.6160   116.6590   134.4080    25.3040     2.2340 
  160.3750   -10.5590    60.5090   124.8310   118.0220   139.4950    25.3110     2.2290 
  160.5000   -10.5730    61.1820   124.5780   118.2200   123.0520    25.3080     2.2250 
  160.6250   -10.5880    60.8690   123.3920   117.5550    98.9110    25.3010     2.2240 
  160.7500   -10.6070    61.1390   122.1820   116.7260    87.8040    25.3000     2.2240 
  160.8750   -10.6410    63.2500   121.8020   116.5140    97.4500    25.2970     2.2230 
  161.0000   -10.6760    66.4190   122.3730   117.1460   113.1280    25.2610     2.2230 
  161.1250   -10.7050    68.5150   123.5210   118.3760   121.5370    25.2180     2.2230 
  161.2500   -10.7480    67.7330   124.9870   119.9730   124.2670    25.1880     2.2250 
  161.3750   -10.7890    64.8340   127.0550   122.1420   126.2660    25.1820     2.2310 
  161.5000   -10.8150    63.2740   130.3850   125.4290   127.6410    25.2220     2.2360 
  161.6250   -10.8320    64.4740   135.5100   130.3090   129.7800    25.2990     2.2390 
  161.7500   -10.8430    66.4540   142.3120   136.6770   137.2620    25.3630     2.2390 
  161.8750   -10.8380    67.7820   149.4470   143.2900   149.3640    25.4000     2.2370 
  162.0000   -10.8280    68.2870   154.8180   148.1670   160.4200    25.4400     2.2330 
  162.1250   -10.8280    66.7610   156.9550   149.8320   166.5990    25.5110     2.2310 
  162.2500   -10.8100    62.9150   155.9440   148.1920   163.1980    25.5910     2.2300 
  162.3750   -10.7630    59.7800   153.6510   144.8030   143.7550    25.6320     2.2310 
  162.5000   -10.7130    59.3820   152.6980   142.1560   117.9090    25.6380     2.2360 
  162.6250   -10.6590    60.2090   154.6670   141.9330   108.2030    25.6370     2.2430 
  162.7500   -10.5940    59.6160   159.4740   144.2760   125.9870    25.6430     2.2530 
  162.8750   -10.5290    57.5430   165.6360   148.1560   156.0160    25.6640     2.2620 
  163.0000   -10.4630    56.9680   171.1600   152.0930   169.8480    25.6830     2.2690 
  163.1250   -10.4000    58.4760   174.8810   155.2440   156.6830    25.6870     2.2780 
  163.2500   -10.3550    58.6890   176.7070   157.5310   134.1090    25.6910     2.2890 
  163.3750   -10.3280    55.7580   176.5680   158.7950   135.5280    25.7080     2.3010 
  163.5000   -10.3170    53.6240   173.7600   158.2540   164.3930    25.7230     2.3070 
  163.6250   -10.3330    55.8400   167.0300   154.6090   187.8690    25.7350     2.3070 
  163.7500   -10.3610    60.5450   155.8070   146.9480   176.5400    25.7570     2.3050 
  163.8750   -10.3790    64.5440   141.4960   135.7570   134.6240    25.7810     2.3110 
  164.0000   -10.4100    66.8070   127.4730   123.6670    93.7170    25.7970     2.3320 
  164.1250   -10.4420    67.0770   116.7060   113.6200    75.6420    25.8060     2.3600 
  164.2500   -10.4550    65.7270   110.3380   107.2330    81.5450    25.7560     2.3850 
  164.3750   -10.4660    64.9340   107.9450   104.6620   103.8260    25.6260     2.3930 
  164.5000   -10.4760    65.7900   107.3310   104.0790   126.4050    25.5220     2.3820 
  164.6250   -10.4650    65.8170   106.0090   103.1320   131.5400    25.5590     2.3560 
  164.7500   -10.4380    62.4730   102.3890   100.1950   113.0650    25.6600     2.3250 
  164.8750   -10.4210    58.4300    96.0200    94.5410    83.2880    25.7060     2.3020 
  165.0000   -10.4000    57.7480    88.2970    87.1680    60.4600    25.7190     2.2920 
  165.1250   -10.3590    60.3160    81.2940    79.9130    49.8160    25.7200     2.2970 
  165.2500   -10.3140    63.3730    76.7010    74.4630    46.3130    25.7040     2.3130 
  165.3750   -10.2730    65.6460    76.2400    72.6730    46.5290    25.6760     2.3290 
  165.5000   -10.2230    66.4050    80.8080    75.5940    51.4850    25.6460     2.3350 
  165.6250   -10.1690    63.8250    90.9930    83.7850    64.2730    25.6210     2.3250 
  165.7500   -10.1250    58.7500   107.3190    97.4870    84.3290    25.5970     2.3050 
  165.8750   -10.0710    56.4410   129.1550   115.7710   104.5140    25.5300     2.2800 
  166.0000   -10.0040    57.9890   152.1200   134.8670   124.6490    25.4100     2.2600 
  166.1250    -9.9510    59.3310   169.6020   149.6490   154.2610    25.2730     2.2460 
  166.2500    -9.8990    58.9320   176.4430   156.1880   190.2600    25.1610     2.2380 
  166.3750    -9.8370    59.0270   171.1940   152.9800   204.0090    25.1020     2.2330 
  166.5000    -9.7790    60.3410   158.9160   143.4680   183.3040    25.0770     2.2300 
  166.6250    -9.7180    61.6480   145.8190   132.4770   148.1780    25.0620     2.2300 
  166.7500    -9.6450    62.0270   134.7660   122.7510   121.7300    25.0620     2.2340 
  166.8750    -9.5830    60.4890   125.0780   114.4340   115.6620    25.0960     2.2420 
  167.0000    -9.5310    57.9330   113.6460   105.2380   128.4950    25.1260     2.2550 
  167.1250    -9.4710    57.8550    98.0720    92.7800   144.3130    25.1170     2.2750 
  167.2500    -9.4150    61.9280    78.7620    76.6670   138.9520    25.0900     2.3020 
  167.3750    -9.3700    67.8280    59.0680    59.1380   103.1380    25.0820     2.3310 
  167.5000    -9.3230    72.9260    42.5850    43.5390    59.2140    25.0880     2.3570 
  167.6250    -9.2840    76.6600    30.8030    31.8660    29.8070    25.1020     2.3760 
  167.7500    -9.2610    79.4180    23.4660    24.2880    16.7430    25.1210     2.3900 
  167.8750    -9.2440    81.0030    19.8300    20.1730    12.9860    25.1370     2.4050 
  168.0000    -9.2260    80.8530    18.5270    18.2810    12.5260    25.1550     2.4210 
  168.1250    -9.2200    79.0800    18.2530    17.5560    12.6610    25.1730     2.4330 
  168.2500    -9.2300    76.8600    18.2670    17.3990    12.7340    25.1760     2.4390 
  168.3750    -9.2430    76.1740    18.2230    17.3730    12.5070    25.1550     2.4400 
  168.5000    -9.2620    77.4580    18.0450    17.2400    11.8300    25.1200     2.4380 
  168.6250    -9.2910    79.1770    17.7640    16.9590    10.9290    25.0940     2.4360 
  168.7500    -9.3210    79.8640    17.4510    16.5700    10.3930    25.0810     2.4350 
  168.8750    -9.3520    79.7340    17.1270    16.0870    10.5990    25.0490     2.4310 
  169.0000    -9.3840    81.5000    16.6210    15.4940    11.1300    24.9750     2.4230 
  169.1250    -9.4230    86.4480    15.7280    14.8120    11.2950    24.8980     2.4130 
  169.2500    -9.4680    91.5960    14.6270    14.1560    10.8060    24.9070     2.4060 
  169.3750    -9.5090    92.3350    14.1070    13.8330    10.0960    24.9630     2.4050 
