~V
VERS. 2.00: Ver 2.00
~W
STRT.M 59.0000:
STOP.M 216.0000:
STEP.M 0.1250:
NULL. -999.2500:
UWI. F10129:
~C
DEPT.M :
GR.API :
RML.OHMM :
RI. :
RXO.OHMM :
CALI.CM :
DEN.GM/CC :
SP.MV :
~A
# ...
  104.0000    90.1170     9.3660     8.0840     9.0250    24.9590     2.3730   -12.5540 
  104.1250    93.8870     8.0480     7.0500     6.5200    24.9990     2.3590   -10.6220 
  104.2500    90.3950     7.1700     6.3190     6.8020    25.0260     2.3550    -8.9360 
  104.3750    87.0720     6.6980     5.8880     8.5460    25.0870     2.3610    -7.4840 
  104.5000    90.4360     6.4640     5.6680     7.6850    25.0900     2.3680    -6.3630 
  104.6250    98.9590     6.2990     5.5420     6.2390    25.0580     2.3660    -5.7010 
  104.7500   104.5400     6.1440     5.4280     5.4800    25.0160     2.3610    -5.4220 
  104.8750   106.1360     6.0740     5.3590     5.2530    24.9790     2.3590    -5.5060 
  105.0000   104.5900     6.2080     5.4210     5.1130    24.9590     2.3570    -5.9710 
  105.1250    98.8480     6.6580     5.7240     5.3340    24.8740     2.3420    -6.7530 
  105.2500    90.6380     7.3080     6.2170     5.9050    24.7890     2.3030    -7.6590 
  105.3750    81.8780     7.9640     6.7750     6.4000    24.8390     2.2410    -8.6340 
  105.5000    75.4920     8.3770     7.1880     7.0330    24.8990     2.1720    -9.5820 
  105.6250    72.3180     8.2740     7.1580     7.7300    24.9070     2.1260   -10.3370 
  105.7500    73.7480     7.7470     6.7260     7.4020    24.8880     2.1190   -10.8070 
  105.8750    79.8070     7.0150     6.0960     6.6140    24.9030     2.1400   -11.0320 
  106.0000    87.9030     6.3680     5.5290     5.5210    24.9260     2.1630   -11.1240 
  106.1250    91.4640     6.1140     5.2630     5.0660    24.9080     2.1650   -11.2330 
  106.2500    89.6340     6.2870     5.3300     5.4340    24.8560     2.1560   -11.5380 
  106.3750    86.7600     6.8160     5.7090     7.5000    24.8420     2.1620   -12.0930 
  106.5000    83.9130     7.5360     6.3000    11.9180    24.8980     2.1960   -12.8670 
  106.6250    79.0570     8.2090     6.9110    18.5630    24.9450     2.2460   -13.8370 
  106.7500    74.2690     8.6770     7.3470    15.5360    24.9040     2.2790   -14.9240 
  106.8750    71.9020     8.9040     7.5370     9.8780    24.7410     2.2790   -15.9920 
  107.0000    70.4550     8.9200     7.4950     7.4360    24.5010     2.2510   -16.8120 
  107.1250    70.1650     8.7160     7.2360     7.0230    24.1640     2.2210   -17.1090 
  107.2500    74.0920     8.2870     6.8020     7.0460    23.9060     2.2090   -16.8120 
  107.3750    79.6670     7.6090     6.1870     7.1960    23.8360     2.2210   -15.9120 
  107.5000    84.5890     6.7540     5.4530     7.0180    24.0240     2.2480   -14.5910 
  107.6250    90.8100     5.9960     4.7990     5.9220    24.3310     2.2790   -13.0730 
  107.7500    97.6840     5.6670     4.4280     5.0700    24.6000     2.3070   -11.6040 
  107.8750    99.7090     6.0280     4.4860     4.6730    24.7970     2.3370   -10.3350 
  108.0000    95.8020     7.2080     5.0760     5.3780    24.9080     2.3780    -9.3730 
  108.1250    89.5480     9.1650     6.3490     9.4370    24.9050     2.4310    -8.9150 
  108.2500    81.0460    11.2250     8.0260    18.0090    24.8460     2.4760    -9.0140 
  108.3750    72.1740    12.6580     9.5530    21.9810    24.7430     2.4880    -9.7260 
  108.5000    67.6910    12.9220    10.2170    15.9690    24.5700     2.4560   -10.9340 
  108.6250    69.9900    11.9290     9.6960    10.3160    24.3910     2.3870   -12.4640 
  108.7500    71.6280    10.5520     8.7570     8.7810    24.3030     2.3170   -14.0590 
  108.8750    70.8390     9.4310     7.9340     8.8100    24.3000     2.2660   -15.5660 
  109.0000    71.8820     8.8700     7.4670     8.7880    24.3320     2.2360   -16.9030 
  109.1250    75.9970     8.8670     7.3990     8.8720    24.4050     2.2140   -18.0050 
  109.2500    77.5600     9.0620     7.5120     8.7300    24.3960     2.1870   -18.9080 
  109.3750    74.9530     9.2340     7.6410     8.6570    24.3510     2.1550   -19.5960 
  109.5000    70.3750     9.2720     7.6780     8.6890    24.2960     2.1280   -20.0710 
  109.6250    66.8320     9.1800     7.6010     8.8590    24.2840     2.1190   -20.3300 
  109.7500    65.0320     9.0730     7.4940     9.1480    24.3110     2.1270   -20.4500 
  109.8750    66.0530     9.0330     7.4290     9.3820    24.4000     2.1450   -20.4760 
  110.0000    69.3860     9.0910     7.4420     9.3430    24.4710     2.1610   -20.3970 
  110.1250    71.9370     9.2220     7.5280     8.9660    24.3440     2.1710   -20.1250 
  110.2500    71.6110     9.3370     7.6110     8.5320    23.9750     2.1760   -19.7150 
  110.3750    68.9750     9.3730     7.6280     8.1960    23.7010     2.1780   -19.2560 
  110.5000    67.5780     9.3060     7.5510     8.0980    23.7820     2.1790   -18.7910 
  110.6250    69.4560     9.1600     7.4000     8.0800    23.9840     2.1750   -18.3690 
  110.7500    70.9850     9.0230     7.2560     8.0880    24.0060     2.1650   -18.0920 
  110.8750    70.9490     8.9600     7.1760     8.2800    23.9370     2.1510   -17.9860 
  111.0000    70.7450     9.0010     7.1890     8.6010    23.8730     2.1370   -18.0140 
  111.1250    70.1640     9.1550     7.3060     8.9200    23.8600     2.1280   -18.2180 
  111.2500    67.3270     9.3660     7.4830     9.1890    23.9260     2.1260   -18.5590 
  111.3750    64.4990     9.5940     7.6830     9.2950    24.0810     2.1310   -18.9830 
  111.5000    64.1370     9.8000     7.8740     9.1420    24.2760     2.1450   -19.4180 
  111.6250    65.4050     9.9250     8.0070     8.9130    24.5270     2.1650   -19.7700 
  111.7500    66.9190     9.9360     8.0510     8.6490    24.6830     2.1890   -19.9040 
  111.8750    68.1100     9.8120     7.9810     8.3500    24.6750     2.2090   -19.7830 
  112.0000    67.7230     9.5680     7.7990     8.0920    24.5910     2.2210   -19.4830 
  112.1250    66.7860     9.2660     7.5450     7.7410    24.4400     2.2150   -19.0320 
  112.2500    68.6310     9.0090     7.3000     7.4390    24.3260     2.1930   -18.4740 
  112.3750    71.9280     8.8630     7.1210     7.3750    24.2810     2.1620   -17.8270 
  112.5000    74.0330     8.8550     7.0360     7.5050    24.3130     2.1300   -17.1450 
  112.6250    75.3080     8.9670     7.0440     7.5130    24.3120     2.1120   -16.5110 
  112.7500    77.3530     9.1080     7.0860     7.4810    24.2440     2.1100   -16.0020 
  112.8750    78.2480     9.2140     7.1210     7.4540    24.1690     2.1220   -15.6250 
  113.0000    76.6410     9.2560     7.1310     7.4530    24.1190     2.1430   -15.3880 
  113.1250    75.1720     9.2610     7.1410     7.4730    24.0670     2.1710   -15.2790 
  113.2500    77.7070     9.3200     7.2050     7.6180    24.0960     2.2030   -15.2450 
  113.3750    82.0070     9.5490     7.3950     8.0220    24.1950     2.2380   -15.2450 
  113.5000    82.7000    10.0890     7.7990     8.4760    24.3070     2.2680   -15.1920 
  113.6250    79.2800    11.1860     8.5950     9.0710    24.3900     2.2780   -15.0090 
  113.7500    76.4960    12.8500     9.8350     9.3420    24.4460     2.2680   -14.7220 
  113.8750    74.8050    14.9740    11.5280     9.3350    24.3980     2.2440   -14.3660 
  114.0000    72.1180    17.1660    13.4910     9.4390    24.3240     2.2210   -13.9190 
  114.1250    68.9820    18.5360    15.0640    10.7720    24.2860     2.2110   -13.3460 
  114.2500    66.7920    18.4770    15.4480    12.2900    24.3000     2.2130   -12.6550 
  114.3750    63.4080    16.8690    14.3190    11.7830    24.2860     2.2230   -11.8320 
  114.5000    61.9740    14.1950    12.1440    10.3820    24.2690     2.2350   -10.8950 
  114.6250    68.0670    11.3400     9.8150     8.7580    24.3680     2.2450    -9.8860 
  114.7500    78.8110     9.0260     7.9280     6.9820    24.5770     2.2520    -8.9190 
  114.8750    87.2490     7.4530     6.6080     5.7530    24.8110     2.2500    -8.0410 
  115.0000    89.8340     6.5510     5.7970     5.2880    24.9480     2.2410    -7.2380 
  115.1250    88.9940     6.1760     5.4120     5.4310    24.9750     2.2300    -6.5060 
