~V
VERS. 2.00: Ver 2.00
~W
STRT.M 50.0000:
STOP.M 237.0000:
STEP.M 0.1250:
NULL. -999.2500:
UWI. F10163:
~C
DEPT.M :
DEN.GM/CC :
GR.API :
RML.OHMM :
RI. :
RXO.OHMM :
CALI.CM :
SP.MV :
~A
# ...
  162.5000     2.2200    73.2450    16.6040    14.2550    14.5010    25.7700    -7.4340 
  162.6250     2.2020    74.7490    16.5020    14.2550    14.2680    25.7990    -7.1900 
  162.7500     2.1810    75.7290    16.4160    14.2540    14.3850    25.7860    -6.9890 
  162.8750     2.1600    75.6330    16.3090    14.2490    14.2330    25.8160    -6.7780 
  163.0000     2.1420    76.4210    16.0960    14.1880    13.8060    25.7830    -6.4820 
  163.1250     2.1330    79.2620    15.6420    13.9550    13.6440    25.7680    -6.1040 
  163.2500     2.1370    80.4830    14.9550    13.5130    13.5180    25.7810    -5.7070 
  163.3750     2.1570    78.2890    14.1250    12.8990    12.8550    25.6900    -5.3190 
  163.5000     2.1900    75.7880    13.3240    12.2410    11.4460    25.5450    -4.9440 
  163.6250     2.2270    77.4840    12.8080    11.7540    10.5530    25.3870    -4.6310 
  163.7500     2.2570    80.6380    12.7110    11.5780     9.9480    25.4310    -4.3580 
  163.8750     2.2700    81.9210    13.1200    11.8030    10.0850    25.6570    -4.1400 
  164.0000     2.2630    80.4790    14.0420    12.4600    11.2670    25.7680    -4.0410 
  164.1250     2.2400    78.4370    15.4290    13.5540    13.0940    25.8290    -4.1600 
  164.2500     2.2140    77.6100    17.0010    14.8820    14.4780    25.8660    -4.4830 
  164.3750     2.1950    77.3090    18.5420    16.2730    15.8590    26.0260    -4.9670 
  164.5000     2.1910    77.2950    19.8770    17.5590    17.2990    26.0030    -5.5240 
  164.6250     2.2030    78.7800    20.8660    18.5790    18.6610    25.5490    -6.1080 
  164.7500     2.2250    80.5200    21.5880    19.3450    19.8060    24.9480    -6.7720 
  164.8750     2.2480    78.8940    22.1460    19.8990    20.6350    24.7000    -7.5090 
  165.0000     2.2670    72.8040    22.6960    20.3220    21.5690    24.7450    -8.2950 
  165.1250     2.2760    66.5580    23.6180    20.8260    22.4880    24.8700    -9.0730 
  165.2500     2.2760    64.4580    25.3740    21.7790    23.4050    25.0640    -9.8080 
  165.3750     2.2650    68.3760    28.5490    23.6690    24.6780    25.3840   -10.5390 
  165.5000     2.2460    73.3230    33.8180    27.1230    26.7820    25.8900   -11.3650 
  165.6250     2.2210    71.1250    42.4870    33.4670    32.2790    26.1320   -12.3080 
  165.7500     2.1970    64.8900    54.6450    43.1650    45.8900    26.6350   -13.2750 
  165.8750     2.1820    61.7200    70.0060    56.2850    81.6570    27.4440   -14.2560 
  166.0000     2.1800    63.7750    86.8080    71.4790   129.5250    27.9020   -15.2340 
  166.1250     2.1920    67.5650   100.8010    85.2510   132.5640    28.1210   -16.2520 
  166.2500     2.2090    68.8910   109.3910    94.8600   129.5160    28.2910   -17.3340 
  166.3750     2.2240    68.9120   113.2310   100.1530   138.7840    28.4490   -18.4480 
  166.5000     2.2310    70.8730   115.1210   103.0650   151.4950    28.6380   -19.5370 
  166.6250     2.2320    74.7820   117.7350   106.0210   154.4560    28.8200   -20.5660 
  166.7500     2.2310    73.9430   121.4040   109.8640   154.5270    29.0460   -21.5490 
  166.8750     2.2290    67.3740   125.2030   114.0380   153.5040    29.2480   -22.5220 
  167.0000     2.2260    60.9680   127.9970   117.6440   156.5200    29.6380   -23.5290 
  167.1250     2.2220    59.2880   128.7170   119.7550   159.0180    29.7810   -24.5360 
  167.2500     2.2180    59.8790   127.6820   120.4280   155.8460    29.8340   -25.4940 
  167.3750     2.2160    61.3150   125.5110   120.0050   148.0700    29.7910   -26.4210 
  167.5000     2.2180    64.0390   123.0210   119.0650   137.3810    29.9280   -27.3320 
  167.6250     2.2250    66.4970   121.0220   118.2390   128.2270    30.0580   -28.2720 
  167.7500     2.2330    66.9280   119.8870   117.9780   127.4170    30.2090   -29.2660 
  167.8750     2.2380    65.9900   119.7730   118.5550   133.4020    30.3810   -30.3120 
  168.0000     2.2400    64.0150   120.5760   120.0160   132.3960    30.4570   -31.3420 
  168.1250     2.2400    62.6260   121.7560   122.0010   125.2140    30.5140   -32.3040 
  168.2500     2.2400    62.5190   122.1220   123.3990   123.7750    30.5220   -33.2340 
  168.3750     2.2420    62.7990   120.4420   122.9450   129.2250    30.5230   -34.1400 
  168.5000     2.2460    62.2780   115.9500   119.6200   136.1470    30.5210   -35.0100 
  168.6250     2.2500    62.0910   109.1820   113.3020   125.3060    30.4750   -35.8020 
  168.7500     2.2490    64.7080   103.0540   106.5850   100.9250    30.2790   -36.4780 
  168.8750     2.2410    68.8880   100.2440   102.2440    81.6530    30.1430   -37.0160 
  169.0000     2.2250    71.7680   103.0260   102.9990    72.5010    30.0840   -37.4450 
  169.1250     2.2020    70.2450   114.9030   113.1560    74.8900    29.6050   -37.7370 
  169.2500     2.1790    64.9430   136.6810   134.0430    93.5310    29.8550   -37.8390 
  169.3750     2.1620    58.3350   169.4900   166.4460   145.6500    29.7930   -37.6940 
  169.5000     2.1530    53.1320   211.3890   207.3830   213.3640    29.6990   -37.2800 
  169.6250     2.1530    51.3780   250.8190   245.1560   270.9600    29.6770   -36.5780 
  169.7500     2.1590    52.1640   271.3680   265.4170   292.9990    29.6790   -35.7030 
  169.8750     2.1680    54.7510   269.4050   264.1960   284.2620    29.6790   -34.6300 
  170.0000     2.1780    55.1160   256.3720   250.4110   237.9910    29.6780   -33.3070 
  170.1250     2.1860    52.1470   247.1910   238.3340   197.0300    29.8000   -31.7220 
  170.2500     2.1910    51.1710   246.6190   234.5190   176.4040    29.7890   -29.9870 
  170.3750     2.1920    53.4940   253.2000   238.3180   188.1540    29.6760   -28.2110 
  170.5000     2.1920    55.9800   262.7340   246.0270   230.2120    29.5960   -26.4890 
  170.6250     2.1920    56.8560   268.3090   251.4670   265.2370    29.5760   -24.8550 
  170.7500     2.1930    59.0870   266.1760   250.4460   267.1320    29.6280   -23.2580 
  170.8750     2.1940    60.2950   257.5420   243.0420   251.9710    29.6370   -21.7330 
  171.0000     2.1910    57.2590   246.9680   232.8350   238.6020    29.7330   -20.3800 
  171.1250     2.1840    53.7440   239.2450   224.5890   218.8070    29.6710   -19.2830 
  171.2500     2.1730    52.7690   234.9040   219.6880   201.2360    29.5990   -18.4210 
  171.3750     2.1620    52.3570   232.4220   217.0660   204.9480    29.5100   -17.7600 
  171.5000     2.1530    51.3090   229.8330   214.8740   226.0560    29.1670   -17.2430 
  171.6250     2.1500    50.5920   225.2670   211.3990   218.9000    29.0040   -16.8380 
  171.7500     2.1490    50.2050   217.4900   205.7390   167.9430    28.8190   -16.5190 
  171.8750     2.1470    51.0690   203.7580   195.8200   131.5230    28.7110   -16.2780 
  172.0000     2.1430    55.0110   180.4060   178.0810   133.7220    28.6410   -16.0830 
  172.1250     2.1400    58.5540   145.8560   148.8090   186.0540    28.5880   -15.9130 
  172.2500     2.1440    58.3360   109.1990   114.3950   212.0240    28.5660   -15.7230 
  172.3750     2.1600    57.4030    77.9090    82.3980   145.7410    28.5130   -15.4820 
  172.5000     2.1890    60.1310    55.0060    57.6550    59.3540    28.2740   -15.2160 
  172.6250     2.2270    66.6010    40.6680    41.9040    28.5520    28.1130   -14.9350 
  172.7500     2.2640    72.6240    31.2730    31.7350    18.9740    27.8300   -14.6450 
  172.8750     2.2980    76.5440    24.9880    25.0800    17.7510    27.6440   -14.4060 
  173.0000     2.3270    78.1760    20.5670    20.4890    16.6640    27.6350   -14.2030 
  173.1250     2.3520    79.7070    17.4500    17.3350    13.6980    27.5660   -14.0240 
  173.2500     2.3720    84.1350    15.1090    15.0480    11.7280    27.5710   -13.8670 
  173.3750     2.3850    91.3900    13.4170    13.4600     9.8490    27.2510   -13.7420 
  173.5000     2.3910    95.6530    12.3150    12.4440     8.5370    26.3360   -13.6480 
  173.6250     2.3910    92.7640    11.7970    11.9330     8.0130    24.3890   -13.5790 
