~V
VERS. 2.00: Ver 2.00
~W
STRT.M 30.0000:
STOP.M 209.0000:
STEP.M 0.1250:
NULL. -999.2500:
UWI. F10150:
~C
DEPT.M :
SP.MV :
DEN.GM/CC :
GR.API :
RML.OHMM :
RI. :
RXO.OHMM :
CALI.CM :
~A
# ...
   97.5000   -34.1330     2.1620    64.3790     9.0100     7.1630    10.0760    25.0930 
   97.6250   -33.7250     2.1570    66.1730     8.5600     6.8410     9.3940    25.1530 
   97.7500   -33.3660     2.1570    68.1540     8.3580     6.6260     8.6960    25.2060 
   97.8750   -33.1440     2.1600    72.8150     8.6470     6.6940     8.5370    25.2570 
   98.0000   -33.0750     2.1720    78.1090     9.5670     7.1790     9.5900    25.3470 
   98.1250   -33.1190     2.2060    77.7540    11.1600     8.2040    11.8010    25.4320 
   98.2500   -33.3030     2.2680    71.5650    13.0260     9.5770    15.0530    25.4540 
   98.3750   -33.6200     2.3500    64.3540    14.6600    11.0000    22.0010    25.4010 
   98.5000   -33.9590     2.4280    60.4420    15.4850    12.0240    26.0950    25.2960 
   98.6250   -34.2970     2.4560    60.8730    15.0640    12.1530    19.9950    25.1740 
   98.7500   -34.6440     2.4240    61.6160    13.9630    11.6230    14.2290    25.0870 
   98.8750   -34.9600     2.3490    60.2330    12.7410    10.8080    12.1310    25.0290 
   99.0000   -35.1960     2.2620    57.6460    11.7530    10.0220    11.5140    24.9330 
   99.1250   -35.3970     2.1940    56.2270    11.1230     9.4330    11.1630    24.8060 
   99.2500   -35.5030     2.1540    56.9450    10.6750     8.9880    11.1790    24.7580 
   99.3750   -35.5230     2.1390    60.4280    10.2620     8.5970    11.2720    24.8250 
   99.5000   -35.4930     2.1390    64.3810     9.8090     8.1960    11.1410    24.9990 
   99.6250   -35.4360     2.1440    65.0350     9.3610     7.7980    10.7470    25.1590 
   99.7500   -35.3910     2.1430    63.9320     9.0090     7.4720    10.0350    25.2660 
   99.8750   -35.3330     2.1380    63.6670     8.8260     7.2720     9.5580    25.3280 
  100.0000   -35.2590     2.1320    63.8430     8.8610     7.2370     9.3130    25.3560 
  100.1250   -35.2090     2.1290    62.0370     9.1580     7.4140     9.7270    25.3620 
  100.2500   -35.1940     2.1300    60.0330     9.6080     7.7400    10.7600    25.3620 
  100.3750   -35.1620     2.1380    59.5600    10.0880     8.1380    11.9930    25.3620 
  100.5000   -35.1480     2.1550    59.2410    10.4800     8.5090    12.8770    25.3640 
  100.6250   -35.2010     2.1810    58.1470    10.7070     8.7650    12.8210    25.3890 
  100.7500   -35.2350     2.2060    57.9630    10.8550     8.9350    12.6580    25.4570 
  100.8750   -35.2840     2.2200    59.2320    11.0220     9.0860    12.2960    25.5450 
  101.0000   -35.3900     2.2190    59.3860    11.2820     9.2850    12.2190    25.5880 
  101.1250   -35.4630     2.2090    57.0080    11.6540     9.5700    13.5180    25.5650 
  101.2500   -35.5480     2.2030    55.1460    12.0700     9.9060    15.1710    25.5310 
  101.3750   -35.7290     2.2070    56.0190    12.4720    10.2470    16.3460    25.5250 
  101.5000   -35.9190     2.2190    57.6790    12.8130    10.5460    16.2990    25.5190 
  101.6250   -36.0410     2.2270    56.9430    13.0380    10.7530    15.9430    25.5160 
  101.7500   -36.1530     2.2260    54.4070    13.1270    10.8540    16.3110    25.5400 
  101.8750   -36.2160     2.2140    52.4790    13.0410    10.8300    16.7520    25.6370 
  102.0000   -36.1920     2.1950    52.3720    12.7610    10.6650    16.0640    25.8160 
  102.1250   -36.1800     2.1720    53.8480    12.2960    10.3450    13.9940    25.9810 
  102.2500   -36.1360     2.1480    56.6930    11.7860     9.9520    12.7880    26.0480 
  102.3750   -35.9930     2.1280    59.4050    11.3730     9.5820    12.0010    26.0850 
  102.5000   -35.8180     2.1150    61.6080    11.1780     9.3370    11.1770    26.1850 
  102.6250   -35.6160     2.1130    63.3780    11.2970     9.3250    10.9680    26.2590 
  102.7500   -35.4170     2.1210    64.2350    11.6280     9.5080    11.7370    26.2140 
  102.8750   -35.2870     2.1380    63.3240    12.0530     9.8190    13.0490    26.1440 
  103.0000   -35.2060     2.1610    62.0610    12.4230    10.1460    14.9250    26.1250 
  103.1250   -35.1380     2.1830    62.4330    12.5640    10.3390    16.4030    26.1530 
  103.2500   -35.0800     2.2000    64.0610    12.4720    10.3460    16.3480    26.1500 
  103.3750   -35.0440     2.2070    65.6220    12.2230    10.1950    15.0900    26.0950 
  103.5000   -35.0150     2.2040    66.1330    11.9360     9.9660    14.4030    26.0340 
  103.6250   -34.9660     2.1960    64.1590    11.7460     9.7690    13.6980    26.0490 
  103.7500   -34.8310     2.1880    62.0070    11.6950     9.6660    13.3200    26.1340 
  103.8750   -34.6370     2.1810    63.2490    11.7680     9.6730    13.4310    26.2530 
  104.0000   -34.4460     2.1760    67.0740    11.9140     9.7670    13.7870    26.3740 
  104.1250   -34.2190     2.1730    67.9940    12.0580     9.8990    13.7250    26.4200 
  104.2500   -34.0140     2.1700    63.9740    12.1230     9.9990    13.7420    26.3920 
  104.3750   -33.8370     2.1680    57.8880    12.0550    10.0130    14.2570    26.3120 
  104.5000   -33.6690     2.1690    54.3360    11.8400     9.9110    14.6950    26.2170 
  104.6250   -33.5460     2.1740    56.0190    11.5130     9.6920    13.9780    26.1480 
  104.7500   -33.5090     2.1800    59.6200    11.1820     9.4290    12.8330    26.1060 
  104.8750   -33.5130     2.1830    60.1470    10.9160     9.1810    12.0890    26.0750 
  105.0000   -33.5080     2.1820    56.5770    10.7460     8.9900    11.5170    26.0520 
  105.1250   -33.5540     2.1750    54.2940    10.6570     8.8710    11.6170    26.0200 
  105.2500   -33.5740     2.1660    57.4400    10.5760     8.7760    11.8750    25.9770 
  105.3750   -33.5540     2.1610    64.2920    10.4510     8.6640    12.1120    25.9440 
  105.5000   -33.5250     2.1600    69.0720    10.2600     8.5100    12.1370    25.9340 
  105.6250   -33.4590     2.1650    69.1710    10.0110     8.3190    12.0940    25.9590 
  105.7500   -33.2640     2.1720    66.9500     9.7740     8.1380    12.0560    25.9930 
  105.8750   -32.9740     2.1790    64.7710     9.6280     8.0200    12.1010    25.9980 
  106.0000   -32.6070     2.1860    62.3260     9.6570     8.0220    12.1800    25.9630 
  106.1250   -32.1190     2.1930    61.6010     9.9520     8.2090    11.9310    25.9120 
  106.2500   -31.5840     2.2000    63.5490    10.4790     8.5680    11.5710    25.8770 
  106.3750   -31.0130     2.2060    66.0860    11.1780     9.0760    11.7350    25.8550 
  106.5000   -30.3960     2.2090    67.4120    11.9140     9.6550    12.2690    25.8320 
  106.6250   -29.7930     2.2040    65.8220    12.4250    10.1300    12.9750    25.7940 
  106.7500   -29.2510     2.1940    63.6630    12.5320    10.3330    13.6270    25.7470 
  106.8750   -28.7320     2.1830    63.8310    12.1580    10.1710    14.1170    25.7250 
  107.0000   -28.3250     2.1790    67.0140    11.3760     9.6600    12.7180    25.7390 
  107.1250   -28.1490     2.1890    70.5300    10.4020     8.9310     9.6350    25.7740 
  107.2500   -28.1540     2.2090    70.9530     9.5290     8.2190     7.6490    25.7910 
  107.3750   -28.3870     2.2330    70.6890     8.9120     7.6600     7.4960    25.8120 
  107.5000   -28.8850     2.2520    73.2430     8.6280     7.3340     8.3490    25.8410 
  107.6250   -29.5970     2.2520    75.8430     8.7390     7.3180     8.5240    25.8600 
  107.7500   -30.4680     2.2290    73.7160     9.1200     7.5490     8.8670    25.8700 
  107.8750   -31.4990     2.1860    67.1850     9.6570     7.9660     9.7070    25.9010 
  108.0000   -32.5580     2.1330    60.9610    10.2030     8.4620    10.8730    25.9220 
  108.1250   -33.4940     2.0790    59.2380    10.5630     8.8750    12.6880    26.0010 
  108.2500   -34.3570     2.0280    58.9580    10.6460     9.0790    13.6180    26.2310 
  108.3750   -35.0650     1.9790    57.6140    10.4420     9.0220    12.0430    26.7010 
  108.5000   -35.5400     1.9330    55.9550    10.0200     8.7390     9.3060    26.9990 
  108.6250   -35.8330     1.9020    55.1310     9.5180     8.3340     7.5960    26.7410 
