~V
VERS. 2.00: Ver 2.00
~W
STRT.M 50.0000:
STOP.M 252.0000:
STEP.M 0.1250:
NULL. -999.2500:
UWI. F10101:
~C
DEPT.M :
DEN.GM/CC :
SP.MV :
GR.API :
RML.OHMM :
RI. :
RXO.OHMM :
CALI.CM :
~A
# ...
  140.0000     2.4020    -8.2290    88.5280     6.1400     5.2420     6.0440    23.9730 
  140.1250     2.4160    -8.1650    90.0920     6.0890     5.1470     6.0700    24.0420 
  140.2500     2.4230    -8.1280    90.4530     6.0680     5.0580     6.1890    24.0720 
  140.3750     2.4210    -8.0730    89.4900     6.0520     4.9690     6.3100    24.0810 
  140.5000     2.4170    -8.0760    88.7440     6.0140     4.8800     6.3470    24.0750 
  140.6250     2.4120    -8.0540    89.2750     5.9310     4.7850     6.1060    24.0750 
  140.7500     2.4090    -8.0490    90.0260     5.8220     4.6800     5.7850    24.0750 
  140.8750     2.4120    -8.0580    88.6780     5.7080     4.5660     5.6250    24.0430 
  141.0000     2.4230    -8.0580    85.4850     5.6140     4.4510     5.6550    23.9590 
  141.1250     2.4340    -8.1070    84.4250     5.5690     4.3620     5.6610    23.8510 
  141.2500     2.4340    -8.1340    87.0200     5.5780     4.3180     5.6320    23.8860 
  141.3750     2.4190    -8.2080    89.1720     5.6370     4.3310     5.5640    24.0910 
  141.5000     2.3960    -8.3080    87.9600     5.7330     4.3930     5.5870    24.2640 
  141.6250     2.3700    -8.3940    85.9640     5.8520     4.4880     5.7290    24.2730 
  141.7500     2.3490    -8.5400    86.1090     5.9670     4.5880     5.9180    24.2360 
  141.8750     2.3350    -8.6410    87.2860     6.0700     4.6780     6.0400    24.1630 
  142.0000     2.3280    -8.7840    87.0250     6.1790     4.7680     6.0430    24.0520 
  142.1250     2.3240    -8.9140    85.2070     6.3530     4.8930     6.1190    24.0310 
  142.2500     2.3210    -9.0070    83.6460     6.6190     5.0740     6.2790    24.0720 
  142.3750     2.3170    -9.1190    81.4930     6.9530     5.3020     6.6210    24.1090 
  142.5000     2.3100    -9.1260    79.2270     7.2720     5.5300     7.1930    24.1300 
  142.6250     2.3030    -9.0990    78.9420     7.4210     5.6570     7.7540    24.1510 
  142.7500     2.3030    -9.0190    80.2800     7.3360     5.6220     7.6040    24.1730 
  142.8750     2.3130    -8.8670    81.7290     7.0320     5.4160     6.8150    24.2390 
  143.0000     2.3310    -8.6810    82.8380     6.6030     5.0900     5.7440    24.3340 
  143.1250     2.3510    -8.4670    84.7080     6.1780     4.7300     5.2790    24.3600 
  143.2500     2.3670    -8.2530    86.4300     5.8520     4.4230     5.1730    24.3420 
  143.3750     2.3750    -8.0440    86.6210     5.6570     4.2090     5.2220    24.3580 
  143.5000     2.3770    -7.8690    87.5890     5.5890     4.0980     5.1880    24.4020 
  143.6250     2.3800    -7.7610    90.1380     5.6230     4.0810     5.1080    24.4310 
  143.7500     2.3880    -7.6580    92.2960     5.6970     4.1100     5.2940    24.4380 
  143.8750     2.3990    -7.6430    93.2520     5.7730     4.1560     5.4580    24.4680 
  144.0000     2.4100    -7.6550    93.8630     5.8300     4.1970     5.4730    24.4050 
  144.1250     2.4140    -7.6510    95.7470     5.8520     4.2240     5.3810    24.3590 
  144.2500     2.4160    -7.7100    96.0190     5.8490     4.2410     5.3880    24.3090 
  144.3750     2.4190    -7.7190    95.1420     5.8370     4.2500     5.4060    24.2620 
  144.5000     2.4250    -7.7590    95.5280     5.8270     4.2550     5.3860    24.2370 
  144.6250     2.4300    -7.7850    98.4700     5.8190     4.2550     5.2980    24.2230 
  144.7500     2.4320    -7.7830   100.6000     5.8010     4.2470     5.1960    24.2010 
  144.8750     2.4310    -7.8050    98.9470     5.7700     4.2300     5.0850    24.1710 
  145.0000     2.4260    -7.7710    94.7410     5.7320     4.2090     5.0530    24.1330 
  145.1250     2.4170    -7.7710    93.1170     5.7010     4.1950     5.0640    23.9510 
  145.2500     2.4090    -7.7530    95.2050     5.6830     4.1930     5.1030    23.6600 
  145.3750     2.4090    -7.7440    98.2010     5.6720     4.2030     5.1570    23.3220 
  145.5000     2.4170    -7.7590    98.1820     5.6520     4.2100     5.1000    23.0200 
  145.6250     2.4290    -7.7300    93.8370     5.6110     4.1980     5.1810    22.9070 
  145.7500     2.4390    -7.7800    89.8070     5.5540     4.1610     5.3140    23.0180 
  145.8750     2.4450    -7.8030    88.4510     5.4930     4.1090     5.3240    23.2790 
  146.0000     2.4510    -7.8510    89.7610     5.4410     4.0590     5.0510    23.5990 
  146.1250     2.4540    -7.9330    92.8180     5.3990     4.0260     4.9470    23.9560 
  146.2500     2.4510    -7.9700    95.7170     5.3570     4.0050     4.9060    24.2860 
  146.3750     2.4410    -8.0520    97.6010     5.3060     3.9810     4.8420    24.4170 
  146.5000     2.4290    -8.0830    98.9280     5.2450     3.9400     4.8150    24.4470 
  146.6250     2.4200    -8.1450   100.7450     5.1780     3.8820     4.8560    24.4130 
  146.7500     2.4110    -8.1800   100.9130     5.1170     3.8270     4.8300    24.3230 
  146.8750     2.4010    -8.2020    97.9830     5.0650     3.7910     4.7840    24.2520 
  147.0000     2.3950    -8.2530    93.4510     5.0270     3.7840     4.7720    24.2200 
  147.1250     2.3960    -8.2440    92.6050     5.0030     3.8080     4.7580    24.1880 
  147.2500     2.3980    -8.2780    94.5860     4.9920     3.8460     4.7380    24.1280 
  147.3750     2.4000    -8.2750    96.0470     4.9900     3.8870     4.7140    24.0400 
  147.5000     2.4020    -8.3140    96.4310     4.9870     3.9190     4.6960    23.8650 
  147.6250     2.4010    -8.3390    95.6920     4.9760     3.9320     4.7600    23.5450 
  147.7500     2.3960    -8.3820    94.2160     4.9510     3.9230     4.8410    23.2400 
  147.8750     2.3900    -8.4330    92.0360     4.9130     3.9000     4.9030    23.1360 
  148.0000     2.3840    -8.4850    91.9800     4.8730     3.8710     4.9610    23.2990 
  148.1250     2.3780    -8.5250    96.3730     4.8530     3.8550     4.9110    23.5710 
  148.2500     2.3700    -8.5920    98.3660     4.8630     3.8570     4.8630    23.9110 
  148.3750     2.3590    -8.6550    95.5400     4.8990     3.8760     4.8340    24.1650 
  148.5000     2.3470    -8.6680    92.4210     4.9450     3.9080     4.8960    24.2940 
  148.6250     2.3380    -8.7520    95.7180     4.9820     3.9460     5.0130    24.3510 
  148.7500     2.3390    -8.7870   102.7600     5.0350     4.0030     5.0910    24.3730 
  148.8750     2.3480    -8.8040   105.2010     5.1500     4.1050     5.1420    24.3810 
  149.0000     2.3590    -8.8450   100.2300     5.3550     4.2680     5.2700    24.3830 
  149.1250     2.3650    -8.9020    93.7440     5.6200     4.4740     5.6080    24.3520 
  149.2500     2.3670    -8.9400    91.0290     5.8410     4.6610     6.4900    24.2710 
  149.3750     2.3670    -8.9870    91.5570     5.9360     4.7730     7.8510    24.1380 
  149.5000     2.3680    -9.0770    91.9400     5.8800     4.7820     7.7140    23.9940 
  149.6250     2.3750    -9.1380    90.9000     5.7550     4.7220     6.2310    23.9380 
  149.7500     2.3820    -9.2090    90.5760     5.7230     4.7030     5.5000    24.0020 
  149.8750     2.3820    -9.3340    91.6690     5.8880     4.8130     5.5440    24.1060 
  150.0000     2.3740    -9.4380    92.3590     6.3150     5.1250     6.3480    24.2080 
  150.1250     2.3690    -9.5760    88.6790     7.1260     5.7580     7.6930    24.2690 
  150.2500     2.3710    -9.6970    81.3410     8.3290     6.7330     9.3790    24.2340 
  150.3750     2.3770    -9.8400    74.5230     9.9750     8.1040    10.6760    24.1690 
  150.5000     2.3860    -9.9440    70.0160    12.1280     9.9230    12.4220    24.1170 
  150.6250     2.3920   -10.0810    68.5690    14.9170    12.3300    16.3440    24.1220 
  150.7500     2.3870   -10.2030    69.2950    18.1150    15.1850    22.6640    24.1910 
  150.8750     2.3630   -10.2570    69.7690    21.2840    18.1730    26.6750    24.3210 
  151.0000     2.3210   -10.3290    69.8000    23.7280    20.6910    27.6170    24.4790 
  151.1250     2.2810   -10.3610    69.1130    24.6030    21.8830    28.5500    24.6110 
