~V
VERS. 2.00: Ver 2.00
~W
STRT.M 59.0000:
STOP.M 212.0000:
STEP.M 0.1250:
NULL. -999.2500:
UWI. F10143:
~C
DEPT.M :
GR.API :
RML.OHMM :
RI. :
RXO.OHMM :
CALI.CM :
SP.MV :
DEN.GM/CC :
~A
# ...
  160.2500    59.9310   165.7970   157.6470   127.0140    25.1390   -37.6650     2.2170 
  160.3750    58.8600   165.8370   157.5820   125.6420    25.3010   -37.2390     2.2090 
  160.5000    57.5930   166.1690   158.1430   136.7800    25.3980   -36.7920     2.1990 
  160.6250    57.3240   164.1600   157.0140   144.4580    25.4210   -36.3270     2.1880 
  160.7500    59.1090   158.0870   152.4550   139.0620    25.4120   -35.8730     2.1800 
  160.8750    63.5630   146.9020   143.2430   123.7590    25.3790   -35.4660     2.1810 
  161.0000    69.6960   131.5880   129.7100   108.4520    25.3330   -35.1740     2.1930 
  161.1250    74.8400   116.0200   114.5940   101.6100    25.2660   -35.0630     2.2120 
  161.2500    76.5410   104.3770   102.0150    95.6170    25.1940   -34.9910     2.2220 
  161.3750    74.6330    98.8620    94.5290    90.7080    25.1030   -34.9100     2.2230 
  161.5000    70.8040   100.7940    93.8780    87.6360    24.9960   -34.8270     2.2220 
  161.6250    67.1730   112.8940   102.9750   101.2010    24.9180   -34.7320     2.2230 
  161.7500    66.0360   134.9180   121.2360   130.8840    24.8830   -34.6100     2.2250 
  161.8750    65.9210   167.2820   148.2000   151.7830    24.9190   -34.4470     2.2250 
  162.0000    63.5100   208.5910   181.8080   139.5100    25.0580   -34.2470     2.2190 
  162.1250    58.0850   253.6350   217.7420   135.9770    25.2850   -34.0180     2.1980 
  162.2500    52.0890   293.4580   250.1360   172.2600    25.4590   -33.7890     2.1700 
  162.3750    48.4750   322.3850   275.0200   225.8540    25.5530   -33.5510     2.1480 
  162.5000    49.1120   336.8820   289.0530   270.5070    25.6030   -33.2820     2.1330 
  162.6250    53.1870   330.3250   286.4570   328.1250    25.6930   -32.9650     2.1220 
  162.7500    55.7500   306.9600   270.0690   355.9960    25.8080   -32.6230     2.1200 
  162.8750    54.4850   272.0610   244.2250   306.0670    25.8630   -32.2540     2.1330 
  163.0000    52.2060   227.9740   211.2730   212.8890    25.8080   -31.8420     2.1550 
  163.1250    52.9930   175.6790   169.5220   153.3540    25.6940   -31.3580     2.1710 
  163.2500    56.9110   124.6170   123.9840   141.6200    25.6150   -30.8230     2.1780 
  163.3750    61.7920    83.0950    82.9780   141.6080    25.5520   -30.2730     2.1890 
  163.5000    66.3510    51.5490    52.7130    90.4510    25.4730   -29.7420     2.2200 
  163.6250    72.2630    35.5260    35.2700    43.5440    25.4340   -29.2710     2.2740 
  163.7500    78.0920    26.0340    25.3900    23.7860    25.4190   -28.8570     2.3250 
  163.8750    80.9370    20.7080    20.0110    18.3490    25.4040   -28.5080     2.3480 
  164.0000    80.2560    17.9530    17.1130    16.8640    25.3670   -28.2290     2.3420 
  164.1250    79.3820    16.8520    15.7740    16.1500    25.3200   -28.0430     2.3280 
  164.2500    79.7710    16.4120    15.1850    15.1700    25.2550   -27.9270     2.3220 
  164.3750    81.2680    16.2310    15.0220    13.8380    25.2040   -27.8700     2.3280 
  164.5000    85.1310    16.1220    15.0710    13.0800    25.1920   -27.8620     2.3400 
  164.6250    89.1330    16.0690    15.2190    13.4010    25.2250   -27.8870     2.3480 
  164.7500    88.7760    16.0620    15.3800    14.0550    25.2610   -27.9170     2.3490 
  164.8750    84.3970    16.0390    15.4730    14.5290    25.2760   -27.9430     2.3500 
  165.0000    80.5450    15.8870    15.4030    14.3840    25.2740   -27.9480     2.3570 
  165.1250    81.1920    15.5060    15.0620    13.5550    25.2480   -27.9130     2.3660 
  165.2500    83.4830    14.9820    14.5180    12.7750    25.1870   -27.8560     2.3680 
  165.3750    84.9700    14.3990    13.8600    12.5020    25.1230   -27.7910     2.3650 
  165.5000    84.5560    13.8700    13.2140    12.3160    25.1230   -27.7160     2.3580 
  165.6250    81.8890    13.6240    12.8040    12.0960    25.1990   -27.6410     2.3510 
  165.7500    79.1120    13.7870    12.7620    12.5140    25.3090   -27.5760     2.3510 
  165.8750    78.7550    14.3960    13.1340    13.0210    25.3750   -27.5240     2.3560 
  166.0000    80.1400    15.3500    13.8420    13.3760    25.3630   -27.5020     2.3600 
  166.1250    79.2730    16.3560    14.6400    15.7410    25.3030   -27.5310     2.3560 
  166.2500    75.5980    16.9500    15.1340    20.0560    25.2760   -27.5910     2.3500 
  166.3750    73.8620    16.8250    15.0570    20.3600    25.3090   -27.6640     2.3490 
  166.5000    77.0880    16.0010    14.3980    15.3790    25.3780   -27.7400     2.3560 
  166.6250    81.7890    14.7970    13.3890    12.8910    25.4080   -27.8240     2.3660 
  166.7500    83.1050    13.6670    12.3990    12.1090    25.4180   -27.9050     2.3690 
  166.8750    82.4640    12.8130    11.6170    12.3100    25.4180   -27.9810     2.3660 
  167.0000    85.2330    12.3100    11.1440    12.5990    25.4180   -28.0580     2.3650 
  167.1250    90.1960    12.2650    11.1040    12.8410    25.4180   -28.1460     2.3690 
  167.2500    91.3330    12.7790    11.5160    13.1480    25.4180   -28.2650     2.3710 
  167.3750    88.9960    14.1130    12.5260    14.2270    25.4180   -28.4210     2.3630 
  167.5000    86.4710    16.4530    14.3140    17.0910    25.4170   -28.6190     2.3460 
  167.6250    85.1600    19.7230    17.0460    23.1740    25.4140   -28.8600     2.3270 
  167.7500    82.4120    22.9120    20.0750    31.4930    25.3990   -29.1320     2.3130 
  167.8750    78.6170    24.7970    22.2990    39.0550    25.3710   -29.4310     2.3090 
  168.0000    75.4120    24.4010    22.5490    38.3250    25.3430   -29.7420     2.3210 
  168.1250    75.3760    21.6100    20.4480    27.2450    25.3010   -30.0410     2.3410 
  168.2500    79.2120    18.1430    17.5710    18.6450    25.2140   -30.3040     2.3520 
  168.3750    84.9640    15.1530    14.9610    13.9940    25.0960   -30.5340     2.3510 
  168.5000    90.1130    13.1680    13.0700    12.4300    25.0520   -30.7490     2.3440 
  168.6250    92.1940    12.3360    12.0280    11.9920    25.1060   -30.9660     2.3420 
  168.7500    91.7540    12.2200    11.5530    11.8760    25.1340   -31.2070     2.3450 
  168.8750    91.6370    12.5430    11.4660    12.0470    25.0420   -31.4890     2.3500 
  169.0000    92.6330    13.0680    11.6120    12.1960    24.9250   -31.8180     2.3590 
  169.1250    92.0590    13.6570    11.9170    12.4540    24.8570   -32.2020     2.3690 
  169.2500    88.7580    14.2640    12.3630    12.7830    24.8450   -32.6510     2.3780 
  169.3750    84.7100    14.9280    12.9930    13.7080    24.8840   -33.1590     2.3810 
  169.5000    81.8180    15.7750    13.8520    15.1930    25.0000   -33.7100     2.3740 
  169.6250    80.1280    17.1700    15.0890    18.1150    25.1600   -34.2910     2.3530 
  169.7500    77.7890    19.4170    16.8290    21.2600    25.2330   -34.8720     2.3260 
  169.8750    74.4910    22.8740    19.3280    23.5010    25.1910   -35.4310     2.3030 
  170.0000    72.1770    27.9380    22.9720    26.8200    25.0390   -35.9560     2.2840 
  170.1250    72.4760    35.4060    28.6150    35.7540    24.9020   -36.4440     2.2650 
  170.2500    71.0530    45.1340    36.4040    56.2010    24.8570   -36.8770     2.2440 
  170.3750    66.1690    56.7550    46.2220    78.5040    24.8730   -37.2370     2.2280 
  170.5000    60.0330    69.1780    57.2190    98.3740    24.8960   -37.5180     2.2210 
  170.6250    56.7820    80.4860    67.7430    98.3640    24.9040   -37.7090     2.2250 
  170.7500    57.1670    89.7700    76.7160    88.6640    24.9030   -37.8600     2.2310 
  170.8750    60.0210    97.2010    84.0920    85.0360    24.8920   -37.9880     2.2320 
  171.0000    63.1960   103.1290    90.0670    99.1230    24.8660   -38.1100     2.2270 
  171.1250    62.2730   106.6470    93.8750   120.2320    24.8450   -38.2140     2.2210 
  171.2500    59.0360   107.2330    95.1050   132.1110    24.8370   -38.3090     2.2190 
  171.3750    57.3970   105.4690    94.1030   118.7330    24.8360   -38.4120     2.2220 
