~V
VERS. 2.00: Ver 2.00
~W
STRT.M 63.0000:
STOP.M 308.0000:
STEP.M 0.1250:
NULL. -999.2500:
UWI. F10102:
~C
DEPT.M :
DEN.GM/CC :
SP.MV :
GR.API :
RML.OHMM :
RI. :
RXO.OHMM :
CALI.CM :
~A
# ...
  220.5000     2.2250   -32.8060    60.3440   134.7790   137.0870   111.0930    25.2770 
  220.6250     2.2320   -32.7200    59.0880   123.8980   124.0480    98.6860    25.2520 
  220.7500     2.2400   -32.6240    59.2890   116.7540   114.4540    96.6100    25.2330 
  220.8750     2.2430   -32.4640    60.7990   116.1920   111.5420    85.8870    25.2020 
  221.0000     2.2440   -32.3250    62.6760   122.5340   116.0170    78.2840    25.1490 
  221.1250     2.2450   -32.3300    61.7810   135.9350   128.2860    87.9750    25.0890 
  221.2500     2.2530   -32.2850    58.7830   154.6430   146.8690   115.1460    25.0020 
  221.3750     2.2660   -32.1020    57.0970   172.5220   166.0750   174.3870    24.8850 
  221.5000     2.2770   -32.0260    57.1000   181.2830   176.6480   212.2560    24.7710 
  221.6250     2.2770   -32.0110    57.0180   176.5290   172.8010   181.6780    24.6660 
  221.7500     2.2600   -31.9770    55.2450   160.1770   156.1530   118.9350    24.6030 
  221.8750     2.2270   -31.9460    54.1420   139.2960   134.5200    92.8650    24.5770 
  222.0000     2.1930   -31.9580    54.8770   121.3850   115.7830    79.2990    24.4210 
  222.1250     2.1700   -31.9380    57.5180   108.6560   102.1580    70.4940    24.1290 
  222.2500     2.1670   -31.7920    61.0220   100.7940    93.4640    66.3240    23.8440 
  222.3750     2.1890   -31.5590    63.0970    96.9130    88.9420    64.7930    23.7000 
  222.5000     2.2220   -31.2990    64.7880    94.9140    86.4180    56.7400    23.6160 
  222.6250     2.2520   -31.0840    66.8040    93.5980    84.6480    47.9400    23.6100 
  222.7500     2.2710   -30.8120    66.5240    91.9590    82.6310    47.7100    23.6790 
  222.8750     2.2850   -30.2650    61.2890    89.1440    79.4310    52.6600    23.7520 
  223.0000     2.3070   -29.5660    55.5600    85.3770    75.1370    57.7870    23.8660 
  223.1250     2.3500   -28.8080    55.0270    81.3600    70.4420    59.6540    24.0390 
  223.2500     2.4140   -27.9950    59.0570    77.9480    66.3970    58.2650    24.1920 
  223.3750     2.4930   -27.0220    60.5420    75.5750    63.9360    53.9070    24.1900 
  223.5000     2.5690   -25.9660    58.7870    73.0790    62.2330    52.3250    24.0770 
  223.6250     2.6310   -24.8040    57.7270    68.8420    59.5180    62.4290    23.9410 
  223.7500     2.6680   -23.4940    59.1590    61.5910    53.9230    80.2630    23.8770 
  223.8750     2.6680   -22.1380    60.9340    50.7970    44.9100    85.5940    23.8170 
  224.0000     2.6360   -20.7510    61.8700    39.0110    35.1670    54.2370    23.6910 
  224.1250     2.5810   -19.4060    62.3950    28.7770    26.7030    23.9200    23.4640 
  224.2500     2.5160   -18.1740    62.8320    21.5510    20.3620    10.5400    23.1720 
  224.3750     2.4580   -17.0970    62.0470    17.3200    16.2110     8.0700    22.7920 
  224.5000     2.4140   -16.0540    59.9620    14.4280    13.2980     7.7750    22.4660 
  224.6250     2.3830   -15.0430    58.5800    12.3390    11.1770     7.9850    22.2270 
  224.7500     2.3670   -14.1550    59.9130    10.7710     9.5930     7.2700    21.9480 
  224.8750     2.3650   -13.4290    63.1090     9.6040     8.4810     6.1790    21.7080 
  225.0000     2.3700   -12.8240    64.7600     8.7560     7.7370     5.3770    21.5740 
  225.1250     2.3690   -12.3340    64.3150     8.2410     7.3570     5.0040    21.5890 
  225.2500     2.3510   -12.0100    62.4820     8.0410     7.3100     4.9700    21.6850 
  225.3750     2.3210   -11.8360    58.7230     8.1030     7.5330     5.0880    21.7560 
  225.5000     2.3040   -11.7760    55.3730     8.2480     7.8280     5.2910    21.7800 
  225.6250     2.3210   -11.8500    54.1570     8.3410     8.0410     5.6030    21.7740 
  225.7500     2.3760   -12.0650    55.0120     8.2710     8.0270     5.8390    21.7430 
  225.8750     2.4530   -12.3670    55.4450     7.9270     7.6370     5.6180    21.6780 
  226.0000     2.5160   -12.6420    54.4930     7.3590     6.9580     4.9840    21.5730 
  226.1250     2.5450   -12.7820    54.5600     6.6570     6.1200     4.3490    21.3810 
  226.2500     2.5370   -12.7680    58.1500     5.9570     5.2930     4.0670    21.0380 
  226.3750     2.5010   -12.7630    66.0730     5.4480     4.6660     3.9620    20.7760 
  226.5000     2.4570   -12.8140    73.8460     5.2130     4.3030     3.7970    20.7110 
  226.6250     2.4150   -12.9110    77.9160     5.2730     4.2290     3.7120    20.8750 
  226.7500     2.3770   -13.1380    78.1230     5.5890     4.4290     4.1070    21.2620 
  226.8750     2.3430   -13.5650    76.0060     6.1160     4.8900     5.3660    21.9730 
  227.0000     2.3150   -14.0530    74.5650     6.7780     5.5090     6.9790    22.6010 
  227.1250     2.3020   -14.6070    74.0110     7.6150     6.2400     7.6330    22.9200 
  227.2500     2.3120   -15.2150    73.5330     8.7320     7.0900     7.6160    22.9960 
  227.3750     2.3500   -15.7660    73.7500    10.2540     8.1890     7.7470    22.9850 
  227.5000     2.4020   -16.1920    74.6720    11.8730     9.5160     8.4710    23.0070 
  227.6250     2.4610   -16.4850    76.0160    12.9300    10.6930     9.3220    23.0760 
  227.7500     2.5200   -16.5900    77.1370    12.6270    10.8510    10.0850    23.1270 
  227.8750     2.5750   -16.5410    80.9380    10.4630     9.1080     9.7450    23.1110 
  228.0000     2.6160   -16.5220    88.1760     7.5320     6.5700     8.8120    23.0220 
  228.1250     2.6340   -16.5320    94.0040     4.9300     4.3180     6.5770    22.9080 
  228.2500     2.6220   -16.5840    93.2970     3.3320     2.8080     4.0160    22.8310 
  228.3750     2.5860   -16.7720    88.7200     2.9800     2.1270     3.7440    22.8720 
  228.5000     2.5500   -17.0960    88.3240     3.5140     2.0250     5.0530    22.9590 
  228.6250     2.5300   -17.5070    92.3910     4.8400     2.4690     6.8470    23.1100 
  228.7500     2.5360   -18.0260    96.3340     6.8520     3.5230     7.6120    23.3640 
  228.8750     2.5620   -18.5870    96.4830     9.2010     5.3170     7.8190    23.5560 
  229.0000     2.5850   -19.0870    94.6640    11.2000     7.4220     9.3570    23.6480 
  229.1250     2.5900   -19.5070    91.8960    12.4180     9.2160    11.4750    23.7190 
  229.2500     2.5690   -19.7830    89.4800    12.8130    10.2520    12.4760    23.8210 
  229.3750     2.5280   -19.7250    87.5370    12.6220    10.4770    11.5850    23.9310 
  229.5000     2.4890   -19.4690    85.7550    12.2560    10.3060    10.6410    24.0810 
  229.6250     2.4640   -19.1350    85.8550    11.8390     9.9510    10.6150    24.2730 
  229.7500     2.4550   -18.6680    88.6450    11.3950     9.5340    10.6610    24.4190 
  229.8750     2.4580   -18.0570    92.2190    10.9300     9.0910    10.3150    24.4900 
  230.0000     2.4610   -17.4290    94.7350    10.4750     8.6080     9.2980    24.5210 
  230.1250     2.4620   -16.8550    96.0010    10.0690     8.0910     8.5270    24.5510 
  230.2500     2.4630   -16.3070    95.8850     9.7650     7.6050     7.9540    24.5570 
  230.3750     2.4710   -15.7950    95.8380     9.6780     7.3070     7.4450    24.5480 
  230.5000     2.4870   -15.2960    95.6220     9.8870     7.2810     7.0470    24.5190 
  230.6250     2.5110   -14.7730    95.9880    10.4820     7.5860     7.4090    24.4410 
  230.7500     2.5380   -14.2480    96.5760    11.5000     8.2570     8.7440    24.3230 
  230.8750     2.5520   -13.7760    95.9950    12.8440     9.3150    10.2050    24.1260 
  231.0000     2.5430   -13.3170    94.3260    14.1000    10.4930    10.7580    23.8900 
  231.1250     2.5110   -12.8160    92.6680    14.8280    11.4190    11.3430    23.7610 
  231.2500     2.4640   -12.2690    94.4470    14.6930    11.6850    11.8730    23.7230 
  231.3750     2.4200   -11.6350    98.0510    13.5370    10.9840    12.4860    23.4880 
  231.5000     2.3850   -10.8940    95.5030    11.8820     9.7280     9.7230    23.0890 
  231.6250     2.3570   -10.0830    84.2250    10.1900     8.3420     7.0040    22.8880 
