~V
VERS. 2.00: Ver 2.00
~W
STRT.M 59.0000:
STOP.M 216.0000:
STEP.M 0.1250:
NULL. -999.2500:
UWI. F10129:
~C
DEPT.M :
GR.API :
RML.OHMM :
RI. :
RXO.OHMM :
CALI.CM :
DEN.GM/CC :
SP.MV :
~A
# ...
   70.2500    65.4920     8.7210     7.1310     8.5530    26.5710     2.1690   -27.0460 
   70.3750    65.1620     8.7110     7.1240     8.5450    26.9300     2.1510   -27.3750 
   70.5000    66.3830     8.6490     7.0850     8.5870    27.4000     2.1090   -27.7120 
   70.6250    65.0430     8.5450     7.0120     8.4930    27.9650     2.0510   -28.0430 
   70.7500    60.9210     8.4420     6.9350     8.4870    28.3160     2.0000   -28.3480 
   70.8750    57.7270     8.3770     6.8850     8.4360    27.9710     1.9710   -28.6190 
   71.0000    57.5710     8.3700     6.8810     8.2680    26.7580     1.9700   -28.8550 
   71.1250    59.7460     8.4220     6.9300     8.3710    25.5310     1.9930   -29.0470 
   71.2500    61.3540     8.4980     7.0010     7.8450    24.8530     2.0170   -29.1550 
   71.3750    62.1520     8.5660     7.0620     7.4700    24.5950     2.0310   -29.1650 
   71.5000    63.6620     8.6030     7.0860     7.8600    24.5290     2.0350   -29.1220 
   71.6250    65.3430     8.5880     7.0490     8.1890    24.6030     2.0320   -28.9980 
   71.7500    66.2090     8.5250     6.9590     8.1000    24.9180     2.0340   -28.7530 
   71.8750    66.0330     8.4130     6.8240     7.9900    25.5010     2.0460   -28.3270 
   72.0000    65.2470     8.2460     6.6510     8.2060    26.2060     2.0680   -27.6330 
   72.1250    67.2810     8.0050     6.4370     7.9810    26.5910     2.1040   -26.5210 
   72.2500    73.0020     7.7030     6.1900     7.5770    26.5690     2.1470   -25.1060 
   72.3750    80.1700     7.3730     5.9290     6.7930    26.1290     2.1940   -23.5630 
   72.5000    86.2970     7.0790     5.6950     6.2310    25.5950     2.2350   -22.0430 
   72.6250    91.7860     6.9430     5.5770     5.8220    25.0760     2.2490   -20.6680 
   72.7500    94.5900     7.0290     5.6200     5.8520    24.7290     2.2350   -19.5650 
   72.8750    91.6430     7.3580     5.8460     6.3770    24.4280     2.2030   -18.8380 
   73.0000    85.2740     7.8750     6.2280     7.9460    24.2300     2.1800   -18.4840 
   73.1250    81.1240     8.4220     6.6680     9.5570    24.1370     2.1900   -18.5000 
   73.2500    79.7820     8.8010     6.9970    10.3540    24.1430     2.2250   -18.7060 
   73.3750    80.1290     8.9050     7.1010    10.0000    24.2530     2.2620   -18.8870 
   73.5000    81.8210     8.7270     6.9530     9.4280    24.5100     2.2800   -18.8360 
   73.6250    84.3000     8.3340     6.5970     8.5790    24.6950     2.2730   -18.3380 
   73.7500    88.9580     7.8660     6.1680     7.8550    24.8020     2.2630   -17.3210 
   73.8750    96.8880     7.3780     5.7340     7.3380    24.8770     2.2640   -15.8000 
   74.0000   103.5340     6.9110     5.3390     6.4690    24.9200     2.2790   -14.0300 
   74.1250   102.8220     6.5940     5.0660     6.0290    24.9480     2.2970   -12.3120 
   74.2500    98.2940     6.6190     5.0180     5.9280    24.9750     2.3040   -10.7910 
   74.3750    92.3450     7.2270     5.3310     6.1010    24.9990     2.3010    -9.5280 
   74.5000    86.3920     8.6070     6.1450     7.0130    25.0350     2.3040    -8.5900 
   74.6250    82.0290    10.8150     7.6510    10.4760    25.0930     2.3390    -8.1390 
   74.7500    80.3480    13.2070     9.5920    18.0570    25.0560     2.3990    -8.1820 
   74.8750    79.7670    14.9640    11.3800    26.2490    24.9710     2.4540    -8.7040 
   75.0000    78.2010    15.3540    12.1490    29.2150    24.8570     2.4700    -9.5500 
   75.1250    78.2430    14.0340    11.2980    21.6160    24.7250     2.4190   -10.5200 
   75.2500    78.6610    11.9580     9.7140    13.4720    24.6100     2.3290   -11.4630 
   75.3750    77.8750     9.9480     8.1470     9.0690    24.4550     2.2350   -12.3430 
   75.5000    76.7070     8.5210     6.9820     7.3660    24.2420     2.1660   -13.1550 
   75.6250    76.5380     7.8730     6.3590     6.8200    24.1100     2.1340   -13.8630 
   75.7500    77.3720     7.7010     6.1020     6.6300    24.0410     2.1240   -14.3820 
   75.8750    77.5380     7.7910     6.0830     6.6890    24.0220     2.1260   -14.6420 
   76.0000    78.6000     7.9720     6.1780     6.7580    24.0200     2.1330   -14.6700 
   76.1250    79.8520     8.1030     6.2760     6.6660    24.0420     2.1420   -14.4920 
   76.2500    79.5420     8.1140     6.3050     6.6070    24.0420     2.1520   -14.1240 
   76.3750    78.1340     7.9800     6.2320     6.5890    23.9450     2.1660   -13.5610 
   76.5000    77.4770     7.7190     6.0600     6.7390    23.8100     2.1860   -12.8150 
   76.6250    79.9970     7.3920     5.8190     6.6820    23.8450     2.2120   -11.9600 
   76.7500    84.5210     7.1050     5.5820     6.1280    24.0560     2.2370   -11.1270 
   76.8750    88.2020     6.9390     5.4070     5.6880    24.3950     2.2570   -10.3280 
   77.0000    88.8260     6.9410     5.3340     5.8950    24.7380     2.2680    -9.5690 
   77.1250    86.2190     7.1320     5.3990     5.9940    25.1200     2.2670    -8.9820 
   77.2500    82.5410     7.4290     5.5590     5.9470    25.3260     2.2580    -8.7240 
   77.3750    78.7590     7.7550     5.7710     6.1720    25.3920     2.2390    -8.8480 
   77.5000    76.7090     8.0390     5.9770     6.6580    25.3660     2.2150    -9.2950 
   77.6250    77.1650     8.2350     6.1300     7.1380    25.3100     2.1950   -10.0930 
   77.7500    77.2100     8.3750     6.2430     7.2280    25.2020     2.1830   -11.1790 
   77.8750    77.4030     8.5030     6.3460     7.0970    24.9780     2.1780   -12.5540 
   78.0000    77.6420     8.6670     6.4690     7.0800    24.6490     2.1750   -14.1410 
   78.1250    75.5970     8.8950     6.6380     7.5090    24.4040     2.1690   -15.8290 
   78.2500    71.7140     9.1550     6.8390     8.2310    24.3940     2.1610   -17.4620 
   78.3750    70.0630     9.3950     7.0360     8.7100    24.4950     2.1560   -18.9180 
   78.5000    71.8720     9.5560     7.1800     9.0850    24.4810     2.1570   -20.1560 
   78.6250    73.0610     9.5750     7.2180     9.5690    24.3370     2.1620   -21.1090 
   78.7500    73.7700     9.4740     7.1590     9.8200    24.2650     2.1700   -21.7880 
   78.8750    75.4810     9.2840     7.0280     9.2970    24.2370     2.1760   -22.1590 
   79.0000    76.3080     9.0520     6.8650     8.7630    24.2420     2.1810   -22.2850 
   79.1250    73.3550     8.8300     6.7140     8.4390    24.2430     2.1820   -22.2130 
   79.2500    70.2210     8.6630     6.6050     7.9890    24.1730     2.1790   -22.0330 
   79.3750    71.4930     8.5800     6.5550     7.6730    24.0200     2.1720   -21.8540 
   79.5000    75.4510     8.5940     6.5700     7.6440    23.8860     2.1640   -21.7300 
   79.6250    75.8680     8.7050     6.6500     7.7230    23.8730     2.1580   -21.5420 
   79.7500    73.1830     8.8430     6.7480     8.0680    23.9500     2.1610   -21.1290 
   79.8750    70.6990     8.9240     6.8090     8.4250    24.0810     2.1750   -20.3870 
   80.0000    69.8540     8.8540     6.7640     8.5560    24.2530     2.2010   -19.2150 
   80.1250    76.0060     8.5210     6.5290     7.9040    24.4660     2.2330   -17.5340 
   80.2500    88.5740     7.9720     6.1370     6.7430    24.6640     2.2610   -15.5510 
   80.3750    99.9190     7.3130     5.6580     5.8990    24.8120     2.2820   -13.4180 
   80.5000   104.3090     6.6980     5.1970     5.5380    24.8190     2.2970   -11.2930 
   80.6250   102.9780     6.3290     4.8790     5.2860    24.7530     2.3070    -9.3830 
   80.7500   102.0950     6.2560     4.7470     5.0050    24.8230     2.3110    -7.8840 
   80.8750   100.5060     6.4560     4.8060     5.0790    24.9360     2.3040    -7.0080 
   81.0000    96.0480     6.8280     5.0170     5.5220    24.9410     2.2830    -6.8460 
   81.1250    90.3620     7.2120     5.3010     6.3500    24.8490     2.2560    -7.3500 
   81.2500    85.7450     7.4730     5.5420     7.0670    24.7890     2.2380    -8.1980 
   81.3750    85.0730     7.5740     5.6860     7.2100    24.7500     2.2390    -9.3190 
