~V
VERS. 2.00: Ver 2.00
~W
STRT.M 56.0000:
STOP.M 214.0000:
STEP.M 0.1250:
NULL. -999.2500:
UWI. F10128:
~C
DEPT.M :
SP.MV :
GR.API :
RML.OHMM :
RI. :
RXO.OHMM :
CALI.CM :
DEN.GM/CC :
~A
# ...
  101.0000   -19.6770    64.3120    10.9560     9.0430    11.0610    23.2100     2.1430 
  101.1250   -19.3090    66.8830     9.8660     8.2200     8.9300    23.2270     2.1290 
  101.2500   -18.9080    66.5690     9.0130     7.5410     8.4170    23.3640     2.1150 
  101.3750   -18.4010    63.5700     8.6230     7.1690     8.4090    23.6670     2.1100 
  101.5000   -17.7440    61.1830     8.6670     7.1160     8.5600    23.9920     2.1110 
  101.6250   -16.8970    61.4620     9.0900     7.3750     8.7500    24.2380     2.1180 
  101.7500   -15.8550    63.5500     9.7450     7.8670     9.0320    24.4030     2.1380 
  101.8750   -14.5940    66.0250    10.3340     8.3970     9.8230    24.4700     2.1810 
  102.0000   -13.1800    69.9180    10.5390     8.6760    11.9640    24.3150     2.2440 
  102.1250   -11.6820    75.9390    10.1770     8.4900    14.9440    23.8610     2.3130 
  102.2500   -10.1660    85.4150     9.2810     7.8180    12.2840    23.4460     2.3670 
  102.3750    -8.7280    97.7830     8.1060     6.8760     7.4680    23.4910     2.3830 
  102.5000    -7.4150   106.9580     7.0500     6.0160     5.5840    23.9090     2.3690 
  102.6250    -6.3230   109.6810     6.3110     5.3990     5.0660    24.4200     2.3410 
  102.7500    -5.4890   107.1160     5.9270     5.0700     4.9500    24.7580     2.3150 
  102.8750    -4.9270   105.3480     5.8490     5.0210     5.0630    24.8660     2.3070 
  103.0000    -4.5710   105.8040     5.9040     5.1050     5.2780    24.8700     2.3160 
  103.1250    -4.3750   105.6720     6.0160     5.2380     5.4150    24.8180     2.3330 
  103.2500    -4.3050   101.4550     6.1740     5.3890     5.2820    24.7150     2.3490 
  103.3750    -4.3400    94.0420     6.4160     5.5840     5.0650    24.5760     2.3520 
  103.5000    -4.4450    90.0930     6.7290     5.8330     5.2010    24.3220     2.3420 
  103.6250    -4.5150    90.0530     7.0500     6.1000     5.8130    23.9770     2.3250 
  103.7500    -4.4980    88.3630     7.2670     6.2870     6.6290    23.6260     2.3070 
  103.8750    -4.4150    84.1880     7.2190     6.2310     6.6190    23.3410     2.2940 
  104.0000    -4.3450    84.3160     6.9280     5.9320     6.2590    23.3420     2.2840 
  104.1250    -4.3800    87.1820     6.4990     5.4910     5.4000    23.7430     2.2800 
  104.2500    -4.5580    86.7600     6.1050     5.0710     4.7490    24.3260     2.2810 
  104.3750    -4.9490    82.0270     5.9480     4.8520     4.5140    24.5050     2.2860 
  104.5000    -5.4960    78.8740     6.0560     4.8720     4.6680    24.3740     2.2870 
  104.6250    -6.2030    78.0580     6.3910     5.1150     5.2490    24.0730     2.2810 
  104.7500    -7.0000    77.3050     6.8890     5.5250     6.1300    23.7580     2.2670 
  104.8750    -7.8110    76.9440     7.5660     6.0780     6.7860    23.6920     2.2460 
  105.0000    -8.4700    76.5950     8.4550     6.7690     7.2370    23.8440     2.2280 
  105.1250    -8.8690    75.6760     9.5650     7.6240     7.4320    24.0380     2.2260 
  105.2500    -8.9360    74.2890    10.7450     8.5860     7.6290    24.1020     2.2560 
  105.3750    -8.6150    73.0080    11.5210     9.3340     9.1860    24.0080     2.3310 
  105.5000    -8.0370    72.1000    11.5100     9.4560    13.5740    23.8600     2.4190 
  105.6250    -7.3260    74.1160    10.6120     8.7670    16.3960    23.7850     2.4830 
  105.7500    -6.6540    80.9770     9.1140     7.5200    11.2420    23.7550     2.4940 
  105.8750    -6.1980    88.2590     7.6050     6.2610     5.9370    23.7130     2.4410 
  106.0000    -6.0120    89.3370     6.5590     5.3520     4.4470    23.6520     2.3600 
  106.1250    -6.1050    84.3010     6.1150     4.8810     4.4160    23.6060     2.2800 
  106.2500    -6.4740    78.4530     6.1990     4.8260     5.2260    23.5860     2.2200 
  106.3750    -7.0630    79.0940     6.6310     5.1190     6.1440    23.6090     2.1890 
  106.5000    -7.7780    84.4290     7.1030     5.5190     6.6620    23.6800     2.1790 
  106.6250    -8.5730    87.7770     7.4570     5.8610     6.8480    23.7750     2.1860 
  106.7500    -9.4410    85.1390     7.6590     6.0740     7.0640    23.8400     2.2020 
  106.8750   -10.3710    79.6890     7.7860     6.1890     6.6520    23.8500     2.2160 
  107.0000   -11.3740    76.1240     7.9640     6.3220     6.3070    23.8580     2.2220 
  107.1250   -12.4120    73.8350     8.2400     6.5310     6.7140    23.8610     2.2160 
  107.2500   -13.4400    70.6420     8.5860     6.8170     7.5950    23.8220     2.2030 
  107.3750   -14.4560    67.4730     8.9120     7.1160     8.1800    23.7560     2.1880 
  107.5000   -15.4550    66.0460     9.1360     7.3400     8.3910    23.7110     2.1760 
  107.6250   -16.3800    67.9530     9.2200     7.4400     8.3890    23.7010     2.1670 
  107.7500   -17.1850    72.0700     9.1720     7.4100     8.3600    23.7430     2.1600 
  107.8750   -17.7720    72.0030     9.0270     7.2750     8.3290    23.7990     2.1560 
  108.0000   -18.1330    68.1860     8.8620     7.1070     8.4180    23.8730     2.1540 
  108.1250   -18.2790    65.7040     8.7290     6.9440     8.3980    23.9370     2.1540 
  108.2500   -18.2760    66.1930     8.6600     6.8120     8.2370    23.9840     2.1540 
  108.3750   -18.0950    67.2150     8.6700     6.7360     8.1790    24.0470     2.1520 
  108.5000   -17.7940    67.5550     8.7180     6.7110     8.3830    24.1170     2.1520 
  108.6250   -17.4330    69.9660     8.7650     6.7180     8.8930    24.1750     2.1590 
  108.7500   -17.0450    73.2800     8.7800     6.7270     9.5060    24.1850     2.1720 
  108.8750   -16.6500    73.0000     8.7450     6.7060     9.9790    24.1590     2.1870 
  109.0000   -16.2840    70.8740     8.6800     6.6550     9.0960    24.2010     2.1960 
  109.1250   -15.9480    69.0920     8.6060     6.5950     8.3650    24.3210     2.1980 
  109.2500   -15.6280    69.3230     8.5420     6.5490     7.9550    24.3550     2.1950 
  109.3750   -15.3770    70.1170     8.5100     6.5420     7.6110    24.2620     2.1910 
  109.5000   -15.1690    69.6810     8.5110     6.5690     7.5830    24.2190     2.1870 
  109.6250   -14.9760    71.4430     8.5460     6.6210     7.7620    24.2760     2.1840 
  109.7500   -14.7630    75.5520     8.6070     6.6810     7.7790    24.3010     2.1830 
  109.8750   -14.5270    77.4260     8.6810     6.7370     7.8930    24.2210     2.1840 
  110.0000   -14.2840    74.9410     8.7490     6.7820     8.2310    24.2260     2.1890 
  110.1250   -14.0520    70.7660     8.7970     6.8110     8.4630    24.3350     2.1960 
  110.2500   -13.8250    69.1730     8.8170     6.8200     8.2600    24.4280     2.2020 
  110.3750   -13.5510    69.2330     8.8020     6.8020     7.8720    24.4070     2.2060 
  110.5000   -13.2800    68.9490     8.7620     6.7600     7.6680    24.3880     2.2080 
  110.6250   -13.0240    69.3490     8.6940     6.6930     7.6830    24.4210     2.2100 
  110.7500   -12.8010    71.3040     8.5920     6.6070     7.8080    24.4790     2.2100 
  110.8750   -12.6060    73.2890     8.4490     6.5050     7.8200    24.5050     2.2100 
  111.0000   -12.4220    73.3330     8.2950     6.4060     7.7120    24.4860     2.2120 
  111.1250   -12.2070    71.1030     8.1820     6.3380     7.6560    24.4340     2.2200 
  111.2500   -12.0090    68.8790     8.1930     6.3530     7.7530    24.3360     2.2360 
  111.3750   -11.8580    69.5560     8.4610     6.5430     8.0360    24.1580     2.2560 
  111.5000   -11.6870    71.0770     9.0020     6.9320     8.2170    23.9840     2.2690 
  111.6250   -11.4500    71.9160     9.7750     7.5120     8.3010    23.8620     2.2660 
  111.7500   -11.1240    71.4740    10.6200     8.1910     8.2870    23.9050     2.2470 
  111.8750   -10.6970    71.6920    11.2060     8.7290     8.9000    24.1090     2.2230 
  112.0000   -10.2260    71.4980    11.2980     8.8900    10.1180    24.3290     2.2070 
  112.1250    -9.8000    70.3280    10.8330     8.5810    11.1100    24.3970     2.2070 
