~V
VERS. 2.00: Ver 2.00
~W
STRT.M 50.0000:
STOP.M 237.0000:
STEP.M 0.1250:
NULL. -999.2500:
UWI. F10163:
~C
DEPT.M :
DEN.GM/CC :
GR.API :
RML.OHMM :
RI. :
RXO.OHMM :
CALI.CM :
SP.MV :
~A
# ...
  218.7500     2.3650    87.4320     6.9920     6.3330     6.2210    24.2660    -0.6620 
  218.8750     2.3530    90.9340     7.1000     6.3150     6.2340    24.1730    -0.4560 
  219.0000     2.3460    93.3230     7.2200     6.3230     6.2630    23.9200    -0.3110 
  219.1250     2.3480    91.9060     7.2940     6.3290     6.2600    23.8070    -0.2370 
  219.2500     2.3560    92.9630     7.3070     6.3140     6.3250    23.7260    -0.1800 
  219.3750     2.3640    98.0330     7.2850     6.2810     6.4710    23.8000    -0.1790 
  219.5000     2.3670   103.3880     7.2760     6.2480     6.4490    23.8600    -0.2630 
  219.6250     2.3640   109.2160     7.3290     6.2500     6.4230    23.9160    -0.4320 
  219.7500     2.3570   116.1280     7.4430     6.2990     6.4060    23.9310    -0.6010 
  219.8750     2.3500   120.0410     7.6160     6.4000     6.4910    23.9190    -0.7710 
  220.0000     2.3430   116.7680     7.8300     6.5420     6.6790    23.8590    -0.9340 
  220.1250     2.3360   109.6810     8.0500     6.6940     6.9220    23.7810    -1.1090 
  220.2500     2.3280   105.8420     8.2240     6.8170     7.0420    23.5960    -1.3220 
  220.3750     2.3200   107.8510     8.3180     6.8890     7.0740    23.5020    -1.5340 
  220.5000     2.3130   114.7070     8.3310     6.9040     7.0290    23.2970    -1.7030 
  220.6250     2.3100   118.9310     8.3060     6.8830     6.9900    23.2490    -1.8220 
  220.7500     2.3120   117.6100     8.3180     6.8690     6.9190    23.1610    -1.9230 
  220.8750     2.3200   112.9670     8.4090     6.8890     6.9950    23.1560    -1.9820 
  221.0000     2.3320   108.3800     8.5840     6.9570     7.1970    23.2260    -1.9840 
  221.1250     2.3470   103.7990     8.8330     7.0850     7.4830    23.2420    -1.8910 
  221.2500     2.3590    98.5730     9.0980     7.2500     7.7990    23.2490    -1.7030 
  221.3750     2.3670    96.3630     9.3140     7.4230     7.9320    23.2540    -1.4330 
  221.5000     2.3710    97.8570     9.4340     7.5690     8.0160    23.2560    -1.0930 
  221.6250     2.3730    98.8200     9.4720     7.6800     8.1770    23.2500    -0.6550 
  221.7500     2.3770    98.5430     9.5330     7.8060     8.2320    23.1620    -0.1250 
  221.8750     2.3840    96.3400     9.6980     7.9960     8.7210    23.0790     0.4270 
  222.0000     2.3940    91.6140     9.9790     8.2750     9.1980    23.1510     1.0010 
  222.1250     2.4030    83.1230    10.2720     8.6010    10.4990    23.1920     1.5620 
  222.2500     2.4080    74.8290    10.3680     8.8270    11.3440    23.2550     2.0690 
  222.3750     2.4050    69.8960    10.1200     8.8140    11.2000    23.3160     2.5480 
  222.5000     2.3940    68.7420     9.5500     8.5070    10.3550    23.3310     3.0150 
  222.6250     2.3790    70.8880     8.8640     7.9780     8.5230    23.2580     3.4130 
  222.7500     2.3660    73.1090     8.3100     7.4400     7.1910    23.2370     3.6890 
  222.8750     2.3550    73.8470     7.9570     7.0070     6.3010    23.2340     3.9020 
  223.0000     2.3480    73.3590     7.0360     6.7070     6.5120    23.2610     4.1440 
  223.1250     2.3390    71.7150     6.8260     6.4880     7.0120    23.2960     4.4580 
  223.2500     2.3310    69.6450     6.5160     6.2490     6.9470    23.2160     4.8060 
  223.3750     2.3260    69.4420     6.1370     5.9610     5.8990    23.2040     5.0990 
  223.5000     2.3260    71.9370     5.8040     5.6630     5.1230    23.1980     5.2980 
  223.6250     2.3350    73.4180     5.6830     5.4730     4.8810    23.0350     5.4410 
  223.7500     2.3460    73.2750     5.8270     5.4830     5.0370    22.9800     5.6300 
  223.8750     2.3560    74.1530     6.2550     5.7480     5.4580    23.0490     5.8520 
  224.0000     2.3650    76.3830     6.9280     6.2710     6.2570    23.0750     6.0000 
  224.1250     2.3750    78.2750     7.7470     6.9970     7.1910    23.0120     6.0670 
  224.2500     2.3870    80.2560     8.5210     7.7460     8.0460    22.8670     6.1160 
  224.3750     2.3950    82.5550     9.1120     8.3760     8.6320    22.4440     6.1780 
  224.5000     2.3940    82.9640     9.4480     8.7870     9.0350    22.7100     6.3170 
  224.6250     2.3790    80.4700     9.5290     8.9240     9.0650    22.8290     6.4310 
  224.7500     2.3550    77.5120     9.5110     8.9020     8.8920    22.9960     6.5210 
  224.8750     2.3320    75.0580     9.4990     8.8160     8.8350    23.1160     6.6070 
  225.0000     2.3170    74.9150     9.5540     8.7440     8.9560    22.9310     6.6530 
  225.1250     2.3190    77.6990     9.6920     8.7460     9.0510    22.6610     6.6740 
  225.2500     2.3300    79.3950     9.8570     8.8190     8.9650    22.5860     6.6920 
  225.3750     2.3450    77.6460    10.0150     8.9430     8.7180    22.7400     6.6970 
  225.5000     2.3560    74.1360    10.1500     9.0870     8.6600    23.1470     6.6470 
  225.6250     2.3620    73.1900    10.2660     9.2210     8.8460    22.9910     6.5960 
  225.7500     2.3660    73.2560    10.3760     9.3330     9.2760    22.2610     6.4850 
  225.8750     2.3680    72.1020    10.4690     9.4170    10.2800    21.7710     6.2960 
  226.0000     2.3630    71.2350    10.5270     9.4670    11.6630    21.6110     6.1520 
  226.1250     2.3420    74.3590    10.5360     9.4780    14.1050    21.8650     6.0510 
  226.2500     2.3120    79.1640    10.5180     9.4560    17.3460    22.3280     5.9600 
  226.3750     2.2880    81.7650    10.4920     9.4140    16.5270    22.9270     5.9050 
  226.5000     2.2830    80.7630    10.4740     9.3730    11.0490    22.9210     5.8410 
  226.6250     2.3050    78.7080    10.4830     9.3670     9.0860    22.3460     5.7800 
  226.7500     2.3410    77.8150    10.5160     9.4050     8.8880    21.8650     5.7650 
  226.8750     2.3760    77.8670    10.5560     9.4720     9.2340    21.8830     5.7680 
  227.0000     2.3980    77.9310    10.5830     9.5410     9.4650    22.6800     5.7430 
  227.1250     2.4020    77.9310    10.5880     9.5710     9.5510    22.9520     5.7260 
  227.2500     2.3960    77.9310    10.5880     9.5580     9.7260    23.2020     5.6700 
  227.3750     2.3860    77.9310    10.5890     9.5160    10.0330    23.0050     5.5630 
  227.5000     2.3740    77.9310    10.5880     9.4720    10.0330    22.8740     5.4990 
  227.6250     2.3640    77.9310    10.5680     9.4500    10.0840    22.8910     5.4440 
  227.7500     2.3570    77.9310    10.5260     9.4490    10.2430    22.8710     5.3920 
  227.8750     2.3550    77.9310    10.4820     9.4630    10.1170    22.8800     5.3630 
  228.0000     2.3590    77.9310    10.4660     9.4780     9.6950    23.1110     5.3470 
  228.1250     2.3720    77.9310    10.4770     9.4740     9.5370    23.1700     5.2870 
  228.2500     2.3870    77.9310    10.4750     9.4410     9.3470    23.1080     5.2640 
  228.3750     2.3980    77.9310    10.4280     9.3760     8.9570    23.1570     5.2920 
  228.5000     2.4010    77.9310    10.3260     9.2870     8.5880    23.5160     5.3590 
  228.6250     2.3900    77.9310    10.1740     9.1850     8.8640    23.5830     5.4790 
  228.7500     2.3700    77.9310    10.0100     9.0820     9.2000    23.5360     5.5940 
  228.8750     2.3500    77.9310     9.8570     8.9890     9.1760    23.5060     5.7260 
  229.0000     2.3350    77.9310     9.7380     8.9120     8.7360    23.4290     5.8710 
  229.1250     2.3290    77.9310     9.6760     8.8580     8.2600    23.3990     5.9610 
  229.2500     2.3240    77.9310     9.6550     8.8200     8.3040    23.4190     5.9900 
  229.3750     2.3130    77.9310     9.6460     8.7730     8.4090    23.4820     5.9600 
  229.5000     2.2900    77.9310     9.6190     8.6910     8.4370    23.4500     5.8840 
  229.6250     2.2610    77.9310     9.5600     8.5610     8.3770    23.7000     5.8060 
  229.7500     2.2400    77.9310     9.4870     8.4190     8.8850    23.6230     5.7490 
  229.8750     2.2360    77.9310     9.4140     8.2960     8.8670    23.1200     5.6790 
