~V
VERS. 2.00: Ver 2.00
~W
STRT.M 62.0000:
STOP.M 275.0000:
STEP.M 0.1250:
NULL. -999.2500:
UWI. F10141:
~C
DEPT.M :
GR.API :
RML.OHMM :
RI. :
RXO.OHMM :
CALI.CM :
DEN.GM/CC :
SP.MV :
~A
# ...
   73.2500    56.7730     9.9890     8.1120     8.5980    24.6280     2.0880   -13.2880 
   73.3750    56.3010     9.8480     8.0210     8.5000    24.7370     2.0780   -13.4000 
   73.5000    56.0400     9.6970     7.9120     8.5090    24.7690     2.0790   -13.4840 
   73.6250    56.3650     9.5710     7.8060     8.5590    24.7440     2.0870   -13.5760 
   73.7500    57.1520     9.4850     7.7200     8.5400    24.7570     2.0950   -13.6770 
   73.8750    57.6910     9.4390     7.6600     8.4060    24.7760     2.1000   -13.7580 
   74.0000    57.7100     9.4260     7.6250     8.3860    24.7820     2.1050   -13.7860 
   74.1250    55.9930     9.4350     7.6110     8.7120    24.7640     2.1130   -13.7210 
   74.2500    52.9170     9.4510     7.6040     8.9350    24.7250     2.1240   -13.6320 
   74.3750    50.4950     9.4700     7.6010     8.8560    24.6760     2.1350   -13.5050 
   74.5000    51.1460     9.4960     7.6010     8.5250    24.6270     2.1430   -13.3300 
   74.6250    54.6030     9.5350     7.6140     8.3430    24.6430     2.1440   -13.1090 
   74.7500    58.0740     9.5870     7.6390     8.3070    24.6660     2.1400   -12.8180 
   74.8750    60.8160     9.6470     7.6770     8.4310    24.6660     2.1340   -12.4630 
   75.0000    61.6710     9.7000     7.7170     8.3650    24.6480     2.1300   -12.0950 
   75.1250    60.9170     9.7230     7.7430     8.2890    24.6490     2.1280   -11.7630 
   75.2500    60.4340     9.7090     7.7470     8.3840    24.5890     2.1250   -11.4490 
   75.3750    59.5510     9.6620     7.7310     8.6320    24.4280     2.1210   -11.1770 
   75.5000    57.4770     9.5980     7.7030     8.5680    24.2860     2.1200   -10.9650 
   75.6250    56.7500     9.5410     7.6770     8.2840    24.2510     2.1250   -10.7700 
   75.7500    60.1670     9.5050     7.6600     8.2050    24.2560     2.1330   -10.5750 
   75.8750    63.3520     9.4880     7.6520     8.3280    24.2400     2.1350   -10.3850 
   76.0000    62.6370     9.4780     7.6450     8.4040    24.2350     2.1300   -10.1500 
   76.1250    61.5890     9.4460     7.6220     8.3210    24.2800     2.1180    -9.8190 
   76.2500    61.9850     9.3650     7.5650     8.3030    24.3490     2.1170    -9.3920 
   76.3750    62.1870     9.2200     7.4620     8.2090    24.3570     2.1360    -8.8820 
   76.5000    62.5580     9.0250     7.3150     8.0470    24.2710     2.1780    -8.3320 
   76.6250    66.8970     8.8230     7.1480     7.8810    24.2280     2.2330    -7.7830 
   76.7500    73.7480     8.6650     7.0020     7.5640    24.2620     2.2770    -7.2660 
   76.8750    78.4490     8.5810     6.9030     7.2340    24.3290     2.2990    -6.8370 
   77.0000    78.8720     8.5750     6.8670     7.1670    24.2990     2.2960    -6.5710 
   77.1250    75.0270     8.6530     6.9080     7.3560    24.2390     2.2750    -6.5040 
   77.2500    71.7730     8.7850     7.0100     7.6050    24.1850     2.2470    -6.6130 
   77.3750    70.9320     8.9500     7.1640     7.8960    24.1190     2.2180    -6.8740 
   77.5000    70.5770     9.1240     7.3590     7.9760    24.0500     2.1890    -7.2510 
   77.6250    68.9310     9.2940     7.5890     8.1700    24.0450     2.1610    -7.7310 
   77.7500    67.0670     9.4640     7.8440     8.2600    24.0360     2.1400    -8.2310 
   77.8750    65.9310     9.6490     8.1200     8.2750    23.9700     2.1260    -8.6940 
   78.0000    64.6910     9.8720     8.4140     8.3940    23.8520     2.1210    -9.0480 
   78.1250    63.4180    10.1600     8.7240     9.0190    23.7080     2.1260    -9.2520 
   78.2500    62.6430    10.4980     9.0310     9.8580    23.6350     2.1340    -9.3120 
   78.3750    62.4160    10.8510     9.3070    10.1040    23.7010     2.1400    -9.2240 
   78.5000    63.1200    11.1360     9.5010    10.0670    23.9240     2.1410    -8.9430 
   78.6250    64.0150    11.1420     9.4760     9.6970    24.2110     2.1400    -8.4200 
   78.7500    63.5660    10.7350     9.1450     9.4190    24.4620     2.1480    -7.7640 
   78.8750    62.9980     9.8650     8.4720     9.1460    24.6330     2.1720    -6.9600 
   79.0000    64.9870     8.6490     7.5430     8.7610    24.7590     2.2110    -5.9810 
   79.1250    72.9020     7.4340     6.6020     7.7040    24.8380     2.2540    -4.8810 
   79.2500    85.3100     6.5980     5.9030     6.1560    24.9150     2.2920    -3.7770 
   79.3750    96.4880     6.3420     5.5720     5.3980    24.9780     2.3270    -2.7470 
   79.5000    98.9380     6.7020     5.6420     5.6580    25.0210     2.3640    -1.8750 
   79.6250    91.1270     7.5680     6.0980     8.4750    25.0180     2.3990    -1.2310 
   79.7500    82.3560     8.4670     6.6870    12.7080    25.0010     2.4190    -0.7830 
   79.8750    79.3740     8.9800     7.1400    11.9410    25.0180     2.4120    -0.5830 
   80.0000    82.9190     8.8660     7.2390     9.0280    25.0810     2.3800    -0.6680 
   80.1250    87.6230     8.2010     6.9490     7.8110    25.1320     2.3390    -0.9910 
   80.2500    88.3330     7.4750     6.5560     7.0970    25.1130     2.3110    -1.4400 
   80.3750    85.1720     6.9990     6.2710     6.8650    25.0350     2.3020    -1.9360 
   80.5000    82.0690     6.9160     6.2150     6.9820    24.9580     2.3030    -2.4290 
   80.6250    81.2530     7.2670     6.4460     6.7360    24.8700     2.3030    -2.9660 
   80.7500    79.7490     7.8850     6.8700     6.8700    24.8040     2.2890    -3.5450 
   80.8750    76.1900     8.6590     7.4190     7.7030    24.8320     2.2610    -4.1030 
   81.0000    71.6530     9.4580     8.0110     9.0180    25.0290     2.2260    -4.6470 
   81.1250    67.8630    10.1030     8.5300     9.9510    25.3530     2.1940    -5.1880 
   81.2500    64.3820    10.5200     8.9010    10.3640    25.5710     2.1730    -5.7070 
   81.3750    60.4440    10.7190     9.1050    10.3920    25.5820     2.1620    -6.2110 
   81.5000    57.6920    10.7930     9.1820    10.4530    25.3820     2.1620    -6.7320 
   81.6250    58.8400    10.8940     9.2180    10.4210    25.0890     2.1710    -7.2020 
   81.7500    60.6690    11.1110     9.2920    10.2670    24.9410     2.1810    -7.5640 
   81.8750    61.1860    11.4360     9.4180    10.1460    24.9840     2.1840    -7.8730 
   82.0000    60.4600    11.7960     9.5670    10.1290    25.1240     2.1720    -8.1360 
   82.1250    59.7490    12.0520     9.6660     9.8070    25.1510     2.1450    -8.3520 
   82.2500    59.3280    12.1150     9.6590     9.7020    25.0020     2.1180    -8.5500 
   82.3750    59.1720    11.9770     9.5360     9.9920    24.9410     2.1010    -8.7270 
   82.5000    58.7700    11.7120     9.3360    10.1980    24.9440     2.0980    -8.8520 
   82.6250    58.0850    11.4480     9.1290    10.2100    24.9500     2.1070    -8.9710 
   82.7500    57.8230    11.2680     8.9730    10.2590    24.9260     2.1190    -9.1680 
   82.8750    59.0840    11.1710     8.8820    10.4180    24.9050     2.1320    -9.4010 
   83.0000    61.3080    11.0980     8.8320    10.4540    24.8700     2.1440    -9.6660 
   83.1250    61.2350    10.9840     8.7880    10.3570    24.8350     2.1510    -9.9770 
   83.2500    59.2510    10.8520     8.7470    10.0180    24.8030     2.1500   -10.2910 
   83.3750    56.6270    10.7640     8.7380     9.7240    24.7890     2.1440   -10.5680 
   83.5000    55.1820    10.7700     8.7900     9.5270    24.7880     2.1360   -10.8170 
   83.6250    53.8180    10.8840     8.9220     9.4870    24.7630     2.1370   -11.0150 
   83.7500    51.9500    11.0420     9.0970     9.8220    24.6870     2.1450   -11.1440 
   83.8750    52.1470    11.1750     9.2680    10.4770    24.5920     2.1570   -11.2080 
   84.0000    55.6620    11.2410     9.3860    10.2230    24.5790     2.1680   -11.1820 
   84.1250    59.0460    11.2390     9.4220     9.9390    24.6630     2.1690   -11.0770 
   84.2500    58.7830    11.2200     9.3990     9.8260    24.7330     2.1610   -10.9190 
   84.3750    56.7770    11.2120     9.3400     9.7760    24.7410     2.1490   -10.7140 
