~V
VERS. 2.00: Ver 2.00
~W
STRT.M 50.0000:
STOP.M 251.0000:
STEP.M 0.1250:
NULL. -999.2500:
UWI. F10193:
~C
DEPT.M :
DEN.GM/CC :
GR.API :
RML.OHMM :
RI. :
RXO.OHMM :
CALI.CM :
SP.MV :
~A
# ...
  117.5000     2.4240    94.8080    10.0890     7.1920     7.7690    26.2690    -1.7480 
  117.6250     2.4110    91.3820    11.0130     7.9830     8.6330    26.2710    -2.3900 
  117.7500     2.3580    86.0510    11.3740     8.4500     9.7160    26.1990    -3.1050 
  117.8750     2.2960    82.6710    11.1260     8.4880    10.7890    26.0020    -3.9090 
  118.0000     2.2460    81.0790    10.4670     8.1710    11.2020    25.7550    -4.7850 
  118.1250     2.2150    78.2440     9.7490     7.6930    10.0190    25.6200    -5.6660 
  118.2500     2.1940    75.6530     9.2440     7.2760     9.3240    25.6080    -6.4530 
  118.3750     2.1770    74.8740     9.0360     7.0120     9.2070    25.6370    -7.0730 
  118.5000     2.1630    74.0980     9.0950     6.9220     9.3040    25.6660    -7.4920 
  118.6250     2.1560    72.2520     9.3240     6.9830     9.4750    25.7200    -7.6870 
  118.7500     2.1550    72.2750     9.5380     7.0830     9.3070    25.7910    -7.7340 
  118.8750     2.1600    74.5320     9.6400     7.1460     8.7330    25.8470    -7.6770 
  119.0000     2.1700    75.5580     9.6160     7.1390     8.2570    25.8690    -7.5450 
  119.1250     2.1830    75.1830     9.5130     7.0720     8.0840    25.8700    -7.3530 
  119.2500     2.1930    75.3660     9.4030     6.9930     8.0920    25.8650    -7.1370 
  119.3750     2.1930    76.8730     9.3170     6.9300     8.1720    25.8230    -6.9430 
  119.5000     2.1810    78.4080     9.2670     6.9020     8.3520    25.7330    -6.8330 
  119.6250     2.1620    77.4280     9.2650     6.9190     8.6680    25.6460    -6.8860 
  119.7500     2.1440    75.9100     9.3080     6.9730     8.9880    25.5980    -7.0840 
  119.8750     2.1350    76.3210     9.4130     7.0660     9.2000    25.5620    -7.3880 
  120.0000     2.1400    77.3400     9.6010     7.2020     9.3340    25.5120    -7.7300 
  120.1250     2.1620    74.9410     9.8940     7.3920     9.5110    25.4740    -8.0160 
  120.2500     2.1930    70.8850    10.2390     7.6140     9.9320    25.4640    -8.1830 
  120.3750     2.2180    69.4230    10.5390     7.8210    10.5830    25.4670    -8.1920 
  120.5000     2.2250    70.2410    10.6400     7.9290    11.1790    25.4660    -8.0330 
  120.6250     2.2100    69.7390    10.3490     7.8110    11.2890    25.4690    -7.6980 
  120.7500     2.1870    67.5060     9.7680     7.5020    11.0030    25.4660    -7.2450 
  120.8750     2.1690    66.2560     9.1520     7.1350    10.3930    25.4200    -6.6930 
  121.0000     2.1640    68.2750     8.8750     6.9290     9.2660    25.3230    -6.0480 
  121.1250     2.1770    70.6580     9.4860     7.2260     8.6590    25.3020    -5.3200 
  121.2500     2.2160    69.9690    11.1160     8.1630     9.3930    25.4270    -4.5660 
  121.3750     2.2920    67.2410    13.6730     9.7890    12.5950    25.6200    -3.8290 
  121.5000     2.4000    65.3020    16.5570    11.8570    19.0280    25.7830    -3.1270 
  121.6250     2.4940    65.7570    18.1420    13.3790    25.4450    25.9320    -2.4470 
  121.7500     2.5260    68.1040    17.3180    13.3420    21.7360    26.0750    -1.7720 
  121.8750     2.4990    71.6230    14.4470    11.7320    13.6870    26.1030    -1.1260 
  122.0000     2.4480    75.1260    11.0500     9.4840     8.3830    25.9620    -0.5570 
  122.1250     2.4050    78.4210     8.6080     7.6390     6.8470    25.7570    -0.1250 
  122.2500     2.3680    81.8820     7.3270     6.4970     6.5250    25.6280     0.1960 
  122.3750     2.3300    83.4120     7.1140     6.0870     6.6280    25.6120     0.4380 
  122.5000     2.2940    80.7000     7.9390     6.4290     6.8870    25.6890     0.6200 
  122.6250     2.2880    72.6800    10.1520     7.7900     7.4060    25.7940     0.7300 
  122.7500     2.3330    64.2750    13.6530    10.1710     9.0880    25.8610     0.7710 
  122.8750     2.4270    59.1790    18.0500    13.4640    13.4040    25.8670     0.7520 
  123.0000     2.5320    57.4550    22.0700    16.8990    21.5850    25.8130     0.6940 
  123.1250     2.5800    57.6940    23.0350    18.3780    30.8030    25.6920     0.6050 
  123.2500     2.5640    61.5320    20.5540    17.1180    26.4710    25.5640     0.4810 
  123.3750     2.5090    70.0720    16.3810    14.2420    15.5120    25.5330     0.3090 
  123.5000     2.4470    79.3130    12.7770    11.4640     9.0250    25.6520     0.0910 
  123.6250     2.4100    82.3860    11.2670     9.9680     7.4660    25.8410    -0.1460 
  123.7500     2.4100    78.3420    11.8430     9.8590     8.0800    25.9660    -0.3520 
  123.8750     2.4500    69.6400    14.7020    11.3500    10.7010    26.0120    -0.4960 
  124.0000     2.5170    59.8680    20.1360    14.8050    17.4260    26.0020    -0.5700 
  124.1250     2.5890    53.3280    28.4850    20.8710    31.0680    25.7440    -0.5850 
  124.2500     2.6380    49.8920    37.7860    28.3910    42.2210    25.2550    -0.5770 
  124.3750     2.6530    48.2050    45.0360    35.1130    44.2270    25.2290    -0.5490 
  124.5000     2.6390    48.8430    47.4970    38.4780    44.5480    25.1760    -0.4940 
  124.6250     2.6140    50.6170    44.7170    37.4000    41.5700    25.1390    -0.4000 
  124.7500     2.5960    49.9980    40.2130    34.3830    38.3940    25.1240    -0.2780 
  124.8750     2.5910    47.1140    35.9250    31.0600    32.4140    25.1000    -0.1450 
  125.0000     2.5920    45.1280    32.6460    28.2670    27.7380    25.0330    -0.0120 
  125.1250     2.5870    45.9940    30.7050    26.4180    27.1220    24.9630     0.1200 
  125.2500     2.5700    48.1280    29.8070    25.3830    26.1710    25.0150     0.2540 
  125.3750     2.5490    50.0790    29.7720    25.0790    23.5710    25.1830     0.3930 
  125.5000     2.5310    49.4800    30.2840    25.3290    24.4170    25.4150     0.5270 
  125.6250     2.5140    45.3950    30.8390    25.8220    28.7980    25.6140     0.6410 
  125.7500     2.4980    42.0920    30.9380    26.1100    29.8970    25.6840     0.7280 
  125.8750     2.4860    43.0820    30.3800    25.9390    25.7980    25.3840     0.7810 
  126.0000     2.4920    47.8210    29.2780    25.2850    21.9950    25.1960     0.8020 
  126.1250     2.5170    50.4570    28.1320    24.4410    20.3250    25.2430     0.8060 
  126.2500     2.5360    48.9240    27.5600    23.9180    20.4490    25.2640     0.8120 
  126.3750     2.5290    46.3410    27.8470    24.0050    21.1420    25.2120     0.8320 
  126.5000     2.4980    46.4150    28.8890    24.7100    21.1660    25.1700     0.8500 
  126.6250     2.4690    49.6050    30.1240    25.6900    24.8820    25.1640     0.8250 
  126.7500     2.4690    52.2210    30.6900    26.2510    29.2230    25.1580     0.7410 
  126.8750     2.4990    53.5060    30.0540    25.9030    28.0040    25.1450     0.6120 
  127.0000     2.5400    53.6340    28.2650    24.5980    23.4670    25.1190     0.4840 
  127.1250     2.5660    52.1420    26.0020    22.8110    18.9010    25.0790     0.4350 
  127.2500     2.5790    49.4900    24.2010    21.2960    16.0100    25.0280     0.4870 
  127.3750     2.5910    47.3010    23.3110    20.4340    15.0660    24.9940     0.6180 
  127.5000     2.6090    47.3810    23.4090    20.3440    16.1480    24.9630     0.7820 
  127.6250     2.6310    47.9850    24.3360    20.9920    18.4470    24.9010     0.9310 
  127.7500     2.6430    47.5250    25.5230    21.9490    20.7290    24.8180     1.0550 
  127.8750     2.6380    46.6080    26.6290    22.9230    21.6090    24.7940     1.1670 
  128.0000     2.6180    46.2300    27.4770    23.7230    21.2040    24.8540     1.2970 
  128.1250     2.5940    45.6710    27.9560    24.2120    20.8220    24.9390     1.4810 
  128.2500     2.5760    44.8780    28.0710    24.3750    21.2620    25.0220     1.7110 
  128.3750     2.5690    44.0030    27.7100    24.1270    22.2030    25.1690     1.9640 
  128.5000     2.5720    42.7030    26.7700    23.3960    22.2240    25.4350     2.2100 
  128.6250     2.5820    42.8140    25.2640    22.1970    19.9610    25.2500     2.4090 
