~V
VERS. 2.00: Ver 2.00
~W
STRT.M 56.0000:
STOP.M 352.0000:
STEP.M 0.1250:
NULL. -999.2500:
UWI. F10109:
~C
DEPT.M :
DEN.GM/CC :
SP.MV :
GR.API :
RML.OHMM :
RI. :
RXO.OHMM :
CALI.CM :
~A
# ...
  112.2500     2.2460    -2.1110    80.1110     8.1240     7.0360     7.0290    21.8480 
  112.3750     2.2420    -2.0210    86.0080     7.5260     6.4860     6.4190    22.0390 
  112.5000     2.2360    -1.9710    85.0720     7.2230     6.1350     5.8250    22.2360 
  112.6250     2.2340    -1.9750    80.3820     7.1970     6.0050     5.7010    22.3540 
  112.7500     2.2380    -2.0190    78.7660     7.2920     5.9970     5.8620    22.3450 
  112.8750     2.2470    -2.0700    80.4780     7.4050     6.0450     6.1710    22.1980 
  113.0000     2.2570    -2.1360    82.0280     7.4740     6.0970     6.2410    22.0590 
  113.1250     2.2600    -2.2740    83.8080     7.4880     6.1300     6.0690    22.1140 
  113.2500     2.2530    -2.4610    87.2320     7.5240     6.1780     5.9170    22.3190 
  113.3750     2.2360    -2.6510    88.5740     7.6650     6.2920     5.7800    22.6000 
  113.5000     2.2140    -2.8390    85.0230     7.9620     6.5110     5.7650    22.8570 
  113.6250     2.1970    -3.0300    79.0210     8.3990     6.8430     6.1810    22.9640 
  113.7500     2.1900    -3.1830    75.1970     8.8150     7.1850     6.8210    22.9120 
  113.8750     2.1940    -3.3000    75.0400     9.0500     7.4230     7.2900    22.7310 
  114.0000     2.2090    -3.3770    77.1610     8.9820     7.4460     7.5020    22.4970 
  114.1250     2.2320    -3.3530    78.0460     8.5490     7.1680     7.3990    22.2910 
  114.2500     2.2550    -3.2690    77.4330     7.9430     6.7040     6.9560    22.1940 
  114.3750     2.2700    -3.1840    78.8960     7.3570     6.1910     6.2480    22.2740 
  114.5000     2.2690    -3.1280    84.1420     6.9670     5.7720     5.6140    22.5760 
  114.6250     2.2510    -3.1130    88.2700     6.9210     5.5760     5.5090    23.0580 
  114.7500     2.2250    -3.1740    88.3740     7.1540     5.5920     5.6020    23.5240 
  114.8750     2.2010    -3.3680    86.3120     7.5750     5.7790     5.7340    23.8830 
  115.0000     2.1830    -3.6920    83.3390     8.0500     6.0600     6.1610    24.0060 
  115.1250     2.1720    -4.1150    78.9440     8.3980     6.3240     6.8360    23.8440 
  115.2500     2.1640    -4.5680    75.3290     8.5210     6.4810     7.3500    23.6660 
  115.3750     2.1570    -4.9870    74.2880     8.4150     6.5050     7.1810    23.5820 
  115.5000     2.1540    -5.3060    74.9330     8.1730     6.4290     6.9350    23.5680 
  115.6250     2.1620    -5.5020    75.4500     8.0200     6.3730     6.9460    23.5530 
  115.7500     2.1850    -5.5960    75.6390     8.1620     6.4820     7.1510    23.5470 
  115.8750     2.2260    -5.5650    75.8840     8.6860     6.8440     7.7220    23.6010 
  116.0000     2.2730    -5.4570    76.0400     9.5150     7.4520     8.7070    23.7220 
  116.1250     2.3040    -5.3640    76.4070    10.3960     8.1900    10.1410    23.9350 
  116.2500     2.3020    -5.3400    74.0200    10.9980     8.8200    12.9230    24.1700 
  116.3750     2.2680    -5.3630    67.7530    11.1110     9.1480    17.2140    24.2520 
  116.5000     2.2190    -5.4170    61.2520    10.7170     9.0840    15.0110    24.0740 
  116.6250     2.1790    -5.4690    61.9950    10.0250     8.6900    10.6230    23.7860 
  116.7500     2.1570    -5.4820    66.4930     9.4140     8.2500     8.9800    23.6170 
  116.8750     2.1490    -5.4240    67.0310     9.0410     7.9150     8.7910    23.4960 
  117.0000     2.1520    -5.2570    62.0110     8.8720     7.7120     8.9150    23.3410 
  117.1250     2.1630    -4.8950    58.5190     8.7220     7.5490     9.0130    23.1580 
  117.2500     2.1820    -4.3420    62.0160     8.4000     7.2870     8.8900    23.0060 
  117.3750     2.2070    -3.6350    69.9580     7.8580     6.8620     8.3660    22.9510 
  117.5000     2.2330    -2.8330    77.3110     7.1680     6.3010     7.2560    23.0300 
  117.6250     2.2540    -2.0320    84.0860     6.4900     5.7050     5.9440    23.2420 
  117.7500     2.2670    -1.3270    92.0300     5.9590     5.1900     4.9670    23.5030 
  117.8750     2.2760    -0.7620    97.2870     5.6400     4.8230     4.5570    23.8110 
  118.0000     2.2800    -0.3920    96.8980     5.5600     4.6390     4.3650    24.2120 
  118.1250     2.2770    -0.3360    91.9300     5.7480     4.6780     4.3300    24.5550 
  118.2500     2.2660    -0.5800    87.2970     6.1260     4.8940     4.4210    24.5730 
  118.3750     2.2470    -1.1090    85.8700     6.6260     5.2480     4.7360    24.3100 
  118.5000     2.2260    -1.8800    87.7060     7.1600     5.6800     5.3300    23.8370 
  118.6250     2.2100    -2.8050    89.0130     7.6080     6.1050     6.1040    23.2110 
  118.7500     2.2030    -3.7530    84.7920     7.9050     6.4410     6.8590    22.6660 
  118.8750     2.2050    -4.6550    77.8030     8.0350     6.6500     7.3900    22.3380 
  119.0000     2.2120    -5.4570    74.0770     8.0410     6.7400     7.4870    22.1960 
  119.1250     2.2180    -6.1010    75.1300     8.0030     6.7550     7.2810    22.1350 
  119.2500     2.2190    -6.5450    77.8560     8.0030     6.7690     6.9370    22.0830 
  119.3750     2.2140    -6.7650    79.9120     8.0750     6.8190     6.6290    22.0510 
  119.5000     2.2060    -6.8390    79.8350     8.2130     6.9110     6.3620    22.0490 
  119.6250     2.1990    -6.8220    77.6160     8.3720     7.0190     6.1050    22.0410 
  119.7500     2.1970    -6.7320    73.0620     8.4790     7.0900     5.8530    22.0300 
  119.8750     2.2000    -6.5960    68.5390     8.4810     7.0840     5.6800    22.0490 
  120.0000     2.2040    -6.4410    68.8270     8.3560     6.9840     5.6510    22.0980 
  120.1250     2.2060    -6.2960    75.0310     8.1390     6.8070     5.7820    22.1440 
  120.2500     2.2040    -6.2250    80.9760     7.9500     6.6400     5.8920    22.2180 
  120.3750     2.1990    -6.2850    83.9170     7.8920     6.5560     6.0010    22.3920 
  120.5000     2.1920    -6.4310    83.8870     8.0320     6.6090     6.2080    22.6450 
  120.6250     2.1870    -6.6200    78.8170     8.3930     6.8370     6.7050    22.8600 
  120.7500     2.1840    -6.8460    69.9660     8.8620     7.1790     7.3900    22.9210 
  120.8750     2.1840    -7.1160    63.4930     9.3420     7.5740     8.0470    22.8920 
  121.0000     2.1850    -7.4010    64.9300     9.7530     7.9620     8.5170    22.8630 
  121.1250     2.1850    -7.6650    69.4280    10.0540     8.2960     8.9630    22.8960 
  121.2500     2.1840    -7.8810    69.2070    10.3010     8.5910     9.1980    22.9860 
  121.3750     2.1800    -8.0030    63.7650    10.5500     8.8760     9.3210    23.0750 
  121.5000     2.1740    -8.0260    59.1730    10.8260     9.1640     9.3150    23.1250 
  121.6250     2.1680    -7.9880    59.5930    11.0850     9.4250     9.3480    23.0950 
  121.7500     2.1650    -7.9400    61.2920    11.2390     9.6010     9.6320    22.9890 
  121.8750     2.1670    -7.8670    61.1900    11.2180     9.6400    10.0040    22.8180 
  122.0000     2.1720    -7.7760    59.4630    11.0090     9.5250    10.1700    22.6840 
  122.1250     2.1800    -7.6950    59.4350    10.6620     9.2810     9.9650    22.7030 
  122.2500     2.1860    -7.6200    60.7580    10.3100     9.0070     9.6510    22.7290 
  122.3750     2.1880    -7.5680    62.4420    10.0230     8.7680     9.3230    22.7210 
  122.5000     2.1870    -7.5190    65.6320     9.8250     8.5900     9.0370    22.7090 
  122.6250     2.1830    -7.4710    70.9810     9.6940     8.4750     8.7890    22.7110 
  122.7500     2.1800    -7.4390    72.9450     9.5780     8.3840     8.5850    22.7000 
  122.8750     2.1780    -7.4120    69.2500     9.4530     8.2930     8.4340    22.6690 
  123.0000     2.1760    -7.3920    63.7380     9.3250     8.1970     8.2930    22.5940 
  123.1250     2.1770    -7.3880    62.9180     9.2180     8.1060     8.0780    22.4020 
  123.2500     2.1790    -7.3790    65.5010     9.1420     8.0300     7.8360    22.1460 
  123.3750     2.1840    -7.3380    67.4840     9.0970     7.9720     7.6800    21.9170 
