~V
VERS. 2.00: Ver 2.00
~W
STRT.M 52.0000:
STOP.M 233.0000:
STEP.M 0.1250:
NULL. -999.2500:
UWI. F10175:
~C
DEPT.M :
GR.API :
RML.OHMM :
RI. :
RXO.OHMM :
CALI.CM :
DEN.GM/CC :
SP.MV :
~A
# ...
   97.0000   105.1580     5.9660     5.2320     5.4410    24.1170     2.2690    -6.2590 
   97.1250   107.1280     5.8660     5.1530     5.2050    24.0710     2.2820    -6.0670 
   97.2500   108.0280     5.7290     5.0300     5.0420    24.0120     2.2980    -5.9550 
   97.3750   108.6830     5.6050     4.9120     4.9820    23.9570     2.3120    -5.8970 
   97.5000   106.8500     5.5430     4.8450     4.9830    23.9480     2.3190    -5.9230 
   97.6250   103.8510     5.5920     4.8760     5.0100    24.0380     2.3120    -5.9620 
   97.7500   103.1820     5.7470     4.9990     5.1560    24.1730     2.2910    -6.0810 
   97.8750   104.0740     5.9920     5.2090     5.4060    24.2500     2.2660    -6.1860 
   98.0000   104.2290     6.2860     5.4810     5.7820    24.1840     2.2510    -6.2400 
   98.1250   103.1540     6.5540     5.7530     6.0950    24.0370     2.2640    -6.2410 
   98.2500   102.5980     6.7190     5.9390     6.2440    23.9960     2.3020    -6.1330 
   98.3750    98.3880     6.7360     5.9810     6.6330    24.2630     2.3450    -6.0000 
   98.5000    92.4210     6.6020     5.8620     7.1840    24.5990     2.3730    -5.8840 
   98.6250    93.1070     6.3540     5.6080     6.0160    24.8010     2.3710    -5.8050 
   98.7500    98.5230     6.0870     5.3260     5.2990    25.4320     2.3510    -5.7510 
   98.8750   102.9750     5.8640     5.0800     5.1640    26.6370     2.3300    -5.7900 
   99.0000   105.7420     5.7200     4.9090     5.1820    28.0260     2.3180    -5.9100 
   99.1250   106.8710     5.6760     4.8350     5.2170    26.3520     2.3170    -6.1200 
   99.2500   105.6330     5.7100     4.8370     5.2750    25.3720     2.3190    -6.4050 
   99.3750   102.5460     5.8130     4.9020     5.3380    25.6940     2.3200    -6.7230 
   99.5000    99.9090     5.9850     5.0230     5.3330    26.8150     2.3150    -7.0870 
   99.6250    98.2070     6.2310     5.2070     5.4190    27.9880     2.3020    -7.5210 
   99.7500    96.3620     6.5290     5.4390     5.6680    26.0720     2.2840    -8.0000 
   99.8750    95.1340     6.8530     5.7020     6.0430    24.7370     2.2650    -8.4640 
  100.0000    92.6600     7.1640     5.9640     6.3500    24.2990     2.2490    -8.9700 
  100.1250    87.1780     7.4050     6.1760     6.5800    24.1450     2.2360    -9.4500 
  100.2500    83.0930     7.5510     6.3030     6.7400    23.9770     2.2270    -9.9150 
  100.3750    81.3810     7.5950     6.3280     6.8740    23.8270     2.2240   -10.3210 
  100.5000    83.8070     7.5560     6.2620     7.0230    23.8300     2.2250   -10.6130 
  100.6250    90.2760     7.4880     6.1460     6.8820    23.9860     2.2270   -10.8560 
  100.7500    93.5350     7.4660     6.0480     6.4390    24.1690     2.2230   -11.0270 
  100.8750    89.7550     7.5400     6.0160     6.0080    24.2360     2.2100   -11.1990 
  101.0000    82.7200     7.7390     6.0850     6.1180    24.0580     2.1910   -11.3190 
  101.1250    80.2730     8.0730     6.2810     6.5020    23.6840     2.1750   -11.3740 
  101.2500    81.1720     8.4810     6.5620     6.7700    23.3730     2.1680   -11.4120 
  101.3750    82.4810     8.9190     6.8900     6.8760    23.1180     2.1690   -11.4270 
  101.5000    82.6990     9.3550     7.2290     6.9470    22.8550     2.1740   -11.4220 
  101.6250    80.8180     9.7740     7.5580     6.8710    22.6530     2.1780   -11.3910 
  101.7500    78.4280    10.1740     7.8800     6.7720    22.5370     2.1800   -11.3570 
  101.8750    75.2870    10.5330     8.1890     6.8660    22.4990     2.1820   -11.3040 
  102.0000    70.9440    10.8120     8.4540     7.3490    22.4930     2.1850   -11.2800 
  102.1250    69.4990    10.9280     8.6040     8.6610    22.5490     2.1910   -11.2940 
  102.2500    72.9360    10.8720     8.6160     9.5530    22.6490     2.2000   -11.3540 
  102.3750    76.4130    10.6570     8.4910     9.0860    22.8270     2.2080   -11.4870 
  102.5000    78.2250    10.3370     8.2700     8.1540    23.0160     2.2120   -11.7130 
  102.6250    81.7340     9.9930     8.0200     8.0610    23.0690     2.2100   -11.9440 
  102.7500    83.2960     9.7120     7.8120     8.0780    22.9640     2.2000   -12.1820 
  102.8750    79.1120     9.5480     7.6920     7.7260    22.9700     2.1840   -12.4390 
  103.0000    72.4710     9.5220     7.6870     7.4110    23.1170     2.1650   -12.6900 
  103.1250    69.6780     9.6350     7.8140     7.4050    23.2640     2.1530   -13.0180 
  103.2500    68.9020     9.8020     8.0140     8.3960    23.3790     2.1560   -13.3140 
  103.3750    69.6580     9.9460     8.2230    11.4310    23.4700     2.1770   -13.5620 
  103.5000    74.0340     9.9910     8.3640    19.2370    23.5400     2.2040   -13.6860 
  103.6250    78.2100     9.8660     8.3470    24.2570    23.5530     2.2200   -13.6490 
  103.7500    75.1090     9.6020     8.1810    17.7230    23.5080     2.2170   -13.4310 
  103.8750    66.9420     9.2420     7.9100    10.9500    23.4330     2.1980   -12.9410 
  104.0000    61.6290     8.8290     7.5820     8.3520    23.4800     2.1750   -12.2370 
  104.1250    66.5850     8.3800     7.2190     7.5420    23.5230     2.1620   -11.2830 
  104.2500    75.5580     7.8930     6.8220     6.9630    23.4330     2.1650   -10.2120 
  104.3750    79.9220     7.3700     6.3830     6.7810    23.1960     2.1840    -9.1270 
  104.5000    80.9480     6.8420     5.9220     6.4280    23.3440     2.2150    -8.1350 
  104.6250    85.3170     6.3910     5.5160     5.6600    23.6580     2.2510    -7.2880 
  104.7500    93.3670     6.0800     5.2340     5.0290    23.6770     2.2790    -6.6440 
  104.8750   100.0000     5.9400     5.1130     4.9450    23.6860     2.2910    -6.2670 
  105.0000   101.5550     5.9520     5.1450     5.1920    23.7650     2.2880    -6.0460 
  105.1250    98.9900     6.0680     5.2970     5.5960    23.8760     2.2750    -5.9710 
  105.2500    94.1590     6.2000     5.4760     5.8350    24.0950     2.2630    -5.9620 
  105.3750    89.9680     6.2980     5.6200     5.5790    24.3860     2.2560    -5.9420 
  105.5000    88.0640     6.3400     5.6900     5.2270    24.5590     2.2550    -5.8260 
  105.6250    88.2990     6.3130     5.6700     5.2700    24.4050     2.2580    -5.5590 
  105.7500    90.3630     6.2250     5.5800     5.5610    24.1340     2.2670    -5.1820 
  105.8750    92.3460     6.0660     5.4240     5.6080    24.1460     2.2800    -4.6940 
  106.0000    92.8070     5.8330     5.1970     5.1480    24.6170     2.2970    -4.2340 
  106.1250    93.9210     5.5430     4.8980     4.8630    25.3210     2.3140    -3.9110 
  106.2500    97.9240     5.2800     4.5970     4.7730    26.3560     2.3290    -3.7650 
  106.3750   101.0790     5.1390     4.3810     4.7480    27.4820     2.3390    -3.8380 
  106.5000    98.9020     5.2020     4.3360     4.6930    26.0830     2.3440    -4.1050 
  106.6250    93.2780     5.5350     4.5480     4.9480    24.7450     2.3410    -4.6260 
  106.7500    87.9360     6.0460     4.9580     6.6430    23.7110     2.3240    -5.2240 
  106.8750    81.8970     6.6510     5.4930    10.4070    23.1610     2.2920    -5.8370 
  107.0000    75.1630     7.2840     6.0750    10.6310    22.8320     2.2520    -6.4470 
  107.1250    72.3190     7.9420     6.6790     9.1310    22.8380     2.2290    -7.0080 
  107.2500    74.1860     8.6670     7.3330     7.6930    23.0550     2.2430    -7.5310 
  107.3750    77.7050     9.4740     8.0730     7.4960    23.4050     2.2920    -8.0240 
  107.5000    78.0680    10.2940     8.8870     9.6790    23.8000     2.3520    -8.5300 
  107.6250    74.0490    10.9010     9.6080    13.5600    24.1170     2.3840    -8.9830 
  107.7500    70.3590    11.1130     9.9800    13.2030    24.0900     2.3740    -9.4810 
  107.8750    70.6230    10.8640     9.8550    10.1770    23.7770     2.3310   -10.0720 
  108.0000    73.2580    10.2510     9.3070     8.3720    23.4940     2.2790   -10.6590 
  108.1250    73.3340     9.4890     8.5930     8.0930    23.4350     2.2400   -11.2470 
