~V
VERS. 2.00: Ver 2.00
~W
STRT.M 50.0000:
STOP.M 223.0000:
STEP.M 0.1250:
NULL. -999.2500:
UWI. F10135:
~C
DEPT.M :
SP.MV :
DEN.GM/CC :
GR.API :
RML.OHMM :
RI. :
RXO.OHMM :
CALI.CM :
~A
# ...
  140.0000   -13.1970     2.4950    60.8630    19.5400    18.6470    20.2930    26.3090 
  140.1250   -13.1750     2.4930    63.7380    20.1120    19.1130    21.2350    26.3090 
  140.2500   -13.1570     2.4960    63.7080    20.7420    19.6720    19.9800    26.3090 
  140.3750   -13.1150     2.5010    60.2440    21.3750    20.2730    18.8450    26.3090 
  140.5000   -13.0740     2.5070    59.9600    21.9430    20.8470    19.6220    26.3090 
  140.6250   -12.9970     2.5130    64.3520    22.2980    21.2570    21.4200    26.3090 
  140.7500   -12.9110     2.5170    67.4550    22.3410    21.3960    22.4120    26.3070 
  140.8750   -12.8660     2.5190    67.3810    21.9980    21.1740    21.6690    26.3030 
  141.0000   -12.7790     2.5200    66.8930    21.2880    20.5800    20.0970    26.3060 
  141.1250   -12.5650     2.5220    68.9080    20.3270    19.6890    18.5230    26.3080 
  141.2500   -12.3570     2.5230    69.8470    19.3720    18.7450    17.1240    26.3090 
  141.3750   -12.2500     2.5220    68.9020    18.5890    17.9160    16.2370    26.3090 
  141.5000   -12.1980     2.5180    67.3890    18.0740    17.3110    15.2410    26.3100 
  141.6250   -12.1360     2.5120    66.8890    17.8870    17.0090    14.6960    26.3340 
  141.7500   -12.0990     2.5060    67.0180    17.9310    16.9370    14.7150    26.3860 
  141.8750   -12.1360     2.5010    68.0270    18.1310    17.0360    15.3190    26.4350 
  142.0000   -12.2510     2.4990    69.4710    18.4000    17.2320    16.4400    26.4560 
  142.1250   -12.3880     2.5040    68.6550    18.6320    17.4360    17.0600    26.4560 
  142.2500   -12.4820     2.5120    66.2070    18.7430    17.5640    17.4690    26.4560 
  142.3750   -12.5350     2.5230    64.3600    18.6720    17.5500    18.1250    26.4560 
  142.5000   -12.5670     2.5320    62.6640    18.3840    17.3420    18.2130    26.4560 
  142.6250   -12.5800     2.5350    63.2440    17.8510    16.8860    17.9480    26.4560 
  142.7500   -12.5510     2.5340    68.6050    17.1840    16.2660    16.8470    26.4560 
  142.8750   -12.5130     2.5300    74.7320    16.5050    15.5830    15.5160    26.4560 
  143.0000   -12.5050     2.5270    74.7330    15.9610    14.9720    13.9150    26.4560 
  143.1250   -12.5240     2.5290    69.1650    15.7520    14.6160    13.0530    26.4540 
  143.2500   -12.5340     2.5350    66.9330    15.9050    14.5770    13.2070    26.4350 
  143.3750   -12.5540     2.5430    67.5850    16.3940    14.8700    14.0550    26.3790 
  143.5000   -12.6250     2.5520    67.0300    17.1020    15.4340    15.3990    26.2980 
  143.6250   -12.7700     2.5630    65.5140    17.8030    16.1100    16.5140    26.2040 
  143.7500   -12.9360     2.5780    65.4860    18.2310    16.6270    17.2610    26.1070 
  143.8750   -13.0150     2.5960    68.0490    18.1990    16.7670    17.1170    26.0040 
  144.0000   -13.0200     2.6100    71.2930    17.6410    16.4060    16.3870    25.9250 
  144.1250   -13.0860     2.6150    71.8990    16.6030    15.5220    14.8100    25.8520 
  144.2500   -13.2030     2.6100    69.8140    15.4140    14.4050    13.1360    25.7660 
  144.3750   -13.2740     2.6000    67.7940    14.3230    13.2930    11.4960    25.6620 
  144.5000   -13.2630     2.5920    68.8760    13.5210    12.3810    10.2120    25.5420 
  144.6250   -13.2030     2.5900    70.0160    13.1550    11.8400     9.6360    25.4100 
  144.7500   -13.1860     2.5890    69.5210    13.1220    11.6280     9.7530    25.3230 
  144.8750   -13.2420     2.5880    68.0410    13.3140    11.6790    10.2450    25.2940 
  145.0000   -13.2800     2.5820    64.5870    13.6030    11.8880    11.0220    25.2910 
  145.1250   -13.2400     2.5710    60.0980    13.8660    12.1460    11.3310    25.2910 
  145.2500   -13.2210     2.5570    59.2400    14.0550    12.3670    11.3800    25.2910 
  145.3750   -13.2480     2.5430    62.3560    14.1840    12.5380    11.2470    25.2890 
  145.5000   -13.2780     2.5330    64.2630    14.2980    12.6790    11.1800    25.2830 
  145.6250   -13.2790     2.5270    61.9660    14.4520    12.8310    12.0910    25.2710 
  145.7500   -13.2560     2.5250    60.0250    14.6560    13.0120    13.0250    25.2650 
  145.8750   -13.2280     2.5240    60.1650    14.8910    13.2170    12.7970    25.2640 
  146.0000   -13.2220     2.5230    61.0420    15.1260    13.4250    12.3240    25.2640 
  146.1250   -13.2250     2.5230    61.8580    15.3120    13.5990    12.1740    25.2640 
  146.2500   -13.2150     2.5210    63.3000    15.4260    13.7160    12.2100    25.2640 
  146.3750   -13.2190     2.5120    64.8330    15.4590    13.7620    12.2560    25.2640 
  146.5000   -13.2330     2.4880    64.7900    15.4140    13.7380    12.3500    25.2650 
  146.6250   -13.2230     2.4430    63.2350    15.3110    13.6550    12.3270    25.2660 
  146.7500   -13.1620     2.3880    62.9510    15.1970    13.5540    12.3890    25.2660 
  146.8750   -13.0590     2.3380    64.2640    15.1100    13.4690    12.5680    25.2650 
  147.0000   -12.9750     2.3120    64.4740    15.0750    13.4250    12.6660    25.2580 
  147.1250   -12.9380     2.3220    61.7050    15.0960    13.4340    12.7770    25.2140 
  147.2500   -12.8520     2.3580    59.8150    15.1260    13.4650    12.8000    25.1160 
  147.3750   -12.7070     2.4070    60.9830    15.1180    13.4810    13.0610    25.0020 
  147.5000   -12.5890     2.4540    63.0260    15.0300    13.4450    13.0640    24.9330 
  147.6250   -12.5350     2.4870    62.4160    14.8240    13.3160    13.0810    24.9170 
  147.7500   -12.4900     2.5030    61.6800    14.5340    13.1120    12.5440    24.9150 
  147.8750   -12.4730     2.5040    61.8770    14.1980    12.8600    11.6480    24.9100 
  148.0000   -12.5020     2.4990    62.4870    13.8590    12.5970    11.1710    24.8930 
  148.1250   -12.5270     2.4950    63.0010    13.5640    12.3700    11.1200    24.8430 
  148.2500   -12.5380     2.4970    63.0000    13.3240    12.2020    11.0750    24.7740 
  148.3750   -12.5390     2.5030    62.3310    13.1450    12.1080    10.9870    24.6870 
  148.5000   -12.5490     2.5090    61.7960    13.0300    12.0960    11.0350    24.6340 
  148.6250   -12.5700     2.5120    62.6280    13.0010    12.1850    11.0810    24.6220 
  148.7500   -12.5790     2.5120    62.5350    13.0540    12.3650    10.9010    24.6220 
  148.8750   -12.5330     2.5120    60.2810    13.1880    12.6340    10.9660    24.6220 
  149.0000   -12.4560     2.5130    58.8340    13.3760    12.9720    11.3010    24.6220 
  149.1250   -12.4250     2.5170    59.6390    13.5480    13.3210    11.7260    24.6220 
  149.2500   -12.4550     2.5190    59.8940    13.6010    13.5760    11.7510    24.6220 
  149.3750   -12.5450     2.5150    58.1220    13.4300    13.6140    11.5490    24.6220 
  149.5000   -12.6740     2.5050    55.4090    12.9540    13.3210    11.3950    24.6220 
  149.6250   -12.8830     2.4880    54.4290    12.1200    12.5930    10.8420    24.6220 
  149.7500   -13.1590     2.4710    56.3760    11.0950    11.5780     9.7950    24.6190 
  149.8750   -13.4850     2.4530    61.7510    10.0580    10.4550     8.6070    24.6030 
  150.0000   -13.8200     2.4310    70.1590     9.2100     9.4340     7.5600    24.5590 
  150.1250   -14.1660     2.4020    79.7230     8.8100     8.7730     6.8690    24.4970 
  150.2500   -14.5890     2.3670    86.8990     8.9380     8.5660     6.8270    24.4570 
  150.3750   -15.0570     2.3310    90.5560     9.7080     8.9040     7.7020    24.4390 
  150.5000   -15.4850     2.3010    91.4400    11.2730     9.8900     9.1460    24.4550 
  150.6250   -15.8390     2.2800    90.1700    14.0920    11.8640    10.5740    24.5180 
  150.7500   -16.2110     2.2680    87.5230    18.4430    15.0580    11.9820    24.5850 
  150.8750   -16.6880     2.2600    84.1120    24.9450    20.0880    12.3660    24.6370 
  151.0000   -17.2350     2.2560    82.3430    34.4650    27.9760    13.3300    24.7060 
  151.1250   -17.7570     2.2530    82.0760    49.0300    41.1630    17.9410    25.0170 
