~V
VERS. 2.00: Ver 2.00
~W
STRT.M 55.0000:
STOP.M 242.0000:
STEP.M 0.1250:
NULL. -999.2500:
UWI. F10187:
~C
DEPT.M :
GR.API :
RML.OHMM :
RI. :
RXO.OHMM :
CALI.CM :
DEN.GM/CC :
SP.MV :
~A
# ...
  111.2500    99.8020     5.2840     4.8360     5.7280    24.2070     2.2990    -9.4360 
  111.3750   103.0620     4.9460     4.5220     5.3420    23.8800     2.3090    -9.6170 
  111.5000   105.5800     4.8140     4.2780     5.0040    23.5370     2.3050    -9.8220 
  111.6250   106.8940     5.2710     4.3750     5.0600    23.5180     2.2950   -10.0590 
  111.7500   106.3660     6.4650     4.9760     5.6730    23.5720     2.3020   -10.4800 
  111.8750   103.2030     8.4370     6.2340     7.0950    23.6130     2.3400   -11.1280 
  112.0000    93.7800    10.9320     8.2070    11.8280    23.6400     2.4080   -11.9840 
  112.1250    79.2880    13.0830    10.5480    24.5750    23.6700     2.4750   -13.1570 
  112.2500    69.3450    13.9320    12.0820    35.6650    23.6520     2.5050   -14.6260 
  112.3750    65.3550    13.1230    11.9400    27.7260    23.5740     2.4780   -16.2000 
  112.5000    64.5600    11.1360    10.4150    14.2630    23.4460     2.4010   -17.7640 
  112.6250    65.9560     9.0390     8.6050     9.8140    23.3480     2.3020   -19.3190 
  112.7500    69.2260     7.6150     7.2550     8.6080    23.2750     2.2160   -20.7720 
  112.8750    72.5040     6.9730     6.4790     8.4210    23.2470     2.1550   -21.9640 
  113.0000    72.9560     6.9120     6.1910     8.1510    23.3290     2.1200   -22.9480 
  113.1250    71.4520     7.1660     6.2540     7.9720    23.6370     2.1010   -23.7400 
  113.2500    70.7570     7.4370     6.4280     8.0590    23.9880     2.0900   -24.2570 
  113.3750    72.6400     7.6070     6.5900     8.2660    24.2120     2.0840   -24.5870 
  113.5000    74.1070     7.6440     6.6760     8.3830    24.2840     2.0800   -24.7870 
  113.6250    73.1810     7.5660     6.6630     8.3240    24.2830     2.0790   -24.7370 
  113.7500    73.1910     7.4530     6.5920     8.1570    24.2860     2.0800   -24.5220 
  113.8750    75.0540     7.3520     6.4990     7.9720    24.2480     2.0890   -24.2270 
  114.0000    75.9730     7.2940     6.4190     7.7880    24.1200     2.1050   -23.8740 
  114.1250    75.3110     7.3000     6.3780     7.6850    23.9570     2.1250   -23.4980 
  114.2500    74.7950     7.3540     6.3780     7.8280    23.9160     2.1370   -23.0720 
  114.3750    73.1130     7.4390     6.4100     8.0370    23.9460     2.1370   -22.5600 
  114.5000    71.8390     7.5360     6.4570     8.1230    24.0220     2.1250   -22.0280 
  114.6250    72.7870     7.6140     6.4960     8.1650    24.0300     2.1110   -21.6200 
  114.7500    73.8110     7.6520     6.5100     8.2760    23.9590     2.1020   -21.1990 
  114.8750    72.9540     7.6400     6.4920     8.2940    23.8030     2.0990   -20.7470 
  115.0000    72.2960     7.5800     6.4400     8.1280    23.6010     2.1020   -20.2890 
  115.1250    75.0330     7.4860     6.3560     7.8570    23.3250     2.1090   -19.7470 
  115.2500    77.1400     7.3900     6.2630     7.5630    23.0030     2.1220   -19.1840 
  115.3750    78.8530     7.3200     6.1830     7.3240    22.6220     2.1450   -18.6780 
  115.5000    80.0990     7.2950     6.1360     7.3040    22.3050     2.1790   -18.2950 
  115.6250    80.0850     7.3330     6.1440     7.4750    22.1060     2.2190   -17.9510 
  115.7500    78.7170     7.4130     6.1960     7.9050    22.0700     2.2560   -17.7480 
  115.8750    76.4630     7.5050     6.2690     8.4160    22.2680     2.2770   -17.7060 
  116.0000    75.8130     7.5770     6.3360     8.6440    22.6830     2.2750   -17.7040 
  116.1250    78.0880     7.6080     6.3680     8.4320    23.1320     2.2500   -17.7120 
  116.2500    80.6660     7.6130     6.3670     8.1540    23.5180     2.2110   -17.7750 
  116.3750    80.5280     7.6140     6.3450     7.8900    23.6820     2.1670   -17.8110 
  116.5000    78.3200     7.6250     6.3240     7.7040    23.6300     2.1310   -17.7310 
  116.6250    78.6670     7.6440     6.3170     7.6040    23.4880     2.1130   -17.6420 
  116.7500    80.4200     7.6610     6.3230     7.6340    23.3690     2.1160   -17.4620 
  116.8750    82.1500     7.6680     6.3320     7.8040    23.2360     2.1330   -17.2420 
  117.0000    82.5920     7.6660     6.3390     7.7610    23.0700     2.1560   -17.0460 
  117.1250    81.2270     7.6630     6.3410     7.6220    23.0040     2.1740   -16.8510 
  117.2500    79.2880     7.6680     6.3430     7.5320    22.9750     2.1860   -16.7240 
  117.3750    77.8190     7.6830     6.3480     7.4930    22.8540     2.1950   -16.7070 
  117.5000    77.7140     7.7050     6.3570     7.3460    22.6430     2.2020   -16.7170 
  117.6250    77.6420     7.7170     6.3710     7.4670    22.5260     2.2030   -16.7310 
  117.7500    77.1210     7.7080     6.3820     7.8220    22.7030     2.1960   -16.8010 
  117.8750    76.5800     7.6720     6.3840     8.0580    22.9980     2.1780   -16.8060 
  118.0000    75.9420     7.6090     6.3700     8.1620    23.2330     2.1560   -16.6770 
  118.1250    75.0340     7.5210     6.3340     7.9780    23.2370     2.1420   -16.4910 
  118.2500    75.8360     7.4270     6.2850     8.0280    23.1350     2.1430   -16.2710 
  118.3750    79.8500     7.3550     6.2430     8.1060    22.9190     2.1620   -15.9750 
  118.5000    83.3310     7.3470     6.2430     8.0620    22.6150     2.1930   -15.6630 
  118.6250    81.7370     7.4590     6.3360     7.7060    22.4150     2.2240   -15.3690 
  118.7500    77.7970     7.6810     6.5230     7.4580    22.4930     2.2440   -15.1390 
  118.8750    76.1470     7.9720     6.7820     7.6180    22.9070     2.2480   -15.0200 
  119.0000    77.9530     8.2520     7.0580     8.2270    23.4560     2.2360   -15.1190 
  119.1250    79.3910     8.4020     7.2490     8.9890    23.8650     2.2140   -15.5370 
  119.2500    78.4870     8.3810     7.3000     9.1990    24.1210     2.1910   -16.0050 
  119.3750    75.4120     8.2000     7.2020     9.1580    24.2430     2.1710   -16.5190 
  119.5000    72.9350     7.9170     6.9980     9.0350    24.3510     2.1530   -17.1200 
  119.6250    73.9220     7.6150     6.7540     8.7530    24.4410     2.1330   -17.5970 
  119.7500    76.3800     7.3600     6.5390     8.6190    24.3700     2.1110   -17.8790 
  119.8750    77.4140     7.1940     6.3840     8.7420    24.2520     2.0910   -18.0100 
  120.0000    75.1790     7.1590     6.3200     8.9100    24.2080     2.0780   -17.8520 
  120.1250    71.9730     7.3500     6.4090     9.0580    24.2480     2.0770   -17.1550 
  120.2500    70.5610     7.7820     6.6720     9.1820    24.2490     2.0920   -16.1970 
  120.3750    70.0640     8.4460     7.1320     9.6070    24.1120     2.1280   -14.9870 
  120.5000    70.0120     9.2690     7.7740    10.4980    23.9060     2.1890   -13.5150 
  120.6250    71.3740    10.0840     8.5350    11.4330    23.7440     2.2720   -12.0140 
  120.7500    71.5240    10.6980     9.2420    10.7620    23.6390     2.3590   -10.5570 
  120.8750    68.0330    10.9770     9.7300    10.5590    23.6280     2.4300    -9.1660 
  121.0000    62.1000    10.8740     9.8780    10.6890    23.7320     2.4710    -8.0700 
  121.1250    59.8090    10.3700     9.6160    10.7170    23.9920     2.4660    -7.4860 
  121.2500    62.3130     9.7520     9.1150    10.1470    24.2140     2.4260    -7.1940 
  121.3750    65.6480     9.2850     8.5020     9.4050    24.2480     2.3640    -7.1630 
  121.5000    68.0500     9.0160     7.8840     8.5340    24.1650     2.3020    -7.3780 
  121.6250    70.3290     8.7310     7.3340     8.1390    24.0720     2.2640    -7.6720 
  121.7500    74.4750     8.3230     6.8630     7.5530    24.0450     2.2550    -7.9690 
  121.8750    80.3440     7.9150     6.4700     6.9050    24.0500     2.2620    -8.2310 
  122.0000    84.1380     7.6370     6.1680     6.8480    24.0020     2.2710    -8.3180 
  122.1250    83.6010     7.5790     6.0220     7.2900    23.9600     2.2730    -8.0460 
  122.2500    82.1240     7.8230     6.0860     7.5550    23.7970     2.2790    -7.4920 
  122.3750    80.0420     8.4660     6.4500     7.6440    23.6180     2.3000    -6.7970 
