~V
VERS. 2.00: Ver 2.00
~W
STRT.M 57.0000:
STOP.M 214.0000:
STEP.M 0.1250:
NULL. -999.2500:
UWI. F10147:
~C
DEPT.M :
SP.MV :
GR.API :
RML.OHMM :
RI. :
RXO.OHMM :
CALI.CM :
DEN.GM/CC :
~A
# ...
   90.7500    -9.8550    69.7000    17.7870    14.1880    34.2980    23.9600     2.3950 
   90.8750    -9.9200    73.3480    17.3080    14.2780    29.1940    23.4030     2.3840 
   91.0000    -9.9860    78.4800    15.3570    13.1180    19.2980    22.8770     2.3350 
   91.1250   -10.0580    82.2530    12.9470    11.3420    11.9770    22.5740     2.2660 
   91.2500   -10.1330    82.9690    10.9070     9.5900     8.7720    22.4640     2.1960 
   91.3750   -10.2010    81.5510     9.6640     8.3040     7.7780    22.4360     2.1420 
   91.5000   -10.2580    79.6650     9.1000     7.5360     7.4300    22.4170     2.1050 
   91.6250   -10.2990    77.4100     8.9230     7.1460     7.2660    22.3860     2.0800 
   91.7500   -10.3180    76.0860     8.9310     7.0010     7.1920    22.3560     2.0640 
   91.8750   -10.3220    77.9930     8.9900     6.9890     7.1390    22.3440     2.0570 
   92.0000   -10.3240    80.4160     9.0360     7.0200     7.0570    22.3440     2.0600 
   92.1250   -10.3350    79.3470     9.0430     7.0440     6.9590    22.3450     2.0710 
   92.2500   -10.3560    75.0920     8.9990     7.0460     6.8700    22.3430     2.0860 
   92.3750   -10.3850    71.9900     8.9040     7.0220     6.7940    22.3560     2.1010 
   92.5000   -10.4260    71.8770     8.7920     6.9860     6.7360    22.3830     2.1120 
   92.6250   -10.4750    73.3080     8.7170     6.9560     6.7220    22.3950     2.1180 
   92.7500   -10.5380    74.7040     8.7190     6.9470     6.7670    22.3700     2.1180 
   92.8750   -10.6160    75.2930     8.8140     6.9710     6.8570    22.2950     2.1160 
   93.0000   -10.7020    74.6750     8.9610     7.0190     6.9790    22.1890     2.1160 
   93.1250   -10.7840    72.9180     9.0940     7.0720     7.1300    22.1010     2.1180 
   93.2500   -10.8560    70.7560     9.1610     7.1080     7.2520    22.0480     2.1200 
   93.3750   -10.9330    68.9150     9.1430     7.1090     7.2450    22.0000     2.1180 
   93.5000   -11.0040    68.0790     9.0690     7.0720     7.1260    21.9290     2.1120 
   93.6250   -11.0670    68.4760     8.9880     7.0090     7.0130    21.8820     2.1030 
   93.7500   -11.1310    69.8300     8.9350     6.9380     6.9890    21.9030     2.0950 
   93.8750   -11.2080    72.1070     8.9320     6.8830     7.0630    21.9570     2.0900 
   94.0000   -11.2870    74.3220     8.9710     6.8610     7.2100    22.0110     2.0870 
   94.1250   -11.3690    74.9610     9.0250     6.8760     7.4140    22.0430     2.0850 
   94.2500   -11.4540    73.2100     9.0770     6.9240     7.6460    22.0240     2.0790 
   94.3750   -11.5380    70.0360     9.1410     7.0100     7.8440    21.9600     2.0710 
   94.5000   -11.6210    66.5380     9.2560     7.1510     7.9630    21.8930     2.0650 
   94.6250   -11.6990    62.9240     9.4560     7.3600     8.0250    21.8590     2.0640 
   94.7500   -11.7600    60.8670     9.7420     7.6340     8.1790    21.8750     2.0690 
   94.8750   -11.7910    61.5020    10.0490     7.9240     8.5970    21.9390     2.0730 
   95.0000   -11.8080    62.5410    10.2690     8.1500     9.0430    21.9940     2.0730 
   95.1250   -11.8140    62.1020    10.3130     8.2390     9.0350    21.9450     2.0680 
   95.2500   -11.8050    60.8970    10.1610     8.1630     8.4680    21.8480     2.0620 
   95.3750   -11.7720    60.2600     9.8710     7.9420     7.8050    21.8170     2.0610 
   95.5000   -11.7280    59.6270     9.5670     7.6640     7.4630    21.8460     2.0660 
   95.6250   -11.6770    59.5010     9.3530     7.4140     7.3820    21.8690     2.0720 
   95.7500   -11.6100    61.7620     9.2600     7.2400     7.3240    21.8720     2.0790 
   95.8750   -11.5400    66.2900     9.2500     7.1560     7.1810    21.8810     2.0860 
   96.0000   -11.4620    69.6050     9.2590     7.1380     7.0120    21.8980     2.0980 
   96.1250   -11.3720    69.2760     9.2620     7.1550     6.9130    21.9140     2.1140 
   96.2500   -11.2800    67.0400     9.2860     7.1900     6.9100    21.9210     2.1320 
   96.3750   -11.2010    66.0250     9.3650     7.2350     6.9520    21.9220     2.1470 
   96.5000   -11.1200    65.6570     9.4870     7.2900     6.9780    21.9380     2.1580 
   96.6250   -11.0410    64.2870     9.6050     7.3550     6.9840    21.9650     2.1640 
   96.7500   -10.9790    63.4970     9.6720     7.4300     6.9890    21.9890     2.1680 
   96.8750   -10.9220    65.4940     9.6650     7.5090     7.0040    22.0070     2.1680 
   97.0000   -10.8710    68.6200     9.5880     7.5790     7.0370    22.0260     2.1630 
   97.1250   -10.8230    69.9290     9.4500     7.6240     7.0990    22.0390     2.1550 
   97.2500   -10.7710    68.4930     9.2530     7.6390     7.1860    22.0480     2.1440 
   97.3750   -10.7030    65.2060     9.0160     7.6170     7.2730    22.0670     2.1340 
   97.5000   -10.6290    62.4600     8.7730     7.5590     7.3470    22.1230     2.1250 
   97.6250   -10.5510    62.2170     8.5470     7.4630     7.4150    22.2520     2.1180 
   97.7500   -10.4560    63.8720     8.3320     7.3180     7.4630    22.4580     2.1130 
   97.8750   -10.3450    65.5780     8.1150     7.1210     7.4120    22.7130     2.1160 
   98.0000   -10.2310    67.9410     7.8870     6.8890     7.2080    22.9710     2.1290 
   98.1250   -10.1190    71.8300     7.6650     6.6500     6.9390    23.2150     2.1550 
   98.2500   -10.0180    75.4350     7.4660     6.4310     6.7730    23.4620     2.1910 
   98.3750    -9.9410    77.2600     7.3020     6.2620     6.7580    23.7450     2.2320 
   98.5000    -9.8830    78.4920     7.1660     6.1600     6.7360    24.0040     2.2650 
   98.6250    -9.8450    79.8950     7.0700     6.1430     6.5900    24.0330     2.2800 
   98.7500    -9.8570    79.9500     7.0580     6.2310     6.4020    23.7370     2.2690 
   98.8750    -9.9170    77.9940     7.2120     6.4530     6.3530    23.1180     2.2380 
   99.0000   -10.0040    76.0930     7.5660     6.8020     6.5190    22.5440     2.1990 
   99.1250   -10.1110    75.5210     8.0690     7.2310     6.8340    22.2820     2.1660 
   99.2500   -10.2270    75.5980     8.6060     7.6680     7.1740    22.2210     2.1470 
   99.3750   -10.3470    75.8230     9.0110     8.0110     7.4360    22.1880     2.1390 
   99.5000   -10.4670    76.2260     9.2340     8.2290     7.6460    22.1560     2.1380 
   99.6250   -10.5750    76.2280     9.4050     8.3970     7.8820    22.2330     2.1400 
   99.7500   -10.6590    74.6820     9.7500     8.6730     8.1790    22.5290     2.1470 
   99.8750   -10.7190    71.9860    10.5190     9.2710     8.7590    23.0380     2.1610 
  100.0000   -10.7580    68.8330    11.7120    10.2480    10.3880    23.5590     2.1840 
  100.1250   -10.7850    65.3140    13.0480    11.4400    13.5310    23.8690     2.2130 
  100.2500   -10.8110    61.8840    14.1220    12.5400    16.7710    23.8340     2.2420 
  100.3750   -10.8370    59.4570    14.5440    13.1680    17.1120    23.4740     2.2590 
  100.5000   -10.8630    57.3870    14.3620    13.2410    14.3050    23.1070     2.2540 
  100.6250   -10.8980    54.8360    13.9410    12.9740    11.1310    22.9770     2.2290 
  100.7500   -10.9320    52.7020    13.6040    12.6370    10.0460    22.9890     2.1940 
  100.8750   -10.9650    52.7890    13.4660    12.4090    11.1120    22.8450     2.1670 
  101.0000   -11.0070    55.2800    13.3540    12.2400    12.2640    22.3870     2.1530 
  101.1250   -11.0530    59.1080    13.0130    11.9530    11.8560    21.8120     2.1480 
  101.2500   -11.0910    62.7220    12.3300    11.4250    10.0600    21.4250     2.1410 
  101.3750   -11.1130    63.8730    11.4270    10.6820     8.3330    21.2780     2.1290 
  101.5000   -11.1280    63.2740    10.6020     9.9170     7.5200    21.2050     2.1150 
  101.6250   -11.1380    63.8030    10.0800     9.3260     7.3350    21.1270     2.1050 
  101.7500   -11.1400    65.8530     9.9020     8.9920     7.3170    21.0730     2.1020 
  101.8750   -11.1440    66.5830     9.9610     8.8940     7.2690    21.0510     2.1060 
