~V
VERS. 2.00: Ver 2.00
~W
STRT.M 55.0000:
STOP.M 224.0000:
STEP.M 0.1250:
NULL. -999.2500:
UWI. F10137:
~C
DEPT.M :
DEN.GM/CC :
SP.MV :
GR.API :
RML.OHMM :
RI. :
RXO.OHMM :
CALI.CM :
~A
# ...
  201.2500     2.1200   -13.8750    65.1270     6.4890     5.9120     5.2640    24.8780 
  201.3750     2.1450   -13.8480    67.0250     6.5880     5.9670     5.4820    24.8370 
  201.5000     2.2050   -13.8630    71.7230     6.6800     6.0270     5.8270    24.8170 
  201.6250     2.2610   -13.8830    73.5460     6.7090     6.0510     6.0920    24.8480 
  201.7500     2.2730   -13.8750    70.1190     6.6650     6.0200     6.5020    24.9350 
  201.8750     2.2370   -13.8920    65.3760     6.5810     5.9510     6.5910    25.0620 
  202.0000     2.1860   -13.9310    63.7770     6.5180     5.8870     6.3870    25.1690 
  202.1250     2.1530   -13.9530    64.9830     6.5210     5.8660     6.1720    25.2110 
  202.2500     2.1420   -13.9620    66.3250     6.5980     5.9000     6.3310    25.1640 
  202.3750     2.1450   -13.9480    66.4750     6.7170     5.9710     7.6170    24.9980 
  202.5000     2.1460   -13.9120    66.0600     6.8210     6.0400     9.5170    24.8250 
  202.6250     2.1410   -13.8780    65.8950     6.8730     6.0750     9.3150    24.8090 
  202.7500     2.1370   -13.8490    65.8290     6.8660     6.0680     7.4620    24.9530 
  202.8750     2.1480   -13.8090    65.0460     6.8200     6.0260     6.2760    25.1120 
  203.0000     2.1650   -13.7580    63.9420     6.7620     5.9700     6.0390    25.1370 
  203.1250     2.1640   -13.6890    64.0570     6.7070     5.9150     6.1300    25.0300 
  203.2500     2.1290   -13.6300    65.4820     6.6630     5.8720     6.3140    24.9120 
  203.3750     2.0800   -13.6010    66.2050     6.6350     5.8470     6.1890    24.9030 
  203.5000     2.0570   -13.5590    65.9600     6.6320     5.8430     5.7220    24.9410 
  203.6250     2.0720   -13.5040    65.1970     6.6580     5.8610     5.1960    24.8970 
  203.7500     2.1030   -13.4650    63.4810     6.7070     5.8970     4.7230    24.8130 
  203.8750     2.1230   -13.4270    62.0800     6.7550     5.9410     4.4910    24.9220 
  204.0000     2.1320   -13.3850    62.7990     6.7810     5.9790     4.6850    25.2770 
  204.1250     2.1490   -13.3590    64.4350     6.7810     6.0050     5.3010    25.6170 
  204.2500     2.1710   -13.3470    64.2600     6.7770     6.0230     5.9020    25.7830 
  204.3750     2.1840   -13.3250    63.0840     6.7950     6.0420     5.8660    25.8410 
  204.5000     2.1780   -13.3180    63.5370     6.8300     6.0570     5.4070    25.8320 
  204.6250     2.1660   -13.3200    65.1820     6.8380     6.0450     5.1010    25.7370 
  204.7500     2.1630   -13.3330    66.1680     6.7590     5.9710     5.1460    25.6000 
  204.8750     2.1780   -13.3490    66.2260     6.5550     5.8100     5.4670    25.5020 
  205.0000     2.1970   -13.3780    66.6380     6.2720     5.5900     5.5800    25.3610 
  205.1250     2.2070   -13.4300    67.8500     6.0150     5.3770     5.2470    25.1600 
  205.2500     2.2020   -13.4710    68.4830     5.8920     5.2460     4.7960    25.0170 
  205.3750     2.1880   -13.5180    67.1260     6.0000     5.2770     4.6350    25.0150 
  205.5000     2.1740   -13.5660    64.2640     6.3410     5.4840     4.7250    25.1130 
  205.6250     2.1680   -13.6090    61.0870     6.8290     5.8230     5.3310    25.1460 
  205.7500     2.1780   -13.6350    58.3910     7.3380     6.2150     6.5790    24.9950 
  205.8750     2.2100   -13.6640    57.4730     7.6970     6.5440     7.2980    24.8330 
  206.0000     2.2550   -13.6890    58.9790     7.8180     6.7340     7.0130    24.7980 
  206.1250     2.2930   -13.6840    61.6400     7.7440     6.7820     6.4180    24.8150 
  206.2500     2.3200   -13.6660    63.8340     7.5910     6.7460     6.1470    24.7930 
  206.3750     2.3430   -13.6410    66.2260     7.4910     6.7100     6.4990    24.7390 
  206.5000     2.3680   -13.6090    69.7110     7.4980     6.7260     6.9330    24.7150 
  206.6250     2.3900   -13.5760    73.7640     7.5800     6.7950     7.2610    24.7150 
  206.7500     2.4050   -13.5360    77.1170     7.6580     6.8730     7.5660    24.7140 
  206.8750     2.4140   -13.4760    79.3790     7.6360     6.8930     7.4950    24.7120 
  207.0000     2.4190   -13.4170    81.2530     7.4790     6.8150     7.0770    24.7060 
  207.1250     2.4190   -13.3620    82.7550     7.2240     6.6510     6.6140    24.6830 
  207.2500     2.4110   -13.3040    83.0500     6.9290     6.4360     6.1730    24.6510 
  207.3750     2.3980   -13.2520    82.3200     6.6620     6.2200     5.9080    24.6320 
  207.5000     2.3880   -13.1920    82.6660     6.4660     6.0410     5.9060    24.6430 
  207.6250     2.3890   -13.1250    85.5220     6.3470     5.9150     5.9860    24.6660 
  207.7500     2.3960   -13.0760    89.8160     6.2880     5.8320     5.9550    24.6680 
  207.8750     2.4010   -13.0420    93.3340     6.2570     5.7730     5.8380    24.6620 
  208.0000     2.3980   -13.0140    94.2210     6.2220     5.7120     5.7300    24.6700 
  208.1250     2.3890   -13.0050    91.3310     6.1540     5.6280     5.6670    24.6860 
  208.2500     2.3710   -13.0020    85.7310     6.0330     5.5090     5.5830    24.6880 
  208.3750     2.3490   -13.0160    82.7180     5.8560     5.3540     5.4440    24.6870 
  208.5000     2.3310   -13.0690    84.5910     5.6670     5.1940     5.3050    24.6890 
  208.6250     2.3250   -13.1300    87.0590     5.5570     5.0950     5.2560    24.6970 
  208.7500     2.3290   -13.1820    86.1760     5.6500     5.1400     5.2830    24.7100 
  208.8750     2.3400   -13.2570    83.5030     6.1130     5.4510     5.7950    24.7180 
  209.0000     2.3560   -13.3410    81.6730     6.9900     6.0730     7.3030    24.7280 
  209.1250     2.3750   -13.4150    80.5440     8.1530     6.9350     9.0270    24.7520 
  209.2500     2.3870   -13.5000    80.5040     9.3040     7.8470    10.7780    24.7770 
  209.3750     2.3770   -13.5610    83.9580     9.9400     8.4530    12.0650    24.7800 
  209.5000     2.3520   -13.5880    89.0780     9.8190     8.5370    11.8230    24.7580 
  209.6250     2.3230   -13.6120    90.6470     9.1550     8.1900     9.9220    24.7290 
  209.7500     2.3010   -13.6490    86.8300     8.4030     7.6910     7.6750    24.7190 
  209.8750     2.2940   -13.6610    81.5720     8.0210     7.3690     6.8230    24.7510 
  210.0000     2.3020   -13.6490    79.1110     8.1650     7.3930     7.4440    24.7810 
  210.1250     2.3170   -13.6340    79.0280     8.7580     7.7700     9.8090    24.7460 
  210.2500     2.3260   -13.6180    78.4440     9.6110     8.4070    14.9800    24.7100 
  210.3750     2.3260   -13.6040    76.0130    10.4030     9.0810    17.8200    24.7390 
  210.5000     2.3240   -13.6060    72.7870    10.8360     9.5350    14.5980    24.7970 
  210.6250     2.3270   -13.6180    69.9660    10.8040     9.6340    11.0120    24.8260 
  210.7500     2.3330   -13.6090    67.7980    10.3930     9.4030     9.2330    24.7810 
  210.8750     2.3310   -13.6030    67.1050     9.7860     8.9630     7.6700    24.6330 
  211.0000     2.3220   -13.6110    67.6910     9.1700     8.4630     6.4350    24.4850 
  211.1250     2.3120   -13.6160    67.3900     8.6480     8.0050     5.6300    24.4780 
  211.2500     2.3020   -13.6280    64.6790     8.2450     7.6280     5.1550    24.5680 
  211.3750     2.2830   -13.6600    61.1740     7.9610     7.3500     5.0580    24.6460 
  211.5000     2.2590   -13.6760    59.3630     7.7790     7.1700     5.1500    24.7600 
  211.6250     2.2460   -13.6720    59.0940     7.6930     7.0880     5.1500    24.9450 
  211.7500     2.2540   -13.6760    58.8640     7.7180     7.1140     4.9830    25.0340 
  211.8750     2.2710   -13.6880    57.4420     7.8860     7.2690     4.7940    24.9330 
  212.0000     2.2770   -13.6990    55.6180     8.1840     7.5370     4.6730    24.8080 
  212.1250     2.2620   -13.7130    55.6710     8.5520     7.8690     4.5760    24.7670 
  212.2500     2.2250   -13.7320    58.5210     8.9100     8.2020     4.4900    24.7520 
  212.3750     2.1760   -13.7520    61.4210     9.1510     8.4530     4.6320    24.7160 
