~V
VERS. 2.00: Ver 2.00
~W
STRT.M 49.0000:
STOP.M 223.0000:
STEP.M 0.1250:
NULL. -999.2500:
UWI. F10156:
~C
DEPT.M :
SP.MV :
GR.API :
RML.OHMM :
RI. :
RXO.OHMM :
CALI.CM :
DEN.GM/CC :
~A
# ...
  127.7500    -6.8400    94.5720     5.8200     5.0730     5.2370    24.4960     2.3390 
  127.8750    -6.8360    89.2810     6.0870     5.2690     5.7740    24.4210     2.3270 
  128.0000    -6.8450    85.7510     6.3080     5.4950     6.9750    24.3440     2.3170 
  128.1250    -6.8660    85.0070     6.4200     5.6800     8.3780    24.3320     2.3160 
  128.2500    -6.8910    87.5300     6.3890     5.7660     7.9170    24.3910     2.3180 
  128.3750    -6.9180    89.8890     6.2640     5.7630     6.3120    24.4360     2.3110 
  128.5000    -6.9320    90.4240     6.0850     5.6920     6.0440    24.4320     2.2970 
  128.6250    -6.9400    90.9690     5.8810     5.5800     6.6210    24.3970     2.2870 
  128.7500    -6.9640    90.5790     5.6820     5.4520     6.9980    24.3450     2.2840 
  128.8750    -6.9520    88.7920     5.5140     5.3340     6.7190    24.3130     2.2840 
  129.0000    -6.9490    88.5130     5.4220     5.2560     5.9880    24.3070     2.2850 
  129.1250    -6.9520    89.7860     5.4520     5.2520     5.4470    24.2930     2.2880 
  129.2500    -6.9150    91.5520     5.6290     5.3490     5.6420    24.2680     2.2960 
  129.3750    -6.9240    92.0260     5.8600     5.4970     5.9940    24.2480     2.3140 
  129.5000    -6.9340    91.9010     6.0380     5.6260     6.8850    24.2390     2.3420 
  129.6250    -6.9580    94.2520     6.0630     5.6590     7.9370    24.2610     2.3750 
  129.7500    -6.9950    98.3870     5.8760     5.5280     7.8310    24.3340     2.3900 
  129.8750    -7.0370    99.5150     5.5820     5.2890     6.0200    24.4070     2.3850 
  130.0000    -7.0850    99.3220     5.2810     5.0080     5.2310    24.4450     2.3690 
  130.1250    -7.1040   100.8990     5.0460     4.7470     5.1390    24.4550     2.3560 
  130.2500    -7.1490   101.5610     4.9450     4.5770     5.4650    24.4520     2.3480 
  130.3750    -7.1750    97.3610     4.9760     4.5250     5.8420    24.4460     2.3430 
  130.5000    -7.1960    92.2990     5.1510     4.6080     5.9080    24.4300     2.3440 
  130.6250    -7.2270    89.2320     5.5290     4.8470     6.1040    24.3740     2.3550 
  130.7500    -7.2250    86.0580     6.3180     5.3390     7.3720    24.2370     2.3830 
  130.8750    -7.2600    83.2580     7.6540     6.1490     8.7890    24.1110     2.4230 
  131.0000    -7.2950    79.3390     9.6760     7.3870    10.3100    24.0230     2.4680 
  131.1250    -7.3180    72.8070    12.3870     9.1430    13.5040    23.9680     2.5100 
  131.2500    -7.3520    65.0240    16.0600    11.3950    22.1790    23.9680     2.5410 
  131.3750    -7.3700    59.7450    18.6180    13.5870    26.4930    24.0260     2.5520 
  131.5000    -7.4070    58.0850    19.8970    15.0710    25.4240    24.1160     2.5400 
  131.6250    -7.4340    57.3120    19.7090    15.5110    21.2380    24.1330     2.5160 
  131.7500    -7.4420    54.3450    18.6360    15.1200    17.2930    24.0960     2.5000 
  131.8750    -7.4460    48.5690    17.7590    14.6510    16.1610    24.0730     2.4980 
  132.0000    -7.4510    45.1660    17.5380    14.4750    17.1030    24.0800     2.5060 
  132.1250    -7.4770    46.3750    17.9980    14.7090    19.1380    24.1100     2.5170 
  132.2500    -7.5040    51.3700    18.8940    15.2980    21.3060    24.1250     2.5240 
  132.3750    -7.5290    57.6760    19.7750    15.9690    22.5210    24.1490     2.5240 
  132.5000    -7.5710    62.7960    20.3860    16.5290    22.6300    24.1770     2.5150 
  132.6250    -7.6050    64.7000    20.6420    16.8660    22.3730    24.2030     2.5010 
  132.7500    -7.6490    62.8910    20.5650    16.9460    22.4570    24.2070     2.4900 
  132.8750    -7.6750    61.7550    20.2940    16.8530    22.4570    24.2050     2.4870 
  133.0000    -7.7010    64.0180    19.8650    16.6160    21.7710    24.2090     2.4910 
  133.1250    -7.7450    66.8470    19.3110    16.2620    21.1410    24.2100     2.4950 
  133.2500    -7.7540    65.7610    18.7180    15.8550    20.6200    24.2200     2.4980 
  133.3750    -7.7790    63.1030    18.2360    15.5090    19.8690    24.2120     2.5010 
  133.5000    -7.7990    63.1170    17.9990    15.3240    19.1160    24.1790     2.5030 
  133.6250    -7.7940    63.6790    18.0850    15.3730    19.6720    24.1410     2.5000 
  133.7500    -7.8140    61.2810    18.5310    15.7080    21.7490    24.0980     2.4920 
  133.8750    -7.8190    59.3710    19.1690    16.2290    22.7630    24.0750     2.4820 
  134.0000    -7.8230    60.0740    19.8170    16.8160    21.9250    24.0880     2.4720 
  134.1250    -7.8190    61.1070    20.2240    17.2740    20.4610    24.1150     2.4660 
  134.2500    -7.8190    61.7810    20.0420    17.2910    20.4290    24.0850     2.4610 
  134.3750    -7.8430    64.0120    19.2950    16.8210    20.5070    24.0530     2.4550 
  134.5000    -7.8400    66.7060    18.1470    15.9740    20.1150    24.0830     2.4500 
  134.6250    -7.8610    66.1700    16.8590    14.9510    18.1740    24.1650     2.4500 
  134.7500    -7.8630    62.8370    15.7370    13.9910    15.6050    24.2030     2.4570 
  134.8750    -7.8520    61.1220    14.9440    13.2470    14.8990    24.1680     2.4650 
  135.0000    -7.8510    62.1800    14.5160    12.7720    16.0010    24.1000     2.4690 
  135.1250    -7.8370    62.8210    14.4220    12.5620    16.3340    24.0780     2.4640 
  135.2500    -7.8610    60.3380    14.6720    12.6410    14.9870    24.1020     2.4570 
  135.3750    -7.8430    55.7300    15.1850    12.9500    15.0650    24.1260     2.4520 
  135.5000    -7.8340    52.0720    15.9010    13.4490    16.2140    24.1060     2.4490 
  135.6250    -7.8430    51.8590    16.7190    14.0660    17.5490    24.0730     2.4470 
  135.7500    -7.8380    55.7720    17.4730    14.6930    18.5640    24.0960     2.4470 
  135.8750    -7.8800    60.0980    18.0030    15.1910    19.4610    24.1290     2.4520 
  136.0000    -7.9070    61.0920    18.2310    15.4730    19.3030    24.0830     2.4600 
  136.1250    -7.9350    57.1170    18.2140    15.5410    18.0160    23.9740     2.4670 
  136.2500    -7.9600    53.9600    18.1220    15.4940    17.7530    23.8930     2.4770 
  136.3750    -7.9800    54.5160    18.1270    15.4690    18.4550    23.8750     2.4870 
  136.5000    -8.0140    54.9100    18.3050    15.5380    18.9570    23.9150     2.4960 
  136.6250    -8.0200    53.3630    18.6690    15.7330    19.4490    23.9940     2.5030 
  136.7500    -8.0430    53.5540    19.1850    16.0610    20.2960    24.0820     2.5110 
  136.8750    -8.0470    56.6240    19.7230    16.4400    20.3580    24.1340     2.5200 
  137.0000    -8.0430    56.5090    20.1970    16.8060    20.0120    24.1780     2.5250 
  137.1250    -8.0870    53.0010    20.5580    17.1170    20.1440    24.2160     2.5240 
  137.2500    -8.1080    50.4300    20.7860    17.3450    21.0150    24.2380     2.5210 
  137.3750    -8.1330    48.2260    20.9480    17.5150    21.6740    24.1990     2.5200 
  137.5000    -8.1660    45.8900    21.1090    17.6640    21.3770    24.1650     2.5260 
  137.6250    -8.1970    44.4880    21.3090    17.8220    21.1330    24.1530     2.5360 
  137.7500    -8.2380    44.3580    21.5200    17.9820    21.7110    24.1600     2.5460 
  137.8750    -8.2610    44.3740    21.6620    18.1000    22.1270    24.1590     2.5520 
  138.0000    -8.3020    44.7080    21.6740    18.1400    22.1890    24.1310     2.5550 
  138.1250    -8.3430    45.3060    21.5380    18.0850    21.8240    24.1010     2.5580 
  138.2500    -8.3560    44.8040    21.2990    17.9520    21.9140    24.0280     2.5630 
  138.3750    -8.3800    43.8330    21.0950    17.8290    21.6500    23.9590     2.5670 
  138.5000    -8.3720    43.7260    21.0320    17.7930    21.1810    23.9010     2.5690 
  138.6250    -8.3860    43.1960    21.1530    17.8890    21.1270    23.8400     2.5660 
  138.7500    -8.4110    41.2430    21.4270    18.1170    21.8470    23.8320     2.5620 
  138.8750    -8.4230    40.7490    21.6910    18.3740    22.4450    23.9260     2.5610 
