~V
VERS. 2.00: Ver 2.00
~W
STRT.M 55.0000:
STOP.M 239.0000:
STEP.M 0.1250:
NULL. -999.2500:
UWI. F10186:
~C
DEPT.M :
GR.API :
RML.OHMM :
RI. :
RXO.OHMM :
CALI.CM :
DEN.GM/CC :
SP.MV :
~A
# ...
  100.0000    57.4770     7.5510     6.7070     8.0470    21.8850     2.1800    -8.5400 
  100.1250    57.9020     7.1850     6.4870     7.9510    21.9170     2.1880    -7.8490 
  100.2500    61.0900     6.8830     6.2830     7.7770    21.9520     2.1980    -7.1270 
  100.3750    65.6420     6.6780     6.1230     7.5620    21.9170     2.2070    -6.3780 
  100.5000    68.8220     6.5330     5.9910     7.3220    21.7930     2.2110    -5.6350 
  100.6250    70.9500     6.3410     5.8150     7.3080    21.7420     2.2110    -4.8860 
  100.7500    73.5730     6.0240     5.5380     7.2050    21.8970     2.2150    -4.0880 
  100.8750    77.3870     5.5660     5.1440     6.6990    22.3180     2.2260    -3.2940 
  101.0000    82.9790     5.0190     4.6650     5.6660    22.9390     2.2450    -2.5710 
  101.1250    89.8250     4.4860     4.1790     4.5160    23.6590     2.2650    -1.9350 
  101.2500    94.1970     4.0570     3.7620     3.9960    24.2050     2.2820    -1.3900 
  101.3750    93.6220     3.7690     3.4530     3.8280    24.4320     2.2960    -0.9780 
  101.5000    89.7570     3.6260     3.2650     3.6510    24.4510     2.3090    -0.6540 
  101.6250    84.3820     3.6340     3.2110     3.5540    24.4310     2.3270    -0.4190 
  101.7500    78.4730     3.7500     3.2570     3.5670    24.4360     2.3460    -0.3460 
  101.8750    74.8810     3.9520     3.3830     3.6730    24.4550     2.3610    -0.4380 
  102.0000    75.7760     4.2000     3.5620     3.8360    24.4500     2.3710    -0.5990 
  102.1250    79.4840     4.4290     3.7530     4.1660    24.4030     2.3740    -0.8110 
  102.2500    80.6810     4.5820     3.9090     4.5730    24.3660     2.3730    -1.1030 
  102.3750    79.5170     4.6430     4.0090     4.8150    24.3520     2.3710    -1.4450 
  102.5000    78.8710     4.6500     4.0650     4.8610    24.3490     2.3670    -1.8260 
  102.6250    81.0980     4.7130     4.1410     4.7640    24.3540     2.3550    -2.2780 
  102.7500    84.4630     4.9340     4.3100     4.7150    24.3080     2.3360    -2.7910 
  102.8750    85.7740     5.3670     4.6230     4.7900    24.0670     2.3100    -3.3810 
  103.0000    82.0730     6.0010     5.0880     5.0920    23.5500     2.2850    -4.0300 
  103.1250    73.8020     6.7570     5.6700     5.8350    22.9450     2.2670    -4.6780 
  103.2500    66.9870     7.4670     6.2460     6.9050    22.6260     2.2570    -5.3300 
  103.3750    65.0280     8.0010     6.7120     7.8700    22.5350     2.2530    -5.9860 
  103.5000    66.4990     8.2660     6.9780     8.4190    22.5350     2.2540    -6.5990 
  103.6250    66.5810     8.1910     6.9690     8.7970    22.5840     2.2550    -7.0890 
  103.7500    64.0840     7.8950     6.7650     8.9640    22.7050     2.2520    -7.4960 
  103.8750    62.3670     7.5100     6.4600     9.2650    22.8790     2.2460    -7.8080 
  104.0000    64.7310     7.1900     6.1710     9.8750    23.0350     2.2380    -8.0520 
  104.1250    68.1770     7.1070     6.0280     9.2720    23.1530     2.2340    -8.3140 
  104.2500    70.0690     7.2710     6.0600     7.0800    23.2010     2.2400    -8.5860 
  104.3750    70.9610     7.6340     6.2520     6.0770    23.1670     2.2540    -8.8480 
  104.5000    69.7970     8.0860     6.5480     6.4670    23.0330     2.2650    -9.1260 
  104.6250    64.7640     8.4770     6.8560     7.4520    22.8820     2.2570    -9.4740 
  104.7500    60.7990     8.7190     7.0950     8.1950    22.8780     2.2310    -9.8220 
  104.8750    62.0920     8.8050     7.2350     8.5230    22.9440     2.1990   -10.1060 
  105.0000    65.1830     8.7760     7.2800     8.7190    22.9490     2.1760   -10.3220 
  105.1250    64.0450     8.6920     7.2540     8.8520    22.8020     2.1700   -10.4670 
  105.2500    59.2100     8.5990     7.1940     8.8380    22.5750     2.1770   -10.5150 
  105.3750    54.4460     8.4980     7.1130     8.6500    22.4110     2.1870   -10.4700 
  105.5000    55.1040     8.3930     7.0210     8.3820    22.3860     2.1940   -10.3470 
  105.6250    60.3770     8.3350     6.9570     8.1690    22.4840     2.1970   -10.1040 
  105.7500    64.1620     8.3880     6.9650     8.1150    22.5880     2.1970    -9.7490 
  105.8750    63.9250     8.5890     7.0740     8.2470    22.6420     2.1980    -9.3610 
  106.0000    62.3930     8.9030     7.2690     8.4510    22.6580     2.2030    -8.9790 
  106.1250    63.1900     9.1950     7.4750     8.6070    22.6600     2.2110    -8.5130 
  106.2500    64.5090     9.2970     7.5790     8.7930    22.6820     2.2190    -7.9630 
  106.3750    65.4650     9.1170     7.5070     8.8950    22.7490     2.2240    -7.3820 
  106.5000    66.6370     8.6770     7.2520     8.8500    22.8900     2.2260    -6.8070 
  106.6250    68.2000     8.1180     6.8820     8.4590    23.1170     2.2260    -6.2410 
  106.7500    69.8690     7.6410     6.5350     7.6340    23.3240     2.2250    -5.7260 
  106.8750    69.5490     7.3390     6.2890     6.7010    23.3230     2.2280    -5.2720 
  107.0000    68.0660     7.2090     6.1600     6.3370    23.1790     2.2350    -4.8410 
  107.1250    69.6840     7.1740     6.1230     6.5750    23.1350     2.2450    -4.4130 
  107.2500    74.2860     7.1140     6.0960     6.8330    23.2510     2.2540    -3.9780 
  107.3750    78.7840     6.9670     6.0290     6.8670    23.4280     2.2600    -3.5660 
  107.5000    79.4100     6.7220     5.8970     6.4710    23.5240     2.2640    -3.2240 
  107.6250    78.8000     6.4240     5.7090     5.8820    23.4010     2.2700    -2.9370 
  107.7500    81.8060     6.1650     5.5240     5.6650    23.2670     2.2790    -2.6200 
  107.8750    87.2280     5.9990     5.3840     5.5980    23.3310     2.2870    -2.3110 
  108.0000    90.6100     5.9400     5.3090     5.3520    23.6260     2.2910    -2.1010 
  108.1250    89.9170     5.9640     5.2970     5.3070    23.8710     2.2880    -1.9910 
  108.2500    87.3430     5.9960     5.3020     5.3510    23.9580     2.2850    -1.9670 
  108.3750    85.8000     5.9900     5.2920     5.5480    23.9630     2.2820    -2.0380 
  108.5000    89.7200     5.9280     5.2520     5.7740    24.0020     2.2820    -2.1370 
  108.6250    97.3200     5.8310     5.1890     5.7250    24.1630     2.2840    -2.2580 
  108.7500    99.3410     5.7510     5.1360     5.5240    24.1810     2.2850    -2.4670 
  108.8750    94.5560     5.7250     5.1200     5.4770    24.0860     2.2870    -2.7680 
  109.0000    88.5590     5.8060     5.1580     5.5660    23.9260     2.2880    -3.1200 
  109.1250    85.0720     6.0020     5.2720     5.6750    23.6760     2.2880    -3.5410 
  109.2500    81.4700     6.3260     5.4600     5.8920    23.3890     2.2870    -3.9930 
  109.3750    79.0720     6.7970     5.7240     6.2980    23.1980     2.2830    -4.4450 
  109.5000    79.6990     7.2460     6.0500     6.8400    23.1570     2.2760    -4.9570 
  109.6250    80.0340     7.6620     6.3860     6.8980    23.0910     2.2660    -5.5070 
  109.7500    79.8460     7.9610     6.6450     7.2040    22.9300     2.2530    -6.0040 
  109.8750    79.0390     8.0490     6.7530     8.1210    22.7560     2.2400    -6.4420 
  110.0000    77.1730     7.8950     6.6780     8.9420    22.6940     2.2300    -6.8490 
  110.1250    75.7750     7.6020     6.4710     8.5510    22.7610     2.2280    -7.2280 
  110.2500    76.9670     7.4760     6.3400     7.6320    22.8540     2.2350    -7.6060 
  110.3750    78.5750     7.8160     6.4990     7.6790    22.9420     2.2510    -7.9980 
  110.5000    77.4810     8.8240     7.1210     8.8390    23.0580     2.2740    -8.3570 
  110.6250    72.5780    10.5360     8.3260    11.7230    23.2720     2.3060    -8.7030 
  110.7500    67.9130    12.4280     9.8220    16.6660    23.5570     2.3450    -9.1230 
  110.8750    66.1390    13.9140    11.2170    24.6530    23.7740     2.3830    -9.6020 
  111.0000    66.8260    14.4380    12.0460    31.8940    23.7290     2.4060   -10.0720 
  111.1250    66.3150    13.5780    11.8110    27.5550    23.2030     2.3910   -10.5210 
