~V
VERS. 2.00: Ver 2.00
~W
STRT.M 55.0000:
STOP.M 288.0000:
STEP.M 0.1250:
NULL. -999.2500:
UWI. F10106:
~C
DEPT.M :
DEN.GM/CC :
SP.MV :
GR.API :
RML.OHMM :
RI. :
RXO.OHMM :
CALI.CM :
~A
# ...
  133.7500     2.1480   -14.7510    59.8820     6.9330     6.2370     6.8310    23.6700 
  133.8750     2.1580   -14.2020    58.8310     6.7100     6.0610     6.8690    23.6890 
  134.0000     2.1710   -13.6050    58.5670     6.5150     5.8980     6.8000    23.6870 
  134.1250     2.1860   -12.9630    61.4330     6.5340     5.8820     6.7380    23.7040 
  134.2500     2.2120   -12.3140    66.5120     6.8940     6.1230     7.0630    23.7750 
  134.3750     2.2580   -11.7020    71.1690     7.6360     6.6780     8.5780    23.9320 
  134.5000     2.3250   -11.1540    73.7800     8.6430     7.4950    11.5460    24.1170 
  134.6250     2.3990   -10.6910    74.3730     9.5720     8.3500    15.4300    24.2100 
  134.7500     2.4460   -10.3150    74.3600    10.0280     8.9060    18.8420    24.1920 
  134.8750     2.4450   -10.0210    74.1220     9.7780     8.9140    18.7130    24.1050 
  135.0000     2.4030    -9.7920    74.5200     8.8630     8.3170    13.2680    24.0110 
  135.1250     2.3490    -9.6150    77.9590     7.6250     7.3250     8.2030    23.9880 
  135.2500     2.3140    -9.4710    81.8900     6.5580     6.3730     6.3530    24.0430 
  135.3750     2.3010    -9.3370    82.7080     5.8640     5.6700     5.7400    24.1110 
  135.5000     2.3020    -9.1900    81.1950     5.5420     5.2620     5.6490    24.1140 
  135.6250     2.3030    -9.0160    81.5420     5.5130     5.1270     5.5860    24.0390 
  135.7500     2.2970    -8.8380    82.5070     5.6080     5.1370     5.3280    23.9210 
  135.8750     2.2880    -8.6850    82.2860     5.7620     5.2340     5.0800    23.7660 
  136.0000     2.2800    -8.5730    81.2130     5.9470     5.3830     5.1540    23.5920 
  136.1250     2.2770    -8.5400    80.3920     6.1760     5.5810     5.5990    23.4510 
  136.2500     2.2780    -8.5730    80.0480     6.4720     5.8370     6.0960    23.3600 
  136.3750     2.2810    -8.6690    80.2790     6.8700     6.1740     6.4720    23.3160 
  136.5000     2.2890    -8.8380    79.2650     7.3930     6.6150     6.7500    23.2920 
  136.6250     2.3100    -9.1260    75.1180     8.0450     7.1690     7.2710    23.2310 
  136.7500     2.3410    -9.5210    72.3450     8.7350     7.7690     8.0520    23.1240 
  136.8750     2.3660   -10.0010    70.8670     9.3560     8.3320     9.0550    23.0090 
  137.0000     2.3700   -10.5440    67.5870     9.7950     8.7630     9.9770    22.9550 
  137.1250     2.3350   -11.1140    62.2310     9.9400     8.9480     9.9880    23.0660 
  137.2500     2.2790   -11.6760    57.7210     9.8580     8.9200     9.6140    23.3270 
  137.3750     2.2230   -12.2010    55.7810     9.6410     8.7400     9.2150    23.6560 
  137.5000     2.1830   -12.6810    57.4760     9.3890     8.4940     8.9280    23.9520 
  137.6250     2.1670   -13.0740    60.5900     9.1800     8.2580     8.7720    24.1000 
  137.7500     2.1680   -13.3730    60.5090     9.0270     8.0630     8.6530    24.1440 
  137.8750     2.1790   -13.5830    58.5920     8.9190     7.9120     8.5220    24.1830 
  138.0000     2.1900   -13.7220    59.3220     8.8480     7.8030     8.4230    24.3020 
  138.1250     2.1950   -13.8100    62.2960     8.8260     7.7480     8.3960    24.5120 
  138.2500     2.1920   -13.8720    63.7680     8.8540     7.7500     8.4830    24.7540 
  138.3750     2.1860   -13.9230    64.8120     8.9320     7.8110     8.6310    24.9520 
  138.5000     2.1810   -13.9650    66.6910     9.0500     7.9240     8.7610    25.0710 
  138.6250     2.1820   -13.9840    64.0410     9.1980     8.0820     8.9380    25.1650 
  138.7500     2.1890   -13.9820    56.5830     9.3580     8.2610     9.1730    25.2840 
  138.8750     2.1950   -13.9310    49.7140     9.5200     8.4440     9.3780    25.4340 
  139.0000     2.1970   -13.8120    48.0620     9.6640     8.6110     9.4900    25.6010 
  139.1250     2.1890   -13.5850    50.4040     9.7360     8.7120     9.4520    25.7370 
  139.2500     2.1720   -13.2370    51.6300     9.6800     8.7000     9.3060    25.7950 
  139.3750     2.1540   -12.7710    52.1370     9.4400     8.5260     9.0090    25.7070 
  139.5000     2.1460   -12.2070    53.2090     8.9950     8.1660     8.6200    25.3890 
  139.6250     2.1620   -11.5510    57.9840     8.3640     7.6280     8.1060    24.8510 
  139.7500     2.1990   -10.8460    66.7000     7.6770     7.0230     7.3880    24.3840 
  139.8750     2.2480   -10.1380    76.4780     7.0440     6.4440     6.5580    24.1510 
  140.0000     2.2930    -9.4700    84.4070     6.5530     5.9700     5.8790    24.0630 
  140.1250     2.3130    -8.8960    87.0270     6.2860     5.6790     5.6900    24.0460 
  140.2500     2.3120    -8.4440    85.1550     6.2150     5.5580     5.6720    24.0890 
  140.3750     2.2980    -8.1040    81.4900     6.3140     5.5960     5.7170    24.1830 
  140.5000     2.2870    -7.8650    80.1860     6.5380     5.7600     5.8530    24.2450 
  140.6250     2.2910    -7.7480    82.1190     6.8080     5.9920     6.1570    24.2100 
  140.7500     2.3080    -7.7020    82.2510     7.0160     6.1960     6.4700    24.1010 
  140.8750     2.3280    -7.7010    80.3390     7.0840     6.2980     6.6890    23.9340 
  141.0000     2.3410    -7.7120    77.9950     6.9720     6.2560     6.7270    23.7490 
  141.1250     2.3400    -7.7030    76.9150     6.6870     6.0570     6.3150    23.6240 
  141.2500     2.3320    -7.6730    77.3350     6.3490     5.7930     5.8300    23.5810 
  141.3750     2.3240    -7.6390    79.5230     6.0520     5.5420     5.5970    23.6070 
  141.5000     2.3180    -7.6040    81.6960     5.8520     5.3570     5.6470    23.6560 
  141.6250     2.3150    -7.5620    79.4300     5.7740     5.2700     5.7470    23.6730 
  141.7500     2.3130    -7.5260    77.8330     5.7670     5.2510     5.7880    23.6500 
  141.8750     2.3130    -7.4910    81.4880     5.7930     5.2710     5.7570    23.6170 
  142.0000     2.3140    -7.4690    87.7170     5.8190     5.3030     5.6670    23.6030 
  142.1250     2.3150    -7.4690    86.9350     5.8130     5.3140     5.6560    23.6550 
  142.2500     2.3120    -7.4830    80.0030     5.7560     5.2830     5.7280    23.7750 
  142.3750     2.3070    -7.5040    76.2380     5.6320     5.1900     5.8340    23.9530 
  142.5000     2.3040    -7.5170    79.9150     5.4380     5.0300     5.7890    24.1500 
  142.6250     2.3080    -7.5090    85.8900     5.1920     4.8160     5.3920    24.2870 
  142.7500     2.3140    -7.4740    88.0160     4.9570     4.5980     4.9780    24.3590 
  142.8750     2.3170    -7.4410    87.6950     4.7850     4.4240     4.6900    24.3830 
  143.0000     2.3160    -7.4000    86.4510     4.7110     4.3300     4.5660    24.3620 
  143.1250     2.3150    -7.3770    84.2730     4.7490     4.3440     4.6060    24.3030 
  143.2500     2.3190    -7.3670    83.2760     4.8390     4.4270     4.7760    24.2370 
  143.3750     2.3290    -7.3720    85.2410     4.9320     4.5430     5.0680    24.1540 
  143.5000     2.3430    -7.3990    89.1190     4.9990     4.6600     5.2550    24.0540 
  143.6250     2.3590    -7.4770    92.1770     5.0470     4.7580     5.2920    23.9320 
  143.7500     2.3730    -7.5950    94.0620     5.1370     4.8610     5.2790    23.8130 
  143.8750     2.3840    -7.7620    93.8260     5.3340     5.0150     5.3610    23.7090 
  144.0000     2.3870    -7.9660    89.1380     5.6770     5.2610     5.6570    23.6180 
  144.1250     2.3710    -8.1720    82.8230     6.1390     5.6050     6.1530    23.5590 
  144.2500     2.3390    -8.3960    77.9900     6.5670     5.9470     6.6560    23.5850 
  144.3750     2.3000    -8.6290    73.8080     6.8040     6.1650     7.2510    23.7110 
  144.5000     2.2700    -8.8380    69.0410     6.7370     6.1510     7.6930    23.9000 
  144.6250     2.2610    -8.9940    69.0690     6.3400     5.8490     7.6050    24.0910 
  144.7500     2.2730    -9.1550    75.7730     5.8720     5.4430     6.9880    24.2290 
  144.8750     2.2980    -9.2900    83.0680     5.6390     5.1610     6.2440    24.2620 
