~V
VERS. 2.00: Ver 2.00
~W
STRT.M 50.0000:
STOP.M 237.0000:
STEP.M 0.1250:
NULL. -999.2500:
UWI. F10163:
~C
DEPT.M :
DEN.GM/CC :
GR.API :
RML.OHMM :
RI. :
RXO.OHMM :
CALI.CM :
SP.MV :
~A
# ...
  173.7500     2.3890    87.5880    11.6170    11.6900     8.1470    23.7050   -13.5830 
  173.8750     2.3870    84.3730    11.6070    11.5750     8.2580    23.2140   -13.5970 
  174.0000     2.3850    83.7510    11.6610    11.5080     8.2880    23.6360   -13.6290 
  174.1250     2.3820    83.1060    11.7660    11.4960     8.5260    25.0720   -13.7190 
  174.2500     2.3780    82.7630    11.9660    11.5710     9.2810    26.8950   -13.8490 
  174.3750     2.3730    83.0630    12.3130    11.7610    10.1270    27.6350   -13.9790 
  174.5000     2.3700    83.4510    12.8130    12.0610    10.9250    27.6930   -14.0500 
  174.6250     2.3700    83.2140    13.4160    12.4280    11.7750    27.6930   -14.1050 
  174.7500     2.3740    82.7950    13.9980    12.7700    12.5960    27.8020   -14.1270 
  174.8750     2.3810    82.0750    14.4880    13.0290    13.1100    27.9620   -14.1390 
  175.0000     2.3860    81.0380    14.8620    13.1830    13.4010    27.9710   -14.0990 
  175.1250     2.3850    79.6410    15.1540    13.2600    13.4610    27.9650   -13.9270 
  175.2500     2.3790    79.7230    15.4600    13.3410    13.5070    27.9680   -13.6930 
  175.3750     2.3700    80.0780    15.8490    13.4780    13.6370    27.9440   -13.4640 
  175.5000     2.3600    78.6330    16.3830    13.7210    13.7810    27.9500   -13.3240 
  175.6250     2.3540    77.3780    17.1280    14.1410    14.3820    27.9290   -13.2540 
  175.7500     2.3490    78.0610    17.9850    14.6990    15.3380    27.8940   -13.1620 
  175.8750     2.3450    78.8700    18.7920    15.3010    16.4120    27.8760   -13.0300 
  176.0000     2.3420    78.4560    19.3640    15.8070    16.9430    27.8670   -12.9150 
  176.1250     2.3390    78.7510    19.5080    16.0620    19.7030    27.8910   -12.9430 
  176.2500     2.3380    80.2610    19.3000    16.0740    20.9820    27.8960   -13.0650 
  176.3750     2.3410    80.1110    18.8830    15.9140    17.8360    27.8990   -13.2000 
  176.5000     2.3480    78.0980    18.4440    15.7010    15.4850    27.9720   -13.2690 
  176.6250     2.3570    78.0610    18.1160    15.5250    15.8080    28.0190   -13.2370 
  176.7500     2.3620    79.0420    17.8420    15.3790    16.7670    28.0140   -13.2110 
  176.8750     2.3630    79.6570    17.4990    15.1950    16.5830    27.9670   -13.2220 
  177.0000     2.3610    80.8750    16.9600    14.8950    15.4680    27.9520   -13.2570 
  177.1250     2.3600    82.6860    16.1410    14.3940    14.5060    27.9620   -13.2000 
  177.2500     2.3600    83.6760    15.1820    13.7460    13.6030    27.9520   -13.0070 
  177.3750     2.3600    83.1650    14.2670    13.0570    12.3340    28.0010   -12.7580 
  177.5000     2.3570    81.7550    13.5710    12.4630    11.5210    28.0370   -12.5310 
  177.6250     2.3530    81.5130    13.2270    12.1090    11.5830    28.1100   -12.3800 
  177.7500     2.3500    83.4720    13.1370    11.9660    11.2730    28.0790   -12.2770 
  177.8750     2.3530    86.7900    13.1680    11.9620    10.6250    28.0070   -12.1840 
  178.0000     2.3610    88.0740    13.1450    11.9780    11.0680    27.9370   -12.0240 
  178.1250     2.3710    85.7960    12.8720    11.8410    12.2990    27.8880   -11.8010 
  178.2500     2.3770    83.1670    12.3450    11.4870    12.1880    27.9000   -11.6210 
  178.3750     2.3790    82.9360    11.6430    10.9410    10.3850    27.9290   -11.4780 
  178.5000     2.3790    85.7260    10.9130    10.3090     9.2800    27.9370   -11.3710 
  178.6250     2.3800    89.0690    10.4470     9.8250     9.2230    27.9430   -11.2640 
  178.7500     2.3830    90.1140    10.5690     9.7450     9.2920    27.9480   -11.1020 
  178.8750     2.3820    89.9890    11.6770    10.3420     9.3810    27.9370   -10.8900 
  179.0000     2.3710    88.8100    14.1980    11.9260    10.0690    27.9350   -10.7240 
  179.1250     2.3440    85.3500    18.7690    15.1430    13.8810    27.9340   -10.6750 
  179.2500     2.3090    81.0470    24.8950    20.0140    24.7930    27.9290   -10.6840 
  179.3750     2.2760    78.0350    31.3660    26.0200    45.2040    27.8900   -10.6750 
  179.5000     2.2540    76.3450    35.7470    31.2100    60.9220    27.9130   -10.5470 
  179.6250     2.2500    74.8730    34.5790    31.7860    46.7590    27.8550   -10.2850 
  179.7500     2.2610    73.6940    29.1800    27.9110    29.8510    27.8380    -9.9920 
  179.8750     2.2850    75.3960    22.5280    22.1620    19.9880    27.7730    -9.7580 
  180.0000     2.3170    80.7420    17.0300    16.9830    14.3800    27.6810    -9.5580 
  180.1250     2.3510    87.0950    13.8090    13.6020    11.2560    27.6240    -9.3000 
  180.2500     2.3810    91.3100    12.4070    11.7090     9.7270    27.6090    -9.0300 
  180.3750     2.3970    92.7940    12.7650    11.1620     9.2670    27.5110    -8.8430 
  180.5000     2.3920    91.4470    15.2160    12.0870    10.1980    27.5670    -8.8380 
  180.6250     2.3610    84.8760    21.2490    15.5770    14.5180    27.5800    -9.1190 
  180.7500     2.3160    74.2940    31.9370    22.8420    25.5080    27.5940    -9.5800 
  180.8750     2.2680    65.1160    49.1170    35.9860    51.4400    27.5850   -10.1140 
  181.0000     2.2290    61.1900    74.5050    56.9910   121.5160    27.5110   -10.7120 
  181.1250     2.2080    60.9620   108.5170    86.1370   194.5990    27.4970   -11.4380 
  181.2500     2.2010    59.7640   142.7920   115.5560   194.8790    27.4840   -12.2620 
  181.3750     2.2020    57.3200   168.2450   137.6680   169.0930    27.4310   -13.1680 
  181.5000     2.2030    57.5870   182.0940   150.0460   172.4920    27.4440   -14.0930 
  181.6250     2.1980    59.3610   189.1450   155.6720   199.0780    27.5610   -14.9630 
  181.7500     2.1890    59.0620   196.0620   160.1370   220.2350    27.5810   -15.7900 
  181.8750     2.1790    58.8650   203.9460   165.0380   228.3650    27.5290   -16.5710 
  182.0000     2.1730    60.5640   211.9520   170.3880   222.6700    27.3630   -17.3100 
  182.1250     2.1740    62.2530   218.4020   175.5680   236.7030    27.2610   -18.0150 
  182.2500     2.1810    61.8760   221.9580   179.7280   236.9590    27.0820   -18.6190 
  182.3750     2.1890    61.0700   220.8290   181.5660   236.2070    26.8390   -19.0490 
  182.5000     2.1940    60.3740   212.8850   179.1760   235.1860    26.7370   -19.3050 
  182.6250     2.1940    58.9680   195.8570   169.7850   247.2990    26.7520   -19.3800 
  182.7500     2.1900    58.8910   173.5320   154.8750   221.4890    26.7830   -19.3700 
  182.8750     2.1900    60.8350   150.1830   137.1260   176.5030    26.8720   -19.2900 
  183.0000     2.1950    64.3190   129.6210   119.8710   140.8060    26.8440   -19.1040 
  183.1250     2.2060    69.3950   115.0660   106.5590    98.7320    26.5050   -18.7730 
  183.2500     2.2170    73.5110   106.3250    98.0220    76.9920    26.3250   -18.4050 
  183.3750     2.2220    74.2240   103.0600    94.3710    72.1240    26.1460   -18.0740 
  183.5000     2.2210    71.9660   104.4430    95.0710    76.0420    25.9930   -17.8160 
  183.6250     2.2130    68.6000   109.5770    99.4990    82.9180    25.8800   -17.6380 
  183.7500     2.2050    67.3300   116.0660   105.5080   105.2040    25.8360   -17.4230 
  183.8750     2.1980    67.3740   122.1830   111.4720   138.1210    25.7780   -17.1660 
  184.0000     2.1950    67.7380   126.8150   116.1410   145.9350    25.6980   -16.9430 
  184.1250     2.1940    67.5230   130.0680   119.1600   116.3770    25.3280   -16.7710 
  184.2500     2.1930    66.9760   133.6630   121.9340   107.0570    24.8990   -16.6230 
  184.3750     2.1910    66.1650   138.9920   125.8220   122.6010    24.6040   -16.5020 
  184.5000     2.1890    64.3350   146.8500   131.8080   150.9680    24.3640   -16.3640 
  184.6250     2.1850    63.2410   157.5110   140.5770   170.6100    24.2900   -16.2370 
  184.7500     2.1800    63.1660   169.3820   151.0360   182.1430    24.3430   -16.1840 
  184.8750     2.1760    62.8450   180.8910   161.9760   166.3930    24.3120   -16.2260 
