~V
VERS. 2.00: Ver 2.00
~W
STRT.M 52.0000:
STOP.M 216.0000:
STEP.M 0.1250:
NULL. -999.2500:
UWI. F10126:
~C
DEPT.M :
DEN.GM/CC :
GR.API :
RML.OHMM :
RI. :
RXO.OHMM :
CALI.CM :
SP.MV :
~A
# ...
  198.2500     2.4470    80.1630    13.2610    11.6260     8.2290    23.7780     4.2410 
  198.3750     2.4560    82.0350    13.2720    11.6610     8.7130    23.7940     4.2600 
  198.5000     2.4670    86.2690    13.3160    11.7300     9.9700    23.8700     4.2760 
  198.6250     2.4760    87.6240    13.4120    11.8340    11.5480    24.1390     4.3020 
  198.7500     2.4790    84.2910    13.5820    11.9900    12.7940    24.3540     4.3440 
  198.8750     2.4710    79.0510    13.8350    12.2160    13.6710    24.4580     4.4400 
  199.0000     2.4510    75.4060    14.1480    12.5040    13.6080    24.4790     4.6190 
  199.1250     2.4270    74.2680    14.4480    12.8020    13.4860    24.4780     4.8420 
  199.2500     2.4130    75.7770    14.6560    13.0270    12.8780    24.4340     5.0400 
  199.3750     2.4180    79.5500    14.7220    13.1130    12.5960    24.4580     5.1980 
  199.5000     2.4400    82.2210    14.6360    13.0340    12.1290    24.5840     5.3500 
  199.6250     2.4680    82.0170    14.4080    12.7920    12.1400    24.7100     5.5220 
  199.7500     2.4890    82.3190    14.1100    12.4640    11.5940    24.6150     5.7030 
  199.8750     2.4980    83.4530    13.7900    12.1030    10.7670    24.4940     5.8500 
  200.0000     2.4990    81.8590    13.4930    11.7590    10.1370    24.4020     5.9070 
  200.1250     2.4990    77.3710    13.2790    11.4910    10.6530    23.7330     5.8650 
  200.2500     2.5000    75.7870    13.1800    11.3300    11.2750    23.8000     5.7320 
  200.3750     2.5010    78.0250    13.2270    11.3080    11.6480    23.8670     5.5750 
  200.5000     2.4930    81.5220    13.4210    11.4420    11.9210    23.8670     5.4150 
  200.6250     2.4740    86.1880    13.7430    11.7320    12.5260    24.2670     5.2140 
  200.7500     2.4520    90.1010    14.1030    12.1010    12.6000    24.2670     4.9850 
  200.8750     2.4350    90.2460    14.4280    12.4770    12.6550    24.2670     4.7600 
  201.0000     2.4310    87.9310    14.6620    12.7880    12.8660    24.2670     4.5740 
  201.1250     2.4460    85.9040    14.7690    12.9710    13.4680    24.2670     4.4980 
  201.2500     2.4700    82.7620    14.7890    13.0510    13.9350    24.2670     4.5380 
  201.3750     2.4960    78.5760    14.7620    13.0680    13.8880    24.2670     4.6420 
  201.5000     2.5160    76.9430    14.7210    13.0600    13.8000    24.2670     4.7680 
  201.6250     2.5200    79.8230    14.6760    13.0460    14.1770    24.2670     4.9430 
  201.7500     2.5070    80.8930    14.6020    13.0040    14.1850    24.3650     5.1300 
  201.8750     2.4800    80.0430    14.4640    12.8980    13.0700    24.4170     5.2890 
  202.0000     2.4470    81.2250    14.2410    12.7000    12.2030    24.3190     5.3830 
  202.1250     2.4230    83.5970    13.9320    12.4100    11.7050    24.3220     5.3940 
  202.2500     2.4130    83.6510    13.5930    12.0890    10.5400    24.2920     5.3830 
  202.3750     2.4160    81.5190    13.2770    11.7920    10.2640    24.2660     5.3710 
  202.5000     2.4260    80.3030    13.0240    11.5630    12.1160    24.3570     5.3830 
  202.6250     2.4390    81.4060    12.8570    11.4270    15.5180    24.4630     5.4670 
  202.7500     2.4510    81.7500    12.7400    11.3470    16.3630    24.5750     5.6060 
  202.8750     2.4630    79.7070    12.6350    11.2880    13.2380    24.6090     5.7840 
  203.0000     2.4750    75.8850    12.5120    11.2090    10.7160    24.5510     6.0420 
  203.1250     2.4870    73.7160    12.3540    11.0770     9.3900    24.4650     6.3900 
  203.2500     2.4970    73.4830    12.1780    10.9060     8.4070    24.3970     6.7250 
  203.3750     2.5060    72.6680    12.0050    10.7180     8.0720    24.3600     7.0210 
  203.5000     2.5150    70.9620    11.8530    10.5380     8.0800    24.4340     7.2330 
  203.6250     2.5300    70.5610    11.7410    10.3930     8.1750    24.4240     7.3020 
  203.7500     2.5480    70.9030    11.6710    10.2930     8.3160    24.4420     7.3200 
  203.8750     2.5630    71.6460    11.6450    10.2360     8.5180    24.4490     7.3140 
  204.0000     2.5650    72.8530    11.6700    10.2180     8.8990    24.4610     7.2590 
  204.1250     2.5410    76.0010    11.7600    10.2490     9.4170    24.4480     7.1260 
  204.2500     2.4960    79.8780    11.9080    10.3310     9.1820    24.3720     6.9870 
  204.3750     2.4400    81.5600    12.1170    10.4730     8.3900    24.2620     6.8670 
  204.5000     2.3860    79.7450    12.3870    10.6780     8.2200    24.2110     6.7990 
  204.6250     2.3520    77.7560    12.7200    10.9570     8.8290    24.2260     6.7430 
  204.7500     2.3450    79.2440    13.0920    11.2870     9.3670    24.3410     6.6470 
  204.8750     2.3680    81.9650    13.4800    11.6450     9.8370    24.5680     6.5570 
  205.0000     2.4140    83.7840    13.8570    11.9990    10.8940    24.7650     6.5080 
  205.1250     2.4660    84.9210    14.1840    12.2980    14.2400    24.7150     6.4840 
  205.2500     2.5040    84.8030    14.4470    12.5200    16.7560    24.6270     6.4600 
  205.3750     2.5180    82.3430    14.6410    12.6620    16.2550    24.5060     6.4500 
  205.5000     2.5110    80.1400    14.7700    12.7340    15.3720    24.4700     6.4500 
  205.6250     2.4910    80.8890    14.8520    12.7620    15.3930    24.5430     6.4520 
  205.7500     2.4710    80.8890    14.9260    12.7830    15.3240    24.6090     6.4600 
  205.8750     2.4560    80.8890    15.0220    12.8190    15.4100    24.6520     6.4680 
  206.0000     2.4520    80.8890    15.1570    12.8830    15.5180    24.6490     6.4570 
  206.1250     2.4630    80.8890    15.3430    12.9870    15.5850    24.6660     6.4290 
  206.2500     2.4850    80.8890    15.5660    13.1290    15.8930    24.6880     6.4210 
  206.3750     2.5130    80.8890    15.8110    13.3060    15.8860    24.6740     6.3640 
  206.5000     2.5360    80.8890    16.0630    13.5140    16.6650    24.6690     6.2170 
  206.6250     2.5440    80.8890    16.2990    13.7430    17.4340    24.6820     6.1060 
  206.7500     2.5340    80.8890    16.4950    13.9660    16.6260    24.5880     6.0850 
  206.8750     2.5100    80.8890    16.6270    14.1550    14.8300    24.4100     6.0880 
  207.0000     2.4850    80.8890    16.6790    14.2870    14.0810    24.3240     6.0810 
  207.1250     2.4750    80.8890    16.6370    14.3420    14.8100    24.3570     6.0550 
  207.2500     2.4800    80.8890    16.5330    14.3440    14.7650    24.3440     6.0420 
  207.3750     2.4910    80.8890    16.3960    14.3200    14.1530    24.4010     6.1020 
  207.5000     2.4920    80.8890    16.2510    14.2940    14.5760    24.4740     6.2500 
  207.6250     2.4730    80.8890    16.1140    14.2730    15.0900    24.5180     6.4020 
  207.7500     2.4400    80.8890    15.9790    14.2390    13.5290    24.4790     6.5050 
  207.8750     2.4060    80.8890    15.8270    14.1730    11.4070    24.4260     6.5790 
  208.0000     2.3850    80.8890    15.6420    14.0610    11.0350    24.5060     6.6640 
  208.1250     2.3860    80.8890    15.4040    13.8910    11.1640    24.6230     6.8120 
  208.2500     2.3970    80.8890    15.1340    13.6850    11.0250    24.6780     6.9220 
  208.3750     2.4110    80.8890    14.8580    13.4680    10.8080    24.7100     7.0230 
  208.5000     2.4190    80.8890    14.6120    13.2630    10.2640    24.7280     7.1620 
  208.6250     2.4240    80.8890    14.4550    13.1080     9.6070    24.7270     7.2880 
  208.7500     2.4340    80.8890    14.4140    13.0320     9.3890    24.6610     7.4170 
  208.8750     2.4560    80.8890    14.5060    13.0630     9.5290    24.6020     7.6150 
  209.0000     2.4870    80.8890    14.7280    13.2120    10.5380    24.5940     7.8280 
  209.1250     2.5140    80.8890    15.0650    13.4860    11.7030    24.6350     8.0350 
  209.2500     2.5240    80.8890    15.4550    13.8270    12.9960    24.6070     8.2970 
  209.3750     2.5140    80.8890    15.8610    14.1900    14.7870    24.5570     8.5200 
