~V
VERS. 2.00: Ver 2.00
~W
STRT.M 52.0000:
STOP.M 216.0000:
STEP.M 0.1250:
NULL. -999.2500:
UWI. F10126:
~C
DEPT.M :
DEN.GM/CC :
GR.API :
RML.OHMM :
RI. :
RXO.OHMM :
CALI.CM :
SP.MV :
~A
# ...
  175.7500     2.3210    85.6510     8.3620     6.3800     6.3950    25.0950   -10.2480 
  175.8750     2.3550    91.9000     9.7450     7.5740     9.1070    24.7740    -9.5120 
  176.0000     2.3820    93.4230    11.1480     8.9610    11.6880    24.4690    -9.0190 
  176.1250     2.3940    94.0140    12.2300    10.1780    12.9600    24.2090    -8.8060 
  176.2500     2.3910    96.0610    12.8690    10.9390    12.8160    24.0850    -8.7800 
  176.3750     2.3840    95.6570    13.1000    11.2100    11.9250    24.1130    -8.8070 
  176.5000     2.3810    91.5790    13.0890    11.1780    11.4590    24.2060    -8.7600 
  176.6250     2.3920    89.6440    13.0570    11.1000    11.4230    24.2110    -8.5860 
  176.7500     2.4090    93.1660    13.1440    11.1340    12.3440    24.1590    -8.3430 
  176.8750     2.4240    97.2550    13.3730    11.3120    13.0100    24.0290    -8.0760 
  177.0000     2.4300    95.9100    13.7220    11.6090    12.9830    23.8130    -7.8160 
  177.1250     2.4220    91.4320    14.2330    12.0040    12.5320    23.5890    -7.5880 
  177.2500     2.4080    89.8220    15.0050    12.5390    13.2120    23.5960    -7.4050 
  177.3750     2.3960    91.4990    16.2150    13.3890    15.5620    23.8370    -7.2950 
  177.5000     2.3960    93.0070    18.0110    14.7720    17.5380    24.1670    -7.2660 
  177.6250     2.4160    90.8410    20.4470    16.9630    17.3510    24.3510    -7.3240 
  177.7500     2.4420    84.9100    23.0980    19.7430    20.5880    24.3960    -7.4370 
  177.8750     2.4580    77.7680    25.4900    22.6750    34.7760    24.4820    -7.6090 
  178.0000     2.4520    73.6190    27.2570    25.1270    48.2620    24.7040    -7.8480 
  178.1250     2.4200    75.9180    28.4040    26.6270    36.3140    24.9170    -8.1160 
  178.2500     2.3790    80.8760    29.6260    27.7520    25.7400    24.8010    -8.4040 
  178.3750     2.3430    85.1880    31.5240    29.2480    25.1930    24.6380    -8.7170 
  178.5000     2.3170    87.2450    34.3640    31.7680    29.9450    24.6030    -9.0130 
  178.6250     2.3010    86.2650    37.9250    35.7390    41.9270    24.6050    -9.2550 
  178.7500     2.2920    83.5150    41.2200    40.1810    47.7400    24.5260    -9.4520 
  178.8750     2.2910    81.1170    43.2650    43.4880    49.3490    24.4610    -9.6160 
  179.0000     2.2960    80.9710    43.3330    44.1670    47.0400    24.4300    -9.7690 
  179.1250     2.3050    83.2220    41.0780    41.6980    42.8730    24.4170    -9.9390 
  179.2500     2.3150    86.1270    37.6090    37.7360    38.8360    24.3320   -10.0930 
  179.3750     2.3250    86.6470    33.8990    33.4700    25.0510    24.1470   -10.1930 
  179.5000     2.3340    84.1650    30.8540    29.8550    16.5310    23.9580   -10.2550 
  179.6250     2.3380    82.4060    29.6210    27.9050    15.8280    23.8870   -10.3340 
  179.7500     2.3280    82.1750    30.8790    28.1130    16.0780    23.9030   -10.5230 
  179.8750     2.3020    80.3770    35.8190    31.6940    17.9100    23.9660   -10.8680 
  180.0000     2.2630    74.2380    51.6680    41.2140    32.9070    23.9850   -11.3550 
  180.1250     2.2270    66.3930    75.9490    63.4300    88.8340    23.9990   -12.0020 
  180.2500     2.2120    63.1890   114.5390   102.1490   154.2900    23.9770   -12.7940 
  180.3750     2.2180    64.5030   163.8430   157.8430   199.1450    23.9400   -13.7130 
  180.5000     2.2370    65.3040   210.6440   216.5330   220.5930    24.0680   -14.7120 
  180.6250     2.2530    63.7960   232.1090   239.0140   236.4190    24.4850   -15.7050 
  180.7500     2.2580    65.5480   224.2670   219.1770   248.4450    24.6910   -16.5590 
  180.8750     2.2540    70.5270   196.3240   180.7280   250.9590    24.7340   -17.1710 
  181.0000     2.2450    74.2760   163.7080   145.6450   232.5630    24.7010   -17.4810 
  181.1250     2.2340    73.8700   139.1930   122.7460   186.0060    24.7430   -17.4390 
  181.2500     2.2250    71.8820   123.5090   108.7390   137.4160    24.7470   -17.1090 
  181.3750     2.2180    69.0990   113.8850   100.6960   110.2790    24.5520   -16.5510 
  181.5000     2.2170    67.5710   107.3250    95.7160   105.9070    24.2200   -15.8060 
  181.6250     2.2220    69.8130   101.6760    91.3400   106.1000    23.9800   -14.8600 
  181.7500     2.2300    72.9270    95.8570    86.2710   104.3220    24.0470   -13.7900 
  181.8750     2.2350    73.8430    90.1160    80.7860   103.6670    24.5480   -12.6920 
  182.0000     2.2360    72.6760    85.2700    75.8990   101.9040    25.3210   -11.6460 
  182.1250     2.2300    71.5310    82.5050    73.0180    93.0610    26.1030   -10.7120 
  182.2500     2.2210    71.1140    81.8000    72.2740    80.3520    25.3190    -9.8960 
  182.3750     2.2100    70.2130    82.7170    73.2810    73.6940    24.8090    -9.1710 
  182.5000     2.2030    68.6030    84.3930    75.1540    78.9400    24.6940    -8.5660 
  182.6250     2.2070    67.3450    85.7410    76.7030    87.9290    24.6530    -8.1590 
  182.7500     2.2260    65.6260    86.2180    77.2590    89.0370    24.6930    -7.9130 
  182.8750     2.2580    63.6280    85.9990    76.9300    83.5980    24.7220    -7.7930 
  183.0000     2.2990    62.3910    85.9160    76.5190    77.7630    24.7020    -7.7900 
  183.1250     2.3410    61.7130    87.8130    77.6760    75.2510    24.6520    -7.8870 
  183.2500     2.3800    60.7390    92.8800    81.8290    73.8440    24.5930    -8.0290 
  183.3750     2.4120    60.8130   100.9140    90.3010    72.8400    24.5020    -8.1960 
  183.5000     2.4350    62.1860   108.8540   102.6140    76.0770    24.3920    -8.3460 
  183.6250     2.4500    62.0060   109.1460   110.9640    91.7960    24.4050    -8.4350 
  183.7500     2.4560    60.1160    98.0830   102.9020   116.8690    24.3080    -8.4760 
  183.8750     2.4520    59.7700    77.1820    76.8320   138.6210    24.1310    -8.4530 
  184.0000     2.4360    63.4950    52.7220    46.6990   136.1490    23.9710    -8.3530 
  184.1250     2.4090    71.3980    32.7370    26.4500    96.7320    23.6990    -8.1830 
  184.2500     2.3810    78.7090    19.5960    15.1740    48.1680    23.6060    -7.9520 
  184.3750     2.3610    80.7710    11.1960     9.6240    11.8660    23.9180    -7.6180 
  184.5000     2.3510    76.6240     7.6030     7.1430     5.1520    24.2940    -7.1750 
  184.6250     2.3510    71.1430     6.6940     6.3620     5.5620    24.4180    -6.6540 
  184.7500     2.3560    69.1300     6.6760     6.3420     5.9950    24.4290    -6.1170 
  184.8750     2.3630    69.0310     7.0020     6.7310     6.1980    24.6870    -5.5710 
  185.0000     2.3710    68.9350     7.3390     7.2160     6.2860    24.9820    -5.0210 
  185.1250     2.3780    68.6510     7.5030     7.5240     6.4920    25.1010    -4.4760 
  185.2500     2.3850    69.5280     7.5120     7.6250     6.4790    24.7840    -3.9860 
  185.3750     2.3900    70.4100     7.4400     7.5910     6.4940    24.6170    -3.6310 
  185.5000     2.3930    69.9280     7.3740     7.5190     6.4230    24.6380    -3.4420 
  185.6250     2.3900    69.7900     7.4100     7.5080     6.4500    24.6990    -3.3740 
  185.7500     2.3820    71.1070     7.5700     7.5860     6.3720    24.7240    -3.3320 
  185.8750     2.3690    72.0460     7.8480     7.7460     6.6190    24.6940    -3.3140 
  186.0000     2.3540    71.7720     8.2040     7.9450     7.0750    24.6590    -3.2930 
  186.1250     2.3460    70.0540     8.5560     8.1090     7.2720    24.6160    -3.1900 
  186.2500     2.3480    68.8630     8.8120     8.1760     7.3760    24.5260    -3.0020 
  186.3750     2.3620    69.0820     8.9090     8.1060     7.3070    24.4360    -2.7270 
  186.5000     2.3820    70.5570     8.8280     7.8900     7.0910    24.4160    -2.3750 
  186.6250     2.4020    71.2230     8.5990     7.5650     7.1090    24.4300    -1.9910 
  186.7500     2.4150    70.9920     8.3650     7.2510     7.2400    24.4720    -1.5980 
  186.8750     2.4150    72.4860     8.2660     7.0520     7.3030    24.5070    -1.2200 
