~V
VERS. 2.00: Ver 2.00
~W
STRT.M 52.0000:
STOP.M 216.0000:
STEP.M 0.1250:
NULL. -999.2500:
UWI. F10126:
~C
DEPT.M :
DEN.GM/CC :
GR.API :
RML.OHMM :
RI. :
RXO.OHMM :
CALI.CM :
SP.MV :
~A
# ...
  119.5000     2.2800    88.7350     9.4400     7.6590     8.2410    25.8440    -3.0220 
  119.6250     2.2810    84.3880     9.4040     7.6140     8.1020    25.8920    -2.9130 
  119.7500     2.2830    83.5160     9.2460     7.4380     7.7920    25.8310    -2.9180 
  119.8750     2.2840    83.5220     9.0560     7.2270     7.3990    25.6960    -2.9860 
  120.0000     2.2830    83.9510     8.9170     7.0610     7.1400    25.5100    -3.0990 
  120.1250     2.2790    84.7680     8.9030     7.0090     7.3590    25.1290    -3.2900 
  120.2500     2.2700    84.1170     9.0210     7.0770     7.9680    24.6700    -3.5520 
  120.3750     2.2590    82.9970     9.2920     7.2810     8.6010    24.5710    -3.8720 
  120.5000     2.2490    83.9070     9.7420     7.6460     8.9470    24.9730    -4.2700 
  120.6250     2.2460    87.2730    10.4370     8.2270     9.1440    25.3420    -4.7300 
  120.7500     2.2520    87.6760    11.3300     9.0020     9.9710    25.2690    -5.1630 
  120.8750     2.2630    84.6750    12.3210     9.9440    12.0530    25.0550    -5.5040 
  121.0000     2.2750    80.7100    13.2130    10.9380    14.4250    24.9390    -5.6870 
  121.1250     2.2840    77.6920    13.6510    11.6490    15.1900    24.8860    -5.6530 
  121.2500     2.2910    74.8220    13.4880    11.7980    14.1410    24.7930    -5.4120 
  121.3750     2.3000    73.1320    12.7210    11.3010    14.4470    24.6850    -4.9820 
  121.5000     2.3120    76.2120    11.5270    10.3150    14.2320    24.6030    -4.4380 
  121.6250     2.3210    83.3480    10.2100     9.1510    12.1020    24.5670    -3.8190 
  121.7500     2.3250    89.7800     9.0730     8.1290     8.7190    24.5500    -3.1250 
  121.8750     2.3210    94.4820     8.2480     7.3670     7.2920    24.5130    -2.3970 
  122.0000     2.3110    98.0130     7.7500     6.8750     6.2010    24.4650    -1.7210 
  122.1250     2.3010   100.1630     7.5320     6.6290     6.1800    24.3740    -1.1910 
  122.2500     2.2960   101.4160     7.4230     6.4950     6.1150    24.2130    -0.8320 
  122.3750     2.2990   102.0460     7.3100     6.3700     5.8450    23.9750    -0.6370 
  122.5000     2.3080   102.8740     7.1210     6.1770     5.4000    23.7270    -0.5500 
  122.6250     2.3200   103.2580     6.8350     5.8890     5.3760    23.5240    -0.5520 
  122.7500     2.3310   103.5040     6.5510     5.5890     5.5590    23.3620    -0.6630 
  122.8750     2.3400   103.3080     6.4120     5.3900     6.0380    23.2780    -0.8720 
  123.0000     2.3450   101.2830     6.6090     5.4330     5.5500    23.2840    -1.1260 
  123.1250     2.3380    99.5070     7.4870     5.9730     5.7220    23.3680    -1.3980 
  123.2500     2.3150    97.6220     9.1800     7.1430     7.1210    23.4850    -1.7020 
  123.3750     2.2790    93.2680    11.7940     9.1310    11.4360    23.7130    -2.0450 
  123.5000     2.2400    86.5900    15.2390    12.0650    18.1260    24.0860    -2.4130 
  123.6250     2.2080    82.3910    19.0450    15.9180    23.0620    24.5990    -2.7600 
  123.7500     2.1860    82.2670    22.1980    19.7700    24.2040    25.1420    -3.0440 
  123.8750     2.1760    80.5620    23.7370    22.2460    24.4410    25.5500    -3.2660 
  124.0000     2.1820    76.1030    23.0650    22.0110    25.6000    25.6970    -3.4290 
  124.1250     2.2110    73.5110    20.0910    18.7800    25.5400    25.6360    -3.5420 
  124.2500     2.2540    75.8120    16.1880    14.6900    23.7120    25.4440    -3.5970 
  124.3750     2.3010    82.7120    12.4480    11.0940    16.6230    25.1020    -3.5700 
  124.5000     2.3350    91.0040     9.6530     8.5670     8.6830    24.5620    -3.4620 
  124.6250     2.3430    95.2920     8.3450     7.3260     5.9300    24.1030    -3.3520 
  124.7500     2.3290    93.4440     8.2220     7.0330     6.6560    23.9180    -3.3000 
  124.8750     2.3010    88.4250     9.0220     7.5680     8.6980    23.9000    -3.2630 
  125.0000     2.2630    85.1100    10.4080     8.8160    10.8490    23.9500    -3.2160 
  125.1250     2.2220    84.1860    12.0010    10.5740    11.7950    24.0900    -3.1530 
  125.2500     2.1860    82.6810    13.4460    12.3100    12.1880    24.2690    -3.1120 
  125.3750     2.1640    79.8370    14.6210    13.6960    12.7040    24.4200    -3.1300 
  125.5000     2.1630    78.1630    15.5470    14.7000    13.8910    24.5040    -3.2220 
  125.6250     2.1850    79.8680    16.2490    15.4650    14.8980    24.4710    -3.3270 
  125.7500     2.2140    82.1000    16.6850    16.0470    15.0110    24.3450    -3.3810 
  125.8750     2.2380    82.0000    16.6690    16.1830    15.3220    24.2100    -3.3900 
  126.0000     2.2510    79.6110    16.0520    15.5600    15.9990    24.1530    -3.3840 
  126.1250     2.2620    78.9850    14.8360    14.1270    16.5890    24.2160    -3.3210 
  126.2500     2.2830    83.0000    13.4890    12.5230    15.1840    24.2730    -3.1830 
  126.3750     2.3110    90.4610    12.4730    11.2560    11.7740    24.2860    -3.0170 
  126.5000     2.3350    94.0320    12.1900    10.6560     8.7180    24.2750    -2.8470 
  126.6250     2.3310    86.9600    13.0160    11.0400    10.1750    24.3070    -2.7140 
  126.7500     2.3010    78.3420    14.7050    12.3030    14.9320    24.4170    -2.6010 
  126.8750     2.2590    76.0400    16.9180    14.3290    19.7570    24.6650    -2.4880 
  127.0000     2.2220    78.2400    19.1800    16.7660    21.6080    24.9940    -2.3620 
  127.1250     2.2060    78.0740    20.9220    18.8850    21.1230    25.3090    -2.2480 
  127.2500     2.2040    77.3920    22.0100    20.2150    21.3790    25.5050    -2.1770 
  127.3750     2.2110    78.6590    22.5690    20.8330    22.5130    25.5510    -2.1060 
  127.5000     2.2310    79.5070    22.8660    21.1190    23.9350    25.5240    -1.9610 
  127.6250     2.2800    78.4090    23.1350    21.3870    23.7860    25.4790    -1.6870 
  127.7500     2.3570    76.6320    23.4170    21.6720    22.7450    25.3890    -1.4110 
  127.8750     2.4500    75.8500    23.5970    21.8520    22.8510    25.2840    -1.2070 
  128.0000     2.5320    76.7380    23.5260    21.7730    25.3290    25.1940    -1.0940 
  128.1250     2.5750    77.6120    23.0510    21.2680    24.9470    25.1490    -1.0560 
  128.2500     2.5810    76.5980    22.2750    20.4460    22.1810    25.1430    -1.0290 
  128.3750     2.5610    73.8190    21.3720    19.4810    19.0760    25.1600    -1.0010 
  128.5000     2.5330    72.3390    20.5790    18.6150    17.0110    25.1480    -1.0160 
  128.6250     2.5120    73.2290    20.2030    18.1500    15.9120    25.0880    -1.1080 
  128.7500     2.5030    73.7340    20.3080    18.1660    15.8530    25.0690    -1.2000 
  128.8750     2.5080    73.1040    20.8500    18.6490    15.9840    25.0720    -1.2590 
  129.0000     2.5210    71.1560    21.6570    19.4550    17.0150    25.0780    -1.2880 
  129.1250     2.5330    70.3340    22.4500    20.3080    20.3160    25.1220    -1.2930 
  129.2500     2.5370    72.0090    22.9770    20.9110    22.2440    25.2100    -1.2880 
  129.3750     2.5330    73.4950    23.1140    21.1140    21.3400    25.2600    -1.2930 
  129.5000     2.5230    72.9000    22.8500    20.8950    18.8220    25.2800    -1.3010 
  129.6250     2.5170    73.0480    22.2440    20.3110    17.5390    25.2760    -1.2800 
  129.7500     2.5170    74.8660    21.5070    19.5880    17.4730    25.2370    -1.2420 
  129.8750     2.5240    74.7850    20.7800    18.8670    17.5410    25.1790    -1.2200 
  130.0000     2.5370    70.6910    20.1770    18.2470    17.0510    25.1500    -1.2230 
  130.1250     2.5540    66.3310    19.8200    17.8360    15.3080    25.1540    -1.2680 
  130.2500     2.5700    64.8940    19.7180    17.6610    14.6340    25.0940    -1.3230 
  130.3750     2.5760    65.1150    19.8510    17.7360    14.6380    24.9700    -1.3490 
  130.5000     2.5690    64.8990    20.1410    18.0190    15.5050    24.9010    -1.3720 
  130.6250     2.5480    65.6260    20.4410    18.3890    16.9100    24.9610    -1.4320 
