~V
VERS. 2.00: Ver 2.00
~W
STRT.M 50.0000:
STOP.M 236.0000:
STEP.M 0.1250:
NULL. -999.2500:
UWI. F10180:
~C
DEPT.M :
SP.MV :
GR.API :
RML.OHMM :
RI. :
RXO.OHMM :
CALI.CM :
DEN.GM/CC :
~A
# ...
   72.5000    -6.8440    68.0510    10.6040     8.6380    10.3160    23.5480     2.1660 
   72.6250    -6.8400    72.9880    10.6570     8.5480     9.7160    23.4790     2.1780 
   72.7500    -6.8840    75.5600    10.6630     8.5380     9.4260    23.4490     2.1880 
   72.8750    -6.9800    72.2600    10.6580     8.6510     9.9840    23.4310     2.1890 
   73.0000    -7.0550    66.0210    10.6610     8.8460    10.5840    23.4340     2.1820 
   73.1250    -7.1460    61.9370    10.6490     9.0780    10.8110    23.4260     2.1720 
   73.2500    -7.2670    62.2740    10.6040     9.2910    10.6650    23.3940     2.1640 
   73.3750    -7.3740    65.3480    10.5400     9.4170    10.4730    23.3710     2.1630 
   73.5000    -7.4380    66.9110    10.5020     9.4140    10.6180    23.3840     2.1650 
   73.6250    -7.5170    67.0730    10.4970     9.2840    10.8510    23.4880     2.1670 
   73.7500    -7.5820    68.1580    10.4840     9.1110    10.6810    23.6070     2.1680 
   73.8750    -7.5650    71.5290    10.4300     9.0150    10.5650    23.7030     2.1670 
   74.0000    -7.5220    77.3340    10.3810     8.9970    10.7710    23.7430     2.1670 
   74.1250    -7.5130    83.4030    10.3010     9.0020    10.8840    23.7850     2.1680 
   74.2500    -7.5220    86.6080    10.1160     9.0040    10.5410    23.7690     2.1700 
   74.3750    -7.4800    83.8950     9.8780     9.0020     9.9740    23.6340     2.1700 
   74.5000    -7.3870    76.6370     9.7430     8.9750     9.9170    23.5180     2.1680 
   74.6250    -7.2550    68.7900     9.7220     8.9290    10.0060    23.4910     2.1680 
   74.7500    -7.1460    64.9230     9.7580     8.8490    10.0900    23.5060     2.1710 
   74.8750    -7.0520    69.4720     9.8470     8.7530    10.2520    23.5300     2.1780 
   75.0000    -6.9580    77.2020     9.9590     8.7350    10.4200    23.5570     2.1860 
   75.1250    -6.8640    81.4050    10.0200     8.8160    10.6310    23.5620     2.1920 
   75.2500    -6.7290    79.9240    10.0380     8.9040    10.7160    23.5330     2.1960 
   75.3750    -6.6390    75.8220    10.0880     8.8710    10.4490    23.4560     2.2000 
   75.5000    -6.5820    72.0400    10.1790     8.7760    10.2240    23.3650     2.2030 
   75.6250    -6.5350    69.4410    10.2700     8.6920    10.1150    23.3040     2.2060 
   75.7500    -6.5350    70.4360    10.3250     8.6340     9.9850    23.2880     2.2070 
   75.8750    -6.5820    75.3630    10.3410     8.6060     9.9590    23.2170     2.2060 
   76.0000    -6.6590    78.2700    10.3330     8.5990    10.1620    23.0640     2.2000 
   76.1250    -6.7970    77.5530    10.2960     8.6050    10.4860    22.9780     2.1900 
   76.2500    -7.0050    75.4270    10.2210     8.6170    10.7800    23.2640     2.1760 
   76.3750    -7.1490    73.1930    10.1220     8.6290    11.0340    23.6190     2.1610 
   76.5000    -7.2900    70.6330    10.0210     8.6380    11.1420    23.8340     2.1500 
   76.6250    -7.4560    69.1510     9.9370     8.6380    10.9860    23.8810     2.1460 
   76.7500    -7.5420    68.5180     9.8840     8.6220    10.9620    23.8480     2.1500 
   76.8750    -7.5910    67.4140     9.8470     8.5790    11.3590    23.7560     2.1600 
   77.0000    -7.6490    68.2360     9.7950     8.5110    11.4130    23.6510     2.1690 
   77.1250    -7.6220    70.7480     9.7430     8.4190    11.1160    23.5650     2.1720 
   77.2500    -7.5150    71.7480     9.7170     8.3100    10.8230    23.4810     2.1680 
   77.3750    -7.4580    70.9090     9.7190     8.1970    10.6230    23.4090     2.1610 
   77.5000    -7.4240    71.5970     9.7210     8.0960    10.3310    23.3550     2.1570 
   77.6250    -7.3350    73.9570     9.7210     8.0200    10.0420    23.3750     2.1580 
   77.7500    -7.2460    76.2070     9.7200     7.9720     9.9110    23.5150     2.1640 
   77.8750    -7.1710    78.1800     9.7250     7.9470     9.7720    23.5790     2.1710 
   78.0000    -7.0620    79.1560     9.7110     7.9260     9.7260    23.5830     2.1730 
   78.1250    -6.9780    76.6550     9.6380     7.8980     9.8500    23.5720     2.1690 
   78.2500    -6.9110    71.7700     9.5370     7.8640     9.9740    23.5700     2.1590 
   78.3750    -6.7760    69.7430     9.5040     7.8370     9.7770    23.5590     2.1480 
   78.5000    -6.6150    70.5870     9.5370     7.8310     9.7170    23.5340     2.1400 
   78.6250    -6.4440    72.2270     9.5720     7.8510     9.6810    23.5160     2.1370 
   78.7500    -6.2260    71.8670     9.5740     7.8900     9.6170    23.5280     2.1380 
   78.8750    -6.0450    69.2560     9.5720     7.9110     9.7250    23.5780     2.1430 
   79.0000    -5.8730    67.3940     9.5760     7.8640     9.8870    23.6240     2.1500 
   79.1250    -5.7170    68.0700     9.5670     7.7050    10.0890    23.6810     2.1600 
   79.2500    -5.6220    71.1550     9.5140     7.4190    10.0120    23.8220     2.1710 
   79.3750    -5.5730    74.7300     9.3480     7.0290     9.3800    24.0780     2.1830 
   79.5000    -5.5010    79.2300     8.9630     6.6370     8.3840    24.2690     2.1920 
   79.6250    -5.4990    84.6920     8.3750     6.3360     7.8940    24.3200     2.1970 
   79.7500    -5.5750    87.6010     7.8400     6.1960     7.6770    24.3130     2.1980 
   79.8750    -5.6180    83.8980     7.6850     6.2850     7.5540    24.2110     2.1910 
   80.0000    -5.6850    77.5750     7.7820     6.5530     8.2760    24.0360     2.1780 
   80.1250    -5.7780    74.0700     7.9170     6.9390     9.2870    23.9380     2.1620 
   80.2500    -5.8370    73.5930     8.0610     7.3500     9.7530    23.9360     2.1480 
   80.3750    -5.8670    73.7770     8.2510     7.6660     9.6090    23.9420     2.1410 
   80.5000    -5.9100    73.3050     8.4060     7.8230     9.4350    23.9360     2.1420 
   80.6250    -5.8990    72.8070     8.4690     7.8050     9.3950    23.9450     2.1470 
   80.7500    -5.8030    73.0960     8.4680     7.6330     9.2620    23.9850     2.1550 
   80.8750    -5.6670    75.0870     8.4680     7.3220     8.7290    24.0660     2.1660 
   81.0000    -5.4940    79.8670     8.4650     6.9190     8.1060    24.1080     2.1790 
   81.1250    -5.2310    85.9840     8.4280     6.4390     7.9630    24.0620     2.1940 
   81.2500    -4.9700    91.0650     8.1920     5.9210     7.8290    24.0180     2.2110 
   81.3750    -4.7560    93.9330     7.5520     5.4730     7.0640    24.1900     2.2350 
   81.5000    -4.5310    96.6330     6.7810     5.2150     6.1910    24.5310     2.2660 
   81.6250    -4.3810   100.3430     6.2900     5.2620     5.6740    24.8750     2.3120 
   81.7500    -4.3260   101.3700     6.3550     5.6990     6.5490    25.0500     2.3690 
   81.8750    -4.3240    95.1510     7.1290     6.5960    10.9330    25.0260     2.4250 
   82.0000    -4.4200    85.7710     8.4500     7.7110    17.5630    24.9060     2.4550 
   82.1250    -4.6110    78.2710    10.0150     8.7190    18.4260    24.6870     2.4440 
   82.2500    -4.8970    74.5520    11.2190     9.2880    13.4450    24.3580     2.3890 
   82.3750    -5.3130    73.3650    11.4110     9.2110    10.4550    24.0470     2.3070 
   82.5000    -5.7630    72.9210    10.8800     8.7910     9.5580    23.8920     2.2330 
   82.6250    -6.1420    73.5510    10.1560     8.3250     9.4460    23.8200     2.1820 
   82.7500    -6.5080    74.0370     9.6690     8.0170     9.4460    23.7350     2.1550 
   82.8750    -6.8470    72.5610     9.5810     7.9460     9.5090    23.6910     2.1480 
   83.0000    -7.0580    69.5900     9.6950     8.0070     9.6090    23.6120     2.1480 
   83.1250    -7.1890    66.5690     9.8720     8.1110     9.5810    23.5480     2.1520 
   83.2500    -7.2330    65.1210    10.0360     8.1810     9.4180    23.5290     2.1580 
   83.3750    -7.1000    68.1200    10.1450     8.1320     9.2650    23.5690     2.1700 
   83.5000    -6.9310    74.8520    10.1400     7.9270     9.3100    23.6490     2.1910 
   83.6250    -6.8320    82.0530     9.9090     7.5400     9.4330    23.7940     2.2220 
