~V
VERS. 2.00: Ver 2.00
~W
STRT.M 43.0000:
STOP.M 249.0000:
STEP.M 0.1250:
NULL. -999.2500:
UWI. F10197:
~C
DEPT.M :
GR.API :
RML.OHMM :
RI. :
RXO.OHMM :
CALI.CM :
SP.MV :
DEN.GM/CC :
~A
# ...
   54.2500    34.6490     0.8520     0.5120     6.1440    25.3190    77.0290     1.8710 
   54.3750    38.5440     0.9080     0.4840     7.3230    25.3210    76.7910     1.8690 
   54.5000    40.5190     0.9600     0.4410     5.8260    25.3070    76.5680     1.9000 
   54.6250    38.4960     0.9590     0.4060     5.4080    25.3100    76.3030     1.9440 
   54.7500    36.3480     0.8940     0.3900     5.5310    25.3200    76.0160     1.9780 
   54.8750    36.8590     0.7800     0.3940     6.4030    25.3220    75.7340     1.9990 
   55.0000    38.0070     0.6520     0.4100     5.7920    25.3330    75.4760     2.0110 
   55.1250    36.7890     0.5550     0.4230     5.4690    25.3360    75.2590     2.0170 
   55.2500    34.9140     0.5020     0.4260     5.0860    25.3380    75.0120     2.0190 
   55.3750    35.9920     0.4890     0.4220     4.8420    25.3320    74.7240     2.0160 
   55.5000    38.8140     0.5030     0.4190     4.5940    25.3350    74.4260     2.0100 
   55.6250    39.3970     0.5350     0.4220     3.4280    25.3290    74.1610     2.0050 
   55.7500    38.6670     0.5850     0.4320     3.1630    25.3250    73.9320     2.0030 
   55.8750    39.1150     0.6620     0.4490     2.8310    25.3280    73.6890     1.9990 
   56.0000    39.7720     0.7780     0.4670     2.7890    25.3340    73.3760     1.9920 
   56.1250    37.7950     0.9300     0.4780     3.1490    25.3370    72.9050     1.9810 
   56.2500    35.8740     1.0850     0.4770     4.1250    25.3380    72.2470     1.9720 
   56.3750    37.1570     1.1920     0.4640     4.5520    25.3380    71.3970     1.9640 
   56.5000    40.5880     1.2250     0.4490     4.1070    25.3360    70.3860     1.9530 
   56.6250    42.0140     1.2160     0.4480     4.5540    25.3380    69.2320     1.9420 
   56.7500    41.8690     1.2030     0.4660     4.4540    25.3400    67.9900     1.9410 
   56.8750    42.6230     1.1650     0.4940     3.3250    25.3390    66.7300     1.9540 
   57.0000    44.7780     1.0720     0.5220     2.5840    25.3380    65.5820     1.9780 
   57.1250    48.6750     0.9360     0.5440     2.3930    25.3380    64.6960     2.0180 
   57.2500    51.7230     0.8220     0.5610     2.3940    25.3430    64.0960     2.0740 
   57.3750    52.6980     0.7630     0.5790     2.6700    25.3460    63.8170     2.1460 
   57.5000    51.7780     0.7630     0.5970     2.9020    25.3330    63.8980     2.2340 
   57.6250    50.8140     0.8240     0.6010     3.0940    25.2530    64.4900     2.3250 
   57.7500    51.8750     0.9180     0.5790     3.3790    24.9710    65.4330     2.3840 
   57.8750    52.5300     1.0190     0.5350     3.1560    24.4000    66.5360     2.4100 
   58.0000    50.5910     1.0890     0.4820     2.8650    23.6740    67.5110     2.4340 
   58.1250    47.3130     1.0720     0.4380     2.3880    23.3500    68.0740     2.4800 
   58.2500    46.8340     0.9670     0.4240     2.4090    23.2620    68.2010     2.5320 
   58.3750    48.7040     0.8210     0.4500     2.4330    23.2680    67.8740     2.5660 
   58.5000    49.8060     0.6900     0.5110     2.4070    23.2860    67.0590     2.5780 
   58.6250    50.4450     0.6060     0.5970     2.4170    23.3150    65.4910     2.5820 
   58.7500    49.7220     0.5490     0.6830     2.2660    23.3240    63.1560     2.5900 
   58.8750    45.4390     0.4850     0.7380     1.8770    23.3070    60.0480     2.6120 
   59.0000    39.4080     0.3880     0.7190     1.7810    23.2810    56.1640     2.6490 
   59.1250    38.4400     0.2840     0.6070     1.8510    23.2710    51.2660     2.6900 
   59.2500    41.2210     0.2240     0.4710     1.6530    23.2650    45.3580     2.7200 
   59.3750    44.1830     0.2280     0.3740     1.0330    23.2570    38.2920     2.7270 
   59.5000    45.4740     0.3010     0.3630     0.8810    23.2570    30.1270     2.7050 
   59.6250    48.3760     0.4870     0.5140     1.8570    23.2760    21.2190     2.6270 
   59.7500    53.8440     0.8540     0.9000     4.2100    23.2230    12.3380     2.4730 
   59.8750    59.2770     1.5620     1.6770     7.1310    22.9680     3.9250     2.2760 
   60.0000    64.1010     2.8210     2.9950     9.4890    22.6190    -3.6990     2.1170 
   60.1250    67.3420     4.5490     4.7390    10.4430    22.2740    -9.9810     2.0650 
   60.2500    69.8860     5.7520     6.1640    10.5770    22.1110   -14.8590     2.0970 
   60.3750    71.8730     5.9290     6.8100     9.8560    22.0820   -18.2130     2.1730 
   60.5000    75.9880     5.5360     6.8090     8.5630    22.1590   -20.1480     2.2430 
   60.6250    85.9310     5.1250     6.5260     7.8540    22.4770   -20.9380     2.2730 
   60.7500    96.3540     4.8510     6.2420     6.9060    23.0560   -21.2770     2.2750 
   60.8750   102.9970     4.6940     6.0090     6.1500    23.6830   -21.4780     2.2630 
   61.0000   103.8870     4.5960     5.8140     5.9600    24.0550   -21.6550     2.2550 
   61.1250   101.1050     4.4920     5.6220     6.1170    24.1580   -21.8960     2.2570 
   61.2500    97.9170     4.3720     5.4210     6.1300    24.1940   -22.2630     2.2600 
   61.3750    97.6910     4.2980     5.2660     5.9970    24.2220   -22.7610     2.2650 
   61.5000   101.6090     4.3900     5.2870     5.8430    24.2360   -23.3890     2.2790 
   61.6250   103.0090     4.8550     5.7340     6.0120    24.2420   -24.1760     2.3110 
   61.7500    99.6020     5.7800     6.7130     6.9120    24.2450   -25.0980     2.3450 
   61.8750    95.0030     7.2450     8.2830     9.6000    24.2170   -26.0970     2.3770 
   62.0000    92.3910     9.1670    10.2950    16.4830    24.1080   -27.1480     2.4110 
   62.1250    88.5750    10.8490    12.0360    24.7040    23.8950   -28.3050     2.4510 
   62.2500    82.1510    11.2950    12.6310    25.2310    23.5310   -29.5130     2.4710 
   62.3750    79.0270    10.4220    11.9070    18.1870    23.1020   -30.7400     2.4450 
   62.5000    79.7750     9.0710    10.4880    12.0490    22.7680   -31.9640     2.3720 
   62.6250    78.7030     8.0870     9.1980    10.0530    22.5730   -33.1250     2.2880 
   62.7500    75.9910     7.6080     8.3690     9.4210    22.3420   -34.2380     2.2240 
   62.8750    76.2890     7.5380     7.9920     9.5730    22.1100   -35.2950     2.1820 
   63.0000    79.2770     7.7160     7.9410     9.9260    21.9550   -36.3160     2.1560 
   63.1250    77.1200     7.9680     8.0550    10.2510    21.8470   -37.2600     2.1360 
   63.2500    71.3490     8.1580     8.1740    10.4040    21.7690   -38.1560     2.1160 
   63.3750    69.0100     8.2800     8.2580    10.1790    21.7740   -39.0010     2.0960 
   63.5000    72.2380     8.3990     8.3370     9.8970    21.7140   -39.7890     2.0810 
   63.6250    77.6640     8.6100     8.4830     9.9600    21.5910   -40.5150     2.0830 
   63.7500    80.4100     8.9160     8.7150    10.4230    21.7190   -41.1680     2.1030 
   63.8750    77.9660     9.2580     9.0010    11.5630    22.3350   -41.7530     2.1310 
   64.0000    71.0300     9.5350     9.2600    15.0200    23.2540   -42.2610     2.1460 
   64.1250    66.3050     9.6070     9.3630    22.0910    23.8930   -42.6910     2.1350 
   64.2500    69.4240     9.4740     9.2720    23.8750    24.1510   -43.0140     2.1130 
   64.3750    74.9970     9.2090     9.0230    16.8000    24.0630   -43.2830     2.0950 
   64.5000    75.4470     8.9170     8.7020    12.2010    23.7310   -43.5420     2.0840 
   64.6250    71.8410     8.6930     8.4110    10.9820    23.3430   -43.7970     2.0810 
   64.7500    70.3290     8.5470     8.1950    10.8680    23.1640   -44.0210     2.0720 
   64.8750    71.1300     8.4560     8.0500    10.7280    23.2310   -44.2180     2.0430 
   65.0000    71.0960     8.3850     7.9470    10.5760    23.4220   -44.3850     1.9940 
   65.1250    70.8620     8.3100     7.8520    10.3640    23.6070   -44.4990     1.9620 
   65.2500    72.3570     8.2440     7.7630    10.1890    23.6930   -44.6100     1.9800 
   65.3750    75.1440     8.2210     7.7040     9.9920    23.7270   -44.6940     2.0430 
