~V
VERS. 2.00: Ver 2.00
~W
STRT.M 50.0000:
STOP.M 252.0000:
STEP.M 0.1250:
NULL. -999.2500:
UWI. F10101:
~C
DEPT.M :
DEN.GM/CC :
SP.MV :
GR.API :
RML.OHMM :
RI. :
RXO.OHMM :
CALI.CM :
~A
# ...
   72.5000     2.1570   -22.4200    70.3620     8.9430     6.3570     7.9090    22.7580 
   72.6250     2.1470   -22.2730    70.4230     8.8600     6.2620     7.9740    22.8240 
   72.7500     2.1390   -22.1850    70.7940     8.7650     6.1720     8.3290    22.8920 
   72.8750     2.1290   -22.1050    70.6960     8.6310     6.0870     8.6820    22.9790 
   73.0000     2.1180   -22.0110    69.5360     8.4580     6.0040     8.8540    23.0870 
   73.1250     2.1120   -21.9300    68.6720     8.3230     5.9440     8.9560    23.1440 
   73.2500     2.1130   -21.8490    69.7890     8.3350     5.9580     9.1390    23.1380 
   73.3750     2.1230   -21.7590    72.2200     8.5780     6.0990     9.3420    23.0870 
   73.5000     2.1390   -21.6810    73.8120     9.0810     6.3970     9.2560    22.9720 
   73.6250     2.1590   -21.6780    72.1430     9.7740     6.8300     9.1530    22.7690 
   73.7500     2.1800   -21.5870    68.9740    10.3890     7.2440     9.5320    22.4380 
   73.8750     2.2000   -21.5320    66.3000    10.6530     7.4690    10.0750    22.0840 
   74.0000     2.2150   -21.4920    64.8810    10.3930     7.3760    10.1680    21.8840 
   74.1250     2.2120   -21.4260    66.4390     9.6190     6.9360     9.3810    21.8090 
   74.2500     2.1950   -21.3760    70.7130     8.7170     6.3680     8.7430    21.7500 
   74.3750     2.1760   -21.2980    75.2740     7.9770     5.8440     8.3360    21.6870 
   74.5000     2.1650   -21.2050    77.6540     7.5560     5.4790     8.0830    21.6260 
   74.6250     2.1620   -21.0630    76.2990     7.4990     5.3420     7.8590    21.6170 
   74.7500     2.1600   -20.9760    73.7100     7.6440     5.3690     7.9040    21.5870 
   74.8750     2.1590   -20.8250    70.6500     7.8890     5.5060     8.0500    21.5610 
   75.0000     2.1610   -20.7110    67.2770     8.1580     5.6990     8.1280    21.5390 
   75.1250     2.1650   -20.5640    67.0890     8.4020     5.8990     8.0640    21.4640 
   75.2500     2.1700   -20.4020    71.0480     8.6050     6.0740     8.0550    21.3060 
   75.3750     2.1760   -20.2270    75.5280     8.7470     6.2100     8.1420    21.0530 
   75.5000     2.1810   -20.0210    76.0740     8.8050     6.2890     8.2840    20.8000 
   75.6250     2.1810   -19.8240    71.5260     8.7280     6.2760     8.3540    20.7150 
   75.7500     2.1790   -19.5510    67.7150     8.5090     6.1620     8.3190    20.7760 
   75.8750     2.1790   -19.2780    68.0030     8.1440     5.9450     8.2240    20.9140 
   76.0000     2.1850   -18.9040    70.7570     7.6640     5.6440     8.0690    21.0640 
   76.1250     2.1950   -18.5450    73.8920     7.1720     5.3140     7.7520    21.2470 
   76.2500     2.2070   -18.1230    76.1740     6.8690     5.0710     7.4180    21.3990 
   76.3750     2.2170   -17.6960    78.5360     7.0040     5.0560     7.1830    21.5220 
   76.5000     2.2260   -17.2870    79.8900     7.7990     5.4190     7.4690    21.6490 
   76.6250     2.2460   -16.7970    76.9630     9.4480     6.3510     7.9980    21.9180 
   76.7500     2.2860   -16.3590    74.1290    11.5710     7.7400     9.4460    22.3140 
   76.8750     2.3480   -15.9120    75.2100    13.5340     9.2930    13.0660    22.8390 
   77.0000     2.4200   -15.5530    79.3270    14.4370    10.4140    19.9010    23.2710 
   77.1250     2.4490   -15.2300    83.3920    13.4620    10.3040    17.9430    23.3400 
   77.2500     2.4000   -15.0280    86.3840    11.4590     9.2540    11.0040    23.1780 
   77.3750     2.3060   -14.8770    87.7480     9.3940     7.8740     7.4610    22.7860 
   77.5000     2.2340   -14.7960    84.9430     7.8680     6.6670     6.9750    22.3320 
   77.6250     2.2180   -14.8210    81.2200     7.0810     5.9050     7.1780    22.0230 
   77.7500     2.2280   -14.8450    81.5750     6.7640     5.5190     7.1040    21.8410 
   77.8750     2.2400   -14.9150    82.8940     6.8330     5.4730     6.9700    21.6710 
   78.0000     2.2480   -14.9310    81.8930     7.4020     5.8070     6.9740    21.5860 
   78.1250     2.2570   -14.8960    79.3060     8.8700     6.7560     7.4920    21.6660 
   78.2500     2.2780   -14.7200    76.7110    11.2240     8.3690     8.6320    21.9730 
   78.3750     2.3240   -14.4850    72.9350    14.1430    10.5630    12.4100    22.5180 
   78.5000     2.3980   -14.1070    68.7770    16.6830    12.7780    23.5520    23.1990 
   78.6250     2.4830   -13.6700    70.6940    16.9740    13.5230    39.3480    23.8340 
   78.7500     2.5310   -13.2670    79.2110    14.8110    12.2820    28.6930    24.2580 
   78.8750     2.5180   -12.8460    90.0030    11.4050     9.8450    12.5860    24.4490 
   79.0000     2.4660   -12.5260   100.3330     8.2760     7.3860     6.5840    24.5000 
   79.1250     2.4250   -12.2860   107.7730     6.3110     5.6350     5.3160    24.5060 
   79.2500     2.4060   -12.2020   110.1330     5.2720     4.5370     5.1150    24.5060 
   79.3750     2.3970   -12.2240   107.8120     4.8880     3.9630     5.0770    24.5030 
   79.5000     2.3830   -12.4400   105.7670     4.9140     3.7690     4.9800    24.4950 
   79.6250     2.3600   -12.8230   110.0150     5.2270     3.8760     4.9480    24.4530 
   79.7500     2.3290   -13.2740   112.5710     5.7370     4.1830     5.1240    24.2930 
   79.8750     2.2950   -13.8610   106.4430     6.4360     4.6740     5.6980    23.9280 
   80.0000     2.2660   -14.4550    93.9880     7.2840     5.3200     7.0130    23.3900 
   80.1250     2.2480   -15.0940    83.5760     8.1570     6.0530     7.7960    23.0400 
   80.2500     2.2460   -15.6840    78.2520     8.8810     6.7280     8.1380    22.9190 
   80.3750     2.2540   -16.2610    76.9340     9.3440     7.2300     8.1870    22.9150 
   80.5000     2.2630   -16.7310    75.9850     9.5230     7.4980     7.9790    22.8860 
   80.6250     2.2580   -17.1360    72.6850     9.4720     7.5230     7.8630    22.8020 
   80.7500     2.2410   -17.4730    68.3050     9.3520     7.4140     7.9510    22.7960 
   80.8750     2.2160   -17.6770    64.1940     9.2370     7.2420     8.1450    22.9500 
   81.0000     2.1860   -17.8480    61.3470     9.1580     7.0660     8.3680    23.2820 
   81.1250     2.1600   -17.8770    59.1370     9.1340     6.9500     8.5870    23.7300 
   81.2500     2.1410   -17.8760    59.5990     9.1720     6.9240     8.7480    24.0520 
   81.3750     2.1320   -17.7830    62.2490     9.2880     6.9930     8.7850    23.9980 
   81.5000     2.1350   -17.6890    64.7560     9.4760     7.1250     8.7070    23.6430 
   81.6250     2.1500   -17.4860    66.6240     9.6800     7.2520     8.6070    23.2800 
   81.7500     2.1690   -17.2260    67.5950     9.7910     7.2970     8.4830    22.9680 
   81.8750     2.1840   -16.9510    67.1690     9.6970     7.1950     8.2820    22.7210 
   82.0000     2.1930   -16.5850    65.8650     9.3220     6.8990     7.8990    22.5400 
   82.1250     2.2010   -16.2430    66.9120     8.6500     6.3940     7.3840    22.4060 
   82.2500     2.2150   -15.8460    71.7670     7.8750     5.8020     6.6630    22.3100 
   82.3750     2.2360   -15.4720    80.0950     7.1710     5.2360     5.8210    22.3970 
   82.5000     2.2620   -15.0710    89.1860     6.6700     4.7950     5.0980    22.7010 
   82.6250     2.2780   -14.8090    94.4860     6.5120     4.5800     5.0680    23.0300 
   82.7500     2.2790   -14.6190    93.8350     6.7210     4.6090     5.4950    23.1020 
   82.8750     2.2730   -14.4990    86.9380     7.3660     4.9330     6.2120    23.0610 
   83.0000     2.2780   -14.4790    77.3440     8.4640     5.5840     6.7650    23.0760 
   83.1250     2.2990   -14.4970    70.3360     9.9180     6.5630     7.8150    23.1850 
   83.2500     2.3260   -14.6220    69.4230    11.2910     7.6180     9.8840    23.2760 
   83.3750     2.3550   -14.7750    72.9420    12.1090     8.4280    13.6170    23.2870 
   83.5000     2.3740   -15.0040    77.2720    12.0420     8.6930    14.1570    23.1140 
   83.6250     2.3480   -15.1410    80.4020    11.1270     8.2940    10.0420    22.9760 
