~V
VERS. 2.00: Ver 2.00
~W
STRT.M 50.0000:
STOP.M 236.0000:
STEP.M 0.1250:
NULL. -999.2500:
UWI. F10180:
~C
DEPT.M :
SP.MV :
GR.API :
RML.OHMM :
RI. :
RXO.OHMM :
CALI.CM :
DEN.GM/CC :
~A
# ...
  106.2500   -16.6660    67.9970     9.4390     7.6220    10.7080    23.6370     2.1230 
  106.3750   -16.6540    65.0530     9.1260     7.1840    10.6070    23.6770     2.1130 
  106.5000   -16.5990    64.1640     8.6980     6.8860    10.9260    23.7580     2.1140 
  106.6250   -16.4430    65.5110     8.4220     6.8820    11.1200    23.8390     2.1320 
  106.7500   -16.2430    69.7140     8.4870     7.3500    11.1550    23.8890     2.1850 
  106.8750   -16.0700    74.2660     8.9740     8.5710    12.9040    23.9580     2.2840 
  107.0000   -15.8500    75.0430    10.0040    10.4250    20.3330    24.1270     2.4030 
  107.1250   -15.5850    72.5250    11.7540    12.5240    39.9730    24.3750     2.5000 
  107.2500   -15.3630    70.0110    13.8320    14.1210    64.5130    24.5570     2.5350 
  107.3750   -15.1740    70.5900    14.9640    14.2390    61.3270    24.4220     2.4790 
  107.5000   -14.9840    72.2000    14.5810    13.0660    35.6870    24.0520     2.3740 
  107.6250   -14.8750    74.1050    13.1210    11.2360    17.6770    23.6760     2.2620 
  107.7500   -14.7860    75.2890    11.4370     9.4720    11.6060    23.4810     2.1790 
  107.8750   -14.6300    74.4030    10.2060     8.2850    10.6220    23.4730     2.1450 
  108.0000   -14.5070    71.9390     9.3870     7.6370    10.5780    23.5310     2.1430 
  108.1250   -14.4100    69.4680     8.8380     7.4090    10.3750    23.5920     2.1550 
  108.2500   -14.3160    67.9890     8.5140     7.4510    10.2500    23.6240     2.1680 
  108.3750   -14.2940    67.6210     8.4660     7.6170    10.6040    23.6390     2.1720 
  108.5000   -14.2560    67.2810     8.5790     7.7750    10.8510    23.6610     2.1680 
  108.6250   -14.1470    67.9280     8.7300     7.8700    10.8810    23.6830     2.1550 
  108.7500   -14.0610    69.2820     8.8130     7.8800    10.9600    23.6960     2.1400 
  108.8750   -13.9850    68.6870     8.8150     7.7980    10.9650    23.7140     2.1290 
  109.0000   -13.8230    66.6350     8.7410     7.6690    10.7930    23.7610     2.1260 
  109.1250   -13.6300    65.5540     8.5090     7.5410    10.3530    23.8140     2.1320 
  109.2500   -13.3960    66.7620     8.1450     7.4670     9.8230    23.8200     2.1430 
  109.3750   -13.0420    68.1400     7.9220     7.5140     9.6150    23.8060     2.1510 
  109.5000   -12.6540    68.2780     8.0530     7.6700     9.7460    23.8460     2.1530 
  109.6250   -12.2720    67.8090     8.4590     7.8780     9.8560    23.9920     2.1520 
  109.7500   -11.8320    68.6710     8.8800     8.0290     9.8140    24.1360     2.1550 
  109.8750   -11.3270    72.0810     8.9970     7.9660     9.4230    24.1530     2.1690 
  110.0000   -10.8720    77.2370     8.7100     7.6730     8.5590    24.1870     2.1930 
  110.1250   -10.4470    83.9840     8.0920     7.2120     7.4080    24.2690     2.2220 
  110.2500    -9.9720    90.8740     7.3560     6.6990     6.7980    24.3430     2.2510 
  110.3750    -9.5540    94.0970     6.7550     6.2680     6.6530    24.4240     2.2750 
  110.5000    -9.2100    94.6900     6.3480     5.9540     6.3580    24.5550     2.2910 
  110.6250    -8.8660    96.9550     6.0650     5.7350     6.2290    24.7460     2.2970 
  110.7500    -8.6030   101.1420     5.7890     5.5570     6.2700    24.8920     2.2960 
  110.8750    -8.4700   102.7320     5.4540     5.3670     6.0570    24.9620     2.2890 
  111.0000    -8.3470   103.7300     5.1240     5.1490     5.6830    24.9720     2.2840 
  111.1250    -8.2650   107.1340     4.8820     4.9180     5.2450    24.9590     2.2840 
  111.2500    -8.2540   112.5530     4.7640     4.7090     4.9390    24.9630     2.2920 
  111.3750    -8.2640   113.6300     4.7440     4.5890     5.0240    24.9460     2.3100 
  111.5000    -8.3680   107.5590     4.7630     4.6050     5.2360    24.9010     2.3360 
  111.6250    -8.5980    99.7090     4.8310     4.7970     5.4710    24.7750     2.3620 
  111.7500    -8.8640    95.5780     5.0060     5.1660     6.1700    24.5080     2.3790 
  111.8750    -9.2070    94.6850     5.3870     5.6610     7.8470    24.0870     2.3730 
  112.0000    -9.6000    90.0720     5.9350     6.1360     9.4410    23.7800     2.3460 
  112.1250    -9.9520    83.1690     6.5260     6.4780     8.9300    23.7110     2.3070 
  112.2500   -10.3150    80.3640     6.9880     6.6400     7.3890    23.8200     2.2670 
  112.3750   -10.6970    80.0160     7.1690     6.6520     6.6450    23.8570     2.2340 
  112.5000   -10.9890    74.9410     7.1660     6.6440     7.1190    23.7610     2.2060 
  112.6250   -11.1860    66.0500     7.1130     6.6900     7.9570    23.6160     2.1840 
  112.7500   -11.3550    61.6100     7.1080     6.8030     8.1150    23.4930     2.1660 
  112.8750   -11.4610    66.4900     7.1570     6.9410     7.9650    23.4240     2.1550 
  113.0000   -11.5130    71.4180     7.2060     7.0520     8.2830    23.4540     2.1500 
  113.1250   -11.5500    71.4080     7.2680     7.1590     8.6590    23.6190     2.1530 
  113.2500   -11.5770    68.0840     7.4320     7.3610     8.6240    23.7640     2.1690 
  113.3750   -11.5380    66.3370     7.8970     7.8700     8.6410    23.8160     2.2100 
  113.5000   -11.3920    67.8500     8.7610     8.7610    10.0740    23.8390     2.2810 
  113.6250   -11.2160    71.1890    10.0750     9.9610    14.5810    23.8940     2.3780 
  113.7500   -10.9860    72.8550    11.6470    11.1330    22.4260    23.9920     2.4850 
  113.8750   -10.6600    71.2180    12.6760    11.5530    32.5590    24.1110     2.5670 
  114.0000   -10.3520    71.4340    12.4190    10.9250    36.0260    24.2720     2.6000 
  114.1250   -10.0430    77.0470    10.8140     9.4200    26.7530    24.4430     2.5770 
  114.2500    -9.7040    86.2790     8.5750     7.5890    12.3730    24.6360     2.5140 
  114.3750    -9.4220    91.5340     6.7550     6.0920     6.7570    24.7570     2.4350 
  114.5000    -9.2470    91.2360     5.7020     5.1740     5.0840    24.7740     2.3670 
  114.6250    -9.1630    89.2090     5.3130     4.8600     4.9250    24.7180     2.3160 
  114.7500    -9.2470    87.6720     5.4220     5.0930     5.6220    24.5830     2.2800 
  114.8750    -9.5120    82.9680     5.9850     5.7940     7.2140    24.4200     2.2590 
  115.0000    -9.8080    75.5580     6.8130     6.6330     8.8830    24.2610     2.2510 
  115.1250   -10.1690    70.9140     7.6800     7.3290     9.4610    24.0680     2.2520 
  115.2500   -10.5830    72.6820     8.3160     7.6750     8.8280    23.8370     2.2530 
  115.3750   -10.9410    77.1970     8.5290     7.6270     7.7380    23.7080     2.2420 
  115.5000   -11.3080    79.7100     8.5430     7.4670     7.2850    23.6530     2.2210 
  115.6250   -11.6910    78.9660     8.6230     7.4510     7.6980    23.5940     2.2080 
  115.7500   -11.9330    76.2330     8.9560     7.7770     8.4560    23.6160     2.2240 
  115.8750   -12.0570    73.0360     9.6490     8.6300     9.3790    23.8710     2.2880 
  116.0000   -12.2180    70.2260    10.6110     9.8970    10.4930    24.1590     2.3740 
  116.1250   -12.3740    68.5760    11.7680    11.3710    11.6850    24.2410     2.4500 
  116.2500   -12.4830    69.0010    12.9710    12.7000    12.7750    24.1960     2.4850 
  116.3750   -12.6190    69.6160    13.8520    13.3740    13.1830    24.0660     2.4630 
  116.5000   -12.7790    68.6360    14.1490    13.3050    12.1060    23.8340     2.4110 
  116.6250   -12.8730    68.1380    13.8560    12.6380    11.0320    23.6290     2.3520 
  116.7500   -12.9530    69.6670    13.2610    11.6720    10.4680    23.5470     2.3030 
  116.8750   -13.0520    71.9600    12.7660    10.7170    10.2300    23.5780     2.2710 
  117.0000   -13.0840    73.2890    12.4620     9.9210    10.0830    23.6320     2.2510 
  117.1250   -13.0760    74.6000    12.1700     9.3040    10.0310    23.6630     2.2410 
  117.2500   -13.0940    76.9200    11.6730     8.8420     9.7270    23.6560     2.2380 
  117.3750   -13.0610    77.8040    10.9070     8.5340     9.1160    23.6060     2.2410 
