~V
VERS. 2.00: Ver 2.00
~W
STRT.M 49.0000:
STOP.M 243.0000:
STEP.M 0.1250:
NULL. -999.2500:
UWI. F10196:
~C
DEPT.M :
SP.MV :
DEN.GM/CC :
GR.API :
RML.OHMM :
RI. :
RXO.OHMM :
CALI.CM :
~A
# ...
  217.7500   -20.8420     2.3790   127.5590     7.9560     7.5670     9.0690    24.6070 
  217.8750   -20.4330     2.3850   122.9550     7.8370     7.3990     8.7870    24.5140 
  218.0000   -19.8810     2.3850   105.9190     7.7620     7.2630     8.4490    24.4170 
  218.1250   -19.2570     2.3750    87.9310     7.6540     7.1150     8.0800    24.3450 
  218.2500   -18.6770     2.3600    76.9090     7.3930     6.8610     7.9050    24.4220 
  218.3750   -18.1850     2.3520    68.2030     6.7730     6.4710     7.8370    24.4640 
  218.5000   -17.8030     2.3500    62.8710     6.0750     5.9810     7.7140    24.4420 
  218.6250   -17.5100     2.3450    62.8130     5.6210     5.4970     7.0510    24.4000 
  218.7500   -17.2940     2.3300    64.6870     5.3910     5.1740     6.3240    24.2940 
  218.8750   -17.2160     2.3150    64.0770     5.4260     5.0750     6.0860    24.1640 
  219.0000   -17.2980     2.3130    64.1940     5.7110     5.2090     6.5120    24.1730 
  219.1250   -17.4840     2.3230    69.9700     6.1690     5.5380     7.4900    24.3140 
  219.2500   -17.6990     2.3400    79.9610     6.6630     5.9750     8.3380    24.4800 
  219.3750   -17.9190     2.3480    87.8910     7.0370     6.3710     8.7720    24.6120 
  219.5000   -18.1630     2.3430    92.8350     7.2160     6.6370     8.7490    24.6990 
  219.6250   -18.4220     2.3310    97.5810     7.2180     6.7470     8.4690    24.7140 
  219.7500   -18.6490     2.3260   103.1520     7.1290     6.7370     8.3360    24.7360 
  219.8750   -18.8030     2.3320   105.0420     7.0590     6.7010     8.2800    24.7570 
  220.0000   -18.8880     2.3440   103.6620     7.0510     6.6830     8.3480    24.8010 
  220.1250   -18.9760     2.3520   102.0680     7.1020     6.6980     8.5610    24.8430 
  220.2500   -19.1450     2.3510   102.9100     7.1880     6.7380     8.7730    24.8230 
  220.3750   -19.3230     2.3490   104.0600     7.2800     6.7870     8.8680    24.7540 
  220.5000   -19.4230     2.3490   103.5580     7.3700     6.8350     8.9370    24.6640 
  220.6250   -19.4750     2.3460   102.1050     7.4620     6.8810     9.0900    24.5730 
  220.7500   -19.5510     2.3360   100.1560     7.5570     6.9270     9.1010    24.5040 
  220.8750   -19.6600     2.3250    98.6070     7.6490     6.9730     8.9460    24.3940 
  221.0000   -19.7830     2.3240    98.3870     7.7210     7.0170     8.8640    24.1340 
  221.1250   -19.8580     2.3340    98.6890     7.7630     7.0540     8.9480    23.6800 
  221.2500   -19.7830     2.3420    98.4200     7.7770     7.0770     8.8890    23.2110 
  221.3750   -19.6400     2.3440    95.7590     7.7780     7.0830     8.8830    23.1020 
  221.5000   -19.4800     2.3420    92.2580     7.7680     7.0730     9.0130    23.4130 
  221.6250   -19.3010     2.3400    91.1240     7.7490     7.0490     9.1720    23.8950 
  221.7500   -19.0870     2.3430    93.0320     7.7380     7.0340     9.5360    24.2580 
  221.8750   -18.8000     2.3480    93.4230     7.7700     7.0550     9.6920    24.4420 
  222.0000   -18.4070     2.3570    92.9590     7.8720     7.1300     9.6400    24.4970 
  222.1250   -17.9810     2.3670    94.2810     8.0370     7.2530     9.3860    24.4990 
  222.2500   -17.5440     2.3750    96.5180     8.1860     7.3810     9.3410    24.4780 
  222.3750   -17.0860     2.3830    96.7640     8.2040     7.4370     9.5430    24.4500 
  222.5000   -16.5780     2.3890    95.2460     8.0220     7.3600    10.0870    24.4370 
  222.6250   -16.0510     2.3920    92.3670     7.6530     7.1310    10.0660    24.4280 
  222.7500   -15.5220     2.3880    88.2020     7.2000     6.7850     9.3310    24.4050 
  222.8750   -14.9910     2.3750    87.2210     6.8000     6.4230     8.2690    24.3690 
  223.0000   -14.5140     2.3600    90.8640     6.5050     6.1090     7.5710    24.3530 
  223.1250   -14.1020     2.3520    94.8550     6.3180     5.8760     7.3420    24.3540 
  223.2500   -13.7450     2.3610    93.5490     6.2260     5.7390     7.4190    24.3560 
  223.3750   -13.4760     2.3760    89.6310     6.1920     5.6720     7.3830    24.3570 
  223.5000   -13.3080     2.3850    87.0550     6.2080     5.6660     7.2520    24.3570 
  223.6250   -13.1850     2.3830    88.2060     6.2640     5.7120     7.1460    24.3570 
  223.7500   -13.0980     2.3710    91.9710     6.3360     5.7950     7.2180    24.3570 
  223.8750   -13.0620     2.3560    95.4510     6.3800     5.8700     7.6720    24.3570 
  224.0000   -13.0590     2.3420    96.5500     6.3620     5.8970     8.3350    24.3550 
  224.1250   -13.0430     2.3300    93.5130     6.2680     5.8470     8.7650    24.3530 
  224.2500   -13.0630     2.3210    90.1310     6.1000     5.7150     7.8940    24.3540 
  224.3750   -13.0450     2.3120    89.5650     5.9060     5.5510     6.9680    24.3470 
  224.5000   -13.0010     2.3040    89.1770     5.7230     5.3930     6.2220    24.3250 
  224.6250   -12.9560     2.3010    87.3360     5.5850     5.2690     5.9620    24.2810 
  224.7500   -12.8930     2.3060    86.6810     5.5330     5.2060     6.1210    24.2240 
  224.8750   -12.7840     2.3130    88.6250     5.5650     5.2040     6.2500    24.1580 
  225.0000   -12.6570     2.3170    88.6060     5.6640     5.2610     6.1540    24.1000 
  225.1250   -12.5270     2.3160    85.0360     5.7930     5.3530     5.9640    24.0820 
  225.2500   -12.4110     2.3150    80.6200     5.8900     5.4360     5.9770    24.0770 
  225.3750   -12.3220     2.3180    76.3580     5.9080     5.4630     6.2790    23.9940 
  225.5000   -12.2380     2.3230    72.8180     5.8220     5.4100     6.5160    23.8550 
  225.6250   -12.1600     2.3230    69.3880     5.6420     5.2790     5.9730    23.7330 
  225.7500   -12.1270     2.3130    64.7120     5.4280     5.1110     5.4860    23.7350 
  225.8750   -12.1590     2.3050    59.7720     5.2680     4.9760     5.2620    23.7420 
  226.0000   -12.2130     2.3040    57.4260     5.2130     4.9120     5.3010    23.7740 
  226.1250   -12.3170     2.3060    58.6190     5.2680     4.9320     5.5260    23.8820 
  226.2500   -12.4540     2.2960    60.4220     5.4260     5.0380     5.9440    24.0260 
  226.3750   -12.5480     2.2840    60.6810     5.6730     5.2190     6.5330    24.1670 
  226.5000   -12.6510     2.2880    59.2900     6.0510     5.5080     7.2170    24.2490 
  226.6250   -12.7850     2.3160    57.2640     6.6060     5.9500     7.9120    24.2570 
  226.7500   -12.8750     2.3510    56.8470     7.3490     6.5780     9.1890    24.1950 
  226.8750   -12.9700     2.3770    58.8530     8.1000     7.2710    11.3980    24.0980 
  227.0000   -13.1120     2.4010    62.6720     8.6260     7.8390    12.7430    23.9710 
  227.1250   -13.1920     2.4280    67.5290     8.7060     8.0620    11.9200    23.9020 
  227.2500   -13.1810     2.4370    70.1390     8.2190     7.7640     9.5720    23.8590 
  227.3750   -13.1790     2.4230    68.8720     7.4650     7.1540     7.4870    23.8170 
  227.5000   -13.1500     2.4020    65.7310     6.7210     6.4590     6.3120    23.7760 
  227.6250   -13.0570     2.3930    63.2330     6.1810     5.8700     5.6970    23.6960 
  227.7500   -12.9710     2.3890    62.1810     5.9610     5.5280     5.6160    23.6120 
  227.8750   -12.8480     2.3710    60.5600     5.9850     5.4160     5.8720    23.6080 
  228.0000   -12.6890     2.3420    59.5020     6.1980     5.5080     6.5470    23.6200 
  228.1250   -12.5970     2.3190    60.6670     6.5440     5.7660     7.5010    23.6450 
  228.2500   -12.5950     2.3180    61.9620     6.9640     6.1480     8.2190    23.5800 
  228.3750   -12.5900     2.3270    62.7680     7.3760     6.5660     8.8370    23.6530 
  228.5000   -12.6220     2.3340    62.6770     7.7280     6.9590     9.4680    23.8290 
  228.6250   -12.6870     2.3370    63.6560     7.9910     7.2770     9.8530    24.0350 
  228.7500   -12.7360     2.3360    65.7960     8.1540     7.4900     9.8730    24.3470 
  228.8750   -12.7540     2.3330    66.7140     8.2620     7.6310     9.8280    24.5360 
