~V
VERS. 2.00: Ver 2.00
~W
STRT.M 56.0000:
STOP.M 352.0000:
STEP.M 0.1250:
NULL. -999.2500:
UWI. F10109:
~C
DEPT.M :
DEN.GM/CC :
SP.MV :
GR.API :
RML.OHMM :
RI. :
RXO.OHMM :
CALI.CM :
~A
# ...
  314.7500     2.2920   -17.8940    88.0460    11.5060     9.8750     9.4820    24.4100 
  314.8750     2.2950   -18.2740    82.1500    11.3470     9.9440    10.5230    24.4400 
  315.0000     2.2940   -18.4830    78.1500    10.7820     9.6250    11.2940    24.4460 
  315.1250     2.2890   -18.5200    81.1790    10.0200     9.0340    10.7760    24.4350 
  315.2500     2.2810   -18.4560    84.1920     9.3550     8.4330     9.5560    24.4390 
  315.3750     2.2760   -18.3330    84.0480     8.9230     7.9630     8.4400    24.4380 
  315.5000     2.2740   -18.1520    83.9310     8.7500     7.6870     8.0670    24.4150 
  315.6250     2.2780   -17.9190    85.0220     8.8070     7.6210     8.2780    24.4070 
  315.7500     2.2850   -17.6760    82.3260     8.9630     7.6800     8.4710    24.4230 
  315.8750     2.2920   -17.4580    76.6190     9.1290     7.8000     8.2580    24.4310 
  316.0000     2.2990   -17.2710    73.5600     9.2350     7.9180     7.4910    24.4390 
  316.1250     2.3050   -17.0970    76.5250     9.2220     7.9720     7.0270    24.4900 
  316.2500     2.3120   -16.9090    80.2150     9.1080     7.9490     6.9520    24.5470 
  316.3750     2.3200   -16.7170    81.4210     8.9310     7.8640     7.1180    24.5640 
  316.5000     2.3280   -16.5500    82.3170     8.7470     7.7540     7.1410    24.5840 
  316.6250     2.3330   -16.4390    84.1410     8.6240     7.6700     6.9890    24.6370 
  316.7500     2.3340   -16.3810    83.8870     8.5860     7.6390     6.8900    24.6760 
  316.8750     2.3290   -16.3570    81.4520     8.6240     7.6590     6.9760    24.7060 
  317.0000     2.3180   -16.3460    77.1480     8.6940     7.7030     7.2270    24.7610 
  317.1250     2.3000   -16.3530    73.1300     8.7160     7.7160     7.3960    24.8070 
  317.2500     2.2810   -16.3900    71.7050     8.6360     7.6610     7.4690    24.8230 
  317.3750     2.2640   -16.4360    74.7360     8.4570     7.5350     7.5630    24.8250 
  317.5000     2.2560   -16.4810    80.0030     8.2480     7.3820     7.4310    24.8480 
  317.6250     2.2630   -16.5260    82.2840     8.1760     7.3200     6.9220    24.8420 
  317.7500     2.2850   -16.5640    81.6860     8.3730     7.4520     6.7340    24.7930 
  317.8750     2.3140   -16.5810    80.6790     8.8960     7.8380     7.0740    24.7240 
  318.0000     2.3420   -16.5700    79.8310     9.6830     8.4530     7.9560    24.6600 
  318.1250     2.3580   -16.4720    81.3880    10.5160     9.1630     9.1410    24.6210 
  318.2500     2.3620   -16.2840    83.4810    11.0790     9.7130    10.6050    24.5930 
  318.3750     2.3580   -16.0080    82.9970    11.1400     9.8980    11.3630    24.6200 
  318.5000     2.3480   -15.6620    80.0080    10.6340     9.6170    10.6010    24.6920 
  318.6250     2.3370   -15.2510    79.4020     9.7160     8.9340     9.2030    24.7920 
  318.7500     2.3280   -14.7990    80.7350     8.8280     8.1920     7.9030    24.8930 
  318.8750     2.3230   -14.3520    79.7160     8.2510     7.6260     7.0820    24.9570 
  319.0000     2.3240   -13.9380    77.5880     8.0860     7.3540     6.8380    24.9580 
  319.1250     2.3320   -13.6270    77.3850     8.2810     7.3960     7.2790    24.9290 
  319.2500     2.3420   -13.3790    76.8120     8.5690     7.5860     8.3330    24.9120 
  319.3750     2.3510   -13.1830    76.3310     8.7930     7.8080     9.8960    24.8790 
  319.5000     2.3550   -13.0260    78.7320     8.9020     7.9940    11.0240    24.8100 
  319.6250     2.3540   -12.8960    81.8100     8.9700     8.1530    10.3860    24.7400 
  319.7500     2.3520   -12.7880    80.9450     9.1140     8.3440     8.5490    24.6540 
  319.8750     2.3520   -12.6820    77.1040     9.3380     8.5690     8.0690    24.4920 
  320.0000     2.3570   -12.5180    74.1390     9.5230     8.7490     8.9140    24.2700 
  320.1250     2.3620   -12.2310    74.8370     9.4380     8.7080    10.3820    24.2260 
  320.2500     2.3640   -11.8740    77.5160     9.0150     8.3780    11.1480    24.3690 
  320.3750     2.3600   -11.5130    79.7830     8.3180     7.7920    10.3580    24.6010 
  320.5000     2.3490   -11.1770    79.3940     7.5280     7.0880     8.0170    24.8020 
  320.6250     2.3360   -10.9070    78.5850     6.8840     6.4680     6.1310    24.8890 
  320.7500     2.3250   -10.6950    78.5400     6.4740     6.0300     5.4850    24.9010 
  320.8750     2.3200   -10.5220    77.5660     6.2970     5.7960     5.4580    24.8790 
  321.0000     2.3220   -10.4130    75.2150     6.3140     5.7510     5.5130    24.8680 
  321.1250     2.3310   -10.3690    75.2720     6.4950     5.8920     5.5450    24.8450 
  321.2500     2.3430   -10.3620    78.3680     6.7620     6.1510     5.6090    24.7810 
  321.3750     2.3550   -10.3330    80.5400     7.0530     6.4680     5.7480    24.6960 
  321.5000     2.3650   -10.2540    79.4830     7.2920     6.7680     6.0290    24.6090 
  321.6250     2.3720   -10.0630    76.9110     7.3800     6.9430     6.7290    24.5510 
  321.7500     2.3730    -9.7580    74.8090     7.2940     6.9470     7.4530    24.5060 
  321.8750     2.3680    -9.3660    73.1860     7.0380     6.7650     7.2950    24.4860 
  322.0000     2.3570    -8.9160    71.3690     6.6510     6.4220     6.5610    24.4760 
  322.1250     2.3440    -8.4060    70.2440     6.1850     5.9630     6.4320    24.5220 
  322.2500     2.3380    -7.8520    67.1530     5.7130     5.4740     6.3440    24.5580 
  322.3750     2.3440    -7.2910    59.5240     5.2810     5.0110     5.4990    24.5700 
  322.5000     2.3640    -6.7450    49.4320     4.9200     4.6150     4.3450    24.5510 
  322.6250     2.3900    -6.2660    44.0020     4.6600     4.3220     3.7580    24.4910 
  322.7500     2.4090    -5.8740    43.5390     4.4840     4.1160     3.5260    24.4290 
  322.8750     2.4140    -5.5900    42.5070     4.3820     3.9890     3.4490    24.3850 
  323.0000     2.4060    -5.4210    39.4020     4.3480     3.9320     3.4580    24.3380 
  323.1250     2.3920    -5.3990    39.5950     4.3900     3.9500     3.5430    24.3530 
  323.2500     2.3820    -5.4810    44.8650     4.4890     4.0240     3.6720    24.3500 
  323.3750     2.3780    -5.6500    51.8370     4.6230     4.1350     3.8240    24.2680 
  323.5000     2.3780    -5.8970    57.4500     4.7530     4.2500     4.0530    24.1420 
  323.6250     2.3760    -6.2360    62.4450     4.8220     4.3210     4.3090    24.0490 
  323.7500     2.3710    -6.6530    66.3970     4.8160     4.3310     4.4850    23.9360 
  323.8750     2.3640    -7.1350    65.7100     4.7610     4.2940     4.4540    23.7400 
  324.0000     2.3590    -7.6650    59.2740     4.7280     4.2590     4.3410    23.5070 
  324.1250     2.3590    -8.2450    54.7620     4.8460     4.3230     4.3710    23.3620 
  324.2500     2.3610    -8.8620    57.8830     5.1780     4.5460     4.7320    23.3110 
  324.3750     2.3650    -9.4950    64.9340     5.7310     4.9500     5.2510    23.3010 
  324.5000     2.3680   -10.1100    70.6850     6.4280     5.4980     5.9410    23.3290 
  324.6250     2.3670   -10.6630    73.9380     7.0860     6.0750     7.0390    23.4460 
  324.7500     2.3590   -11.1660    75.8710     7.5150     6.5180     8.1970    23.6330 
  324.8750     2.3450   -11.6070    75.3020     7.6170     6.7170     8.5820    23.8830 
  325.0000     2.3270   -11.9850    71.6690     7.4220     6.6540     8.0310    24.1180 
  325.1250     2.3130   -12.2860    68.1060     7.0850     6.4150     6.8000    24.2460 
  325.2500     2.3060   -12.5540    68.6790     6.8270     6.1890     6.0740    24.2780 
  325.3750     2.3060   -12.8020    74.1940     6.7380     6.0730     5.9570    24.3090 
  325.5000     2.3130   -13.0540    81.4920     6.8170     6.0960     6.3570    24.3660 
  325.6250     2.3240   -13.3410    85.1420     6.9990     6.2410     6.7830    24.4160 
  325.7500     2.3340   -13.6460    86.2150     7.1730     6.4230     6.9140    24.4320 
  325.8750     2.3380   -13.9590    86.4510     7.2800     6.5810     6.8730    24.4130 
