~V
VERS. 2.00: Ver 2.00
~W
STRT.M 50.0000:
STOP.M 230.0000:
STEP.M 0.1250:
NULL. -999.2500:
UWI. F10167:
~C
DEPT.M :
DEN.GM/CC :
GR.API :
RML.OHMM :
RI. :
RXO.OHMM :
CALI.CM :
SP.MV :
~A
# ...
  151.2500     2.2190    64.3220    31.1910    28.7510    29.1480    24.8380    -1.6710 
  151.3750     2.2180    65.2710    28.1550    26.3720    28.6370    24.8360    -1.5160 
  151.5000     2.2200    69.4280    24.7540    23.6000    26.1620    24.8310    -1.3080 
  151.6250     2.2270    74.5300    21.3330    20.6590    20.8500    24.8160    -1.0110 
  151.7500     2.2360    75.4500    18.2890    17.9170    15.9190    24.7920    -0.7460 
  151.8750     2.2450    73.6230    15.8600    15.6220    13.9460    24.7700    -0.4760 
  152.0000     2.2510    72.7570    14.1500    13.9170    13.2410    24.7440    -0.1960 
  152.1250     2.2530    74.2670    13.2620    12.9460    12.3100    24.7140    -0.0170 
  152.2500     2.2510    75.8960    12.9640    12.5470    11.1040    24.7110     0.1250 
  152.3750     2.2480    74.7220    13.0710    12.5880    10.7670    24.7070     0.2620 
  152.5000     2.2440    70.6160    13.3320    12.8580    11.9790    24.6620     0.3190 
  152.6250     2.2400    66.8470    13.4190    13.0410    13.2720    24.6170     0.3530 
  152.7500     2.2370    65.8480    13.1630    12.9000    13.3130    24.5900     0.4060 
  152.8750     2.2380    69.7520    12.5770    12.3900    12.7250    24.5810     0.3870 
  153.0000     2.2430    77.9930    11.8380    11.6380    11.4980    24.5770     0.3650 
  153.1250     2.2520    84.1300    11.2460    10.9120    10.2100    24.5770     0.3670 
  153.2500     2.2640    83.3240    10.9970    10.4380     9.4470    24.5720     0.2830 
  153.3750     2.2730    79.6010    11.1620    10.3240    10.0700    24.5650     0.1800 
  153.5000     2.2770    77.8050    11.7360    10.6010    11.9620    24.5580     0.1310 
  153.6250     2.2720    77.0640    12.7720    11.3350    12.3850    24.5430     0.0050 
  153.7500     2.2610    74.8090    14.2560    12.4970    12.9110    24.5120    -0.1600 
  153.8750     2.2490    71.7430    16.2960    14.1800    14.9350    24.4640    -0.2490 
  154.0000     2.2390    68.9870    18.9850    16.5200    18.6850    24.3730    -0.3750 
  154.1250     2.2290    67.8910    22.3040    19.7090    20.8150    24.2220    -0.5560 
  154.2500     2.2150    68.8640    25.5890    23.2960    24.5880    24.1000    -0.6440 
  154.3750     2.2000    69.2360    27.8650    26.3780    30.3280    24.0940    -0.7520 
  154.5000     2.1930    66.6570    28.0800    27.7070    34.2390    24.1970    -0.9330 
  154.6250     2.2010    64.9270    25.3910    25.9920    31.8130    24.2700    -1.0360 
  154.7500     2.2230    68.8860    20.9980    22.1560    27.2030    24.2260    -1.1230 
  154.8750     2.2480    76.1880    16.2090    17.5030    17.7870    24.1070    -1.2140 
  155.0000     2.2660    81.2880    12.1120    13.2470    10.1740    24.0120    -1.1850 
  155.1250     2.2740    82.8090     9.3590    10.1680     7.4420    23.9560    -1.0680 
  155.2500     2.2780    83.2210     7.6350     8.0760     7.2740    24.0410    -0.9880 
  155.3750     2.2840    82.6430     6.6800     6.7660     6.5690    24.2340    -0.8650 
  155.5000     2.2900    82.9520     6.3010     6.0670     5.1590    24.4190    -0.7400 
  155.6250     2.2900    83.5460     6.4770     5.9580     4.7300    24.5660    -0.7050 
  155.7500     2.2820    82.5790     7.1060     6.3130     5.3050    24.6390    -0.6500 
  155.8750     2.2670    80.1180     8.1910     7.1250     7.0800    24.6430    -0.6480 
  156.0000     2.2520    77.1590     9.7280     8.3940    10.0360    24.6800    -0.7830 
  156.1250     2.2440    75.7170    11.7640    10.1740    12.8740    24.8290    -0.9760 
  156.2500     2.2420    74.1180    14.2140    12.3560    13.7440    25.0390    -1.2140 
  156.3750     2.2380    72.1180    17.1000    14.9210    15.0660    25.1330    -1.5280 
  156.5000     2.2290    69.5080    20.4600    17.8760    18.1890    25.1490    -1.7850 
  156.6250     2.2170    65.1030    24.2800    21.2410    26.3080    25.2000    -1.9350 
  156.7500     2.2100    60.3120    28.1290    24.7050    35.6300    25.3910    -2.1300 
  156.8750     2.2120    56.3940    31.3910    27.7560    40.6570    25.6720    -2.2870 
  157.0000     2.2220    54.0550    33.3780    29.7570    39.5920    25.8880    -2.3170 
  157.1250     2.2300    53.9990    33.4170    30.0230    41.5270    25.9450    -2.3290 
  157.2500     2.2300    55.1820    32.0830    28.9840    39.7320    25.8000    -2.2750 
  157.3750     2.2250    59.1300    30.0990    27.2520    34.4470    25.4190    -2.0970 
  157.5000     2.2190    63.9720    28.2000    25.4870    27.3370    24.9970    -1.9350 
  157.6250     2.2170    65.4720    26.8970    24.1900    22.5810    24.7900    -1.7870 
  157.7500     2.2140    65.2340    26.0040    23.2930    21.7100    24.6990    -1.5820 
  157.8750     2.2100    65.4600    25.1070    22.4890    24.1330    24.6430    -1.3720 
  158.0000     2.2060    66.5670    23.7450    21.3760    26.3600    24.6090    -1.1400 
  158.1250     2.2040    67.6390    21.5510    19.5670    25.9390    24.6240    -0.8620 
  158.2500     2.2090    68.5190    18.8490    17.2630    21.8120    24.6570    -0.6540 
  158.3750     2.2200    69.5100    16.1130    14.8390    16.3390    24.6780    -0.5030 
  158.5000     2.2370    71.8360    13.8280    12.7130    12.2640    24.6760    -0.3330 
  158.6250     2.2550    76.3240    12.4220    11.2690    10.3710    24.6770    -0.2210 
  158.7500     2.2700    78.6790    11.7830    10.4680     9.6090    24.6970    -0.1290 
  158.8750     2.2790    77.9570    11.7500    10.2240    10.0550    24.7260    -0.0410 
  159.0000     2.2810    77.8010    12.0910    10.3900    11.1270    24.7920    -0.0520 
  159.1250     2.2760    81.2300    12.5330    10.7750    11.7140    24.8150    -0.0750 
  159.2500     2.2680    83.8200    12.8100    11.1130    11.8860    24.8100    -0.0320 
  159.3750     2.2580    83.8540    12.7980    11.2460    12.0080    24.7870    -0.0270 
  159.5000     2.2500    82.4160    12.4930    11.1140    11.8700    24.7690    -0.0320 
  159.6250     2.2480    79.3350    12.0000    10.7520    11.2190    24.7430     0.0640 
  159.7500     2.2510    76.4970    11.5320    10.3440    10.3580    24.6640     0.1310 
  159.8750     2.2570    75.7250    11.2210    10.0140     9.9220    24.5260     0.1550 
  160.0000     2.2610    77.6650    11.1370     9.8470     9.8030    24.4350     0.1980 
  160.1250     2.2630    78.8830    11.2900     9.8900    10.1830    24.4230     0.1700 
  160.2500     2.2610    78.0910    11.5380    10.0560    10.4170    24.4810     0.1100 
  160.3750     2.2570    75.9450    11.7330    10.2350    10.5890    24.5460     0.1020 
  160.5000     2.2530    73.9660    11.7310    10.2940    10.9020    24.6050     0.0410 
  160.6250     2.2480    75.0760    11.3990    10.0780    11.0020    24.6310    -0.1240 
  160.7500     2.2460    78.6620    10.8290     9.6190    10.7320    24.6480    -0.2790 
  160.8750     2.2480    83.4580    10.1740     9.0220     9.8410    24.6750    -0.4540 
  161.0000     2.2540    87.5350     9.6240     8.4490     8.6930    24.7070    -0.6310 
  161.1250     2.2590    87.8000     9.4000     8.0980     7.9040    24.7370    -0.7290 
  161.2500     2.2590    86.0280     9.5220     8.0300     7.7760    24.7260    -0.8240 
  161.3750     2.2550    85.1190     9.9410     8.2440     8.4780    24.6930    -0.9280 
  161.5000     2.2480    85.1890    10.5350     8.6750    10.1790    24.6840    -0.9660 
  161.6250     2.2420    84.1120    11.1450     9.2170    11.0620    24.6860    -1.0070 
  161.7500     2.2370    82.0830    11.6790     9.7510    11.0680    24.6890    -1.0200 
  161.8750     2.2340    80.1660    12.1710    10.2590    11.1170    24.6890    -0.9560 
  162.0000     2.2330    77.0670    12.7450    10.7960    10.9480    24.6890    -0.9270 
  162.1250     2.2350    74.3600    13.6200    11.5180    11.5940    24.6890    -0.9390 
  162.2500     2.2390    74.9910    14.8470    12.5120    12.8900    24.6890    -0.9420 
  162.3750     2.2450    78.2840    16.3430    13.7750    14.5190    24.6890    -0.9880 
