~V
VERS. 2.00: Ver 2.00
~W
STRT.M 59.0000:
STOP.M 212.0000:
STEP.M 0.1250:
NULL. -999.2500:
UWI. F10143:
~C
DEPT.M :
GR.API :
RML.OHMM :
RI. :
RXO.OHMM :
CALI.CM :
SP.MV :
DEN.GM/CC :
~A
# ...
   92.7500    74.8790    10.7270     7.0680     8.8250    24.5030   -37.0300     2.1330 
   92.8750    76.8360    10.2880     6.9390     8.4890    24.5620   -36.9190     2.1330 
   93.0000    76.8440     9.9270     6.7940     8.2630    24.6620   -36.7980     2.1260 
   93.1250    72.7610     9.7720     6.6840     8.2800    24.7470   -36.6700     2.1160 
   93.2500    69.6230     9.8040     6.6340     8.2600    24.8030   -36.5480     2.1090 
   93.3750    70.5710     9.9870     6.6560     8.3490    24.8440   -36.4260     2.1060 
   93.5000    71.2480    10.2500     6.7400     8.6040    24.8930   -36.3160     2.1050 
   93.6250    67.9710    10.4810     6.8450     9.0110    24.9370   -36.2380     2.1060 
   93.7500    66.7620    10.6050     6.9230     9.4760    24.9530   -36.2000     2.1110 
   93.8750    70.4550    10.6100     6.9600     9.8660    24.9510   -36.1850     2.1250 
   94.0000    75.9380    10.5390     6.9660     9.8200    24.9340   -36.1690     2.1510 
   94.1250    76.6320    10.4760     6.9670     9.3940    24.9050   -36.1820     2.1770 
   94.2500    73.4300    10.4810     6.9870     9.4630    24.8980   -36.2240     2.1860 
   94.3750    70.7590    10.5460     7.0240    10.1720    24.9130   -36.2990     2.1760 
   94.5000    70.1520    10.6120     7.0520    10.4540    24.9330   -36.3890     2.1620 
   94.6250    68.8140    10.5930     7.0330     9.9670    24.9360   -36.4790     2.1530 
   94.7500    67.8960    10.5020     6.9680     9.2210    24.9380   -36.5570     2.1480 
   94.8750    68.6380    10.4010     6.8830     8.7140    24.9580   -36.6260     2.1420 
   95.0000    68.7900    10.3520     6.8170     8.5030    24.9900   -36.6940     2.1340 
   95.1250    66.1710    10.3840     6.8190     8.6550    25.0360   -36.7520     2.1250 
   95.2500    63.6230    10.4500     6.8900     9.1340    25.0870   -36.7890     2.1160 
   95.3750    62.9280    10.5080     7.0120     9.4930    25.1470   -36.7980     2.1070 
   95.5000    63.4400    10.5570     7.1580     9.5130    25.2140   -36.7800     2.0990 
   95.6250    64.5460    10.6530     7.2900     9.4030    25.2240   -36.7260     2.0970 
   95.7500    65.1480    10.8160     7.3870     9.4050    25.1720   -36.6240     2.1060 
   95.8750    64.4060    10.9820     7.4280     9.5420    25.0670   -36.4710     2.1230 
   96.0000    62.8490    11.0280     7.4020     9.7930    24.9600   -36.2490     2.1430 
   96.1250    60.5200    10.7990     7.2820     9.7360    24.9070   -35.9160     2.1610 
   96.2500    58.6150    10.3590     7.0850     9.2160    24.9050   -35.5070     2.1760 
   96.3750    60.0290     9.8630     6.8510     8.6670    24.9500   -35.0390     2.1870 
   96.5000    65.7040     9.4970     6.6500     7.8570    25.0330   -34.5820     2.1940 
   96.6250    72.3170     9.4220     6.5850     7.6620    25.0970   -34.2350     2.1880 
   96.7500    73.8770     9.5880     6.6900     7.6860    25.1330   -34.0540     2.1690 
   96.8750    70.4130     9.9480     6.9510     8.1050    25.1050   -34.0620     2.1510 
   97.0000    67.3380    10.4330     7.3060     8.9500    24.9660   -34.2710     2.1400 
   97.1250    68.0230    10.9140     7.6390     9.7930    24.7490   -34.6970     2.1370 
   97.2500    68.9740    11.2100     7.8630    10.2820    24.6340   -35.2510     2.1380 
   97.3750    66.5000    11.2080     7.9520    10.6350    24.6020   -35.9050     2.1440 
   97.5000    62.5790    10.9220     7.9210    11.0170    24.6000   -36.5840     2.1530 
   97.6250    63.0400    10.4850     7.7930    11.3230    24.6000   -37.2010     2.1630 
   97.7500    65.7840    10.1400     7.6330    11.5110    24.6000   -37.7040     2.1770 
   97.8750    65.7700    10.1070     7.5500    11.6400    24.6000   -38.0520     2.1970 
   98.0000    62.3400    10.5820     7.6990    11.9820    24.6000   -38.2260     2.2230 
   98.1250    60.4840    11.7640     8.2790    12.6090    24.6270   -38.2200     2.2580 
   98.2500    61.8870    13.4400     9.2540    14.4030    24.7180   -38.0950     2.3040 
   98.3750    63.4000    15.2400    10.4640    19.4010    24.8630   -37.8870     2.3460 
   98.5000    62.6130    16.5220    11.5260    32.5320    24.9840   -37.6460     2.3530 
   98.6250    60.3190    16.4030    11.8040    32.2560    24.9810   -37.4240     2.2930 
   98.7500    59.1880    15.1400    11.2790    20.8460    24.8800   -37.2410     2.2090 
   98.8750    61.6860    13.4740    10.2950    13.0340    24.7500   -37.1080     2.1470 
   99.0000    66.6440    12.1320     9.2810    10.8200    24.6710   -37.0240     2.1190 
   99.1250    68.4250    11.5570     8.5810    10.5640    24.6220   -37.0010     2.1180 
   99.2500    65.9360    11.5280     8.2320    10.2070    24.5490   -37.0210     2.1240 
   99.3750    63.8820    11.7290     8.1550     9.9090    24.4620   -37.0860     2.1300 
   99.5000    65.5760    11.8530     8.1990     9.6830    24.3820   -37.1830     2.1340 
   99.6250    67.6020    11.7860     8.2310     9.6050    24.3280   -37.2730     2.1360 
   99.7500    66.2790    11.6910     8.2240     9.6770    24.3110   -37.3530     2.1360 
   99.8750    63.2540    11.6910     8.2130     9.6900    24.3160   -37.4250     2.1350 
  100.0000    61.1590    11.8200     8.2350     9.5980    24.3460   -37.4820     2.1350 
  100.1250    61.6110    12.0680     8.3150     9.9450    24.3940   -37.5170     2.1440 
  100.2500    62.7750    12.3470     8.4300    10.4230    24.4170   -37.5300     2.1630 
  100.3750    63.1260    12.5790     8.5450    10.7540    24.4010   -37.5080     2.1820 
  100.5000    63.3770    12.7000     8.6310    10.7070    24.3820   -37.4510     2.1880 
  100.6250    64.6100    12.6530     8.6550    10.7800    24.3750   -37.3690     2.1770 
  100.7500    65.8460    12.5070     8.6350    10.9310    24.3720   -37.2500     2.1730 
  100.8750    66.3260    12.3610     8.6040    11.0840    24.3580   -37.1030     2.1930 
  101.0000    66.7720    12.3060     8.6060    11.1270    24.3240   -36.9510     2.2230 
  101.1250    68.7350    12.3990     8.6820    11.1650    24.2940   -36.8220     2.2290 
  101.2500    70.0860    12.5900     8.8120    11.5950    24.2620   -36.7520     2.2080 
  101.3750    70.1910    12.8180     8.9530    12.3600    24.2390   -36.7420     2.1760 
  101.5000    69.7020    12.9840     9.0440    12.4540    24.2310   -36.7860     2.1430 
  101.6250    68.4400    12.9420     9.0220    11.9140    24.2310   -36.8960     2.1120 
  101.7500    67.1760    12.6840     8.8960    11.5530    24.2310   -37.0640     2.0880 
  101.8750    65.3640    12.2640     8.7040    11.3750    24.2310   -37.2680     2.0780 
  102.0000    62.7180    11.7970     8.4930    11.1800    24.2300   -37.5000     2.0810 
  102.1250    60.6640    11.4250     8.3080    11.0370    24.2290   -37.7300     2.0920 
  102.2500    61.0100    11.2050     8.1520    10.9500    24.2300   -37.9210     2.1000 
  102.3750    62.6410    11.1270     8.0100    10.8560    24.2310   -38.0710     2.1050 
  102.5000    62.1920    11.1220     7.8710    10.8540    24.2310   -38.1830     2.1070 
  102.6250    60.7530    11.0810     7.7270    10.8190    24.2310   -38.2520     2.1090 
  102.7500    61.7650    10.9380     7.5910    10.5990    24.2310   -38.2780     2.1160 
  102.8750    62.6080    10.7030     7.4800    10.3290    24.2310   -38.2720     2.1280 
  103.0000    59.5180    10.4570     7.4100    10.1640    24.2310   -38.2380     2.1400 
  103.1250    55.8400    10.3250     7.3990    10.2270    24.2310   -38.1940     2.1500 
  103.2500    57.0090    10.3250     7.4340    10.3940    24.2310   -38.1590     2.1610 
  103.3750    61.8050    10.4130     7.5010    10.4600    24.2310   -38.1330     2.1780 
  103.5000    65.1840    10.5240     7.5860    10.6200    24.2390   -38.1160     2.1970 
  103.6250    64.8560    10.5750     7.6680    10.8720    24.2630   -38.1130     2.2070 
  103.7500    63.0720    10.5360     7.7310    11.1610    24.3070   -38.1410     2.2070 
  103.8750    61.0080    10.4120     7.7660    11.3900    24.3700   -38.2050     2.2000 
