~V
VERS. 2.00: Ver 2.00
~W
STRT.M 50.0000:
STOP.M 268.0000:
STEP.M 0.1250:
NULL. -999.2500:
UWI. F10199:
~C
DEPT.M :
GR.API :
RML.OHMM :
RI. :
RXO.OHMM :
CALI.CM :
DEN.GM/CC :
SP.MV :
~A
# ...
  252.5000    62.1720    16.7810    15.3040    24.0300    23.0080     2.5390    -3.1430 
  252.6250    61.3860    16.9080    15.5000    24.8160    23.0550     2.5300    -3.2040 
  252.7500    61.7940    17.0650    15.7210    23.8130    23.1100     2.5270    -3.2590 
  252.8750    61.7480    17.2750    15.9880    22.1250    23.1310     2.5310    -3.2960 
  253.0000    60.0450    17.5090    16.2800    19.9640    23.1230     2.5410    -3.3080 
  253.1250    59.7280    17.6670    16.5150    19.1120    23.1380     2.5510    -3.3050 
  253.2500    62.1770    17.6480    16.5960    18.3960    23.2040     2.5550    -3.3330 
  253.3750    64.0590    17.3750    16.4400    17.0760    23.2780     2.5500    -3.3600 
  253.5000    62.7200    16.8200    16.0070    15.1180    23.3140     2.5390    -3.3570 
  253.6250    59.1970    15.9890    15.2810    13.3030    23.3080     2.5270    -3.3600 
  253.7500    57.4360    15.0430    14.4130    11.6030    23.3090     2.5190    -3.3750 
  253.8750    57.9120    14.1290    13.5430    10.2340    23.3480     2.5140    -3.4090 
  254.0000    59.3320    13.3950    12.8110     9.2130    23.4340     2.5110    -3.4970 
  254.1250    59.6990    13.0160    12.3850     9.2070    23.5400     2.5080    -3.5930 
  254.2500    59.2590    12.9950    12.2810    10.0910    23.6280     2.5050    -3.6680 
  254.3750    58.8260    13.3010    12.4880    11.4500    23.6760     2.5050    -3.7380 
  254.5000    59.6440    13.8510    12.9470    12.6950    23.6950     2.5110    -3.8150 
  254.6250    62.4910    14.5610    13.5970    13.1140    23.7050     2.5190    -3.8470 
  254.7500    64.6650    15.3510    14.3460    12.8770    23.7170     2.5260    -3.8910 
  254.8750    63.9010    16.2430    15.1960    12.3480    23.7230     2.5300    -3.9260 
  255.0000    61.3980    17.3130    16.1990    12.1280    23.7000     2.5320    -3.9370 
  255.1250    60.7700    18.6740    17.4610    12.6260    23.6230     2.5350    -3.9550 
  255.2500    60.3130    20.2440    18.9340    14.2760    23.5010     2.5390    -3.9610 
  255.3750    57.6570    21.8620    20.4950    17.0160    23.3540     2.5430    -3.9950 
  255.5000    55.1690    23.3020    21.9460    20.0500    23.2250     2.5460    -4.0220 
  255.6250    56.4950    24.2930    23.0140    22.4320    23.1540     2.5490    -4.0880 
  255.7500    59.1910    24.8580    23.6650    23.1970    23.1410     2.5500    -4.1630 
  255.8750    60.4500    25.1260    23.9810    22.3490    23.1610     2.5500    -4.2370 
  256.0000    59.5360    25.2890    24.1370    21.1680    23.2020     2.5490    -4.2970 
  256.1250    57.4920    25.5130    24.3050    21.3160    23.2590     2.5460    -4.3330 
  256.2500    57.3950    25.8200    24.5430    21.9810    23.3110     2.5440    -4.3950 
  256.3750    59.3580    26.1570    24.8250    22.8590    23.3640     2.5410    -4.4280 
  256.5000    60.8230    26.4600    25.0980    23.3570    23.4240     2.5390    -4.4740 
  256.6250    60.8230    26.6900    25.3190    23.4260    23.4840     2.5370    -4.5460 
  256.7500    60.8230    26.8650    25.4910    23.3860    23.5250     2.5350    -4.5750 
  256.8750    60.8230    26.9870    25.6160    23.2980    23.5450     2.5330    -4.6130 
  257.0000    60.8230    27.0390    25.6790    23.4420    23.5450     2.5320    -4.6630 
  257.1250    60.8230    26.9590    25.6330    23.4890    23.5330     2.5330    -4.7130 
  257.2500    60.8230    26.7370    25.4660    23.0200    23.5060     2.5360    -4.7520 
  257.3750    60.8230    26.3830    25.1810    22.3930    23.4610     2.5420    -4.8130 
  257.5000    60.8230    25.9410    24.8130    21.7900    23.3960     2.5490    -4.8950 
  257.6250    60.8230    25.4910    24.4210    21.3650    23.3060     2.5560    -4.9240 
  257.7500    60.8230    25.1090    24.0750    21.2240    23.2050     2.5610    -4.9560 
  257.8750    60.8230    24.8340    23.8090    21.6320    23.1060     2.5650    -5.0160 
  258.0000    60.8230    24.6610    23.6260    22.2550    23.0430     2.5670    -5.0410 
  258.1250    60.8230    24.5320    23.4750    22.3790    23.0510     2.5670    -5.0520 
  258.2500    60.8230    24.3240    23.2510    21.8320    23.1080     2.5660    -5.0750 
  258.3750    60.8230    23.9280    22.8570    20.8110    23.1800     2.5650    -5.0840 
  258.5000    60.8230    23.2820    22.2360    19.9040    23.2300     2.5640    -5.0480 
  258.6250    60.8230    22.3780    21.3780    19.6310    23.2340     2.5640    -5.0350 
  258.7500    60.8230    21.3940    20.4400    19.5460    23.2310     2.5620    -5.0510 
  258.8750    60.8230    20.5240    19.5940    19.2410    23.2580     2.5570    -5.0160 
  259.0000    60.8230    19.9700    19.0220    18.4190    23.3070     2.5490    -5.0230 
  259.1250    60.8230    19.9690    18.9370    16.4290    23.3330     2.5370    -5.0430 
  259.2500    60.8230    20.4530    19.2980    14.8530    23.3330     2.5270    -5.0480 
  259.3750    60.8230    21.2830    20.0030    14.4100    23.3510     2.5220    -5.0570 
  259.5000    60.8230    22.2110    20.8450    14.5540    23.3730     2.5270    -5.0960 
  259.6250    60.8230    22.8660    21.4970    14.5080    23.3750     2.5390    -5.1300 
  259.7500    60.8230    23.0520    21.7420    14.7820    23.3910     2.5490    -5.1450 
  259.8750    60.8230    22.7440    21.5220    15.5370    23.4010     2.5490    -5.1830 
  260.0000    60.8230    22.0940    20.9470    16.4210    23.3980     2.5360    -5.2310 
  260.1250    60.8230    21.3700    20.2440    16.8420    23.3920     2.5160    -5.3050 
  260.2500    60.8230    20.8240    19.6600    16.9920    23.3690     2.4990    -5.3770 
  260.3750    60.8230    20.5580    19.3010    17.6280    23.3580     2.4920    -5.4490 
  260.5000    60.8230    20.5740    19.1930    20.1920    23.3420     2.4970    -5.5110 
  260.6250    60.8230    20.8290    19.3230    24.9790    23.3490     2.5110    -5.5970 
  260.7500    60.8230    21.1850    19.5730    30.3570    23.3690     2.5260    -5.6520 
  260.8750    60.8230    21.5500    19.8570    33.9130    23.4000     2.5360    -5.6880 
  261.0000    60.8230    21.8500    20.0890    35.8470    23.4480     2.5430    -5.7130 
  261.1250    60.8230    22.0210    20.1770    38.6680    23.4950     2.5470    -5.7540 
  261.2500    60.8230    22.0910    20.1200    37.8770    23.5430     2.5510    -5.7950 
  261.3750    60.8230    22.0950    19.9520    35.7230    23.5920     2.5560    -5.8040 
  261.5000    60.8230    22.0790    19.7330    33.8670    23.6500     2.5590    -5.8040 
  261.6250    60.8230    22.0540    19.5390    31.6520    23.7160     2.5590    -5.7950 
  261.7500    60.8230    22.0380    19.4070    30.6120    23.7790     2.5570    -5.8170 
  261.8750    60.8230    22.0310    19.3390    28.7270    23.8350     2.5520    -5.8430 
  262.0000    60.8230    21.9820    19.3160    25.9140    23.8630     2.5470    -5.8470 
  262.1250    60.8230    21.9440    19.3130    27.1490    23.9190     2.5420    -5.8270 
  262.2500    60.8230    21.9290    19.3140    31.1410    23.9620     2.5380    -5.8260 
  262.3750    60.8230    21.9290    19.3160    36.2280    24.0100     2.5340    -5.8290 
  262.5000    60.8230    21.9290    19.3180    41.7900    24.0350     2.5280    -5.8110 
  262.6250    60.8230    21.9290    19.3180    45.3890    24.0610     2.5210    -5.7910 
  262.7500    60.8230    21.9290    19.3180    45.1980    24.0770     2.5130    -5.7980 
  262.8750    60.8230    21.9290    19.3180    42.6790    24.0950     2.5050    -5.8330 
  263.0000    60.8230    21.9290    19.3180    39.1200    24.0890     2.5000    -5.8530 
  263.1250    60.8230    21.9290    19.3180    30.4400    24.0980     2.5020    -5.8720 
  263.2500    60.8230    21.9290    19.3180    22.0650    24.0860     2.5090    -5.8930 
  263.3750    60.8230    21.9290    19.3180    19.3860    24.0980     2.5170    -5.8960 
  263.5000    60.8230    21.9290    19.3180    20.6970    24.1190     2.5220    -5.9450 
  263.6250    60.8230    21.9290    19.3180    23.7980    24.1570     2.5200    -6.0040 
