~V
VERS. 2.00: Ver 2.00
~W
STRT.M 62.0000:
STOP.M 235.0000:
STEP.M 0.1250:
NULL. -999.2500:
UWI. F10157:
~C
DEPT.M :
SP.MV :
DEN.GM/CC :
GR.API :
RML.OHMM :
RI. :
RXO.OHMM :
CALI.CM :
~A
# ...
   73.2500   -19.0100     2.1980    63.0590     9.6300     8.4880    10.6310    24.7700 
   73.3750   -19.0700     2.1900    63.8990     9.7410     8.5220    10.5920    24.7870 
   73.5000   -19.1320     2.1870    60.9080     9.9150     8.6310    10.5580    24.8100 
   73.6250   -19.2110     2.1850    60.4470    10.1130     8.7620    10.5650    24.8330 
   73.7500   -19.2850     2.1910    68.6520    10.3240     8.8940    10.6040    24.8500 
   73.8750   -19.3480     2.2060    84.6480    10.5340     9.0260    10.6620    24.8600 
   74.0000   -19.3880     2.2310   101.0260    10.7180     9.1540    10.5210    24.8630 
   74.1250   -19.3960     2.2540   104.2200    10.8300     9.2560    10.4240    24.8580 
   74.2500   -19.3800     2.2670    95.5640    10.8540     9.3100    10.6670    24.8490 
   74.3750   -19.3490     2.2670    85.2200    10.7850     9.2990    10.9020    24.8400 
   74.5000   -19.3140     2.2540    78.1730    10.6320     9.2190    10.9970    24.8330 
   74.6250   -19.2730     2.2360    71.9220    10.4190     9.0820    10.9190    24.8280 
   74.7500   -19.2190     2.2190    65.3580    10.2110     8.9330    10.7970    24.8270 
   74.8750   -19.1550     2.2070    61.1450    10.0540     8.8070    10.7010    24.8270 
   75.0000   -19.0770     2.2010    60.1460     9.9680     8.7200    10.6160    24.8280 
   75.1250   -18.9890     2.2010    61.7580     9.9540     8.6750    10.4320    24.8290 
   75.2500   -18.8640     2.2010    66.0940     9.9520     8.6420    10.3110    24.8330 
   75.3750   -18.6910     2.1960    69.2710     9.9010     8.5840    10.3570    24.8390 
   75.5000   -18.4720     2.1880    66.2410     9.7700     8.4780    10.4500    24.8470 
   75.6250   -18.1900     2.1810    59.3650     9.6310     8.3680    10.6010    24.8610 
   75.7500   -17.8870     2.1780    55.5580     9.6230     8.3500    10.6700    24.8840 
   75.8750   -17.5650     2.1780    57.3720     9.8290     8.4950    10.5430    24.9090 
   76.0000   -17.2100     2.1840    62.3520    10.2410     8.8120    10.2230    24.9290 
   76.1250   -16.8260     2.1990    64.7630    10.7200     9.2290    10.8110    24.9410 
   76.2500   -16.3890     2.2220    64.2470    11.0120     9.5500    13.6970    24.9460 
   76.3750   -15.8950     2.2460    63.6700    10.9390     9.6170    17.1050    24.9420 
   76.5000   -15.3360     2.2560    65.0340    10.4990     9.3900    14.8510    24.9340 
   76.6250   -14.6650     2.2430    65.7450     9.8880     8.9700    11.4290    24.9210 
   76.7500   -13.9150     2.2160    64.4260     9.3780     8.5640     9.8690    24.9080 
   76.8750   -13.0840     2.1890    64.0210     9.0630     8.2570     9.3650    24.9100 
   77.0000   -12.2100     2.1740    66.1110     8.8780     8.0240     9.3900    24.9460 
   77.1250   -11.3250     2.1740    70.9050     8.5960     7.7210     9.4710    25.0150 
   77.2500   -10.4850     2.1840    77.5870     8.0520     7.2350     8.9960    25.1020 
   77.3750    -9.7580     2.2030    83.9280     7.2760     6.5880     7.7220    25.2000 
   77.5000    -9.2070     2.2230    88.2760     6.4610     5.9150     5.9850    25.2950 
   77.6250    -8.9140     2.2310    91.5830     5.8850     5.4140     5.2060    25.3560 
   77.7500    -8.8460     2.2230    92.7220     5.6790     5.1860     5.1320    25.3820 
   77.8750    -8.9680     2.2020    89.4690     5.9390     5.3130     5.6020    25.3820 
   78.0000    -9.2100     2.1770    82.8970     6.7270     5.8640     6.7860    25.3670 
   78.1250    -9.4610     2.1660    76.3250     8.1160     6.9400     8.1070    25.3500 
   78.2500    -9.6340     2.1810    70.6870     9.8540     8.3700     9.2820    25.3430 
   78.3750    -9.6540     2.2290    66.1350    11.5730     9.8800    11.7800    25.3330 
   78.5000    -9.4910     2.2980    64.6020    12.7030    10.9810    18.0010    25.3290 
   78.6250    -9.1490     2.3580    66.4830    12.4630    10.9530    18.4960    25.3450 
   78.7500    -8.7220     2.3840    69.6390    11.0560     9.9070    13.3290    25.3660 
   78.8750    -8.3010     2.3750    75.0790     9.0950     8.3290     8.9530    25.3790 
   79.0000    -7.9880     2.3400    82.8170     7.2940     6.7850     6.6920    25.3910 
   79.1250    -7.9050     2.2910    90.3140     6.2350     5.7390     5.1270    25.4090 
   79.2500    -8.0880     2.2330    94.4390     5.9150     5.2440     4.4490    25.4320 
   79.3750    -8.5210     2.1740    93.7930     6.2560     5.2800     4.6450    25.4510 
   79.5000    -9.1570     2.1260    88.6050     7.1160     5.7730     5.6650    25.4470 
   79.6250    -9.9490     2.1060    79.8790     8.2730     6.6110     7.2300    25.4010 
   79.7500   -10.7490     2.1060    71.6030     9.3150     7.4950     7.9060    25.3320 
   79.8750   -11.4750     2.1140    66.4380     9.9550     8.1820     8.0770    25.2490 
   80.0000   -12.0550     2.1200    64.6860    10.0920     8.5280     8.2090    25.1600 
   80.1250   -12.4170     2.1290    64.1870     9.8340     8.5230     8.6000    25.0800 
   80.2500   -12.5680     2.1470    63.7500     9.4890     8.3750     9.0080    25.0220 
   80.3750   -12.5250     2.1710    63.5310     9.1960     8.1950     9.1350    24.9910 
   80.5000   -12.3060     2.1920    64.2270     8.9780     8.0240     9.0230    24.9960 
   80.6250   -11.9060     2.1990    66.4150     8.7980     7.8550     8.6780    25.0410 
   80.7500   -11.3720     2.1960    68.5930     8.6170     7.6740     8.4600    25.1140 
   80.8750   -10.7170     2.1900    68.9150     8.4290     7.4870     8.3990    25.2030 
   81.0000    -9.9550     2.1850    68.3470     8.2500     7.3060     8.3300    25.2950 
   81.1250    -9.1250     2.1810    70.1500     8.1120     7.1540     7.9560    25.3670 
   81.2500    -8.2850     2.1780    72.5370     8.0150     7.0320     7.4540    25.4220 
   81.3750    -7.4650     2.1730    72.7290     7.9430     6.9300     7.3810    25.4620 
   81.5000    -6.6980     2.1680    71.8180     7.8670     6.8280     7.7490    25.4880 
   81.6250    -6.0170     2.1680    71.4950     7.7290     6.6830     7.5770    25.5010 
   81.7500    -5.4710     2.1790    73.4910     7.5000     6.4650     6.6290    25.5080 
   81.8750    -5.0800     2.2010    77.7660     7.1830     6.1740     5.8030    25.5120 
   82.0000    -4.8520     2.2300    81.9510     6.8260     5.8470     5.7380    25.5150 
   82.1250    -4.8480     2.2570    81.5860     6.5190     5.5520     5.9810    25.5080 
   82.2500    -4.9990     2.2730    78.7840     6.3410     5.3530     5.6400    25.4820 
   82.3750    -5.2750     2.2750    77.3170     6.3630     5.3100     5.4980    25.4430 
   82.5000    -5.6310     2.2590    76.5680     6.6700     5.4850     5.9870    25.4130 
   82.6250    -5.9760     2.2280    73.6210     7.4880     6.0320     7.0890    25.3960 
   82.7500    -6.2990     2.2040    70.4580     8.9690     7.0430     8.5220    25.3940 
   82.8750    -6.6040     2.2100    68.8910    11.3150     8.6660    11.3200    25.4050 
   83.0000    -6.9160     2.2690    68.1720    14.5990    11.0100    16.2460    25.4250 
   83.1250    -7.3110     2.3950    65.0740    18.5200    14.0250    24.0030    25.4500 
   83.2500    -7.8230     2.5440    60.3780    21.8630    16.9060    31.7920    25.4700 
   83.3750    -8.5100     2.6580    57.6520    23.2790    18.5540    34.4210    25.4630 
   83.5000    -9.3950     2.6870    57.9160    22.0580    18.1960    31.4940    25.4220 
   83.6250   -10.4460     2.6260    60.2860    18.7530    16.0210    26.5610    25.3570 
   83.7500   -11.5860     2.5280    62.0110    15.2730    13.4700    19.9250    25.2790 
   83.8750   -12.7330     2.4210    61.4450    12.5400    11.2780    13.8560    25.2000 
   84.0000   -13.8200     2.3270    58.6450    10.8150     9.7220    10.7000    25.1290 
   84.1250   -14.7940     2.2610    57.1040    10.0820     8.8840    10.5090    25.0710 
   84.2500   -15.6300     2.2210    58.1470     9.9160     8.5260    10.7400    25.0220 
   84.3750   -16.3160     2.2010    59.0260    10.0810     8.5030    10.8750    24.9830 
