~V
VERS. 2.00: Ver 2.00
~W
STRT.M 50.0000:
STOP.M 232.0000:
STEP.M 0.1250:
NULL. -999.2500:
UWI. F10160:
~C
DEPT.M :
SP.MV :
DEN.GM/CC :
GR.API :
RML.OHMM :
RI. :
RXO.OHMM :
CALI.CM :
~A
# ...
  117.5000   -29.4630     2.3590    69.8350     8.4970     7.2320    10.4330    24.4390 
  117.6250   -29.6480     2.3220    67.6290     8.6250     7.2770    10.6200    24.3690 
  117.7500   -29.8260     2.2810    64.9900     8.7390     7.3210    10.4610    24.3400 
  117.8750   -29.9890     2.2550    62.7580     8.8200     7.3560     9.9200    24.3220 
  118.0000   -30.1100     2.2470    61.2360     8.8600     7.3720     9.3340    24.2890 
  118.1250   -30.1730     2.2570    60.2270     8.8620     7.3600     8.9670    24.2200 
  118.2500   -30.1630     2.2720    59.1760     8.8410     7.3180     8.7510    24.0920 
  118.3750   -30.0900     2.2830    59.2830     8.7980     7.2500     8.5520    23.9210 
  118.5000   -29.9830     2.2860    60.4730     8.7280     7.1660     8.5450    23.7520 
  118.6250   -29.8790     2.2840    62.1830     8.6280     7.0820     8.7620    23.6190 
  118.7500   -29.8130     2.2820    63.0110     8.5130     7.0110     9.0330    23.5370 
  118.8750   -29.8090     2.2790    62.3290     8.4120     6.9650     9.2590    23.5480 
  119.0000   -29.8690     2.2700    61.2350     8.3690     6.9600     9.6290    23.6790 
  119.1250   -29.9730     2.2530    60.7420     8.4860     7.0500     9.9780    23.8850 
  119.2500   -30.0700     2.2400    58.8940     8.8110     7.2740    10.2620    24.0770 
  119.3750   -30.1390     2.2520    56.1710     9.3570     7.6500    10.5040    24.2490 
  119.5000   -30.1370     2.3050    54.7210    10.0520     8.1450    11.2920    24.4140 
  119.6250   -30.0370     2.3910    56.5350    10.6880     8.6380    13.9090    24.5400 
  119.7500   -29.8450     2.4550    59.7890    11.0120     8.9560    17.0920    24.5990 
  119.8750   -29.5760     2.4600    62.2390    10.8940     8.9900    16.1510    24.6070 
  120.0000   -29.2550     2.4110    63.6010    10.4050     8.7490    12.3970    24.6030 
  120.1250   -28.9030     2.3450    63.0580     9.8070     8.3640    10.6680    24.6030 
  120.2500   -28.5250     2.3000    61.4970     9.3920     8.0340    10.3730    24.6250 
  120.3750   -28.1130     2.2890    60.4530     9.2790     7.8630    10.5430    24.6870 
  120.5000   -27.6620     2.3020    60.1740     9.4700     7.8870    10.5400    24.7710 
  120.6250   -27.1800     2.3270    59.7270     9.8930     8.1020    10.4140    24.8290 
  120.7500   -26.6710     2.3500    57.6070    10.3930     8.4130    10.4500    24.8590 
  120.8750   -26.1390     2.3750    55.3320    10.9040     8.7690    10.7260    24.9100 
  121.0000   -25.5960     2.4060    54.1700    11.3950     9.1360    11.4590    25.0140 
  121.1250   -25.0660     2.4410    52.4570    11.8190     9.4830    12.0960    25.1440 
  121.2500   -24.5670     2.4670    49.2010    12.1160     9.7700    12.1900    25.2410 
  121.3750   -24.1080     2.4780    47.3330    12.2150     9.9510    12.1840    25.2870 
  121.5000   -23.7010     2.4750    49.7040    12.0980    10.0030    12.7130    25.2990 
  121.6250   -23.3620     2.4660    55.2150    11.9090     9.9810    12.9140    25.3010 
  121.7500   -23.0990     2.4620    60.2310    11.9680    10.0720    12.8690    25.3120 
  121.8750   -22.9050     2.4750    62.5290    12.5180    10.4430    12.5050    25.3450 
  122.0000   -22.7550     2.5190    60.3630    13.6060    11.1690    11.9600    25.4330 
  122.1250   -22.6200     2.6040    56.2710    14.8980    12.1050    12.6220    25.6140 
  122.2500   -22.4750     2.6860    56.1280    15.5970    12.7400    16.2690    25.8200 
  122.3750   -22.3150     2.7100    59.7320    15.0410    12.5690    22.1680    25.9510 
  122.5000   -22.1300     2.6570    63.3400    13.1690    11.4350    22.2960    25.9480 
  122.6250   -21.9010     2.5550    64.9470    10.7420     9.7190    14.0320    25.8550 
  122.7500   -21.6390     2.4550    68.0100     8.7740     8.1600     8.6530    25.7800 
  122.8750   -21.3730     2.3840    72.7680     7.6030     7.0860     6.7530    25.7510 
  123.0000   -21.1220     2.3530    75.4790     7.1840     6.5650     6.4820    25.7500 
  123.1250   -20.8970     2.3640    74.3650     7.3290     6.5480     7.4050    25.7480 
  123.2500   -20.7010     2.3910    72.3040     7.6260     6.7360     8.7660    25.7480 
  123.3750   -20.5380     2.4110    69.8470     7.7920     6.9010     9.6510    25.7540 
  123.5000   -20.4100     2.4100    66.1530     7.6450     6.8630     8.5880    25.7590 
  123.6250   -20.3430     2.3890    63.8900     7.1650     6.5530     6.9540    25.7570 
  123.7500   -20.3230     2.3610    66.3590     6.6300     6.1480     6.4490    25.7510 
  123.8750   -20.3350     2.3390    71.1490     6.2990     5.8360     6.6710    25.7480 
  124.0000   -20.3700     2.3310    74.6720     6.3860     5.7970     6.6750    25.7520 
  124.1250   -20.4270     2.3530    75.1790     7.1330     6.2430     6.5200    25.7540 
  124.2500   -20.4850     2.4110    71.6650     8.4330     7.1260     7.3630    25.7510 
  124.3750   -20.5420     2.4920    64.4350    10.0300     8.2960    10.4540    25.7760 
  124.5000   -20.6130     2.5610    57.4310    11.4200     9.4080    16.0380    25.8540 
  124.6250   -20.7080     2.5680    55.5080    11.8440     9.8980    16.3500    25.9510 
  124.7500   -20.8310     2.5300    57.9260    11.3190     9.6900    13.2990    26.0100 
  124.8750   -20.9990     2.4820    64.2080    10.3160     9.0560     9.6200    26.0320 
  125.0000   -21.1990     2.4500    71.1350     9.4300     8.3900     7.2840    26.0450 
  125.1250   -21.4150     2.4400    71.5900     9.0780     8.0150     7.6530    26.0530 
  125.2500   -21.6270     2.4280    66.2000     9.1350     7.9240     9.5370    26.0520 
  125.3750   -21.8350     2.4050    60.3620     9.3930     8.0160    10.5130    26.0520 
  125.5000   -22.0250     2.3720    57.8350     9.6620     8.1670     9.3050    26.0550 
  125.6250   -22.1960     2.3440    59.9320     9.8750     8.3160     8.8510    26.0560 
  125.7500   -22.3390     2.3300    63.9490    10.1720     8.5250     9.1890    26.0530 
  125.8750   -22.4380     2.3210    65.8810    10.7370     8.9080    10.0250    26.0500 
  126.0000   -22.4810     2.3080    63.6040    11.6850     9.5520    11.0900    26.0500 
  126.1250   -22.4600     2.2900    60.7720    12.9980    10.4790    12.5750    26.0490 
  126.2500   -22.3660     2.2780    60.1910    14.3880    11.5080    14.4700    26.0530 
  126.3750   -22.2050     2.2840    59.5080    15.5980    12.4570    16.2410    26.0420 
  126.5000   -21.9980     2.3130    57.5760    16.4250    13.1570    17.0160    25.9760 
  126.6250   -21.7570     2.3600    55.0460    16.7110    13.4500    16.4970    25.8330 
  126.7500   -21.5180     2.4090    52.9100    16.6300    13.4270    15.4970    25.7150 
  126.8750   -21.3020     2.4450    50.8610    16.3270    13.1930    14.1840    25.6830 
  127.0000   -21.1080     2.4620    49.0420    15.8690    12.8220    12.6500    25.6910 
  127.1250   -20.9410     2.4580    49.2920    15.1560    12.2820    11.3400    25.6610 
  127.2500   -20.7910     2.4380    52.1480    14.1830    11.5820    11.6100    25.6050 
  127.3750   -20.6550     2.4140    55.2850    13.0760    10.8030    13.5390    25.5580 
  127.5000   -20.5130     2.4020    57.0910    12.0820    10.1020    15.5460    25.4990 
  127.6250   -20.3630     2.4250    59.9550    11.5870     9.7210    15.0910    25.3990 
  127.7500   -20.2200     2.4800    61.7170    11.7520     9.7690    14.5770    25.3070 
  127.8750   -20.1090     2.5520    58.3010    12.6100    10.2980    17.3150    25.2430 
  128.0000   -20.0600     2.6180    53.2760    13.9740    11.2460    22.7970    25.1930 
  128.1250   -20.0840     2.6580    54.1120    15.3400    12.3630    28.5810    25.1280 
  128.2500   -20.1540     2.6740    56.9310    16.0000    13.1380    31.2080    25.0760 
  128.3750   -20.2630     2.6660    55.7470    15.4670    13.1290    26.6840    25.0560 
  128.5000   -20.4100     2.6290    55.4120    13.7690    12.2030    17.1470    25.0520 
  128.6250   -20.5780     2.5630    62.0140    11.4810    10.6320    11.9790    25.0470 
