~V
VERS. 2.00: Ver 2.00
~W
STRT.M 49.0000:
STOP.M 245.0000:
STEP.M 0.1250:
NULL. -999.2500:
UWI. F10179:
~C
DEPT.M :
DEN.GM/CC :
GR.API :
RML.OHMM :
RI. :
RXO.OHMM :
CALI.CM :
SP.MV :
~A
# ...
  105.2500     2.1740    75.1810     8.3790     6.8900     8.0900    23.4790   -26.8030 
  105.3750     2.1770    70.2240     8.3370     6.9310     8.5720    24.0010   -27.4700 
  105.5000     2.1760    63.4050     8.3070     6.9720     8.9460    24.7180   -28.1680 
  105.6250     2.1710    59.8550     8.2970     7.0060     9.0280    25.2180   -28.8520 
  105.7500     2.1680    61.8460     8.3000     7.0150     8.9270    25.3010   -29.4420 
  105.8750     2.1680    65.4510     8.3040     6.9830     9.0710    25.1420   -29.8380 
  106.0000     2.1660    67.5210     8.3150     6.9360     9.2860    25.0970   -30.0720 
  106.1250     2.1590    67.4310     8.3640     6.9030     9.3650    24.9660   -30.1920 
  106.2500     2.1500    65.8490     8.4800     6.9060     9.2300    24.6060   -30.2260 
  106.3750     2.1460    65.4720     8.6860     6.9600     9.0440    24.1610   -30.1580 
  106.5000     2.1530    67.0820     8.9430     7.0540     9.0450    23.8930   -29.9680 
  106.6250     2.1720    69.7170     9.2020     7.1750     9.0800    23.8070   -29.6910 
  106.7500     2.1960    72.4100     9.4060     7.2950     9.1690    23.8890   -29.4290 
  106.8750     2.2080    72.4650     9.4800     7.3600     9.1530    23.9500   -29.3030 
  107.0000     2.2090    69.3010     9.4220     7.3390     9.1090    24.0570   -29.2870 
  107.1250     2.2030    65.1430     9.2540     7.2300     8.9170    24.1610   -29.3250 
  107.2500     2.1940    63.4680     9.0240     7.0680     8.6820    24.2360   -29.3880 
  107.3750     2.1810    63.9000     8.8010     6.9110     8.6510    24.2800   -29.4670 
  107.5000     2.1670    61.3350     8.6360     6.7970     8.7610    24.3350   -29.5880 
  107.6250     2.1550    57.4570     8.5490     6.7380     8.9730    24.3610   -29.7690 
  107.7500     2.1460    57.1590     8.5420     6.7270     9.1990    24.3060   -29.9400 
  107.8750     2.1450    60.9180     8.6060     6.7580     9.4380    24.1110   -30.0190 
  108.0000     2.1530    64.2220     8.7060     6.8190     9.6820    23.9250   -29.9810 
  108.1250     2.1660    66.0110     8.8070     6.9030     9.9170    23.9360   -29.8250 
  108.2500     2.1750    67.1850     8.8650     6.9840     9.9550    24.2580   -29.5950 
  108.3750     2.1730    65.5810     8.8180     7.0140     9.4750    24.6730   -29.3410 
  108.5000     2.1590    60.8550     8.6670     6.9690     8.7790    25.2350   -29.0220 
  108.6250     2.1390    57.9350     8.4500     6.8620     8.4390    25.7500   -28.5900 
  108.7500     2.1140    60.0230     8.2520     6.7500     8.4250    26.1190   -28.0170 
  108.8750     2.0900    63.4700     8.1870     6.7170     8.2410    26.3470   -27.2570 
  109.0000     2.0720    62.9890     8.2440     6.7720     7.9370    26.3350   -26.3700 
  109.1250     2.0760    59.8480     8.3440     6.8650     7.9980    25.6910   -25.3960 
  109.2500     2.1190    57.8250     8.3560     6.9010     8.4740    24.5950   -24.2960 
  109.3750     2.2030    62.6040     8.1150     6.7530     8.1900    23.7720   -22.9860 
  109.5000     2.2840    73.6680     7.6400     6.4220     6.9640    23.4100   -21.5410 
  109.6250     2.3220    85.0500     7.0340     5.9700     5.6830    23.3320   -20.0560 
  109.7500     2.3180    92.8190     6.4340     5.4930     5.0590    23.3240   -18.6530 
  109.8750     2.3090    95.8070     5.9620     5.0900     4.8750    23.3430   -17.4540 
  110.0000     2.3100    98.3120     5.6200     4.7880     4.7360    23.4300   -16.4350 
  110.1250     2.3190   101.5140     5.3800     4.5820     4.5730    23.4900   -15.5720 
  110.2500     2.3340   103.3250     5.2060     4.4450     4.3380    23.3610   -14.9080 
  110.3750     2.3530   104.7940     5.0790     4.3460     4.1640    23.2000   -14.5390 
  110.5000     2.3710   105.5250     4.9990     4.2670     4.0670    23.1130   -14.4450 
  110.6250     2.3820   104.5450     4.9810     4.2180     4.2020    23.1320   -14.5940 
  110.7500     2.3840   101.9870     5.0410     4.2200     4.3760    23.1810   -14.9040 
  110.8750     2.3790   100.4110     5.1940     4.2950     4.4660    23.1290   -15.3080 
  111.0000     2.3710   100.0340     5.4100     4.4290     4.4250    23.0150   -15.7900 
  111.1250     2.3580    96.3180     5.6780     4.6150     4.6500    22.9200   -16.4150 
  111.2500     2.3390    89.4320     5.9850     4.8470     5.4180    22.8710   -17.1830 
  111.3750     2.3160    85.7180     6.3210     5.1190     6.1680    22.8500   -18.0640 
  111.5000     2.2990    83.6860     6.6730     5.4130     6.2820    22.8520   -18.9580 
  111.6250     2.2860    80.0360     7.0420     5.7200     6.5050    22.9080   -19.8100 
  111.7500     2.2760    75.8840     7.4360     6.0450     7.1520    22.9530   -20.6520 
  111.8750     2.2640    75.0880     7.8700     6.3940     7.8900    23.0000   -21.5180 
  112.0000     2.2490    74.2910     8.3150     6.7450     8.3220    23.0730   -22.3470 
  112.1250     2.2310    70.3640     8.7010     7.0520     8.8250    23.1650   -23.0580 
  112.2500     2.2100    64.0030     8.9400     7.2620     9.3880    23.2910   -23.5850 
  112.3750     2.1770    60.0070     8.9370     7.3200    10.0100    23.6490   -23.8720 
  112.5000     2.1400    59.8890     8.7570     7.2590    10.1230    24.2310   -23.9920 
  112.6250     2.1140    61.6330     8.5320     7.1420     9.6230    24.5890   -23.9700 
  112.7500     2.1140    62.1780     8.4840     7.0920     8.9160    24.3460   -23.7520 
  112.8750     2.1430    61.0240     8.8930     7.2980     8.9390    24.0580   -23.2430 
  113.0000     2.1780    58.9750     9.6800     7.7710     9.0360    24.0620   -22.5080 
  113.1250     2.2120    57.3700    10.5590     8.3790     9.5020    24.0270   -21.6180 
  113.2500     2.2580    59.7930    11.0520     8.8100    12.0780    23.7090   -20.6540 
  113.3750     2.3330    67.3290    10.5100     8.5500    16.9380    23.6820   -19.7210 
  113.5000     2.4110    76.0350     9.0760     7.6110    15.9520    23.7090   -18.8360 
  113.6250     2.4490    84.7020     7.2740     6.3360     8.9060    23.7390   -18.0300 
  113.7500     2.4330    93.0810     5.7060     5.1470     4.8840    23.7660   -17.3480 
  113.8750     2.4000    97.2160     4.7940     4.3620     3.8780    23.7720   -16.9220 
  114.0000     2.3780    94.4760     4.4650     3.9890     3.8290    23.6910   -16.7790 
  114.1250     2.3580    89.2510     4.6490     4.0180     4.2280    23.4580   -16.9020 
  114.2500     2.3350    84.5170     5.2740     4.4230     5.1420    23.1870   -17.2710 
  114.3750     2.3200    78.1080     6.3570     5.2240     5.8710    23.0550   -17.8230 
  114.5000     2.3230    71.9250     7.7750     6.3250     6.5900    23.1340   -18.4810 
  114.6250     2.3410    69.7630     9.3760     7.6450     8.6440    23.3810   -19.2130 
  114.7500     2.3690    70.9300    10.8610     8.9890    12.6400    23.6490   -20.0450 
  114.8750     2.3950    69.6460    11.6920     9.9100    16.5890    23.7910   -20.9920 
  115.0000     2.3920    67.8960    11.6940    10.1470    16.4460    23.8680   -21.9960 
  115.1250     2.3440    67.4580    10.9880     9.7230    13.1450    23.9730   -23.0100 
  115.2500     2.2710    65.7280     9.9520     8.9280     9.4700    24.1820   -23.9540 
  115.3750     2.2080    60.6050     9.0600     8.1480     8.1710    24.4990   -24.8260 
  115.5000     2.1710    56.5250     8.5160     7.5910     7.6300    24.5900   -25.6760 
  115.6250     2.1600    55.6510     8.2980     7.2740     7.4960    24.1620   -26.4760 
  115.7500     2.1690    58.2160     8.2920     7.1370     7.4930    23.3360   -27.1420 
  115.8750     2.1830    61.9710     8.3830     7.1080     7.5430    22.8050   -27.5790 
  116.0000     2.1920    63.4650     8.4820     7.1140     7.6620    22.6600   -27.8300 
  116.1250     2.1920    61.3540     8.5900     7.1410     7.8920    22.7450   -27.9670 
  116.2500     2.1860    58.9730     8.7650     7.2240     8.0930    22.9410   -28.0660 
  116.3750     2.1810    60.0690     9.1390     7.4600     8.2150    23.1270   -28.1390 
