~V
VERS. 2.00: Ver 2.00
~W
STRT.M 52.0000:
STOP.M 322.0000:
STEP.M 0.1250:
NULL. -999.2500:
UWI. F10105:
~C
DEPT.M :
GR.API :
RML.OHMM :
RI. :
RXO.OHMM :
CALI.CM :
DEN.GM/CC :
SP.MV :
~A
# ...
  119.5000    80.6350     7.6540     6.7010     7.3450    25.5780     2.1000   -12.5810 
  119.6250    78.9620     7.6160     6.7030     7.1980    25.4550     2.1000   -12.3870 
  119.7500    77.5820     7.6050     6.7090     7.0910    25.3420     2.0990   -12.1870 
  119.8750    78.1830     7.6200     6.7200     7.0000    25.2380     2.0960   -11.8940 
  120.0000    79.0430     7.6500     6.7330     7.0020    25.1330     2.0920   -11.5890 
  120.1250    79.7760     7.6840     6.7360     6.8790    25.0760     2.0920   -11.3980 
  120.2500    81.6990     7.7120     6.7260     6.8730    25.0560     2.0940   -11.2810 
  120.3750    83.7130     7.7300     6.7050     6.9950    25.0510     2.0980   -11.1910 
  120.5000    84.1860     7.7410     6.6810     7.0530    25.0450     2.1030   -11.1940 
  120.6250    82.2610     7.7540     6.6650     7.0760    25.0660     2.1060   -11.2870 
  120.7500    79.7970     7.7770     6.6680     7.0710    25.1210     2.1050   -11.3640 
  120.8750    78.0580     7.8150     6.6890     6.9870    25.2000     2.0990   -11.3950 
  121.0000    79.0000     7.8710     6.7290     7.0220    25.2800     2.0880   -11.4220 
  121.1250    81.5200     7.9470     6.7850     7.4720    25.2700     2.0780   -11.4330 
  121.2500    81.1690     8.0370     6.8540     7.7450    25.1220     2.0770   -11.3450 
  121.3750    78.2630     8.1310     6.9300     7.7950    24.9900     2.0850   -11.2710 
  121.5000    76.7740     8.2140     7.0020     7.8130    24.9680     2.0980   -11.2740 
  121.6250    79.2400     8.2570     7.0460     7.9580    25.0480     2.1030   -11.2680 
  121.7500    80.3370     8.2550     7.0460     8.2180    25.4170     2.0950   -11.2500 
  121.8750    81.3040     8.2150     7.0050     8.3520    25.7300     2.0810   -11.2590 
  122.0000    86.4180     8.1620     6.9410     8.1160    25.7070     2.0750   -11.2130 
  122.1250    93.0880     8.1370     6.8950     7.9200    25.3320     2.0880   -11.1460 
  122.2500    95.2200     8.1680     6.8990     7.9990    25.0890     2.1150   -11.1760 
  122.3750    91.0260     8.2580     6.9640     8.2540    25.0200     2.1450   -11.2470 
  122.5000    85.7650     8.3930     7.0850     8.4450    25.0410     2.1670   -11.3730 
  122.6250    82.8150     8.5330     7.2310     8.5740    25.0590     2.1760   -11.6290 
  122.7500    79.8180     8.6400     7.3620     8.6580    25.0960     2.1750   -11.9620 
  122.8750    76.1580     8.6940     7.4500     8.6270    25.2030     2.1700   -12.3500 
  123.0000    72.7400     8.6980     7.4910     8.5350    25.4170     2.1610   -12.8890 
  123.1250    71.1300     8.6650     7.4890     8.4700    25.5880     2.1500   -13.4770 
  123.2500    70.1860     8.6180     7.4670     8.2270    25.6470     2.1400   -13.9900 
  123.3750    69.8190     8.5620     7.4280     8.0440    25.6250     2.1320   -14.4290 
  123.5000    71.3870     8.4960     7.3720     8.1570    25.5810     2.1270   -14.7330 
  123.6250    74.2680     8.4160     7.2990     8.2720    25.5660     2.1250   -14.8340 
  123.7500    76.6930     8.3410     7.2210     8.3080    25.5690     2.1260   -14.7730 
  123.8750    77.4180     8.2990     7.1600     8.1710    25.5550     2.1290   -14.6050 
  124.0000    76.6130     8.3190     7.1480     7.8190    25.4800     2.1340   -14.3690 
  124.1250    76.0050     8.4310     7.2220     7.6650    25.2890     2.1460   -14.0670 
  124.2500    75.4730     8.5960     7.3630     7.7250    25.0710     2.1690   -13.7900 
  124.3750    73.6110     8.7640     7.5350     7.9370    24.9180     2.1990   -13.6140 
  124.5000    71.0990     8.8710     7.6810     7.9340    24.8970     2.2270   -13.5060 
  124.6250    71.4790     8.8520     7.7260     7.7240    24.9550     2.2360   -13.4810 
  124.7500    73.4750     8.7310     7.6700     7.5800    24.9930     2.2230   -13.6290 
  124.8750    75.7750     8.5540     7.5440     7.6500    25.0240     2.1940   -13.8560 
  125.0000    77.7950     8.3860     7.4000     7.7970    25.0840     2.1620   -14.0360 
  125.1250    77.7500     8.2920     7.2950     7.8630    25.1600     2.1410   -14.2130 
  125.2500    76.0990     8.2770     7.2480     7.8610    25.2170     2.1300   -14.3570 
  125.3750    74.5490     8.3210     7.2530     7.8730    25.2480     2.1250   -14.4210 
  125.5000    74.4840     8.3870     7.2820     7.8530    25.2360     2.1210   -14.5050 
  125.6250    72.2020     8.4320     7.3000     7.6490    25.2150     2.1200   -14.5320 
  125.7500    68.1340     8.4260     7.2830     7.5670    25.2510     2.1220   -14.4430 
  125.8750    66.5530     8.3550     7.2160     7.6630    25.3750     2.1270   -14.3810 
  126.0000    68.4080     8.2310     7.0980     7.8810    25.5770     2.1330   -14.3750 
  126.1250    70.5100     8.1260     6.9530     8.0270    25.7060     2.1360   -14.2900 
  126.2500    70.0200     8.1820     6.8760     8.0620    25.7430     2.1310   -14.1560 
  126.3750    68.8460     8.5510     7.0060     8.0260    25.7260     2.1190   -14.0590 
  126.5000    69.0010     9.3490     7.4820     8.0190    25.6880     2.1120   -13.9130 
  126.6250    69.5110    10.5950     8.4470     8.1370    25.6670     2.1400   -13.7790 
  126.7500    68.5240    11.9250     9.7150     9.0720    25.7120     2.2080   -13.7460 
  126.8750    66.4850    12.8880    10.9310    12.3430    25.7970     2.2990   -13.7560 
  127.0000    65.6850    13.0650    11.5650    19.4040    25.8460     2.3720   -13.7770 
  127.1250    65.3540    12.2080    11.1110    18.0060    25.7580     2.3820   -13.8850 
  127.2500    65.2110    10.8330     9.9940    11.3570    25.5960     2.3350   -14.1010 
  127.3750    67.7990     9.4350     8.7200     8.6800    25.3330     2.2590   -14.2750 
  127.5000    73.3380     8.3760     7.6560     8.1620    25.0230     2.1870   -14.3380 
  127.6250    78.7130     7.8490     7.0150     8.1860    24.8330     2.1440   -14.4110 
  127.7500    80.7180     7.6840     6.7110     8.1550    24.9020     2.1230   -14.4740 
  127.8750    78.1080     7.7360     6.6460     8.1160    25.1370     2.1140   -14.4630 
  128.0000    74.0710     7.8750     6.7140     8.2130    25.3700     2.1110   -14.4430 
  128.1250    75.0090     8.0100     6.8330     8.3320    25.4710     2.1090   -14.4650 
  128.2500    79.9970     8.1020     6.9500     8.3740    25.4810     2.1090   -14.4340 
  128.3750    83.1090     8.1470     7.0470     8.4280    25.4560     2.1110   -14.4350 
  128.5000    81.4500     8.1500     7.1090     8.4350    25.4960     2.1140   -14.5480 
  128.6250    78.6300     8.1190     7.1200     8.4520    25.7250     2.1180   -14.6630 
  128.7500    76.8310     8.0770     7.0940     8.5070    25.9860     2.1210   -14.7790 
  128.8750    75.4120     8.0430     7.0450     8.5370    26.0560     2.1200   -14.8390 
  129.0000    74.5330     8.0300     6.9960     8.4410    25.9710     2.1170   -14.7820 
  129.1250    74.2860     8.0520     6.9710     8.4660    25.9150     2.1130   -14.7300 
  129.2500    72.9580     8.1000     6.9790     8.5040    25.8930     2.1130   -14.7450 
  129.3750    69.5550     8.1630     7.0190     8.6420    25.8900     2.1170   -14.7230 
  129.5000    66.3310     8.2250     7.0790     8.7730    25.8890     2.1210   -14.7140 
  129.6250    67.2630     8.2600     7.1340     8.7210    25.8890     2.1230   -14.8130 
  129.7500    71.2590     8.2590     7.1630     8.6790    25.8890     2.1220   -14.8840 
  129.8750    74.8420     8.2260     7.1600     8.6490    25.8870     2.1190   -14.9640 
  130.0000    74.9820     8.1750     7.1290     8.5650    25.8850     2.1140   -15.1520 
  130.1250    72.2210     8.1320     7.0900     8.3500    25.8710     2.1120   -15.2640 
  130.2500    70.6870     8.1110     7.0670     8.1390    25.8330     2.1110   -15.2010 
  130.3750    71.3200     8.1030     7.0690     7.9800    25.7540     2.1110   -15.0460 
  130.5000    72.2490     8.0770     7.0760     7.8440    25.6750     2.1130   -14.7570 
  130.6250    74.4170     7.9720     7.0330     7.8190    25.6650     2.1210   -14.0850 
