~V
VERS. 2.00: Ver 2.00
~W
STRT.M 50.0000:
STOP.M 236.0000:
STEP.M 0.1250:
NULL. -999.2500:
UWI. F10144:
~C
DEPT.M :
DEN.GM/CC :
GR.API :
RML.OHMM :
RI. :
RXO.OHMM :
CALI.CM :
SP.MV :
~A
# ...
  151.2500     2.2200    70.5480    20.1040    18.9290    21.6630    25.0910   -27.2490 
  151.3750     2.2220    68.1230    20.5400    19.3940    22.2780    25.0910   -27.4630 
  151.5000     2.2200    67.7380    20.8590    19.7910    22.6350    25.0920   -27.6280 
  151.6250     2.2170    71.0530    20.9400    20.0170    22.7090    25.0930   -27.7420 
  151.7500     2.2140    75.0360    20.8090    20.0650    22.6620    25.0930   -27.8170 
  151.8750     2.2130    76.7160    20.5660    19.9870    22.5000    25.0930   -27.8520 
  152.0000     2.2160    76.5940    20.3810    19.9030    21.9530    25.0940   -27.8500 
  152.1250     2.2220    77.5100    20.4840    19.9860    20.9860    25.0930   -27.8140 
  152.2500     2.2310    78.5830    20.9220    20.3040    21.0350    25.0890   -27.7520 
  152.3750     2.2370    77.2050    21.6320    20.8380    23.6370    25.0840   -27.6780 
  152.5000     2.2390    72.8230    22.4600    21.4920    26.5200    25.0810   -27.6160 
  152.6250     2.2380    66.9970    23.2270    22.1430    27.2830    25.0810   -27.6150 
  152.7500     2.2340    65.4690    23.8630    22.7210    27.0930    25.0820   -27.6840 
  152.8750     2.2330    68.8500    24.4240    23.2390    25.6120    25.0820   -27.8350 
  153.0000     2.2340    71.1000    25.1320    23.8180    25.0580    25.0820   -28.0600 
  153.1250     2.2370    67.3800    26.5270    24.8030    28.3870    25.0800   -28.3650 
  153.2500     2.2410    63.6540    29.0290    26.4910    33.9380    25.0800   -28.7200 
  153.3750     2.2420    65.1770    33.1500    29.2100    36.2670    25.0890   -29.1070 
  153.5000     2.2370    69.4940    39.4450    33.2960    38.4400    25.1080   -29.5130 
  153.6250     2.2230    69.9400    38.9910    39.1920    66.5000    25.1380   -29.9420 
  153.7500     2.2020    66.4950    48.1530    46.2530   101.5850    25.1720   -30.3950 
  153.8750     2.1810    61.7860    57.7930    53.4760   124.5440    25.1890   -30.8670 
  154.0000     2.1710    59.4210    65.9400    59.5510   129.3950    25.1780   -31.3570 
  154.1250     2.1760    62.0180    70.4970    63.2120   124.8700    25.1530   -31.8580 
  154.2500     2.1930    66.9060    72.8150    65.2340   109.2800    25.1450   -32.3620 
  154.3750     2.2120    70.1930    75.2710    66.9050    96.9550    25.1560   -32.8620 
  154.5000     2.2210    70.1870    79.8310    69.3670   106.3270    25.1470   -33.3480 
  154.6250     2.2190    67.5530    87.3740    73.1180   138.7270    25.0830   -33.7940 
  154.7500     2.2110    63.4490    96.3850    77.4360   170.2010    25.0260   -34.2070 
  154.8750     2.2060    59.5020   105.1840    81.5600   167.5050    25.0300   -34.5780 
  155.0000     2.2060    59.4350   112.2910    84.8920   143.6850    25.0780   -34.8950 
  155.1250     2.2070    61.3550   117.0540    87.1720   138.2570    25.1020   -35.1290 
  155.2500     2.2050    59.3920   120.8060    88.9320   151.9610    25.0970   -35.2910 
  155.3750     2.1980    55.8460   124.4580    90.5430   181.7560    25.0920   -35.3890 
  155.5000     2.1910    58.3190   128.2360    92.1360   193.5700    25.0780   -35.4420 
  155.6250     2.1850    65.3840   132.0200    93.6780   171.7410    25.0520   -35.4600 
  155.7500     2.1840    66.7670   135.9850    95.2070   164.9720    25.0280   -35.4650 
  155.8750     2.1850    62.7180   140.4920    96.8240   181.2290    25.0170   -35.4660 
  156.0000     2.1860    58.8400   145.5680    98.5530   205.9080    25.0150   -35.4780 
  156.1250     2.1880    57.0010   150.1910   100.1420   225.2880    25.0130   -35.4910 
  156.2500     2.1910    53.9240   152.6670   101.1530   226.3170    24.9990   -35.4900 
  156.3750     2.1940    51.8100   151.7930   101.2270   211.4680    24.9730   -35.4670 
  156.5000     2.1960    55.0600   147.7920   100.3350   194.5210    24.9470   -35.4250 
  156.6250     2.1940    58.7390   142.2340    98.7940   183.0050    24.9230   -35.3600 
  156.7500     2.1880    57.6390   137.1650    97.2400   178.6440    24.8960   -35.2830 
  156.8750     2.1820    54.6550   133.3300    95.9910   176.0750    24.8730   -35.2120 
  157.0000     2.1770    55.2900   130.6890    95.1220   172.2270    24.8630   -35.1540 
  157.1250     2.1750    57.7080   128.5660    94.4650   174.0210    24.8630   -35.1350 
  157.2500     2.1790    56.7420   125.9220    93.6450   180.2010    24.8630   -35.1580 
  157.3750     2.1870    56.5910   122.3470    92.4640   177.6670    24.8610   -35.2210 
  157.5000     2.1960    59.6870   118.0770    90.9610   169.6500    24.8590   -35.3160 
  157.6250     2.2020    62.3990   113.7870    89.3570   157.1510    24.8630   -35.4460 
  157.7500     2.2040    62.6190   110.0800    87.9190   146.5100    24.8700   -35.5780 
  157.8750     2.2050    61.7440   107.2500    86.7960   144.1800    24.8740   -35.6880 
  158.0000     2.2080    59.8870   105.3620    86.0450   151.7920    24.8740   -35.7520 
  158.1250     2.2120    54.7550   104.4010    85.6890   152.3080    24.8720   -35.7560 
  158.2500     2.2150    50.5190   103.9730    85.5750   139.7110    24.8720   -35.7040 
  158.3750     2.2140    50.7520   103.6870    85.5430   133.0980    24.8710   -35.6170 
  158.5000     2.2090    54.2280   102.9260    85.3170   144.0210    24.8670   -35.5040 
  158.6250     2.2030    56.4940   100.8360    84.4680   154.9330    24.8650   -35.3830 
  158.7500     2.1990    57.2520    97.4580    82.9480   154.5270    24.8630   -35.2600 
  158.8750     2.2000    59.8500    93.1790    80.8770   141.8220    24.8610   -35.1420 
  159.0000     2.2030    63.6780    88.5180    78.4720   123.1170    24.8590   -35.0360 
  159.1250     2.2070    63.9600    83.9080    75.9130   113.4490    24.8560   -34.9460 
  159.2500     2.2100    61.7790    79.5920    73.3700   115.9800    24.8580   -34.8630 
  159.3750     2.2110    59.6430    75.7930    70.9970   118.7960    24.8500   -34.7740 
  159.5000     2.2130    58.9110    72.9100    69.0490   107.1140    24.7670   -34.6860 
  159.6250     2.2180    58.3570    71.9240    68.0950    87.1880    24.5860   -34.6140 
  159.7500     2.2260    58.4270    73.3660    68.4490    76.6930    24.4810   -34.5700 
  159.8750     2.2300    58.9540    77.7310    70.3480    82.6750    24.5840   -34.5500 
  160.0000     2.2270    59.8880    85.0590    73.7200   102.8750    24.8400   -34.5530 
  160.1250     2.2190    61.1160    94.7750    78.1140   128.1380    25.0720   -34.5800 
  160.2500     2.2120    61.2050   104.4470    82.3580   147.5510    25.2400   -34.6170 
  160.3750     2.2060    60.8290   111.5990    85.4820   157.7030    25.3700   -34.6500 
  160.5000     2.2010    61.7130   114.2050    86.7910   157.4620    25.4530   -34.6540 
  160.6250     2.1940    63.2630   110.9780    85.7460   147.4710    25.4740   -34.5890 
  160.7500     2.1890    64.6910   104.3020    83.0830   136.1270    25.4700   -34.4550 
  160.8750     2.1920    66.1850    96.3610    79.5230   126.9530    25.4670   -34.2620 
  161.0000     2.2050    66.4470    89.0490    75.8700   119.2680    25.4630   -34.0250 
  161.1250     2.2240    64.3010    83.7780    72.8900   110.7060    25.4610   -33.7720 
  161.2500     2.2350    62.3170    80.5460    70.8310   105.3340    25.4590   -33.5380 
  161.3750     2.2370    62.4970    79.2520    69.7790   107.4180    25.4560   -33.3450 
  161.5000     2.2320    64.1510    79.6930    69.6880   112.2070    25.4520   -33.2060 
  161.6250     2.2300    65.2680    81.9560    70.5920   111.9470    25.4510   -33.1210 
  161.7500     2.2360    64.1000    85.4890    72.1410   104.4410    25.4500   -33.0500 
  161.8750     2.2430    60.9600    89.4260    73.8590   118.2790    25.4490   -32.9660 
  162.0000     2.2430    59.9670    92.1290    74.9410   139.3610    25.4470   -32.8520 
  162.1250     2.2420    63.8380    91.1130    74.2460   148.2060    25.4490   -32.7080 
  162.2500     2.2290    67.3170    86.4240    71.7870   138.2320    25.4560   -32.5510 
  162.3750     2.2140    66.4040    79.5130    68.1280   104.2760    25.4640   -32.3920 
