~V
VERS. 2.00: Ver 2.00
~W
STRT.M 43.0000:
STOP.M 249.0000:
STEP.M 0.1250:
NULL. -999.2500:
UWI. F10197:
~C
DEPT.M :
GR.API :
RML.OHMM :
RI. :
RXO.OHMM :
CALI.CM :
SP.MV :
DEN.GM/CC :
~A
# ...
   65.5000    77.9150     8.2720     7.7030     9.9510    23.7570   -44.7140     2.1150 
   65.6250    77.0750     8.4260     7.7820    10.3120    23.7970   -44.6680     2.1520 
   65.7500    72.6510     8.6430     7.9150    10.6310    23.8660   -44.5740     2.1540 
   65.8750    68.2150     8.8790     8.0660    10.9270    24.0230   -44.4200     2.1410 
   66.0000    66.0900     9.0840     8.1930    11.0890    24.2860   -44.1890     2.1230 
   66.1250    64.5780     9.2150     8.2480    10.9960    24.4380   -43.9060     2.1020 
   66.2500    63.0500     9.2790     8.2260    10.8060    24.2180   -43.6100     2.0880 
   66.3750    64.3890     9.2660     8.1230    10.6990    23.7380   -43.3130     2.0930 
   66.5000    68.1110     9.1660     7.9450    10.6670    23.4270   -43.0480     2.1210 
   66.6250    68.8180     8.9770     7.7110    10.4970    23.3260   -42.8300     2.1530 
   66.7500    67.1450     8.7710     7.4800    10.0710    23.2700   -42.6820     2.1680 
   66.8750    67.7900     8.6230     7.3060     9.4970    23.1030   -42.6300     2.1620 
   67.0000    71.5580     8.5960     7.2310     9.3320    22.7520   -42.7060     2.1520 
   67.1250    75.4040     8.7210     7.2850     9.5390    22.3340   -42.9380     2.1520 
   67.2500    76.2530     8.9380     7.4200    10.1610    22.0750   -43.2710     2.1620 
   67.3750    72.6190     9.1880     7.5890    10.7630    21.9310   -43.6630     2.1730 
   67.5000    67.6060     9.4150     7.7500    11.0470    21.7970   -44.0860     2.1800 
   67.6250    66.8250     9.5680     7.8620    10.9600    21.6240   -44.4990     2.1810 
   67.7500    68.8880     9.6470     7.9200    10.7870    21.4610   -44.8700     2.1810 
   67.8750    68.6360     9.6650     7.9330    10.6750    21.4130   -45.1810     2.1790 
   68.0000    65.7860     9.6510     7.9230    10.7980    21.5220   -45.4470     2.1750 
   68.1250    63.0420     9.6400     7.9190    11.1950    21.8010   -45.6560     2.1700 
   68.2500    59.4320     9.6500     7.9410    11.6340    22.1890   -45.7880     2.1660 
   68.3750    53.6420     9.6760     7.9890    11.9840    22.6200   -45.8340     2.1610 
   68.5000    50.8320     9.6970     8.0440    12.1480    22.9680   -45.7950     2.1530 
   68.6250    55.2780     9.6780     8.0710    12.1560    23.1520   -45.6890     2.1390 
   68.7500    61.8870     9.6100     8.0520    12.0630    23.2380   -45.5630     2.1280 
   68.8750    65.9030     9.5060     7.9910    11.9530    23.2720   -45.4450     2.1230 
   69.0000    64.3220     9.3980     7.9060    11.7950    23.2760   -45.3060     2.1270 
   69.1250    59.5560     9.3390     7.8280    11.6090    23.2470   -45.1170     2.1380 
   69.2500    57.3140     9.3460     7.7750    11.6460    23.2450   -44.8940     2.1510 
   69.3750    59.7170     9.4100     7.7510    11.8270    23.2330   -44.6490     2.1600 
   69.5000    63.0280     9.4890     7.7450    11.9950    23.2090   -44.3790     2.1600 
   69.6250    63.1960     9.5090     7.7310    11.9150    23.1710   -44.0950     2.1540 
   69.7500    62.6080     9.4230     7.6830    11.7540    23.2120   -43.7740     2.1490 
   69.8750    60.7820     9.2370     7.5990    11.6670    23.3710   -43.3390     2.1450 
   70.0000    59.1270     9.0600     7.5350    11.8040    23.5310   -42.7610     2.1400 
   70.1250    60.8250     9.2490     7.6960    12.0960    23.4880   -41.9950     2.1380 
   70.2500    63.0310    10.1920     8.3190    12.4750    23.3240   -41.0800     2.1510 
   70.3750    63.0720    12.2910     9.7070    13.3190    23.2140   -40.0450     2.1860 
   70.5000    62.2980    15.8710    12.2330    16.3420    23.2410   -38.9100     2.2420 
   70.6250    61.2670    21.2360    16.5790    27.3320    23.3600   -37.6620     2.3140 
   70.7500    59.5730    27.1650    22.2530    49.4040    23.4850   -36.3620     2.3890 
   70.8750    59.2830    31.0650    27.1880    64.8520    23.5560   -35.0890     2.4530 
   71.0000    62.3120    29.8300    27.8310    51.1780    23.4950   -33.9050     2.4860 
   71.1250    67.0240    23.3000    22.8120    32.4550    23.3950   -32.8700     2.4780 
   71.2500    71.4410    16.3490    16.6610    18.8190    23.3660   -31.9950     2.4430 
   71.3750    76.6010    11.1580    11.6980    11.7310    23.4680   -31.2930     2.3940 
   71.5000    83.4800     7.9400     8.3480     8.0360    23.6570   -30.8170     2.3470 
   71.6250    93.4870     6.4170     6.4850     6.7680    23.7080   -30.6760     2.3260 
   71.7500   101.6480     5.9410     5.5600     6.2160    23.7310   -30.8380     2.3310 
   71.8750   103.4740     6.3650     5.4250     6.0710    23.8170   -31.3110     2.3500 
   72.0000    99.0050     7.6290     6.0200     6.7180    23.9480   -32.1110     2.3710 
   72.1250    89.9720     9.7010     7.4130    10.2880    23.9680   -33.2930     2.3860 
   72.2500    79.9570    12.0340     9.2840    20.5340    23.9470   -34.7750     2.4000 
   72.3750    72.3560    13.8790    11.0980    36.2110    23.8640   -36.4530     2.4130 
   72.5000    68.6990    14.4110    12.0710    35.5500    23.6040   -38.1960     2.4100 
   72.6250    66.8550    13.2630    11.6430    21.0090    23.1620   -39.8530     2.3620 
   72.7500    65.0730    11.5540    10.5540    15.0330    22.7980   -41.3760     2.2860 
   72.8750    64.3860    10.1120     9.4460    13.6430    22.5170   -42.7240     2.2170 
   73.0000    63.9130     9.2940     8.6590    13.4620    22.2170   -43.8780     2.1800 
   73.1250    63.2530     9.1120     8.3110    13.3130    21.8400   -44.7940     2.1760 
   73.2500    64.0090     9.2130     8.2200    13.2400    21.5920   -45.4990     2.1840 
   73.3750    64.8690     9.3920     8.2460    13.2470    21.6620   -46.0570     2.1920 
   73.5000    63.8710     9.5380     8.2910    13.2950    22.0700   -46.5150     2.1970 
   73.6250    61.7150     9.6090     8.3060    13.3680    22.5610   -46.8930     2.2000 
   73.7500    60.4000     9.6160     8.2860    13.3440    22.7980   -47.2040     2.1990 
   73.8750    59.8810     9.5720     8.2320    13.2950    22.8530   -47.4520     2.1930 
   74.0000    59.3860     9.5000     8.1520    13.2860    22.8280   -47.6260     2.1830 
   74.1250    59.2180     9.4250     8.0480    13.1030    22.8550   -47.6970     2.1730 
   74.2500    58.6900     9.3470     7.9200    12.8880    22.9760   -47.6840     2.1670 
   74.3750    57.9050     9.2450     7.7610    12.6950    23.1110   -47.5550     2.1630 
   74.5000    56.5510     9.1020     7.5740    12.6320    23.2080   -47.3270     2.1590 
   74.6250    57.5420     8.9290     7.3810    12.6060    23.3190   -46.9910     2.1530 
   74.7500    62.0300     8.7760     7.2180    12.5190    23.4490   -46.5760     2.1470 
   74.8750    67.1150     8.6900     7.1090    12.2590    23.5170   -46.1150     2.1500 
   75.0000    68.9930     8.6950     7.0640    12.0390    23.4930   -45.6420     2.1620 
   75.1250    64.8860     8.7890     7.0860    12.2790    23.3920   -45.1870     2.1740 
   75.2500    60.1150     8.9130     7.1490    12.5740    23.3030   -44.7630     2.1770 
   75.3750    58.9950     9.0320     7.2340    12.6750    23.2800   -44.4080     2.1730 
   75.5000    63.8320     9.1300     7.3260    12.4470    23.3760   -44.1340     2.1700 
   75.6250    71.1540     9.2120     7.4160    12.3620    23.4460   -43.9670     2.1740 
   75.7500    73.5930     9.2960     7.5000    12.3950    23.4640   -43.8780     2.1820 
   75.8750    71.0380     9.3770     7.5680    12.4780    23.5530   -43.8220     2.1890 
   76.0000    66.6700     9.4290     7.6040    12.5090    23.7300   -43.7320     2.1880 
   76.1250    63.9460     9.4050     7.5830    12.2470    23.6880   -43.5840     2.1800 
   76.2500    63.4150     9.3100     7.5120    11.9680    23.2040   -43.4290     2.1700 
   76.3750    64.7240     9.1730     7.4120    12.1210    22.4960   -43.3120     2.1630 
   76.5000    65.8750     9.0410     7.3090    12.2870    21.8970   -43.2560     2.1550 
   76.6250    67.0710     8.9730     7.2350    11.2680    21.4020   -43.2630     2.1490 
