~V
VERS. 2.00: Ver 2.00
~W
STRT.M 52.0000:
STOP.M 236.0000:
STEP.M 0.1250:
NULL. -999.2500:
UWI. F10181:
~C
DEPT.M :
GR.API :
RML.OHMM :
RI. :
RXO.OHMM :
CALI.CM :
DEN.GM/CC :
SP.MV :
~A
# ...
   63.2500    79.1080     5.1290     5.3300     5.7300    23.4660     2.2170   -24.1400 
   63.3750    73.9030     5.4020     5.5380     6.3620    23.2310     2.2000   -24.5520 
   63.5000    68.2240     5.6960     5.7890     7.1370    23.1470     2.1810   -24.9610 
   63.6250    64.5820     5.9200     6.0020     7.4880    23.1970     2.1690   -25.3470 
   63.7500    65.6500     6.0330     6.1220     7.6220    23.2120     2.1700   -25.6840 
   63.8750    69.0380     6.0330     6.1340     7.6700    23.0660     2.1820   -25.9430 
   64.0000    72.4110     5.9560     6.0570     7.6550    22.8990     2.2000   -26.1690 
   64.1250    76.4200     5.8540     5.9250     7.4200    22.8190     2.2150   -26.4100 
   64.2500    81.3340     5.7710     5.7890     7.1960    22.7850     2.2210   -26.7150 
   64.3750    82.6450     5.7210     5.6720     7.1550    22.7730     2.2170   -27.0660 
   64.5000    78.1230     5.7080     5.5890     7.2430    22.7720     2.2040   -27.4500 
   64.6250    72.4600     5.7410     5.5560     7.3350    22.7630     2.1880   -27.8590 
   64.7500    70.1720     5.8240     5.5770     7.2920    22.7410     2.1710   -28.2890 
   64.8750    69.8500     5.9700     5.6590     7.2550    22.7170     2.1560   -28.7100 
   65.0000    69.8980     6.1750     5.7970     7.3250    22.6980     2.1460   -29.0550 
   65.1250    68.4250     6.4020     5.9590     7.5610    22.6770     2.1510   -29.2750 
   65.2500    67.3180     6.5750     6.0830     7.9320    22.6500     2.1720   -29.3840 
   65.3750    66.4960     6.6380     6.1200     8.5840    22.6270     2.2010   -29.3930 
   65.5000    65.2970     6.5680     6.0420     9.2750    22.5710     2.2230   -29.3290 
   65.6250    65.1810     6.3940     5.8580     8.7690    22.4240     2.2220   -29.1780 
   65.7500    67.4330     6.2260     5.6490     7.9980    22.2810     2.2030   -28.9320 
   65.8750    69.5160     6.1400     5.4790     7.7370    22.2250     2.1810   -28.5950 
   66.0000    68.0950     6.1640     5.3790     7.7690    22.2240     2.1680   -28.1810 
   66.1250    66.9690     6.2750     5.3500     7.7390    22.2300     2.1690   -27.6840 
   66.2500    70.5950     6.3880     5.3420     7.6640    22.2390     2.1770   -27.1280 
   66.3750    76.8200     6.4480     5.3160     7.5420    22.3030     2.1870   -26.5270 
   66.5000    83.4010     6.4340     5.2550     7.2050    22.4940     2.1960   -25.8980 
   66.6250    89.7480     6.3600     5.1630     6.7150    22.8040     2.2030   -25.3090 
   66.7500    91.0120     6.2760     5.0740     6.2140    22.9860     2.2070   -24.7930 
   66.8750    85.4140     6.2120     5.0080     5.9650    22.9050     2.2090   -24.3410 
   67.0000    78.3350     6.1840     4.9800     6.0490    22.6840     2.2090   -23.9450 
   67.1250    76.0920     6.2070     5.0110     6.3680    22.5800     2.2060   -23.6440 
   67.2500    76.1810     6.2950     5.1040     6.3810    22.5750     2.2030   -23.4440 
   67.3750    76.4950     6.4890     5.2830     6.3240    22.5740     2.1980   -23.3220 
   67.5000    78.3960     6.8330     5.5740     6.4100    22.5740     2.1910   -23.2240 
   67.6250    78.9950     7.3460     5.9910     6.9420    22.5920     2.1910   -23.0500 
   67.7500    74.3200     7.8860     6.4420     7.4220    22.6170     2.2060   -22.7870 
   67.8750    69.2550     8.2730     6.7980     7.9660    22.6570     2.2440   -22.4650 
   68.0000    70.5070     8.3300     6.9200     8.6990    22.7580     2.3010   -22.1070 
   68.1250    80.3410     7.9160     6.6670     9.7620    23.0110     2.3570   -21.6880 
   68.2500    91.5680     7.2130     6.1460     9.6190    23.2710     2.3910   -21.1940 
   68.3750   100.0560     6.4420     5.5140     7.2430    23.4520     2.3930   -20.6810 
   68.5000   105.6350     5.8110     4.9340     5.5580    23.5160     2.3740   -20.1960 
   68.6250   106.5320     5.4620     4.5380     5.1050    23.5160     2.3500   -19.7870 
   68.7500   104.8170     5.3280     4.3130     5.1160    23.5160     2.3360   -19.4420 
   68.8750   101.4250     5.3430     4.2310     5.1330    23.5160     2.3290   -19.1840 
   69.0000    98.5700     5.4670     4.2680     5.1670    23.5130     2.3270   -19.0050 
   69.1250    98.4690     5.7580     4.4630     5.2300    23.4950     2.3280   -18.9160 
   69.2500    98.0900     6.2820     4.8410     5.3530    23.4410     2.3340   -18.9260 
   69.3750    95.4350     7.0840     5.4360     5.7370    23.3350     2.3490   -18.9990 
   69.5000    91.0780     8.1120     6.2220     6.5470    23.1500     2.3680   -19.1080 
   69.6250    83.6860     9.1610     7.0800     8.5760    22.9450     2.3780   -19.2430 
   69.7500    72.8510     9.9240     7.7890    11.5980    22.7020     2.3650   -19.3980 
   69.8750    63.4350    10.1890     8.1710    12.2940    22.4640     2.3270   -19.5720 
   70.0000    60.0250     9.9170     8.1480     9.5760    22.3030     2.2760   -19.7550 
   70.1250    59.8180     9.2790     7.7820     8.0380    22.2440     2.2320   -19.9290 
   70.2500    56.6540     8.6600     7.3500     7.4530    22.2300     2.2060   -20.0810 
   70.3750    52.8930     8.2650     7.0170     7.0140    22.2280     2.1950   -20.1970 
   70.5000    53.7500     8.1510     6.8560     6.6290    22.2250     2.1940   -20.2730 
   70.6250    58.9250     8.2750     6.8720     6.7500    22.2360     2.1950   -20.3570 
   70.7500    64.0460     8.4830     6.9700     6.8280    22.2720     2.1950   -20.4200 
   70.8750    64.5890     8.6950     7.0960     6.9090    22.3320     2.1910   -20.4410 
   71.0000    60.4930     8.8640     7.2120     7.0550    22.4010     2.1850   -20.4320 
   71.1250    56.3030     8.9740     7.2980     7.2450    22.4920     2.1760   -20.4090 
   71.2500    55.1430     9.0710     7.3740     7.2740    22.5610     2.1660   -20.3760 
   71.3750    57.4010     9.2050     7.4720     7.2230    22.5970     2.1580   -20.3440 
   71.5000    59.2450     9.4040     7.6120     7.1600    22.5810     2.1550   -20.3090 
   71.6250    58.2370     9.6460     7.7900     7.1310    22.5080     2.1590   -20.2310 
   71.7500    56.6900     9.8460     7.9560     7.1360    22.4480     2.1680   -20.1870 
   71.8750    56.1960     9.9240     8.0510     7.2740    22.4260     2.1780   -20.1790 
   72.0000    56.6400     9.8270     8.0320     7.5530    22.4170     2.1860   -20.2110 
   72.1250    56.8350     9.5470     7.8750     7.7030    22.3970     2.1890   -20.2670 
   72.2500    58.0760     9.1970     7.6450     7.5070    22.3700     2.1870   -20.3270 
   72.3750    59.4030     8.8700     7.4030     7.2440    22.3530     2.1800   -20.3820 
   72.5000    58.9750     8.6330     7.2020     7.0580    22.3440     2.1730   -20.4490 
   72.6250    57.2230     8.5220     7.0780     7.0530    22.3680     2.1680   -20.4930 
   72.7500    55.6240     8.4940     7.0140     7.0380    22.4670     2.1640   -20.4820 
   72.8750    53.8860     8.5110     6.9930     7.1140    22.5640     2.1620   -20.4390 
   73.0000    52.8790     8.5450     6.9940     7.3670    22.5740     2.1610   -20.3690 
   73.1250    54.9200     8.5910     7.0160     7.6320    22.4520     2.1600   -20.3050 
   73.2500    57.6640     8.6590     7.0630     7.5580    22.3030     2.1610   -20.2560 
   73.3750    58.8220     8.7670     7.1440     7.2780    22.2470     2.1630   -20.1980 
   73.5000    58.1390     8.9270     7.2680     7.2760    22.3360     2.1680   -20.1000 
   73.6250    57.9140     9.1290     7.4280     7.4020    22.4760     2.1800   -19.9850 
   73.7500    58.8600     9.3220     7.5860     7.6270    22.5900     2.1990   -19.8550 
   73.8750    59.8090     9.4550     7.7020     7.7960    22.6080     2.2230   -19.7120 
   74.0000    59.8470     9.4870     7.7420     7.9060    22.5130     2.2450   -19.5560 
   74.1250    58.1290     9.3910     7.6770     7.9390    22.4290     2.2530   -19.3840 
   74.2500    56.5520     9.2240     7.5430     7.9190    22.3590     2.2440   -19.2200 
   74.3750    55.8720     9.0410     7.3780     7.8280    22.2660     2.2250   -19.0750 
