~V
VERS. 2.00: Ver 2.00
~W
STRT.M 55.0000:
STOP.M 288.0000:
STEP.M 0.1250:
NULL. -999.2500:
UWI. F10106:
~C
DEPT.M :
DEN.GM/CC :
SP.MV :
GR.API :
RML.OHMM :
RI. :
RXO.OHMM :
CALI.CM :
~A
# ...
  190.0000     2.1970    -7.3900    74.5720     7.0570     6.3930     7.0120    23.0170 
  190.1250     2.2500    -7.5850    74.5800     7.0520     6.4220     6.9150    23.0390 
  190.2500     2.2950    -7.7370    73.6040     6.9970     6.3900     6.7440    23.1990 
  190.3750     2.3250    -7.8740    73.1630     6.9230     6.3210     6.5940    23.4930 
  190.5000     2.3370    -7.9850    74.6530     6.8510     6.2390     6.4520    23.8900 
  190.6250     2.3360    -8.0610    76.4370     6.7810     6.1560     6.4210    24.2920 
  190.7500     2.3280    -8.1170    76.4480     6.7010     6.0730     6.4580    24.6080 
  190.8750     2.3180    -8.1600    75.7990     6.6170     5.9970     6.4500    24.7100 
  191.0000     2.3060    -8.1970    78.3910     6.5760     5.9610     6.4110    24.5440 
  191.1250     2.2870    -8.2320    83.3290     6.7090     6.0560     6.4560    24.2880 
  191.2500     2.2630    -8.2500    82.4000     7.1030     6.3560     6.4460    24.1700 
  191.3750     2.2420    -8.2340    76.2460     7.7820     6.8940     6.5590    24.1920 
  191.5000     2.2390    -8.1870    70.6890     8.6360     7.6100     7.0540    24.2570 
  191.6250     2.2690    -8.1050    68.0220     9.3670     8.2960     7.8030    24.2490 
  191.7500     2.3230    -7.9740    66.6410     9.6760     8.6870     8.5920    24.1700 
  191.8750     2.3810    -7.8070    67.2720     9.3970     8.6070     9.0610    24.0680 
  192.0000     2.4230    -7.6070    71.7560     8.5850     8.0420     8.4870    23.9960 
  192.1250     2.4330    -7.3790    76.9180     7.5340     7.1830     7.2380    24.0130 
  192.2500     2.4230    -7.1640    80.3970     6.6410     6.3800     6.3200    24.0870 
  192.3750     2.4050    -6.9710    82.6040     6.0610     5.7930     5.9330    24.1880 
  192.5000     2.3860    -6.8140    83.4550     5.7750     5.4460     5.7610    24.2850 
  192.6250     2.3670    -6.6770    83.3160     5.6720     5.2850     5.6240    24.3360 
  192.7500     2.3530    -6.5830    82.1490     5.5810     5.1720     5.3920    24.3140 
  192.8750     2.3490    -6.5190    80.9860     5.4300     5.0380     5.2190    24.1940 
  193.0000     2.3580    -6.4870    82.2160     5.2210     4.8640     5.1370    24.0580 
  193.1250     2.3760    -6.4960    84.4860     5.0100     4.6780     4.9180    24.0020 
  193.2500     2.3890    -6.5290    85.2240     4.8600     4.5280     4.7160    24.0150 
  193.3750     2.3870    -6.5630    85.1590     4.7980     4.4430     4.5890    24.0910 
  193.5000     2.3680    -6.5830    86.5600     4.8230     4.4310     4.5620    24.2390 
  193.6250     2.3390    -6.5940    90.2420     4.9090     4.4820     4.5750    24.3880 
  193.7500     2.3180    -6.5810    92.5560     4.9960     4.5520     4.6140    24.4490 
  193.8750     2.3110    -6.5610    90.0500     5.0470     4.6060     4.6490    24.3990 
  194.0000     2.3190    -6.5360    84.8160     5.0420     4.6200     4.6620    24.3060 
  194.1250     2.3320    -6.5070    82.7660     4.9790     4.5820     4.6390    24.1880 
  194.2500     2.3360    -6.4810    84.5020     4.8940     4.5190     4.6020    24.0580 
  194.3750     2.3290    -6.4580    85.2190     4.8240     4.4560     4.5510    23.9160 
  194.5000     2.3170    -6.4530    83.1910     4.8020     4.4230     4.4830    23.8150 
  194.6250     2.3080    -6.4610    81.5880     4.8550     4.4440     4.4720    23.8440 
  194.7500     2.3050    -6.4900    82.3130     4.9660     4.5130     4.5940    23.9500 
  194.8750     2.3060    -6.5340    85.0830     5.1050     4.6120     4.8930    23.9830 
  195.0000     2.3090    -6.6070    87.3100     5.2310     4.7120     5.2720    23.8950 
  195.1250     2.3120    -6.7040    86.3860     5.2910     4.7670     5.5250    23.7680 
  195.2500     2.3150    -6.8010    84.1660     5.2770     4.7620     5.5010    23.7060 
  195.3750     2.3180    -6.8960    82.4490     5.2040     4.7050     5.3050    23.6790 
  195.5000     2.3200    -6.9780    81.5660     5.1070     4.6200     5.0860    23.6450 
  195.6250     2.3220    -7.0720    81.5800     5.0310     4.5420     4.8940    23.5870 
  195.7500     2.3250    -7.1700    82.3230     4.9890     4.4900     4.8500    23.5030 
  195.8750     2.3320    -7.2580    82.3320     4.9720     4.4630     4.9250    23.3910 
  196.0000     2.3410    -7.3420    82.2710     4.9590     4.4480     5.0050    23.2720 
  196.1250     2.3470    -7.4370    82.1740     4.9340     4.4290     4.9570    23.2040 
  196.2500     2.3450    -7.5580    80.5230     4.8980     4.4050     4.8170    23.2420 
  196.3750     2.3300    -7.7080    77.8530     4.8720     4.3830     4.7120    23.4100 
  196.5000     2.3020    -7.8880    75.9670     4.8790     4.3810     4.7300    23.6300 
  196.6250     2.2680    -8.0770    74.1560     4.9450     4.4230     4.8100    23.8260 
  196.7500     2.2430    -8.2720    72.2010     5.0530     4.5050     4.9250    23.9670 
  196.8750     2.2360    -8.4760    71.8260     5.1710     4.6050     5.1240    23.9970 
  197.0000     2.2500    -8.6680    71.8170     5.2550     4.6900     5.3620    23.9490 
  197.1250     2.2790    -8.8320    69.9000     5.2600     4.7180     5.6040    23.9270 
  197.2500     2.3060    -8.9510    69.0420     5.1950     4.6890     5.6970    24.0120 
  197.3750     2.3200    -9.0410    70.2590     5.0990     4.6270     5.5560    24.1490 
  197.5000     2.3230    -9.0860    71.1700     5.0250     4.5760     5.2040    24.2330 
  197.6250     2.3200    -9.0800    69.9370     5.0390     4.5910     5.0440    24.2380 
  197.7500     2.3160    -9.0360    68.4160     5.1460     4.6890     5.1550    24.2070 
  197.8750     2.3130    -8.9910    68.0980     5.3340     4.8650     5.4570    24.1690 
  198.0000     2.3080    -8.9550    68.9000     5.5720     5.1010     5.8500    24.1330 
  198.1250     2.3000    -8.9390    69.3740     5.8230     5.3630     6.2960    24.1470 
  198.2500     2.2910    -8.9490    67.5370     6.0470     5.6080     6.9330    24.2310 
  198.3750     2.2830    -8.9640    64.3020     6.2100     5.7980     7.9590    24.3630 
  198.5000     2.2750    -9.0070    63.1890     6.2820     5.8980     9.3280    24.4540 
  198.6250     2.2640    -9.0720    68.3650     6.2110     5.8570    10.2600    24.4310 
  198.7500     2.2520    -9.1610    75.8090     6.0180     5.6900     9.9340    24.3210 
  198.8750     2.2440    -9.2470    80.8030     5.7410     5.4270     8.3660    24.1420 
  199.0000     2.2450    -9.3300    84.8100     5.4500     5.1280     6.5500    23.9520 
  199.1250     2.2570    -9.3990    90.6950     5.2500     4.8850     5.5160    23.8480 
  199.2500     2.2740    -9.4620    96.6330     5.1990     4.7600     5.1140    23.8500 
  199.3750     2.2870    -9.5270    98.7050     5.3220     4.7880     5.0560    23.8970 
  199.5000     2.2930    -9.6030    96.0790     5.6210     4.9790     5.3030    23.9520 
  199.6250     2.2910    -9.7110    90.9800     6.1150     5.3550     5.8830    24.0330 
  199.7500     2.2860    -9.8430    85.5920     6.7820     5.8930     6.6410    24.1200 
  199.8750     2.2820    -9.9980    80.7070     7.6410     6.6080     7.5090    24.1870 
  200.0000     2.2810   -10.1530    76.3020     8.7110     7.5190     8.5050    24.2900 
  200.1250     2.2850   -10.3070    73.0900     9.9910     8.6460     9.9520    24.4100 
  200.2500     2.2920   -10.4620    70.7790    11.3420     9.8860    12.0270    24.5220 
  200.3750     2.2950   -10.6140    67.5840    12.6160    11.1230    14.5760    24.6030 
  200.5000     2.2900   -10.7380    65.8180    13.6750    12.2290    16.9320    24.6710 
  200.6250     2.2780   -10.8240    66.8720    14.4060    13.0800    17.9640    24.7360 
  200.7500     2.2680   -10.8600    66.6140    14.8950    13.7110    17.0950    24.7880 
  200.8750     2.2670   -10.8510    63.6530    15.2130    14.1630    15.2320    24.7970 
  201.0000     2.2760   -10.8080    60.9690    15.3760    14.4540    14.7250    24.7700 
  201.1250     2.2890   -10.7320    60.4530    15.2600    14.4820    16.1810    24.7370 
