~V
VERS. 2.00: Ver 2.00
~W
STRT.M 55.0000:
STOP.M 251.0000:
STEP.M 0.1250:
NULL. -999.2500:
UWI. F10189:
~C
DEPT.M :
DEN.GM/CC :
SP.MV :
GR.API :
RML.OHMM :
RI. :
RXO.OHMM :
CALI.CM :
~A
# ...
  122.5000     2.2180   -16.1440    60.9880     9.4640     8.0100    11.5140    23.5530 
  122.6250     2.2180   -15.9470    62.7740     9.3720     7.9250    11.2650    23.6280 
  122.7500     2.2100   -15.7500    65.3140     9.3130     7.8380    10.7580    23.8210 
  122.8750     2.1940   -15.5260    64.6370     9.4020     7.8470    10.5820    24.2300 
  123.0000     2.1790   -15.2590    60.9450     9.6780     8.0110    10.9260    24.6210 
  123.1250     2.1770   -14.9230    60.2140    10.0930     8.3390    11.7800    24.7460 
  123.2500     2.1860   -14.5320    62.2780    10.4990     8.7210    12.6070    24.6830 
  123.3750     2.2020   -14.0550    62.5000    10.8070     9.0660    13.0740    24.5750 
  123.5000     2.2270   -13.4770    61.4330    11.0400     9.3490    13.2740    24.5100 
  123.6250     2.2770   -12.7990    60.6590    11.4120     9.6860    13.2260    24.4580 
  123.7500     2.3450   -12.0480    58.5300    12.1480    10.2530    13.8960    24.2990 
  123.8750     2.4260   -11.2700    55.7330    13.4040    11.1970    15.3990    24.0220 
  124.0000     2.5010   -10.5220    54.2770    15.2250    12.6030    16.9260    23.7800 
  124.1250     2.5480    -9.8560    53.2220    17.4740    14.4650    18.7560    23.6420 
  124.2500     2.5610    -9.2740    50.9280    19.5000    16.3340    19.7110    23.5290 
  124.3750     2.5460    -8.8030    49.8310    20.5170    17.5870    19.8950    23.4460 
  124.5000     2.5150    -8.4290    51.3810    20.0100    17.6830    19.7510    23.4390 
  124.6250     2.4710    -8.1630    53.7310    18.2020    16.5420    19.4180    23.5190 
  124.7500     2.4380    -7.9860    54.8230    16.3450    15.0630    19.2380    23.5900 
  124.8750     2.4360    -7.8510    55.5610    15.1880    13.8810    18.6990    23.6730 
  125.0000     2.4690    -7.7330    57.0260    15.0480    13.3590    18.6230    23.7950 
  125.1250     2.5120    -7.6450    57.3010    16.0430    13.7430    19.6960    23.8930 
  125.2500     2.5290    -7.5680    55.0630    17.6940    14.8060    21.4460    23.8870 
  125.3750     2.5160    -7.4870    52.0150    19.4990    16.2570    23.1920    23.8070 
  125.5000     2.4950    -7.4100    50.8740    20.8390    17.6250    24.1970    23.7230 
  125.6250     2.4860    -7.3470    51.9110    21.0800    18.2730    23.8500    23.6910 
  125.7500     2.4890    -7.2880    52.7000    20.5290    18.1800    23.9550    23.7010 
  125.8750     2.4900    -7.2650    52.1310    19.7310    17.6800    24.7190    23.7230 
  126.0000     2.4840    -7.2630    50.2920    19.1710    17.2090    25.4630    23.7430 
  126.1250     2.4870    -7.2780    47.9870    19.1280    17.1030    25.9650    23.7570 
  126.2500     2.4970    -7.2940    45.0820    19.4770    17.3370    25.8260    23.7530 
  126.3750     2.5050    -7.3180    42.8070    20.0830    17.8080    25.3070    23.7440 
  126.5000     2.5100    -7.3430    42.6000    20.7680    18.3640    25.5680    23.8010 
  126.6250     2.5150    -7.3590    44.5890    21.2830    18.8070    25.9890    23.9960 
  126.7500     2.5160    -7.3790    46.4430    21.4950    19.0260    26.2330    24.2080 
  126.8750     2.5090    -7.3940    47.5470    21.4030    19.0080    25.9840    24.3110 
  127.0000     2.5040    -7.4280    48.1880    21.1090    18.8100    24.9050    24.3000 
  127.1250     2.5080    -7.4600    48.1940    20.7170    18.4820    23.4540    24.2110 
  127.2500     2.5060    -7.5040    47.6470    20.2990    18.0800    22.7460    24.1220 
  127.3750     2.5010    -7.5670    49.1830    19.8820    17.6380    22.6650    24.0720 
  127.5000     2.5000    -7.6660    51.5570    19.5060    17.2250    23.0520    24.0630 
  127.6250     2.5110    -7.7880    50.1200    19.2890    16.9750    23.0500    24.0450 
  127.7500     2.5320    -7.9100    47.9440    19.3260    16.9880    22.6000    23.9970 
  127.8750     2.5610    -8.0180    49.5780    19.6880    17.3400    22.1560    23.9060 
  128.0000     2.5890    -8.0930    54.3470    20.3590    18.0250    22.2360    23.7730 
  128.1250     2.5910    -8.1530    53.7240    21.2160    18.9360    22.8770    23.7090 
  128.2500     2.5770    -8.1940    48.5840    21.9850    19.8060    23.6010    23.6810 
  128.3750     2.5690    -8.1890    44.8170    22.4220    20.4070    23.6990    23.6720 
  128.5000     2.5710    -8.1360    43.8730    22.3550    20.5760    22.3900    23.6220 
  128.6250     2.5660    -8.0470    44.8910    21.7590    20.2470    20.7040    23.4960 
  128.7500     2.5480    -7.9350    46.8700    20.9720    19.6820    19.5480    23.3540 
  128.8750     2.5290    -7.8120    49.1770    20.2400    19.0860    19.4060    23.2690 
  129.0000     2.5150    -7.6970    50.6870    19.7230    18.6000    19.7050    23.2730 
  129.1250     2.5100    -7.5970    50.9300    19.5080    18.3140    19.0530    23.3330 
  129.2500     2.5120    -7.5010    51.4250    19.4780    18.1820    18.5870    23.4130 
  129.3750     2.5180    -7.4230    52.5660    19.5310    18.1490    18.5310    23.4740 
  129.5000     2.5310    -7.3670    53.0630    19.5990    18.1670    18.8320    23.5130 
  129.6250     2.5440    -7.3520    51.6580    19.6770    18.2270    19.6870    23.5260 
  129.7500     2.5460    -7.3760    50.9060    19.7680    18.3250    21.1800    23.5390 
  129.8750     2.5280    -7.4230    52.4560    19.8540    18.4440    22.9180    23.5760 
  130.0000     2.5010    -7.4830    54.1090    19.9040    18.5620    23.9360    23.6660 
  130.1250     2.4900    -7.5650    52.0640    19.9010    18.6590    24.1410    23.8250 
  130.2500     2.4970    -7.6870    48.9280    19.9070    18.7560    23.9130    24.0190 
  130.3750     2.5050    -7.8510    47.5430    20.0250    18.8980    23.2370    24.1430 
  130.5000     2.5050    -8.0510    47.6340    20.3470    19.1390    22.0260    24.1300 
  130.6250     2.5090    -8.2700    48.5320    20.9290    19.5390    21.6260    24.0640 
  130.7500     2.5260    -8.4840    49.8110    21.6850    20.0820    22.3740    24.0810 
  130.8750     2.5450    -8.7020    50.7480    22.5450    20.7620    23.7210    24.1390 
  131.0000     2.5600    -8.9230    48.8890    23.4300    21.5500    25.3240    24.2210 
  131.1250     2.5690    -9.1050    44.0940    24.2290    22.3780    27.5150    24.2360 
  131.2500     2.5770    -9.2320    41.9170    24.8520    23.1210    29.4710    24.1930 
  131.3750     2.5830    -9.3080    44.5760    25.2230    23.6640    30.2580    24.1290 
  131.5000     2.5820    -9.3260    48.9590    25.3150    23.9270    29.5500    24.0960 
  131.6250     2.5610    -9.2860    50.6990    25.1760    23.8910    27.7520    24.0580 
  131.7500     2.5190    -9.2440    50.7620    25.0100    23.7370    26.1930    24.0430 
  131.8750     2.4760    -9.1960    52.8290    24.9700    23.6240    25.1020    24.0390 
  132.0000     2.4520    -9.1370    55.1910    25.1500    23.6760    24.7080    24.0390 
  132.1250     2.4570    -9.0940    53.5240    25.5770    23.9750    25.6250    23.9940 
  132.2500     2.4720    -9.0730    50.5300    26.1110    24.4330    27.2480    23.9020 
  132.3750     2.4850    -9.0700    48.8800    26.6350    24.9580    28.8660    23.7970 
  132.5000     2.4960    -9.1000    48.7690    27.0670    25.4640    30.1110    23.6610 
  132.6250     2.5060    -9.1860    46.3610    27.3560    25.8790    30.7950    23.4260 
  132.7500     2.5190    -9.2710    43.3500    27.5300    26.1900    30.7560    23.1470 
  132.8750     2.5300    -9.3430    41.6070    27.6000    26.3840    31.0770    23.0230 
  133.0000     2.5330    -9.4120    42.0160    27.5550    26.4300    30.9980    23.2940 
  133.1250     2.5260    -9.4740    45.8740    27.2930    26.2270    29.9530    23.7780 
  133.2500     2.5170    -9.5520    51.0760    26.7770    25.7520    28.2500    24.1470 
  133.3750     2.5060    -9.6660    54.9860    26.0030    25.0160    27.2630    24.3370 
  133.5000     2.4880    -9.8020    56.3100    25.0600    24.1110    26.2570    24.4470 
  133.6250     2.4690    -9.9380    54.4790    24.1690    23.2320    25.1620    24.4950 
