~V
VERS. 2.00: Ver 2.00
~W
STRT.M 55.0000:
STOP.M 288.0000:
STEP.M 0.1250:
NULL. -999.2500:
UWI. F10106:
~C
DEPT.M :
DEN.GM/CC :
SP.MV :
GR.API :
RML.OHMM :
RI. :
RXO.OHMM :
CALI.CM :
~A
# ...
  100.0000     2.1710   -14.1790    58.1030     8.6670     7.2890     6.8030    22.8660 
  100.1250     2.1690   -14.1850    56.9860     8.8220     7.4080     6.8840    22.8520 
  100.2500     2.1650   -14.1380    57.1780     8.9480     7.5130     6.9550    22.8450 
  100.3750     2.1600   -14.0560    56.9830     9.0180     7.5790     6.9910    22.8530 
  100.5000     2.1570   -13.9600    55.3520     9.0260     7.5960     6.9750    22.8670 
  100.6250     2.1560   -13.8320    52.9490     8.9830     7.5700     6.9350    22.8720 
  100.7500     2.1570   -13.7030    53.7040     8.9310     7.5300     6.9000    22.8570 
  100.8750     2.1580   -13.5890    57.0930     8.8980     7.5000     6.8590    22.8260 
  101.0000     2.1580   -13.4740    60.0800     8.9010     7.4950     6.8200    22.7870 
  101.1250     2.1580   -13.3730    59.6380     8.9440     7.5250     6.8210    22.7610 
  101.2500     2.1590   -13.2700    58.0920     9.0040     7.5760     6.8490    22.7520 
  101.3750     2.1630   -13.1750    57.7900     9.0670     7.6380     6.8600    22.7500 
  101.5000     2.1690   -13.0850    57.8880     9.1250     7.6990     6.8470    22.7550 
  101.6250     2.1770   -13.0070    56.9960     9.1790     7.7570     6.8430    22.7640 
  101.7500     2.1840   -12.9540    55.6250     9.2360     7.8110     6.8660    22.7810 
  101.8750     2.1880   -12.9120    53.9340     9.2980     7.8640     6.9220    22.8020 
  102.0000     2.1890   -12.9010    52.8640     9.3590     7.9120     6.9960    22.8100 
  102.1250     2.1900   -12.9250    54.4470     9.4010     7.9420     7.0400    22.7760 
  102.2500     2.1900   -12.9930    57.5950     9.4070     7.9440     7.0450    22.6870 
  102.3750     2.1910   -13.1020    59.6860     9.3650     7.9080     6.9910    22.5450 
  102.5000     2.1930   -13.2540    59.5390     9.2750     7.8340     6.9220    22.3980 
  102.6250     2.1910   -13.4750    57.9940     9.1500     7.7320     6.9340    22.3810 
  102.7500     2.1810   -13.7420    55.7880     9.0420     7.6410     7.1050    22.5960 
  102.8750     2.1620   -14.0230    53.2480     9.0240     7.6170     7.3890    23.0360 
  103.0000     2.1390   -14.2960    52.1440     9.1900     7.7300     7.7060    23.5420 
  103.1250     2.1270   -14.5600    53.1810     9.6850     8.0990     7.8860    23.8990 
  103.2500     2.1440   -14.8070    54.5570    10.4970     8.7340     7.7590    24.1470 
  103.3750     2.2010   -15.0140    54.1760    11.5570     9.6090     7.3690    24.4220 
  103.5000     2.2910   -15.2010    52.9430    12.6850    10.6110     6.8440    24.7530 
  103.6250     2.3860   -15.3320    53.4070    13.5380    11.4890     6.3400    25.0410 
  103.7500     2.4490   -15.4080    54.2990    13.8710    11.9960     6.1130    25.1140 
  103.8750     2.4610   -15.4780    53.1630    13.5820    11.9850     6.3350    24.8340 
  104.0000     2.4250   -15.5550    51.0630    12.7600    11.4700     6.9010    24.2750 
  104.1250     2.3600   -15.6220    52.2970    11.6480    10.6100     7.4400    23.7690 
  104.2500     2.2910   -15.6850    55.0080    10.5910     9.7200     7.8130    23.5020 
  104.3750     2.2330   -15.7550    56.1290     9.7450     8.9570     8.0260    23.4090 
  104.5000     2.1920   -15.8090    55.2440     9.1530     8.3840     8.0350    23.3930 
  104.6250     2.1710   -15.8530    54.1470     8.8170     8.0290     7.7510    23.4220 
  104.7500     2.1590   -15.9230    53.2170     8.6420     7.8270     7.5050    23.4880 
  104.8750     2.1530   -15.9820    53.2370     8.5800     7.7420     7.3370    23.5570 
  105.0000     2.1520   -16.0240    54.7400     8.5900     7.7380     7.2130    23.5870 
  105.1250     2.1560   -16.0400    55.8720     8.6430     7.7870     7.1370    23.5800 
  105.2500     2.1610   -16.0260    55.0970     8.7040     7.8510     7.1470    23.6030 
  105.3750     2.1590   -15.9650    53.6190     8.7520     7.9090     7.2250    23.6900 
  105.5000     2.1460   -15.8730    52.5070     8.7700     7.9440     7.3130    23.8140 
  105.6250     2.1260   -15.7510    51.5360     8.7410     7.9380     7.3300    23.8750 
  105.7500     2.1110   -15.5800    51.3820     8.6730     7.8960     7.2910    23.8020 
  105.8750     2.1080   -15.3910    53.2610     8.5790     7.8260     7.2790    23.6290 
  106.0000     2.1200   -15.1910    55.4650     8.4780     7.7410     7.2960    23.4830 
  106.1250     2.1390   -14.9930    55.3400     8.3970     7.6630     7.3460    23.4370 
  106.2500     2.1540   -14.7950    54.0390     8.3500     7.6060     7.4120    23.4700 
  106.3750     2.1590   -14.6380    53.5350     8.3390     7.5750     7.4770    23.5420 
  106.5000     2.1520   -14.4770    52.8270     8.3560     7.5660     7.5120    23.6180 
  106.6250     2.1380   -14.3170    51.1640     8.3840     7.5710     7.5140    23.6440 
  106.7500     2.1270   -14.1760    51.7430     8.3980     7.5740     7.4880    23.5960 
  106.8750     2.1240   -14.0350    54.3760     8.3870     7.5620     7.4880    23.4900 
  107.0000     2.1300   -13.8900    56.2060     8.3510     7.5360     7.4770    23.3700 
  107.1250     2.1440   -13.7650    57.2860     8.3020     7.5000     7.4250    23.2990 
  107.2500     2.1610   -13.6880    58.7690     8.2640     7.4730     7.3350    23.2670 
  107.3750     2.1780   -13.6300    59.2100     8.2500     7.4630     7.3240    23.2330 
  107.5000     2.1910   -13.6110    58.0330     8.2620     7.4770     7.3950    23.1990 
  107.6250     2.1950   -13.6430    57.5390     8.2940     7.5140     7.4370    23.1660 
  107.7500     2.1910   -13.7110    58.1660     8.3310     7.5620     7.3830    23.1520 
  107.8750     2.1810   -13.8180    57.5190     8.3680     7.6130     7.2420    23.1630 
  108.0000     2.1730   -13.9680    55.6650     8.4060     7.6630     7.1310    23.1790 
  108.1250     2.1710   -14.1630    54.0280     8.4560     7.7150     7.0660    23.2110 
  108.2500     2.1740   -14.3270    53.1910     8.5180     7.7660     7.0410    23.2670 
  108.3750     2.1770   -14.4910    53.4650     8.5880     7.8100     7.0500    23.3530 
  108.5000     2.1750   -14.6470    53.9770     8.6500     7.8330     7.0980    23.4430 
  108.6250     2.1660   -14.7820    54.6130     8.6720     7.8070     7.1940    23.4870 
  108.7500     2.1580   -14.8650    56.0020     8.6340     7.7210     7.3360    23.4580 
  108.8750     2.1530   -14.9060    56.8940     8.5240     7.5680     7.4720    23.3760 
  109.0000     2.1560   -14.8930    56.5370     8.3530     7.3640     7.5580    23.2880 
  109.1250     2.1640   -14.8170    56.2870     8.1860     7.1590     7.6230    23.2400 
  109.2500     2.1720   -14.7040    58.2260     8.1710     7.0630     7.6680    23.2210 
  109.3750     2.1790   -14.5560    61.1640     8.5430     7.2370     7.7620    23.2230 
  109.5000     2.1860   -14.3810    61.8590     9.6350     7.9190     8.1470    23.2600 
  109.6250     2.2080   -14.1940    59.1560    12.1530     9.6640     9.8720    23.3730 
  109.7500     2.2580   -14.0130    56.0550    16.4560    12.8720    14.7380    23.5750 
  109.8750     2.3430   -13.8360    55.0450    22.8920    18.0560    24.9580    23.8290 
  110.0000     2.4550   -13.6730    55.8920    31.2970    25.4000    41.2100    24.0590 
  110.1250     2.5650   -13.5300    57.7650    40.3430    34.1510    62.7050    24.2010 
  110.2500     2.6430   -13.4340    60.9670    47.3330    41.7710    80.8440    24.2920 
  110.3750     2.6770   -13.3680    64.6950    49.7030    45.5580    86.8750    24.3030 
  110.5000     2.6750   -13.3330    66.1730    45.9580    43.4850    79.7880    24.2490 
  110.6250     2.6500   -13.3310    63.9060    36.9250    35.6280    61.1750    24.1310 
  110.7500     2.6050   -13.3560    60.3640    27.2230    26.5490    39.8530    23.9350 
  110.8750     2.5350   -13.4020    57.9860    19.2740    18.8970    22.3490    23.6610 
  111.0000     2.4420   -13.4750    57.3610    13.7360    13.4820    11.9860    23.3340 
  111.1250     2.3450   -13.5790    58.8000    10.5690    10.2780     8.1740    23.0410 
