~V
VERS. 2.00: Ver 2.00
~W
STRT.M 49.0000:
STOP.M 223.0000:
STEP.M 0.1250:
NULL. -999.2500:
UWI. F10156:
~C
DEPT.M :
SP.MV :
GR.API :
RML.OHMM :
RI. :
RXO.OHMM :
CALI.CM :
DEN.GM/CC :
~A
# ...
  172.7500   -17.9430    56.6450   323.2710   312.3470   339.7610    25.0810     2.2250 
  172.8750   -17.5960    57.2300   314.9210   301.8350   301.7640    25.0570     2.2490 
  173.0000   -17.2960    51.0130   316.0690   299.8450   279.0280    25.0120     2.2940 
  173.1250   -16.9250    43.3570   332.4520   312.6740   259.4950    24.9010     2.3690 
  173.2500   -16.4890    44.7860   363.4090   340.2540   273.3160    24.7200     2.4770 
  173.3750   -16.1220    49.7800   382.4650   362.6050   394.7750    24.5160     2.5880 
  173.5000   -15.7240    51.0320   345.9660   346.9880   670.9570    24.3880     2.6740 
  173.6250   -15.2650    48.5300   245.1070   270.5950   997.6170    24.3450     2.7150 
  173.7500   -14.8390    48.1720   143.8140   166.1120   768.3830    24.3100     2.7090 
  173.8750   -14.3520    49.3860    79.0080    88.8310   312.8700    24.2860     2.6840 
  174.0000   -13.8060    49.8420    43.3300    45.4200    95.5610    24.2740     2.6490 
  174.1250   -13.3300    50.9500    24.7640    24.4540    31.1800    24.2820     2.6020 
  174.2500   -12.9240    53.8970    16.2000    15.8830    15.2520    24.3160     2.5380 
  174.3750   -12.4820    55.8610    11.8910    11.6940    10.3090    24.3890     2.4790 
  174.5000   -12.1120    54.5680    10.0300     9.6710     9.3000    24.4590     2.4490 
  174.6250   -11.8530    52.1910     9.6260     8.8980     9.6930    24.5000     2.4520 
  174.7500   -11.6150    50.6230    10.1280     9.0190    10.1590    24.5260     2.4720 
  174.8750   -11.4780    49.9600    10.9340     9.5700    10.7880    24.5200     2.4880 
  175.0000   -11.4230    50.0780    11.7690    10.3060    11.5550    24.4550     2.4910 
  175.1250   -11.3400    51.0820    12.4860    11.0350    12.4770    24.3260     2.4860 
  175.2500   -11.2700    53.3190    13.0050    11.6050    12.9670    24.2160     2.4820 
  175.3750   -11.2550    53.8460    13.2890    11.9440    13.0050    24.2840     2.4800 
  175.5000   -11.2080    50.1770    13.1950    11.9250    13.0980    24.3300     2.4790 
  175.6250   -11.1570    44.2010    12.5680    11.4120    13.2230    24.2960     2.4770 
  175.7500   -11.1310    41.6560    11.3200    10.3300    12.1980    24.2630     2.4720 
  175.8750   -11.0440    43.6580     9.8180     9.0160    10.6160    24.3310     2.4550 
  176.0000   -10.9480    47.1800     8.4220     7.7700     8.7340    24.4220     2.4280 
  176.1250   -10.9070    51.5230     7.3950     6.7920     6.9580    24.5140     2.4050 
  176.2500   -10.8540    58.1120     6.8860     6.1990     6.8160    24.6250     2.4040 
  176.3750   -10.7820    64.8000     6.7230     5.8800     7.6010    24.7570     2.4210 
  176.5000   -10.7470    66.9130     6.7640     5.7540     8.3370    24.9060     2.4430 
  176.6250   -10.6810    61.8800     6.8890     5.7370     8.0080    25.0690     2.4570 
  176.7500   -10.6250    52.7350     7.0120     5.7640     7.0800    25.2450     2.4600 
  176.8750   -10.6170    46.5550     7.1100     5.7910     6.7940    25.3880     2.4590 
  177.0000   -10.6000    45.4890     7.1900     5.8120     7.0230    25.4290     2.4600 
  177.1250   -10.5900    46.1870     7.2450     5.8200     7.2430    25.3460     2.4640 
  177.2500   -10.6140    47.9000     7.2220     5.7870     7.4390    25.1740     2.4740 
  177.3750   -10.6410    51.3310     7.1030     5.6970     7.5340    25.0410     2.4900 
  177.5000   -10.6780    53.7900     6.9430     5.5750     7.6100    24.9580     2.5020 
  177.6250   -10.7480    52.9070     6.8700     5.4910     7.4860    24.9100     2.5020 
  177.7500   -10.8030    50.6000     7.0660     5.5600     7.0710    24.9280     2.4920 
  177.8750   -10.8920    49.4980     7.5320     5.7970     6.8040    24.8570     2.4880 
  178.0000   -11.0210    49.1940     8.1690     6.1660     7.0510    24.5960     2.4990 
  178.1250   -11.1020    50.1890     8.7770     6.5620     7.8530    24.1730     2.5150 
  178.2500   -11.1790    52.2840     9.0790     6.8090     8.4820    23.8290     2.5140 
  178.3750   -11.2760    53.9370     9.0180     6.8300     8.0690    23.7220     2.4910 
  178.5000   -11.3330    55.6280     8.6870     6.6520     7.4210    23.7530     2.4620 
  178.6250   -11.3950    57.0360     8.2680     6.3770     7.1520    23.7590     2.4410 
  178.7500   -11.4900    54.3630     7.9550     6.1190     7.2940    23.8400     2.4300 
  178.8750   -11.5110    49.6460     7.7870     5.9300     7.4500    23.9380     2.4220 
  179.0000   -11.5230    47.6940     7.7130     5.8010     7.3330    24.0030     2.4150 
  179.1250   -11.6030    47.8020     7.6500     5.6970     6.9710    23.9930     2.4090 
  179.2500   -11.6550    47.4300     7.5270     5.5850     6.7390    24.0120     2.4050 
  179.3750   -11.6880    48.1170     7.3710     5.4680     6.5940    24.0490     2.4050 
  179.5000   -11.7810    49.5760     7.2480     5.3760     6.5320    24.0520     2.4110 
  179.6250   -11.8710    50.6450     7.2320     5.3460     6.5050    24.0280     2.4170 
  179.7500   -11.9200    50.1850     7.3920     5.4160     6.4930    23.8960     2.4170 
  179.8750   -12.0330    47.3810     7.6910     5.5710     6.7920    23.7350     2.4130 
  180.0000   -12.1550    43.6520     8.0710     5.7840     7.4240    23.6310     2.4080 
  180.1250   -12.2250    42.8000     8.4450     6.0080     8.1140    23.6830     2.4010 
  180.2500   -12.3280    47.6070     8.7040     6.1840     8.3180    23.9810     2.3980 
  180.3750   -12.4570    52.6370     8.8180     6.2830     8.3070    24.3180     2.4020 
  180.5000   -12.5320    56.8680     8.7990     6.3050     8.2180    24.4790     2.4120 
  180.6250   -12.6160    60.6700     8.6970     6.2700     8.1470    24.4260     2.4210 
  180.7500   -12.7400    63.8230     8.5960     6.2180     8.1450    24.2840     2.4230 
  180.8750   -12.8390    67.3200     8.5810     6.2030     8.1480    24.2830     2.4200 
  181.0000   -12.9610    72.8070     8.7080     6.2580     8.0190    24.3630     2.4190 
  181.1250   -13.1040    78.8870     8.9990     6.4030     7.8660    24.4190     2.4220 
  181.2500   -13.2140    81.8090     9.4220     6.6300     8.1620    24.4000     2.4340 
  181.3750   -13.3150    83.3180     9.8330     6.8670     8.8030    24.3440     2.4430 
  181.5000   -13.4250    85.4360    10.1020     7.0390     9.4110    24.3620     2.4460 
  181.6250   -13.5010    88.9130    10.1390     7.0840     9.3920    24.5160     2.4370 
  181.7500   -13.5670    92.9360     9.9180     6.9700     8.7300    24.8980     2.4080 
  181.8750   -13.5990    95.9570     9.5920     6.7740     8.0980    25.4610     2.3700 
  182.0000   -13.5850    97.7910     9.2920     6.5680     8.3730    25.7990     2.3400 
  182.1250   -13.5990    98.0020     9.1140     6.4150     8.9580    25.4100     2.3310 
  182.2500   -13.6350    98.8930     9.1200     6.3660     8.8990    24.7930     2.3450 
  182.3750   -13.6350   100.3810     9.2650     6.4110     8.6960    24.2180     2.3630 
  182.5000   -13.6670    99.6880     9.5080     6.5360     8.6470    24.0030     2.3770 
  182.6250   -13.7020    96.1940     9.8080     6.7220     8.5860    24.1920     2.3860 
  182.7500   -13.6930    92.2190    10.1330     6.9500     8.6280    24.4990     2.3930 
  182.8750   -13.7150    90.1160    10.4440     7.1860     9.2120    24.7120     2.4000 
  183.0000   -13.7180    90.0060    10.6950     7.3980     9.8950    24.8140     2.4040 
  183.1250   -13.6540    90.8540    10.8380     7.5470    10.3730    24.8840     2.4080 
  183.2500   -13.5650    89.5170    10.8190     7.5920    10.5360    24.8820     2.4110 
  183.3750   -13.4700    85.7470    10.6710     7.5490    10.4110    24.8360     2.4110 
  183.5000   -13.3160    83.7610    10.4450     7.4420    10.2680    24.7930     2.4090 
  183.6250   -13.1410    87.1990    10.2130     7.3110     9.9380    24.7470     2.4070 
  183.7500   -12.9460    93.5770    10.0800     7.2090     9.8750    24.7210     2.4120 
  183.8750   -12.7290    96.8930    10.0790     7.1620     9.8370    24.6950     2.4230 
