~V
VERS. 2.00: Ver 2.00
~W
STRT.M 55.0000:
STOP.M 224.0000:
STEP.M 0.1250:
NULL. -999.2500:
UWI. F10137:
~C
DEPT.M :
DEN.GM/CC :
SP.MV :
GR.API :
RML.OHMM :
RI. :
RXO.OHMM :
CALI.CM :
~A
# ...
   88.7500     2.1420   -28.6010    60.9640    10.3020     8.7990    10.5800    25.9380 
   88.8750     2.1570   -28.5230    62.9880     9.8710     8.4860    10.3700    26.0000 
   89.0000     2.1710   -28.4450    65.5890     9.3260     8.0580    10.0570    26.0440 
   89.1250     2.1850   -28.3480    67.2720     8.7480     7.5790     9.6410    26.1260 
   89.2500     2.2020   -28.2320    67.7000     8.2230     7.1180     8.9170    26.2830 
   89.3750     2.2200   -28.1230    67.7920     7.8420     6.7460     7.4690    26.4960 
   89.5000     2.2280   -28.0310    68.0000     7.6180     6.4820     6.4820    26.6550 
   89.6250     2.2210   -27.9350    67.7490     7.4900     6.2960     6.6980    26.6650 
   89.7500     2.2030   -27.8260    66.9440     7.3820     6.1530     7.3160    26.5790 
   89.8750     2.1870   -27.7080    67.4080     7.2580     6.0400     7.3990    26.5750 
   90.0000     2.1810   -27.5750    69.6540     7.1530     5.9730     6.7970    26.7100 
   90.1250     2.1810   -27.4390    71.2080     7.1490     5.9820     6.1550    26.8160 
   90.2500     2.1820   -27.3350    70.3750     7.3150     6.0940     6.1450    26.7070 
   90.3750     2.1840   -27.2530    68.0670     7.6590     6.3170     6.8800    26.5070 
   90.5000     2.1870   -27.1890    65.6460     8.0570     6.5880     7.5650    26.4370 
   90.6250     2.1870   -27.1420    64.4140     8.3390     6.8110     7.8370    26.4750 
   90.7500     2.1840   -27.1000    65.1040     8.4230     6.9220     7.8910    26.5130 
   90.8750     2.1860   -27.0580    66.9600     8.3830     6.9430     7.8910    26.5300 
   91.0000     2.2000   -27.0220    69.0460     8.4220     6.9840     7.9290    26.5520 
   91.1250     2.2190   -27.0030    70.7770     8.7070     7.1530     8.2570    26.5590 
   91.2500     2.2380   -27.0000    71.2170     9.2510     7.4790     9.5700    26.4820 
   91.3750     2.2520   -27.0000    68.7390     9.8840     7.8870    11.7610    26.2920 
   91.5000     2.2560   -27.0000    63.5030    10.3380     8.2190    12.7180    26.1050 
   91.6250     2.2450   -27.0080    58.1700    10.4260     8.3430    11.7370    26.0210 
   91.7500     2.2190   -27.0350    55.8900    10.1540     8.2280    10.0170    26.0280 
   91.8750     2.1880   -27.0750    58.7850     9.6960     7.9470     8.7340    26.0480 
   92.0000     2.1630   -27.1170    63.6460     9.2780     7.6360     8.4250    25.9990 
   92.1250     2.1490   -27.1580    66.0580     9.0230     7.3930     8.6140    25.8990 
   92.2500     2.1460   -27.2000    66.1740     8.9310     7.2460     8.6380    25.8230 
   92.3750     2.1470   -27.2420    66.3070     8.9520     7.1880     8.4940    25.7960 
   92.5000     2.1440   -27.2830    66.3570     9.0270     7.1860     8.3630    25.7890 
   92.6250     2.1350   -27.3170    65.8470     9.1260     7.2150     8.2330    25.7730 
   92.7500     2.1230   -27.3310    65.5340     9.2460     7.2630     8.3350    25.7290 
   92.8750     2.1140   -27.3330    65.1080     9.3570     7.3100     8.5830    25.6670 
   93.0000     2.1120   -27.3310    63.9250     9.4100     7.3250     8.8000    25.6300 
   93.1250     2.1170   -27.3120    62.9910     9.3710     7.2850     8.8690    25.6510 
   93.2500     2.1240   -27.2650    63.6440     9.2540     7.1970     8.8510    25.7300 
   93.3750     2.1280   -27.2020    64.5920     9.1340     7.0990     8.8370    25.8490 
   93.5000     2.1270   -27.1200    64.4250     9.0870     7.0370     8.9010    25.9330 
   93.6250     2.1250   -27.0170    63.6320     9.1270     7.0300     9.0680    25.8980 
   93.7500     2.1260   -26.8890    62.4840     9.2060     7.0590     9.3510    25.7650 
   93.8750     2.1360   -26.7320    60.3440     9.2320     7.0780     9.5470    25.6330 
   94.0000     2.1530   -26.5530    58.3230     9.1600     7.0610     9.2480    25.5450 
   94.1250     2.1700   -26.3640    58.2480     9.0190     7.0170     8.4230    25.4780 
   94.2500     2.1780   -26.1700    60.0310     8.8940     6.9910     7.7320    25.4270 
   94.3750     2.1760   -25.9430    62.1650     8.9030     7.0520     7.7610    25.3890 
   94.5000     2.1670   -25.6990    63.4340     9.1310     7.2510     8.3630    25.3680 
   94.6250     2.1560   -25.4330    62.8990     9.6240     7.6160     9.1210    25.3610 
   94.7500     2.1470   -25.0820    61.3350    10.3930     8.1610     9.7590    25.3580 
   94.8750     2.1450   -24.7880    61.1350    11.3200     8.8250    10.0690    25.3640 
   95.0000     2.1550   -24.3680    62.4210    12.0570     9.3950    10.1070    25.3970 
   95.1250     2.1740   -23.8070    63.3090    12.1630     9.5700     9.9870    25.4810 
   95.2500     2.1970   -23.2500    64.3960    11.3610     9.1250     9.7530    25.6470 
   95.3750     2.2220   -22.7110    69.2090     9.7680     8.0790     9.0540    25.9270 
   95.5000     2.2520   -22.1800    76.3510     7.9690     6.7990     7.4310    26.2820 
   95.6250     2.2830   -21.6770    81.3130     6.5160     5.6700     5.5160    26.6190 
   95.7500     2.3030   -21.2440    82.8950     5.6420     4.8840     4.4510    26.8520 
   95.8750     2.3000   -20.9240    82.8950     5.4010     4.5280     4.5410    26.9680 
   96.0000     2.2780   -20.7250    82.2430     5.6380     4.5470     5.2160    27.0180 
   96.1250     2.2450   -20.6190    80.5480     6.1190     4.8190     5.8200    27.0520 
   96.2500     2.2100   -20.5940    78.3620     6.6300     5.2200     6.1200    27.0790 
   96.3750     2.1890   -20.6560    76.8000     6.9850     5.6130     6.3030    27.0990 
   96.5000     2.1860   -20.7850    75.7480     7.1620     5.9280     6.4310    27.1160 
   96.6250     2.1950   -20.9270    74.6850     7.2550     6.1660     6.3250    27.1270 
   96.7500     2.1980   -21.0450    73.5860     7.3330     6.3410     6.1380    27.0740 
   96.8750     2.1880   -21.1310    73.1810     7.3670     6.4240     6.2990    26.8870 
   97.0000     2.1770   -21.1840    75.1130     7.2630     6.3600     6.8560    26.6680 
   97.1250     2.1820   -21.2030    79.5250     6.9490     6.1130     7.0710    26.6120 
   97.2500     2.1990   -21.1920    84.1270     6.4420     5.6980     6.1340    26.7760 
   97.3750     2.2120   -21.1730    86.3460     5.8600     5.1990     4.9080    26.9990 
   97.5000     2.2210   -21.1770    86.0950     5.3510     4.7280     4.2520    27.1070 
   97.6250     2.2350   -21.2250    85.4500     4.9980     4.3610     4.0750    27.0750 
   97.7500     2.2550   -21.3210    85.2470     4.8250     4.1280     4.0790    26.9690 
   97.8750     2.2780   -21.4910    85.3910     4.8220     4.0400     4.1450    26.8520 
   98.0000     2.2960   -21.7580    87.0330     4.9410     4.0700     4.2600    26.7540 
   98.1250     2.3050   -22.1270    90.9230     5.1340     4.1820     4.4040    26.6780 
   98.2500     2.3030   -22.5770    95.8330     5.3690     4.3480     4.6360    26.6250 
   98.3750     2.2960   -23.0650    98.3460     5.6050     4.5340     5.0240    26.5930 
   98.5000     2.2910   -23.5520    96.7370     5.8090     4.7130     5.3740    26.5670 
   98.6250     2.2900   -24.0630    92.4690     5.9930     4.8820     5.5800    26.5380 
   98.7500     2.2860   -24.6490    87.8010     6.2100     5.0730     5.6840    26.5090 
   98.8750     2.2720   -25.2940    84.1730     6.5570     5.3460     5.7930    26.4660 
   99.0000     2.2500   -25.9480    80.8980     7.0990     5.7460     6.2430    26.3940 
   99.1250     2.2260   -26.5900    76.7860     7.8230     6.2710     7.4550    26.2830 
   99.2500     2.2050   -27.2080    71.7910     8.6300     6.8710     9.0400    26.1640 
   99.3750     2.1840   -27.7890    66.6160     9.3220     7.4230     9.9510    26.0620 
   99.5000     2.1590   -28.3300    62.7170     9.7530     7.8200     9.9570    25.9320 
   99.6250     2.1350   -28.8090    60.9880     9.9530     8.0510     9.6710    25.7550 
   99.7500     2.1280   -29.1940    60.6880    10.1020     8.2040     9.5680    25.6100 
   99.8750     2.1480   -29.4680    60.7630    10.4410     8.4240    10.1240    25.5870 
