~V
VERS. 2.00: Ver 2.00
~W
STRT.M 55.0000:
STOP.M 247.0000:
STEP.M 0.1250:
NULL. -999.2500:
UWI. F10183:
~C
DEPT.M :
SP.MV :
GR.API :
RML.OHMM :
RI. :
RXO.OHMM :
CALI.CM :
DEN.GM/CC :
~A
# ...
  190.0000   -10.3640    88.7910     7.8890     6.9450     8.0240    24.7460     2.4400 
  190.1250   -10.9130    89.1670     7.7660     6.7900     7.9740    24.7280     2.4380 
  190.2500   -11.5020    88.1060     7.6640     6.6600     7.8900    24.7040     2.4390 
  190.3750   -12.1640    87.3010     7.6200     6.5880     7.8150    24.6980     2.4390 
  190.5000   -12.8780    87.3910     7.6850     6.6110     7.7580    24.6960     2.4370 
  190.6250   -13.5680    85.1950     7.9570     6.8030     7.8310    24.6630     2.4300 
  190.7500   -14.1660    80.1620     8.4520     7.1770     8.2310    24.6220     2.4210 
  190.8750   -14.6270    75.0040     9.1550     7.7320     9.0530    24.5810     2.4140 
  191.0000   -14.9600    73.1660     9.9810     8.4150    10.1750    24.5430     2.4130 
  191.1250   -15.1660    72.6170    10.7330     9.0910    11.3340    24.5290     2.4220 
  191.2500   -15.2280    69.6180    11.2080     9.5830    12.4180    24.5110     2.4350 
  191.3750   -15.1080    67.5120    11.2720     9.7540    12.9000    24.4740     2.4470 
  191.5000   -14.7700    71.0080    10.9110     9.5530    12.3680    24.4530     2.4520 
  191.6250   -14.2240    76.4070    10.2140     9.0150    11.2780    24.4670     2.4490 
  191.7500   -13.5410    76.0210     9.4370     8.3560    10.1220    24.4630     2.4420 
  191.8750   -12.7930    73.7550     8.7350     7.7150     9.2460    24.4400     2.4360 
  192.0000   -11.9750    75.3920     8.1960     7.1900     8.6610    24.4200     2.4330 
  192.1250   -11.0950    79.6280     7.9120     6.8710     8.3420    24.3890     2.4330 
  192.2500   -10.2540    82.9060     7.8880     6.7720     8.1610    24.3720     2.4360 
  192.3750    -9.4820    83.7050     8.1550     6.9220     8.1400    24.3710     2.4420 
  192.5000    -8.8320    81.2840     8.7110     7.3290     8.4060    24.3580     2.4530 
  192.6250    -8.3100    77.9560     9.4970     7.9750     9.1690    24.3520     2.4690 
  192.7500    -7.9440    75.6050    10.2730     8.6850    10.2890    24.3570     2.4830 
  192.8750    -7.6970    72.9710    10.7980     9.2660    11.3850    24.3430     2.4930 
  193.0000    -7.5500    70.7390    10.8560     9.5160    11.8160    24.3250     2.4940 
  193.1250    -7.4020    71.7290    10.2740     9.2240    11.2040    24.3260     2.4860 
  193.2500    -7.2390    72.9370     9.3300     8.5280    10.0570    24.3080     2.4750 
  193.3750    -7.0340    72.6730     8.3010     7.6210     8.7880    24.2830     2.4630 
  193.5000    -6.7320    71.6040     7.4570     6.7230     7.5870    24.2800     2.4530 
  193.6250    -6.3980    68.0920     6.9700     6.0190     6.6280    24.2660     2.4470 
  193.7500    -6.0520    61.1400     6.7480     5.5280     5.7220    24.2470     2.4430 
  193.8750    -5.7460    53.6110     6.4710     5.2300     5.1000    24.2580     2.4430 
  194.0000    -5.4810    49.9820     6.3570     5.0830     4.7860    24.2720     2.4440 
  194.1250    -5.3760    52.1410     6.3460     5.0540     4.5550    24.2660     2.4460 
  194.2500    -5.3560    56.1760     6.3700     5.0830     4.4700    24.2790     2.4460 
  194.3750    -5.3910    60.0650     6.4050     5.1440     4.5250    24.2890     2.4430 
  194.5000    -5.5050    62.5960     6.4400     5.2220     4.6810    24.2750     2.4340 
  194.6250    -5.6290    65.2080     6.4680     5.3040     4.8810    24.2750     2.4220 
  194.7500    -5.7220    69.0960     6.4860     5.3790     5.1010    24.2700     2.4100 
  194.8750    -5.7690    74.2510     6.4930     5.4410     5.3130    24.2360     2.4040 
  195.0000    -5.7740    77.1980     6.4930     5.4880     5.4550    24.2210     2.4060 
  195.1250    -5.7420    75.0550     6.5070     5.5310     5.5650    24.2290     2.4160 
  195.2500    -5.6790    73.1010     6.5560     5.5890     5.7270    24.2210     2.4260 
  195.3750    -5.6530    74.4710     6.6520     5.6760     5.9340    24.2200     2.4330 
  195.5000    -5.6340    77.2180     6.7820     5.7880     6.1230    24.2330     2.4340 
  195.6250    -5.6580    77.8460     6.9010     5.8940     6.3860    24.2230     2.4290 
  195.7500    -5.7190    77.9660     6.9650     5.9560     6.6350    24.2150     2.4220 
  195.8750    -5.8260    78.1830     6.9630     5.9530     6.8100    24.2250     2.4180 
  196.0000    -5.9750    78.2830     6.9160     5.8950     6.8060    24.2210     2.4190 
  196.1250    -6.1290    75.2660     6.8810     5.8190     6.4810    24.2130     2.4260 
  196.2500    -6.3140    70.3600     6.9000     5.7690     6.2110    24.2230     2.4340 
  196.3750    -6.4800    70.8800     6.9770     5.7600     6.4600    24.2200     2.4410 
  196.5000    -6.6530    78.8170     7.0790     5.7830     6.9440    24.2120     2.4430 
  196.6250    -6.8270    84.5020     7.1830     5.8280     7.2340    24.2230     2.4400 
  196.7500    -6.9950    82.0020     7.3480     5.9210     7.3690    24.2220     2.4370 
  196.8750    -7.1530    77.4100     7.7430     6.1580     7.5640    24.2170     2.4340 
  197.0000    -7.3360    76.5200     8.6440     6.7170     8.2030    24.2330     2.4320 
  197.1250    -7.5700    78.0150    10.5580     7.9750    10.7960    24.2330     2.4290 
  197.2500    -7.7910    78.6240    13.6050    10.1300    16.1260    24.2210     2.4190 
  197.3750    -8.0220    76.1730    17.7380    13.3300    24.2320    24.2290     2.4020 
  197.5000    -8.2890    70.7540    22.5130    17.4410    34.1930    24.2290     2.3780 
  197.6250    -8.6140    65.8640    26.9040    21.8510    42.6020    24.2060     2.3520 
  197.7500    -9.0030    63.9270    29.8920    25.4940    45.0000    24.1980     2.3310 
  197.8750    -9.4050    63.4560    31.0110    27.5880    42.7700    24.1840     2.3200 
  198.0000    -9.8140    64.0290    30.6400    28.0550    41.2780    24.1410     2.3180 
  198.1250   -10.1810    66.8070    30.0130    27.7140    36.9930    24.1030     2.3210 
  198.2500   -10.5620    69.4790    30.4700    27.9060    35.3650    24.0550     2.3220 
  198.3750   -10.9620    68.9620    32.7770    29.4670    38.0230    23.9770     2.3180 
  198.5000   -11.3890    66.3770    37.4720    33.0630    43.1090    23.9060     2.3100 
  198.6250   -11.8350    65.5370    45.6180    39.8740    49.6270    23.8430     2.2990 
  198.7500   -12.2620    65.9630    57.1360    49.9690    57.2420    23.7490     2.2880 
  198.8750   -12.7070    64.5120    71.8560    63.2210    67.6240    23.6550     2.2760 
  199.0000   -13.1350    59.5910    88.7400    78.6180    76.6980    23.5820     2.2640 
  199.1250   -13.5590    54.1320   105.4130    93.9350    82.7320    23.5190     2.2540 
  199.2500   -13.9460    52.7880   118.9830   106.6130    87.5350    23.5050     2.2450 
  199.3750   -14.3070    55.6250   127.3800   114.9310    90.4630    23.5380     2.2390 
  199.5000   -14.6120    58.8240   130.0380   118.3580    87.3890    23.5760     2.2350 
  199.6250   -14.8540    57.2170   127.6540   117.2210    74.1490    23.6330     2.2350 
  199.7500   -15.0760    53.8380   122.9410   113.7410    66.5950    23.7380     2.2380 
  199.8750   -15.2690    53.2300   117.3160   109.1720    63.7360    23.8480     2.2460 
  200.0000   -15.4540    54.8950   112.0410   104.6760    63.7330    23.9520     2.2570 
  200.1250   -15.5730    56.0630   108.4410   101.5030    66.0430    24.0760     2.2680 
  200.2500   -15.7010    56.3960   106.8210   100.0720    69.8730    24.1730     2.2760 
  200.3750   -15.8390    55.6640   107.5650   100.5130    74.7740    24.2040     2.2750 
  200.5000   -15.9850    52.7930   110.5910   102.6800    77.8940    24.2060     2.2660 
  200.6250   -16.1560    49.6000   115.8890   106.3470    73.3590    24.2010     2.2510 
  200.7500   -16.2780    49.8720   122.4920   110.5980    71.5900    24.1730     2.2390 
  200.8750   -16.3820    53.0760   128.4880   114.6140    73.2030    24.1470     2.2410 
  201.0000   -16.4430    56.5880   131.6360   117.5580    77.5440    24.1370     2.2590 
  201.1250   -16.5570    58.0870   132.1160   118.5140    82.3180    24.1160     2.2880 
