~V
VERS. 2.00: Ver 2.00
~W
STRT.M 50.0000:
STOP.M 232.0000:
STEP.M 0.1250:
NULL. -999.2500:
UWI. F10160:
~C
DEPT.M :
SP.MV :
DEN.GM/CC :
GR.API :
RML.OHMM :
RI. :
RXO.OHMM :
CALI.CM :
~A
# ...
  196.2500   -19.3640     2.4370    71.8000    16.0700    11.1870    19.4240    24.4360 
  196.3750   -19.1770     2.4110    67.3220    22.3240    15.2620    34.3000    24.1570 
  196.5000   -18.9770     2.3810    63.2760    28.8060    19.7990    45.3360    23.9220 
  196.6250   -18.7630     2.3570    62.7150    32.1070    22.8270    42.1470    23.8940 
  196.7500   -18.5510     2.3410    64.9730    30.8800    23.1800    38.3300    23.9940 
  196.8750   -18.3540     2.3280    67.0690    26.6460    21.3380    32.9730    24.1070 
  197.0000   -18.1750     2.3160    67.8270    22.0010    18.6790    22.5990    24.1570 
  197.1250   -18.0260     2.3070    69.1330    18.7140    16.3820    18.3700    24.1540 
  197.2500   -17.9150     2.3040    69.4310    16.7860    14.7700    16.3920    24.1510 
  197.3750   -17.8560     2.3100    66.5850    15.9610    13.8470    15.6690    24.1520 
  197.5000   -17.8350     2.3180    63.7440    15.9160    13.5130    15.3810    24.1500 
  197.6250   -17.8450     2.3140    64.8430    16.3080    13.6240    16.0010    24.1460 
  197.7500   -17.8660     2.2980    66.9750    16.6880    13.8530    17.1520    24.1850 
  197.8750   -17.9090     2.2770    66.3760    16.8360    14.0020    17.5610    24.3230 
  198.0000   -17.9800     2.2600    63.8960    16.6930    13.9770    17.1370    24.5450 
  198.1250   -18.0790     2.2580    63.1750    16.3390    13.7890    16.5520    24.7270 
  198.2500   -18.1840     2.2660    63.7610    15.9830    13.5670    16.1110    24.7990 
  198.3750   -18.2750     2.2750    63.5800    15.7430    13.3970    15.4230    24.8030 
  198.5000   -18.3580     2.2800    64.1540    15.6490    13.3090    15.7830    24.7980 
  198.6250   -18.4500     2.2870    66.7170    15.6280    13.2630    16.4840    24.8110 
  198.7500   -18.5480     2.3040    68.5540    15.5480    13.1790    16.8470    24.8380 
  198.8750   -18.6400     2.3290    67.7900    15.3620    13.0290    16.8150    24.8690 
  199.0000   -18.7230     2.3530    65.0180    15.1140    12.8510    16.4950    24.8900 
  199.1250   -18.7800     2.3570    61.0050    14.9620    12.7550    15.8800    24.8960 
  199.2500   -18.8210     2.3380    57.9580    15.0200    12.8150    15.2460    24.8980 
  199.3750   -18.8450     2.3060    57.8610    15.2960    13.0390    15.0820    24.8560 
  199.5000   -18.8550     2.2720    60.4790    15.6780    13.3550    15.8450    24.7410 
  199.6250   -18.8480     2.2510    61.8960    15.9420    13.6070    17.9410    24.6010 
  199.7500   -18.8460     2.2450    61.3240    15.9720    13.6940    17.3270    24.5240 
  199.8750   -18.8480     2.2500    61.3990    15.7980    13.6160    15.7560    24.5120 
  200.0000   -18.8610     2.2600    63.2500    15.5230    13.4420    14.5760    24.5160 
  200.1250   -18.8830     2.2710    64.8210    15.1990    13.2140    14.4650    24.5110 
  200.2500   -18.9140     2.2810    63.5490    14.7690    12.9140    15.1000    24.5090 
  200.3750   -18.9570     2.2880    60.3650    14.1570    12.4970    16.2500    24.5090 
  200.5000   -19.0280     2.2970    59.4670    13.3850    11.9750    16.4270    24.5130 
  200.6250   -19.1150     2.3160    64.7580    12.6550    11.4630    14.6840    24.5150 
  200.7500   -19.2010     2.3440    69.6630    12.2220    11.1270    12.6260    24.5130 
  200.8750   -19.2840     2.3730    69.7510    12.2250    11.0840    12.1920    24.5080 
  201.0000   -19.3560     2.3900    65.2500    12.6520    11.3610    14.4200    24.5060 
  201.1250   -19.4250     2.3830    62.0350    13.3410    11.9000    15.7570    24.5510 
  201.2500   -19.5010     2.3620    61.8880    13.9630    12.4640    15.9270    24.6580 
  201.3750   -19.5770     2.3380    62.6940    14.2840    12.8530    15.3560    24.7860 
  201.5000   -19.6630     2.3190    63.1990    14.2060    12.9390    14.9960    24.8690 
  201.6250   -19.7620     2.3110    64.6610    13.7980    12.7190    14.6050    24.8810 
  201.7500   -19.8740     2.3100    67.0230    13.3290    12.3970    14.1530    24.8830 
  201.8750   -19.9750     2.3120    69.6480    12.9300    12.0850    13.6700    24.9030 
  202.0000   -20.0500     2.3150    71.7330    12.6310    11.8200    13.4030    24.9330 
  202.1250   -20.1140     2.3200    71.2620    12.3900    11.5880    13.8890    24.9580 
  202.2500   -20.1790     2.3270    68.9120    12.1210    11.3470    14.7270    24.9700 
  202.3750   -20.2690     2.3320    67.0110    11.7940    11.0820    14.7000    24.9720 
  202.5000   -20.3900     2.3320    67.2790    11.4640    10.8330    13.3860    24.9740 
  202.6250   -20.5380     2.3290    68.6330    11.3190    10.7220    12.9260    24.9770 
  202.7500   -20.6800     2.3320    67.6360    11.4900    10.8340    14.7680    24.9810 
  202.8750   -20.7950     2.3490    64.6580    12.0430    11.2190    17.8190    24.9770 
  203.0000   -20.8810     2.3760    61.6460    12.9330    11.8690    20.6480    24.9550 
  203.1250   -20.9420     2.3900    60.8310    13.9840    12.6980    21.3670    24.9170 
  203.2500   -20.9830     2.3790    60.9030    14.8920    13.4830    21.1110    24.8820 
  203.3750   -21.0190     2.3470    60.1690    15.4680    14.0600    21.0320    24.8410 
  203.5000   -21.0500     2.3090    59.7900    15.6740    14.3640    20.2740    24.7620 
  203.6250   -21.0820     2.2860    60.6580    15.6030    14.4300    19.2390    24.6060 
  203.7500   -21.1430     2.2750    61.1420    15.5120    14.4470    17.1900    24.4310 
  203.8750   -21.2310     2.2730    61.6990    15.5740    14.5460    15.8770    24.3030 
  204.0000   -21.3360     2.2790    61.7120    15.8780    14.8000    16.0710    24.2660 
  204.1250   -21.4780     2.2940    60.7190    16.4720    15.2540    17.4480    24.3500 
  204.2500   -21.6620     2.3150    60.1390    17.2760    15.8640    18.8920    24.5150 
  204.3750   -21.8830     2.3350    61.3670    18.2470    16.6090    20.7130    24.6950 
  204.5000   -22.1180     2.3480    62.2580    19.3260    17.4480    22.2000    24.8060 
  204.6250   -22.3490     2.3450    59.9800    20.3820    18.2860    23.9150    24.8170 
  204.7500   -22.5740     2.3180    57.4250    21.2530    19.0000    25.2160    24.7960 
  204.8750   -22.8020     2.2660    58.3060    21.8050    19.4890    25.9730    24.7800 
  205.0000   -23.0320     2.2080    61.0350    21.9370    19.6710    25.4110    24.7710 
  205.1250   -23.2380     2.1770    61.6430    21.5740    19.4540    23.5490    24.7780 
  205.2500   -23.4250     2.1920    60.6920    20.9310    18.9720    20.9730    24.7560 
  205.3750   -23.5960     2.2540    61.5660    20.2240    18.3890    18.8220    24.6450 
  205.5000   -23.7450     2.3360    65.4620    19.7130    17.9080    17.3220    24.4880 
  205.6250   -23.8570     2.3890    69.2760    19.8680    17.8710    16.6500    24.4220 
  205.7500   -23.9400     2.4040    71.5770    20.9650    18.4880    19.3960    24.4440 
  205.8750   -24.0250     2.4010    72.6010    23.1940    19.9090    26.0890    24.4740 
  206.0000   -24.1580     2.4000    72.6180    26.5440    22.1670    33.6460    24.4910 
  206.1250   -24.3630     2.4050    70.9180    30.7810    25.1710    40.7380    24.5440 
  206.2500   -24.5930     2.4050    67.1980    34.9930    28.3000    53.6620    24.5990 
  206.3750   -24.8290     2.3890    63.1390    38.3030    30.9280    69.6060    24.6260 
  206.5000   -25.0490     2.3540    60.3650    40.1490    32.6030    84.1590    24.6560 
  206.6250   -25.2250     2.3140    61.0180    40.4790    33.1860    91.8130    24.7110 
  206.7500   -25.3330     2.2920    63.1730    40.1630    33.2010    73.5110    24.7400 
  206.8750   -25.3830     2.2940    64.3530    39.7940    33.0260    54.4780    24.6980 
  207.0000   -25.3950     2.3090    64.1790    39.8070    32.9800    46.9900    24.6110 
  207.1250   -25.3960     2.3170    62.7620    40.5240    33.3350    46.1660    24.5740 
  207.2500   -25.4030     2.3200    61.6630    41.8050    34.0680    45.9380    24.6310 
  207.3750   -25.3900     2.3400    61.4300    43.3810    35.0340    45.5500    24.7260 
