~V
VERS. 2.00: Ver 2.00
~W
STRT.M 50.0000:
STOP.M 230.0000:
STEP.M 0.1250:
NULL. -999.2500:
UWI. F10167:
~C
DEPT.M :
DEN.GM/CC :
GR.API :
RML.OHMM :
RI. :
RXO.OHMM :
CALI.CM :
SP.MV :
~A
# ...
  196.2500     2.4070    66.4550     7.9640     6.8670     8.1890    24.7160    -9.4500 
  196.3750     2.4110    69.6070     8.3150     7.1940     9.4310    24.6500    -9.9150 
  196.5000     2.3790    73.2290     8.4620     7.3820    10.2930    24.6960   -10.3320 
  196.6250     2.3220    76.8440     8.3630     7.3510    10.1030    24.8840   -10.6260 
  196.7500     2.2760    79.7560     8.1670     7.1890     8.8590    25.1030   -10.7850 
  196.8750     2.2650    81.1110     8.0230     7.0080     7.5010    25.2670   -10.9670 
  197.0000     2.2940    80.5650     8.0430     6.9150     7.3740    25.2670   -11.1750 
  197.1250     2.3420    81.4570     8.2810     6.9890     8.8400    25.1480   -11.3360 
  197.2500     2.3780    84.0710     8.6320     7.1860    10.5940    25.0080   -11.5610 
  197.3750     2.3890    84.4090     9.0020     7.4400    11.4840    24.9180   -11.7910 
  197.5000     2.3780    81.4270     9.3220     7.6820    11.6200    24.8260   -12.0180 
  197.6250     2.3590    79.8350     9.5820     7.8670    11.3770    24.6730   -12.3550 
  197.7500     2.3460    81.1670     9.8510     8.0260    11.3790    24.4510   -12.7600 
  197.8750     2.3480    82.3680    10.1940     8.2110    11.7690    24.1150   -13.1880 
  198.0000     2.3640    80.4770    10.6510     8.4740    12.3020    23.7180   -13.5910 
  198.1250     2.3930    76.3690    11.2690     8.8720    13.8390    23.4510   -13.9300 
  198.2500     2.4280    73.1390    12.0480     9.4120    15.5140    23.3220   -14.1680 
  198.3750     2.4710    72.0870    13.0360    10.1200    16.3770    23.2810   -14.3100 
  198.5000     2.5190    71.3400    14.2990    11.0400    16.3450    23.2960   -14.3260 
  198.6250     2.5630    68.6520    15.9220    12.2610    15.0310    23.4810   -14.2250 
  198.7500     2.5950    64.5910    17.7070    13.6960    14.3010    23.8620   -14.0110 
  198.8750     2.6100    61.7880    19.2490    15.0990    18.3970    24.2260   -13.6390 
  199.0000     2.6050    62.2700    19.9470    16.0050    23.3020    24.4020   -13.2520 
  199.1250     2.5780    65.7320    19.0290    15.7050    25.9700    24.3890   -12.8550 
  199.2500     2.5310    69.6650    16.7880    14.2650    24.2920    24.3570   -12.4350 
  199.3750     2.4710    72.6280    13.8660    12.1040    19.0910    24.4050   -12.0640 
  199.5000     2.4090    73.6840    11.0660     9.8480    11.5670    24.6140   -11.7140 
  199.6250     2.3660    71.3610     9.1050     8.0940     8.2200    24.8530   -11.3440 
  199.7500     2.3470    65.9230     7.9750     6.9410     6.8240    24.9120   -11.0470 
  199.8750     2.3420    59.2280     7.4960     6.3210     6.7420    24.8810   -10.7450 
  200.0000     2.3350    52.9060     7.4120     6.0910     7.3200    24.8800   -10.3230 
  200.1250     2.3120    48.8560     7.4700     6.0940     7.6700    24.9930    -9.8310 
  200.2500     2.2780    47.4060     7.4600     6.1270     7.2850    25.1520    -9.2270 
  200.3750     2.2410    47.6840     7.3150     6.0960     6.5540    25.2580    -8.5430 
  200.5000     2.2130    48.4030     7.0600     5.9790     6.1190    25.0880    -7.8590 
  200.6250     2.2020    49.8270     6.7760     5.8050     5.7520    24.7820    -7.0810 
  200.7500     2.2090    51.5600     6.5480     5.6430     5.6600    24.6810    -6.2360 
  200.8750     2.2330    54.9030     6.4100     5.5270     5.5680    24.6520    -5.4250 
  201.0000     2.2720    60.6170     6.3620     5.4720     5.5350    24.6530    -4.7090 
  201.1250     2.3180    66.0760     6.3900     5.4760     5.7730    24.7550    -4.1060 
  201.2500     2.3580    67.5630     6.4500     5.5100     6.0470    24.7900    -3.5910 
  201.3750     2.3810    66.8470     6.5120     5.5520     6.2500    24.7690    -3.1390 
  201.5000     2.3850    68.3020     6.5540     5.5840     6.4460    24.7070    -2.7530 
  201.6250     2.3760    72.0960     6.5560     5.5870     6.5220    24.6470    -2.4730 
  201.7500     2.3670    74.3510     6.5230     5.5630     6.4910    24.6540    -2.2790 
  201.8750     2.3660    74.1540     6.4630     5.5160     6.4310    24.7290    -2.1570 
  202.0000     2.3740    72.7690     6.3860     5.4520     6.4060    24.7740    -2.0530 
  202.1250     2.3880    71.3820     6.3050     5.3790     6.4680    24.7710    -1.9940 
  202.2500     2.4040    70.1200     6.2340     5.3110     6.4560    24.8070    -2.0400 
  202.3750     2.4190    68.6030     6.1860     5.2580     6.2780    24.8440    -2.1000 
  202.5000     2.4290    67.8890     6.1690     5.2290     6.2410    24.7990    -2.1600 
  202.6250     2.4290    70.1190     6.1890     5.2340     6.2500    24.7200    -2.3010 
  202.7500     2.4200    71.9960     6.2320     5.2650     6.3960    24.6860    -2.4230 
  202.8750     2.4060    70.2530     6.2870     5.3170     6.4530    24.6830    -2.5640 
  203.0000     2.3920    66.5590     6.3470     5.3820     6.6560    24.6890    -2.7750 
  203.1250     2.3840    66.9290     6.4230     5.4640     6.8540    24.6970    -2.9820 
  203.2500     2.3820    72.4690     6.5380     5.5760     6.9680    24.7040    -3.2340 
  203.3750     2.3800    79.6360     6.7130     5.7390     7.0800    24.7430    -3.5720 
  203.5000     2.3760    84.3420     6.9600     5.9680     7.3600    24.8050    -3.9030 
  203.6250     2.3690    83.5240     7.2650     6.2710     7.7900    24.8120    -4.2090 
  203.7500     2.3610    80.3100     7.5710     6.6020     8.4350    24.7810    -4.4960 
  203.8750     2.3560    79.0810     7.8320     6.9170     8.9720    24.7400    -4.7590 
  204.0000     2.3530    80.4540     8.0220     7.1790     8.8730    24.7180    -4.9620 
  204.1250     2.3510    81.2900     8.1350     7.3580     8.6940    24.7300    -5.1110 
  204.2500     2.3500    80.2520     8.2150     7.4820     8.5850    24.7680    -5.2310 
  204.3750     2.3490    78.5490     8.2960     7.5780     8.8350    24.8000    -5.2850 
  204.5000     2.3520    77.3130     8.3940     7.6690     9.5790    24.8270    -5.3160 
  204.6250     2.3570    77.7890     8.4950     7.7550     9.7450    24.8600    -5.3480 
  204.7500     2.3620    78.1960     8.5550     7.8050     9.4180    24.8730    -5.3920 
  204.8750     2.3660    77.4110     8.5330     7.7870     9.3620    24.8730    -5.4880 
  205.0000     2.3680    77.3130     8.4250     7.6840     9.7860    24.8750    -5.6450 
  205.1250     2.3700    77.0780     8.2940     7.5300     9.7680    24.8640    -5.8650 
  205.2500     2.3730    75.2040     8.3030     7.4380     9.1490    24.8390    -6.1170 
  205.3750     2.3750    73.2340     8.6310     7.5510     8.6300    24.8080    -6.4460 
  205.5000     2.3730    74.2680     9.5190     8.0420     8.9470    24.7820    -6.8820 
  205.6250     2.3630    75.2490    11.6210     9.2590    10.7210    24.7770    -7.3380 
  205.7500     2.3450    70.9580    15.1090    11.3970    13.7940    24.7760    -7.8620 
  205.8750     2.3230    64.4660    19.8790    14.6990    19.2330    24.7870    -8.3850 
  206.0000     2.3010    61.5660    25.5090    19.2140    30.6330    24.8000    -8.9240 
  206.1250     2.2880    62.9030    31.2750    24.5620    39.8070    24.7650    -9.4720 
  206.2500     2.2850    64.0230    36.1990    29.5720    42.0550    24.6720    -9.9580 
  206.3750     2.2910    63.1470    39.4990    33.2950    43.2340    24.5860   -10.4500 
  206.5000     2.3000    61.6280    41.0380    35.3280    45.4860    24.5980   -10.8910 
  206.6250     2.3030    62.0720    41.4680    35.9560    41.7830    24.6540   -11.2700 
  206.7500     2.2990    63.8120    42.1740    36.4170    36.6120    24.7470   -11.6010 
  206.8750     2.2910    64.2430    44.0350    37.5870    34.4240    24.8300   -11.9330 
  207.0000     2.2840    62.0650    47.5080    40.0290    34.3260    24.9070   -12.2610 
  207.1250     2.2800    57.8400    52.7220    44.0800    39.7750    24.9300   -12.5570 
  207.2500     2.2760    54.8520    58.6260    49.0030    51.8980    24.9180   -12.8730 
  207.3750     2.2660    53.3510    64.0570    53.8920    64.1200    24.8920   -13.1980 
