~V
VERS. 2.00: Ver 2.00
~W
STRT.M 57.0000:
STOP.M 247.0000:
STEP.M 0.1250:
NULL. -999.2500:
UWI. F10194:
~C
DEPT.M :
SP.MV :
DEN.GM/CC :
GR.API :
RML.OHMM :
RI. :
RXO.OHMM :
CALI.CM :
~A
# ...
  102.0000    -9.2530     2.3080    99.8050     5.4340     3.9830     4.7230    24.6560 
  102.1250    -9.5840     2.3100    97.8450     5.5380     4.1140     4.8600    24.7050 
  102.2500   -10.0040     2.3100    96.4730     5.6710     4.2710     5.0210    24.7910 
  102.3750   -10.5240     2.3050    97.2810     5.8590     4.4540     5.2280    24.9010 
  102.5000   -11.1460     2.2970    98.7920     6.0800     4.6520     5.4620    25.0290 
  102.6250   -11.8610     2.2910    97.9910     6.2980     4.8460     5.6810    25.1620 
  102.7500   -12.6790     2.2840    94.0970     6.4920     5.0270     5.8420    25.3060 
  102.8750   -13.6350     2.2670    89.8190     6.6720     5.1940     5.9950    25.5000 
  103.0000   -14.6480     2.2410    87.8040     6.8620     5.3500     6.2940    25.7870 
  103.1250   -15.6360     2.2150    87.5950     7.0700     5.4980     6.8200    26.1250 
  103.2500   -16.5770     2.1990    86.3790     7.2720     5.6260     7.4600    26.3740 
  103.3750   -17.4800     2.1920    82.5690     7.4220     5.7140     7.9160    26.4740 
  103.5000   -18.3430     2.1910    78.1430     7.4990     5.7580     8.0010    26.4920 
  103.6250   -19.1740     2.1910    74.5960     7.5190     5.7720     7.8910    26.5000 
  103.7500   -19.9770     2.1860    71.9180     7.5200     5.7810     7.8350    26.5350 
  103.8750   -20.7020     2.1690    70.8800     7.5500     5.8170     7.9450    26.6290 
  104.0000   -21.3090     2.1470    71.4450     7.6180     5.8870     8.1560    26.7810 
  104.1250   -21.7830     2.1250    71.8820     7.6900     5.9730     8.3200    26.9730 
  104.2500   -22.1000     2.1100    71.8340     7.7150     6.0360     8.3180    27.1690 
  104.3750   -22.1960     2.1000    72.7090     7.6380     6.0320     8.0920    27.3100 
  104.5000   -22.0770     2.0870    73.8710     7.4610     5.9440     7.7540    27.3870 
  104.6250   -21.8110     2.0680    73.6580     7.2300     5.7900     7.4950    27.4080 
  104.7500   -21.4570     2.0510    72.7080     6.9980     5.6020     7.4080    27.3610 
  104.8750   -21.0700     2.0470    73.3750     6.8200     5.4250     7.4650    27.2520 
  105.0000   -20.7020     2.0560    75.7040     6.7350     5.3060     7.5980    27.1250 
  105.1250   -20.4210     2.0750    77.6950     6.7840     5.2920     7.7410    27.0390 
  105.2500   -20.3330     2.0980    78.4140     7.0160     5.4240     7.8920    26.9890 
  105.3750   -20.5250     2.1230    77.5970     7.4800     5.7410     8.3270    26.9540 
  105.5000   -20.9560     2.1410    75.0010     8.1210     6.2160     9.3460    26.9270 
  105.6250   -21.4880     2.1490    71.0040     8.8050     6.7630    10.8730    26.9090 
  105.7500   -22.0440     2.1520    67.2540     9.3650     7.2740    12.2600    26.8950 
  105.8750   -22.5950     2.1580    66.0120     9.6230     7.6050    12.7750    26.8830 
  106.0000   -23.1470     2.1560    67.2500     9.5350     7.6870    12.0010    26.9420 
  106.1250   -23.6580     2.1360    68.9850     9.1970     7.5420    11.0360    27.1520 
  106.2500   -24.0480     2.1020    69.1110     8.7520     7.2500    10.5360    27.4760 
  106.3750   -24.2970     2.0670    67.2590     8.3580     6.9300    10.1240    27.7680 
  106.5000   -24.5020     2.0380    66.0660     8.0980     6.6760     9.5700    27.9570 
  106.6250   -24.7700     2.0190    67.1470     7.9800     6.5260     9.0350    28.0700 
  106.7500   -25.1110     2.0090    68.7800     7.9700     6.4780     8.8790    28.1120 
  106.8750   -25.4810     1.9940    68.9630     8.0170     6.5030     9.0890    28.1390 
  107.0000   -25.8260     1.9590    67.8490     8.0640     6.5540     9.2500    28.2920 
  107.1250   -26.1310     1.9070    65.7100     8.0780     6.5890     9.1550    28.6590 
  107.2500   -26.4050     1.8620    62.2950     8.0510     6.5860     8.9010    29.0890 
  107.3750   -26.6310     1.8500    58.3590     7.9940     6.5410     8.6340    29.2510 
  107.5000   -26.7600     1.8650    55.8140     7.9240     6.4730     8.4510    29.1920 
  107.6250   -26.7750     1.8920    56.1480     7.8510     6.4020     8.3470    29.1360 
  107.7500   -26.7230     1.9210    59.0820     7.7760     6.3430     8.2470    29.0560 
  107.8750   -26.6520     1.9560    62.3330     7.7020     6.2980     8.1620    28.7770 
  108.0000   -26.5760     1.9910    64.3190     7.6410     6.2680     8.1770    28.4120 
  108.1250   -26.5100     2.0090    66.1100     7.6260     6.2620     8.3440    28.2390 
  108.2500   -26.4640     2.0000    68.4880     7.6990     6.3040     8.6090    28.3130 
  108.3750   -26.3970     1.9680    69.5320     7.9030     6.4250     8.8700    28.5280 
  108.5000   -26.2500     1.9230    68.3120     8.2110     6.6230     9.1130    28.7800 
  108.6250   -25.9620     1.8690    66.1430     8.5250     6.8500     9.3580    29.0900 
  108.7500   -25.4510     1.8080    64.7020     8.6970     7.0190     9.5510    29.5600 
  108.8750   -24.6070     1.7500    64.5270     8.5270     6.9820     9.4950    30.2810 
  109.0000   -23.4180     1.7110    64.8280     7.9490     6.6500     9.0110    31.0770 
  109.1250   -21.9360     1.7050    65.5580     7.0610     6.0440     8.0780    31.5120 
  109.2500   -20.2420     1.7430    69.2490     6.0660     5.2800     6.8340    31.0820 
  109.3750   -18.5180     1.8300    78.3080     5.2440     4.5600     5.6100    29.4050 
  109.5000   -16.9450     1.9520    89.4340     4.7810     4.0490     4.8350    27.2470 
  109.6250   -15.6240     2.0760    97.3570     4.7410     3.8330     4.7220    25.7240 
  109.7500   -14.6010     2.1650    99.8710     5.1220     3.9440     5.2080    25.0730 
  109.8750   -13.9390     2.2060    97.4820     5.9010     4.4060     6.1140    24.8760 
  110.0000   -13.6100     2.2250    92.7360     6.9280     5.1410     7.2850    24.7850 
  110.1250   -13.5270     2.2480    88.1840     7.9650     5.9930     8.6540    24.7130 
  110.2500   -13.5630     2.2840    85.0780     8.7450     6.7650    10.0670    24.6470 
  110.3750   -13.5100     2.3260    84.3780     8.9570     7.1800    10.6830    24.5910 
  110.5000   -13.2370     2.3470    86.4340     8.5390     7.0990     9.9240    24.5280 
  110.6250   -12.7230     2.3300    89.7920     7.6840     6.5830     8.2600    24.4640 
  110.7500   -12.0050     2.2920    92.6630     6.6870     5.8150     6.6480    24.4190 
  110.8750   -11.1320     2.2690    95.6810     5.8520     5.0410     5.6860    24.3920 
  111.0000   -10.1730     2.2680    99.8970     5.3100     4.4240     5.1600    24.3720 
  111.1250    -9.2150     2.2780   104.3250     5.0470     4.0180     4.8350    24.3800 
  111.2500    -8.3590     2.2890   107.4010     5.0090     3.8240     4.6360    24.4530 
  111.3750    -7.6780     2.3000   108.3870     5.1600     3.8380     4.4540    24.5730 
  111.5000    -7.1610     2.3100   107.4420     5.4470     4.0260     4.3210    24.6750 
  111.6250    -6.8040     2.3190   104.5400     5.8130     4.3400     4.3460    24.7290 
  111.7500    -6.5780     2.3320    99.6860     6.1870     4.7150     4.5620    24.7400 
  111.8750    -6.4480     2.3450    93.8860     6.4540     5.0520     4.9160    24.7050 
  112.0000    -6.4350     2.3440    89.1460     6.5200     5.2490     5.2570    24.6360 
  112.1250    -6.4990     2.3200    86.6870     6.3570     5.2480     5.3970    24.5640 
  112.2500    -6.5570     2.2880    86.7210     6.0050     5.0520     5.2490    24.5210 
  112.3750    -6.5700     2.2670    89.9450     5.5650     4.7260     4.9280    24.5260 
  112.5000    -6.5410     2.2610    95.5980     5.1570     4.3770     4.6480    24.5580 
  112.6250    -6.4710     2.2620   101.0950     4.8550     4.0870     4.5140    24.6020 
  112.7500    -6.3740     2.2650   104.3640     4.6780     3.8880     4.4840    24.6530 
  112.8750    -6.2700     2.2710   105.8210     4.6030     3.7860     4.5400    24.7020 
  113.0000    -6.1340     2.2820   108.4110     4.5830     3.7560     4.6280    24.7550 
  113.1250    -5.9830     2.2950   113.5330     4.5710     3.7670     4.6090    24.8030 
