~V
VERS. 2.00: Ver 2.00
~W
STRT.M 50.0000:
STOP.M 236.0000:
STEP.M 0.1250:
NULL. -999.2500:
UWI. F10180:
~C
DEPT.M :
SP.MV :
GR.API :
RML.OHMM :
RI. :
RXO.OHMM :
CALI.CM :
DEN.GM/CC :
~A
# ...
   83.7500    -6.7430    87.2460     9.3470     6.9840     9.0190    23.9880     2.2600 
   83.8750    -6.6370    91.6570     8.4270     6.3400     7.7020    24.2400     2.2920 
   84.0000    -6.6250    94.1470     7.4180     5.7870     6.6890    24.5700     2.3060 
   84.1250    -6.6940    93.4690     6.6020     5.5190     6.5500    24.7940     2.3040 
   84.2500    -6.7760    91.7310     6.2400     5.7540     6.8620    24.7600     2.3030 
   84.3750    -6.9930    89.2220     6.7050     6.9080     8.1460    24.6850     2.3390 
   84.5000    -7.3040    82.8930     8.2250     9.0980    13.0100    24.7060     2.4180 
   84.6250    -7.5940    72.1980    11.1600    12.1910    30.4180    24.7400     2.5180 
   84.7500    -7.9310    62.3550    15.2850    15.3690    59.1300    24.7310     2.5980 
   84.8750    -8.3560    59.5010    18.7510    16.9310    65.5200    24.6040     2.6030 
   85.0000    -8.7670    60.5100    19.6420    16.3350    38.0800    24.2760     2.5370 
   85.1250    -9.1880    61.7920    17.8770    14.1800    18.6830    23.8230     2.4280 
   85.2500    -9.5830    61.9670    14.9660    11.6740    11.8240    23.5290     2.3160 
   85.3750    -9.9000    62.8190    12.6340     9.8830    10.3500    23.4680     2.2390 
   85.5000   -10.2240    64.2930    11.1640     8.9170    10.3850    23.4890     2.2000 
   85.6250   -10.5580    64.6110    10.2960     8.6040    10.6170    23.5000     2.1900 
   85.7500   -10.8380    64.2250     9.8200     8.6940    10.8960    23.4940     2.1980 
   85.8750   -11.0990    64.3000     9.6420     8.9030    11.2590    23.4610     2.2110 
   86.0000   -11.3180    65.0820     9.5920     8.9670    11.1550    23.3970     2.2210 
   86.1250   -11.4480    66.3280     9.5440     8.7830    10.4980    23.3320     2.2230 
   86.2500   -11.6040    70.8220     9.4030     8.3790     9.4700    23.3010     2.2160 
   86.3750   -11.8140    79.6430     9.1620     7.9020     8.6480    23.3330     2.2030 
   86.5000   -11.9630    85.4390     8.9550     7.5510     8.0280    23.3770     2.1920 
   86.6250   -12.1020    85.2060     8.9350     7.4520     7.7990    23.4070     2.1870 
   86.7500   -12.3020    80.7710     9.1680     7.6490     8.0560    23.3880     2.1910 
   86.8750   -12.5120    77.5020     9.5940     8.1180     9.2850    23.2960     2.2060 
   87.0000   -12.7320    76.0770    10.0180     8.6540    10.2380    23.2240     2.2220 
   87.1250   -12.9920    75.7950    10.3250     9.0830    10.5130    23.1880     2.2320 
   87.2500   -13.2550    75.6200    10.4790     9.2840    10.2140    23.1790     2.2290 
   87.3750   -13.4270    71.3870    10.5040     9.2080    10.1410    23.1790     2.2120 
   87.5000   -13.5910    66.6070    10.5000     8.9920    10.2430    23.1730     2.1930 
   87.6250   -13.7250    65.1890    10.4860     8.7440    10.3130    23.1560     2.1760 
   87.7500   -13.7390    66.3340    10.4470     8.5320    10.2910    23.1220     2.1680 
   87.8750   -13.7220    67.1280    10.3780     8.3800    10.1820    23.1010     2.1670 
   88.0000   -13.7350    67.8370    10.2810     8.2630    10.0050    23.0960     2.1700 
   88.1250   -13.7190    69.4150    10.1350     8.1670     9.8840    23.1120     2.1750 
   88.2500   -13.7120    69.8490     9.9470     8.0930     9.9040    23.1260     2.1770 
   88.3750   -13.7670    68.9150     9.7990     8.0520     9.8920    23.1440     2.1770 
   88.5000   -13.8060    68.2900     9.7240     8.0450     9.8490    23.1510     2.1740 
   88.6250   -13.9050    67.2990     9.6760     8.0710     9.8890    23.1430     2.1720 
   88.7500   -14.1150    66.5130     9.6230     8.1190    10.0290    23.0950     2.1680 
   88.8750   -14.3530    66.6480     9.5810     8.1810    10.1540    23.0250     2.1620 
   89.0000   -14.6320    67.0860     9.5700     8.2470    10.2180    22.9300     2.1510 
   89.1250   -14.9660    66.6910     9.5720     8.3130    10.3110    22.8510     2.1380 
   89.2500   -15.2560    65.8680     9.5730     8.3740    10.6070    22.8390     2.1290 
   89.3750   -15.5510    66.1920     9.5700     8.4250    11.1830    22.8590     2.1270 
   89.5000   -15.9240    68.6730     9.5770     8.4650    11.7140    22.9090     2.1330 
   89.6250   -16.2360    72.6330     9.6130     8.4940    11.9210    23.0260     2.1420 
   89.7500   -16.4650    74.4320     9.6710     8.5100    11.8990    23.1750     2.1480 
   89.8750   -16.7030    72.5240     9.7120     8.5130    12.0070    23.2980     2.1480 
   90.0000   -16.8880    69.6380     9.7210     8.5050    12.2550    23.3770     2.1440 
   90.1250   -16.9970    67.5350     9.7290     8.4860    12.4350    23.4350     2.1390 
   90.2500   -17.1290    65.8530     9.7710     8.4510    12.4010    23.4570     2.1380 
   90.3750   -17.2380    65.0640     9.8300     8.4010    12.3180    23.4230     2.1420 
   90.5000   -17.2230    64.7960     9.8660     8.3470    12.2270    23.3830     2.1480 
   90.6250   -17.1930    64.0780     9.8730     8.3050    12.1110    23.3470     2.1550 
   90.7500   -17.1490    61.7140     9.8700     8.2820    11.8030    23.2920     2.1580 
   90.8750   -16.9480    59.9460     9.8710     8.2780    11.3650    23.2210     2.1570 
   91.0000   -16.6860    61.3510     9.8680     8.2830    11.1470    23.1770     2.1540 
   91.1250   -16.4140    64.4310     9.8790     8.2950    10.9270    23.1920     2.1520 
   91.2500   -16.0210    65.6670     9.9230     8.3280    10.6410    23.2280     2.1540 
   91.3750   -15.5350    63.9580     9.9760     8.3900    10.0030    23.2520     2.1700 
   91.5000   -15.0580    62.6180    10.0370     8.4420     9.7510    23.2720     2.1990 
   91.6250   -14.4760    63.1050    10.1250     8.4020     9.8690    23.2960     2.2370 
   91.7500   -13.8530    65.2090    10.1370     8.1680     9.7390    23.3310     2.2760 
   91.8750   -13.2520    68.3190     9.7690     7.6370     9.1360    23.4160     2.3020 
   92.0000   -12.6440    72.2600     8.9720     6.9110     7.9240    23.6220     2.3130 
   92.1250   -12.1120    78.3830     7.9080     6.1280     6.4300    23.9950     2.3120 
   92.2500   -11.6780    86.5290     6.8190     5.4430     5.5520    24.4750     2.3060 
   92.3750   -11.3130    91.4790     5.9570     5.0370     5.2990    24.7130     2.3020 
   92.5000   -11.0200    91.3260     5.4670     4.9540     5.2610    24.7600     2.2990 
   92.6250   -10.8670    88.8230     5.4490     5.2270     5.3210    24.6640     2.2940 
   92.7500   -10.7440    84.7490     5.9550     5.8470     5.8370    24.5070     2.2860 
   92.8750   -10.7390    79.5140     7.0280     6.7330     7.3740    24.2790     2.2730 
   93.0000   -10.8580    75.2450     8.3220     7.5730     9.4160    24.0110     2.2580 
   93.1250   -10.9830    73.4280     9.3590     8.0480    10.1710    23.7400     2.2430 
   93.2500   -11.0930    73.7610     9.6440     7.9460     9.4900    23.6570     2.2320 
   93.3750   -11.2180    76.9270     8.8990     7.2560     8.0260    23.8190     2.2300 
   93.5000   -11.3520    83.4390     7.6770     6.3890     6.5520    24.0910     2.2370 
   93.6250   -11.4510    90.5400     6.4910     5.6480     5.7400    24.3610     2.2500 
   93.7500   -11.6170    94.5900     5.6880     5.2180     5.1830    24.5340     2.2650 
   93.8750   -11.8370    94.1420     5.4990     5.2350     5.2180    24.5490     2.2750 
   94.0000   -12.0230    90.8610     5.8660     5.6220     6.2690    24.3390     2.2750 
   94.1250   -12.2250    85.0160     6.8040     6.3150     8.0410    24.0070     2.2610 
   94.2500   -12.4830    77.1640     8.1170     7.1850     9.3330    23.6930     2.2360 
   94.3750   -12.7180    70.6600     9.2300     8.0190     9.9660    23.5480     2.2090 
   94.5000   -12.9400    67.3240     9.8250     8.6380    10.2340    23.5070     2.1910 
   94.6250   -13.2020    65.6550    10.0610     8.9870    10.3620    23.5030     2.1840 
   94.7500   -13.3830    64.5180    10.2440     9.1230    10.2820    23.4990     2.1860 
   94.8750   -13.4470    65.0680    10.4560     9.1560    10.1760    23.4850     2.1880 
