~V
VERS. 2.00: Ver 2.00
~W
STRT.M 63.0000:
STOP.M 207.0000:
STEP.M 0.1250:
NULL. -999.2500:
UWI. F10132:
~C
DEPT.M :
SP.MV :
DEN.GM/CC :
GR.API :
RML.OHMM :
RI. :
RXO.OHMM :
CALI.CM :
~A
# ...
  130.5000   -28.7060     2.5320    63.2320    20.4990    16.5430    15.0260    24.3030 
  130.6250   -28.6110     2.5260    63.7430    20.7380    16.6860    15.6060    24.2900 
  130.7500   -28.5340     2.5170    65.6380    20.9010    16.8060    16.4740    24.2600 
  130.8750   -28.4790     2.5090    66.7720    20.9850    16.9000    16.5930    24.2370 
  131.0000   -28.4420     2.5050    66.9990    20.9910    16.9560    16.9110    24.2320 
  131.1250   -28.3910     2.5080    66.5980    20.9480    16.9760    17.0020    24.2330 
  131.2500   -28.3040     2.5140    64.2540    20.9260    16.9990    17.0410    24.2350 
  131.3750   -28.1760     2.5180    61.9300    20.9750    17.0630    16.9510    24.2450 
  131.5000   -28.0180     2.5170    62.6980    21.1190    17.1930    17.7720    24.2750 
  131.6250   -27.8480     2.5060    65.1490    21.3670    17.4030    18.5070    24.3330 
  131.7500   -27.6850     2.4870    64.2880    21.6810    17.6670    18.6250    24.3950 
  131.8750   -27.5510     2.4680    60.9390    22.0110    17.9570    17.8650    24.4370 
  132.0000   -27.4500     2.4570    58.3860    22.2360    18.1930    17.0920    24.4520 
  132.1250   -27.3820     2.4650    57.8600    22.0950    18.1860    16.6130    24.4500 
  132.2500   -27.3370     2.4870    58.5300    21.4800    17.8340    16.6260    24.4460 
  132.3750   -27.3000     2.5100    61.1500    20.4200    17.1350    16.5620    24.4410 
  132.5000   -27.2630     2.5250    63.6500    19.1120    16.2200    15.1860    24.4420 
  132.6250   -27.2420     2.5260    63.1200    17.9300    15.3400    13.1620    24.4470 
  132.7500   -27.2460     2.5200    60.2060    17.1860    14.7300    11.7910    24.4480 
  132.8750   -27.2880     2.5150    57.3920    17.0170    14.5090    11.9050    24.4470 
  133.0000   -27.3670     2.5140    56.8860    17.3830    14.6820    12.9920    24.4440 
  133.1250   -27.4730     2.5170    59.5090    18.0970    15.1630    14.4680    24.4480 
  133.2500   -27.5660     2.5200    63.5820    18.7770    15.6860    15.2360    24.4680 
  133.3750   -27.6200     2.5180    66.2350    19.1840    16.0550    15.3620    24.5170 
  133.5000   -27.6190     2.5130    66.1670    19.2500    16.1810    14.7400    24.6020 
  133.6250   -27.5620     2.5080    64.8940    19.1190    16.1180    13.7790    24.7060 
  133.7500   -27.4710     2.5060    64.0230    19.0820    16.0730    13.5250    24.7980 
  133.8750   -27.3480     2.5060    62.6600    19.2970    16.1690    14.2640    24.8640 
  134.0000   -27.2030     2.5080    59.0030    19.7950    16.4560    16.4810    24.9060 
  134.1250   -27.0580     2.5110    54.7890    20.4910    16.9060    19.4530    24.9320 
  134.2500   -26.9470     2.5140    51.5730    21.1620    17.3720    20.3130    24.9460 
  134.3750   -26.8780     2.5170    50.3370    21.6780    17.7510    18.3390    24.9590 
  134.5000   -26.8510     2.5170    50.6020    22.0190    18.0100    16.7520    24.9770 
  134.6250   -26.8740     2.5150    51.1530    22.2800    18.1950    16.7300    24.9950 
  134.7500   -26.9300     2.5140    50.8010    22.5920    18.4010    16.8430    25.0140 
  134.8750   -27.0160     2.5200    50.3080    22.9770    18.6620    17.2730    25.0510 
  135.0000   -27.1160     2.5370    50.3360    23.3520    18.9350    17.9900    25.1130 
  135.1250   -27.2160     2.5610    49.8780    23.5130    19.0860    19.1710    25.1640 
  135.2500   -27.3120     2.5820    48.9630    23.3680    19.0330    18.9070    25.1790 
  135.3750   -27.4090     2.5960    49.5090    22.9510    18.7790    17.8420    25.1870 
  135.5000   -27.5170     2.6020    51.1320    22.4250    18.4200    16.8340    25.2270 
  135.6250   -27.6370     2.6010    51.6910    22.0510    18.1310    16.9290    25.2840 
  135.7500   -27.7670     2.5970    51.3070    21.9730    18.0280    16.7880    25.3190 
  135.8750   -27.9060     2.5930    51.4580    22.1980    18.1400    16.9880    25.3250 
  136.0000   -28.0530     2.5910    53.1750    22.6120    18.4090    18.0690    25.3220 
  136.1250   -28.2110     2.5920    54.6960    23.0170    18.7150    18.6670    25.3230 
  136.2500   -28.3630     2.5950    54.7260    23.2640    18.9410    18.3150    25.3240 
  136.3750   -28.5020     2.5970    52.8190    23.3250    19.0450    17.4600    25.3270 
  136.5000   -28.6310     2.5990    50.2200    23.2570    19.0470    17.4800    25.3280 
  136.6250   -28.7440     2.6020    49.2990    23.1500    18.9900    19.3310    25.3260 
  136.7500   -28.8290     2.6060    51.9490    23.0620    18.9240    24.4290    25.3250 
  136.8750   -28.8650     2.6090    56.4360    22.9840    18.8500    31.0660    25.3260 
  137.0000   -28.8460     2.6090    58.9450    22.8730    18.7490    43.8020    25.3150 
  137.1250   -28.7850     2.6050    58.3940    22.6820    18.5940    51.5760    25.3010 
  137.2500   -28.7080     2.5950    55.8420    22.4350    18.3960    47.8650    25.3650 
  137.3750   -28.6230     2.5790    53.4780    22.1680    18.1760    32.2110    25.5280 
  137.5000   -28.5360     2.5600    52.5670    21.9340    17.9670    22.3660    25.7060 
  137.6250   -28.4700     2.5470    53.5120    21.8410    17.8500    19.8650    25.7810 
  137.7500   -28.4430     2.5430    54.6420    21.9780    17.8960    19.4940    25.7870 
  137.8750   -28.4560     2.5510    54.3300    22.4030    18.1560    18.9800    25.7840 
  138.0000   -28.4970     2.5630    53.4850    23.0720    18.6110    18.3220    25.7840 
  138.1250   -28.5430     2.5740    52.1580    23.7660    19.1170    18.7790    25.7860 
  138.2500   -28.5830     2.5820    51.0810    24.1290    19.4170    19.7630    25.7890 
  138.3750   -28.6070     2.5880    50.7830    23.9030    19.3050    19.9010    25.7890 
  138.5000   -28.6040     2.5920    49.6140    23.0620    18.7350    18.0750    25.7860 
  138.6250   -28.5600     2.5940    48.0110    21.8650    17.8550    15.9180    25.7850 
  138.7500   -28.4820     2.5950    48.7130    20.8150    17.0190    14.5840    25.7880 
  138.8750   -28.3930     2.5970    50.4660    20.1980    16.4420    14.1370    25.7940 
  139.0000   -28.3160     2.5980    48.9260    20.0830    16.2020    14.6020    25.8040 
  139.1250   -28.2720     2.5970    45.1500    20.3560    16.2650    15.6680    25.8170 
  139.2500   -28.2590     2.5920    45.4710    20.6800    16.4120    16.3250    25.8260 
  139.3750   -28.2650     2.5830    48.7050    20.8630    16.5040    16.6950    25.8270 
  139.5000   -28.2640     2.5760    49.7230    20.8480    16.4850    16.2700    25.8140 
  139.6250   -28.2360     2.5770    48.7380    20.7150    16.3880    15.9320    25.7860 
  139.7500   -28.1760     2.5840    48.9420    20.6390    16.3200    15.9640    25.7530 
  139.8750   -28.0900     2.5920    49.1450    20.7070    16.3460    16.1390    25.7160 
  140.0000   -27.9780     2.5970    48.5260    20.9280    16.4830    16.3820    25.6840 
  140.1250   -27.8450     2.5970    48.1180    21.2200    16.6970    16.2990    25.6920 
  140.2500   -27.7200     2.5940    46.7560    21.3990    16.8720    16.1930    25.7340 
  140.3750   -27.6340     2.5940    44.1160    21.3050    16.8910    15.7640    25.7720 
  140.5000   -27.5960     2.5940    43.3730    20.8600    16.6780    15.8660    25.7820 
  140.6250   -27.5770     2.5870    46.5360    20.0960    16.2270    15.7330    25.7780 
  140.7500   -27.5430     2.5760    49.9130    19.2260    15.6800    14.8190    25.7810 
  140.8750   -27.4780     2.5640    50.9600    18.3650    15.1210    13.4180    25.7830 
  141.0000   -27.3770     2.5560    49.1050    17.5410    14.5740    13.1890    25.7820 
  141.1250   -27.2240     2.5550    45.0560    16.6890    13.9970    13.7160    25.7800 
  141.2500   -27.0130     2.5550    43.1520    15.7420    13.3430    13.5220    25.7790 
  141.3750   -26.7390     2.5530    45.2840    14.7050    12.6100    11.8190    25.7770 
  141.5000   -26.4280     2.5480    47.8630    13.6750    11.8610     9.6400    25.7750 
  141.6250   -26.1230     2.5420    47.6470    12.8690    11.2400     8.7880    25.7750 
