~V
VERS. 2.00: Ver 2.00
~W
STRT.M 50.0000:
STOP.M 246.0000:
STEP.M 0.1250:
NULL. -999.2500:
UWI. F10164:
~C
DEPT.M :
GR.API :
RML.OHMM :
RI. :
RXO.OHMM :
CALI.CM :
SP.MV :
DEN.GM/CC :
~A
# ...
   61.2500    94.9960     4.8320     3.3750     6.3250    25.4480    26.1600     2.2720 
   61.3750    93.0200     5.2400     4.1600     7.0730    25.4570    15.5050     2.2730 
   61.5000    91.7160     5.2170     4.6570     7.7430    25.3360     6.8910     2.2810 
   61.6250    98.6010     5.0980     4.8420     7.2080    25.3480     1.8330     2.2850 
   61.7500   107.6300     5.0670     4.8510     6.1220    25.4710    -0.4850     2.2830 
   61.8750   112.7090     5.1100     4.7640     5.2890    25.6290    -1.6720     2.2780 
   62.0000   114.9540     5.1900     4.6500     4.9760    25.7510    -2.6610     2.2740 
   62.1250   116.5890     5.3010     4.5840     5.0090    25.8220    -3.4940     2.2760 
   62.2500   116.9100     5.4650     4.6040     4.9980    25.8810    -4.1590     2.2860 
   62.3750   115.2760     5.7140     4.7310     4.9150    25.8550    -4.6640     2.3060 
   62.5000   112.9130     6.0720     4.9720     4.9670    25.7620    -5.0230     2.3300 
   62.6250   110.3920     6.5380     5.3250     5.3600    25.6540    -5.3920     2.3540 
   62.7500   106.7850     7.0170     5.7110     5.9930    25.6280    -5.8380     2.3720 
   62.8750   103.7770     7.3930     6.0370     6.8480    25.6290    -6.2420     2.3790 
   63.0000   101.6510     7.5650     6.2170     7.8670    25.5970    -6.5850     2.3730 
   63.1250   103.0660     7.4880     6.1940     8.1180    25.6000    -7.0450     2.3460 
   63.2500   107.9040     7.3110     6.0660     7.1910    25.6780    -7.6290     2.3010 
   63.3750   111.0910     7.1830     5.9520     5.9590    25.7700    -8.3600     2.2440 
   63.5000   109.5710     7.2170     5.9610     5.5380    25.8180    -9.3500     2.1940 
   63.6250   104.1170     7.4740     6.1700     6.3100    25.7590   -10.5280     2.1800 
   63.7500    96.3050     7.8450     6.5070     7.2180    25.6160   -11.7250     2.2050 
   63.8750    86.3100     8.2120     6.8710     7.4780    25.3050   -12.9570     2.2570 
   64.0000    77.8900     8.4580     7.1500     7.3300    25.3100   -14.1960     2.3060 
   64.1250    77.2190     8.4840     7.2340     7.5830    25.0050   -15.3320     2.3240 
   64.2500    81.7060     8.3460     7.1480     8.0110    24.8610   -16.3600     2.3120 
   64.3750    86.3340     8.1130     6.9420     8.1150    24.7430   -17.2150     2.2840 
   64.5000    89.5020     7.8540     6.6770     7.8510    24.2900   -17.7670     2.2570 
   64.6250    91.1240     7.6290     6.4120     7.3700    24.3500   -17.9900     2.2370 
   64.7500    91.8230     7.4770     6.1950     6.8350    24.4750   -18.1030     2.2220 
   64.8750    92.8290     7.4440     6.0670     6.5350    24.5450   -18.1560     2.2130 
   65.0000    92.0720     7.5870     6.0800     6.8380    24.5600   -18.2370     2.2150 
   65.1250    86.8930     8.0090     6.3220     7.6570    24.4360   -18.3740     2.2380 
   65.2500    82.4650     8.6860     6.7880     8.3720    24.3390   -18.5150     2.2750 
   65.3750    81.8030     9.5460     7.4390     9.0190    24.3060   -18.6830     2.3130 
   65.5000    80.4860    10.4070     8.1570     9.8380    24.3690   -18.9570     2.3310 
   65.6250    75.5080    10.9310     8.7070    10.3230    24.4200   -19.4270     2.3100 
   65.7500    73.7850    10.9570     8.9230    10.0280    24.4560   -19.9950     2.2590 
   65.8750    76.4130    10.5010     8.7580     9.3230    24.6340   -20.5990     2.1980 
   66.0000    77.2500     9.7560     8.3020     8.7470    24.9070   -21.2030     2.1460 
   66.1250    73.7360     9.0080     7.7380     8.3600    25.0600   -21.7600     2.1140 
   66.2500    72.8190     8.4540     7.2620     8.1250    25.1330   -22.2900     2.0990 
   66.3750    76.2460     8.1340     6.9510     8.1500    25.2120   -22.8280     2.0960 
   66.5000    79.9590     8.0100     6.8090     8.3300    25.3290   -23.3400     2.1010 
   66.6250    81.1550     8.0150     6.8020     8.4660    25.3310   -23.7380     2.1150 
   66.7500    80.5900     8.0530     6.8470     8.4930    25.2840   -24.0170     2.1330 
   66.8750    79.0510     8.0880     6.9000     8.4110    25.2410   -24.2180     2.1520 
   67.0000    76.3340     8.1060     6.9360     8.2660    25.2060   -24.3710     2.1700 
   67.1250    73.1460     8.1070     6.9410     8.1660    25.1890   -24.5100     2.1800 
   67.2500    70.6130     8.0860     6.9150     8.1270    25.1410   -24.6400     2.1780 
   67.3750    76.0320     8.0300     6.8540     8.1830    25.1360   -24.7230     2.1640 
   67.5000    90.3490     7.9320     6.7520     8.3470    25.2540   -24.7680     2.1400 
   67.6250    95.1310     7.8110     6.6180     8.4430    25.5180   -24.7750     2.1120 
   67.7500    90.0930     7.7360     6.4950     8.3190    25.8780   -24.7890     2.0840 
   67.8750    88.8950     7.7780     6.4390     8.1160    26.2400   -24.8070     2.0550 
   68.0000    95.2600     7.9910     6.5020     8.0570    26.4070   -24.8040     2.0330 
   68.1250    99.9740     8.3870     6.7270     8.1360    26.3640   -24.7310     2.0400 
   68.2500    98.0900     8.8370     7.0510     8.3450    26.3530   -24.6030     2.0880 
   68.3750    94.5430     9.1970     7.3840     8.8600    26.4860   -24.4660     2.1660 
   68.5000    89.5110     9.3320     7.6120     9.5260    26.5290   -24.3340     2.2420 
   68.6250    84.5770     9.1270     7.6110     9.7210    26.0810   -24.2400     2.2730 
   68.7500    83.8830     8.6960     7.4050     9.4530    25.5740   -24.1540     2.2570 
   68.8750    83.9620     8.1720     7.0650     9.0680    25.2240   -24.0230     2.2170 
   69.0000    88.2140     7.6850     6.6830     8.6960    24.9910   -23.7970     2.1840 
   69.1250    95.1160     7.3300     6.3480     8.3020    24.9600   -23.4340     2.1790 
   69.2500    97.3490     7.0820     6.0820     7.9790    25.0220   -22.9370     2.1920 
   69.3750    93.4500     6.8970     5.8710     7.8700    24.8860   -22.2700     2.2110 
   69.5000    89.6810     6.7270     5.6890     7.6930    24.7450   -21.4470     2.2270 
   69.6250    95.1820     6.5470     5.5140     7.1340    24.8630   -20.5170     2.2380 
   69.7500   102.0580     6.3740     5.3460     6.6190    24.8500   -19.6190     2.2460 
   69.8750   101.2010     6.2450     5.2050     6.4430    24.6440   -18.8550     2.2500 
   70.0000    94.2290     6.2100     5.1230     6.4680    24.4890   -18.2980     2.2480 
   70.1250    90.8920     6.3450     5.1580     6.4380    24.4990   -18.0710     2.2380 
   70.2500    90.6830     6.6340     5.3140     6.6300    24.4660   -18.1820     2.2270 
   70.3750    88.0190     7.0290     5.5720     7.3110    24.4520   -18.6370     2.2190 
   70.5000    80.1550     7.4370     5.8770     8.6050    24.5400   -19.3910     2.2180 
   70.6250    77.7780     7.7160     6.1300    10.4980    24.5880   -20.3660     2.2240 
   70.7500    85.5330     7.8050     6.2590    11.6170    24.6730   -21.3410     2.2280 
   70.8750    93.0970     7.7110     6.2410    10.8710    24.8350   -22.2240     2.2250 
   71.0000    90.8320     7.5040     6.1020     9.3750    24.8900   -22.9920     2.2140 
   71.1250    83.4170     7.2940     5.9110     8.7590    24.8400   -23.6080     2.1990 
   71.2500    81.4530     7.1600     5.7450     8.7910    24.7500   -24.0780     2.1860 
   71.3750    81.1420     7.1250     5.6430     8.8940    24.6840   -24.3970     2.1800 
   71.5000    76.2230     7.1810     5.6170     8.9280    24.6310   -24.5480     2.1770 
   71.6250    71.8860     7.3230     5.6770     8.8530    24.5730   -24.5220     2.1710 
   71.7500    69.8020     7.5150     5.7990     8.7640    24.5540   -24.4020     2.1580 
   71.8750    69.3460     7.7230     5.9620     8.8370    24.6600   -24.2170     2.1440 
   72.0000    68.7920     7.8890     6.1270     9.1360    24.8980   -23.9320     2.1460 
   72.1250    69.0440     7.9070     6.2150     9.5600    25.1920   -23.4430     2.1820 
   72.2500    71.8290     7.7460     6.1830     9.8120    25.4830   -22.7230     2.2410 
   72.3750    79.3060     7.4260     6.0190     9.3590    25.6010   -21.7830     2.3000 
