~V
VERS. 2.00: Ver 2.00
~W
STRT.M 40.0000:
STOP.M 206.0000:
STEP.M 0.1250:
NULL. -999.2500:
UWI. F10149:
~C
DEPT.M :
SP.MV :
DEN.GM/CC :
GR.API :
RML.OHMM :
RI. :
RXO.OHMM :
CALI.CM :
~A
# ...
  197.5000    -7.0530     2.3670    65.0320     8.1760     6.9820     8.3540    24.2360 
  197.6250    -6.9400     2.3520    65.0320     8.2280     6.9600     8.1360    24.3250 
  197.7500    -6.8570     2.3440    65.0320     8.3590     7.0010     8.0060    24.3920 
  197.8750    -6.7960     2.3420    65.0320     8.4750     7.0610     8.1460    24.3960 
  198.0000    -6.7810     2.3410    65.0320     8.4880     7.0810     8.4110    24.4560 
  198.1250    -6.7930     2.3350    65.0320     8.3870     7.0310     8.9100    24.5930 
  198.2500    -6.7950     2.3170    65.0320     8.2520     6.9390     9.7550    24.7060 
  198.3750    -6.8080     2.2870    65.0320     8.2520     6.9080     9.8960    24.7210 
  198.5000    -6.8310     2.2610    65.0320     8.4750     7.0270     9.6180    24.6690 
  198.6250    -6.8420     2.2570    65.0320     8.9110     7.3320    10.1310    24.5920 
  198.7500    -6.8190     2.2880    65.0320     9.4370     7.7800    12.8410    24.5480 
  198.8750    -6.7810     2.3420    65.0320     9.8370     8.2280    16.6280    24.5270 
  199.0000    -6.7020     2.3830    65.0320     9.9870     8.5010    14.5900    24.4980 
  199.1250    -6.6350     2.3820    65.0320     9.8820     8.5220    10.1550    24.4400 
  199.2500    -6.5950     2.3390    65.0320     9.6090     8.3370     7.8130    24.4380 
  199.3750    -6.5860     2.2730    65.0320     9.2490     8.0630     7.3130    24.4620 
  199.5000    -6.5770     2.2160    65.0320     8.8400     7.8240     7.2560    24.4780 
  199.6250    -6.5610     2.1830    65.0320     8.3900     7.6650     7.2690    24.4690 
  199.7500    -6.5660     2.1800    65.0320     7.9760     7.5810     7.6910    24.4600 
  199.8750    -6.5550     2.2100    65.0320     7.7590     7.5520     8.8640    24.4830 
  200.0000    -6.5770     2.2520    65.0320     7.7600     7.5420     9.6620    24.4980 
  200.1250    -6.6410     2.2890    65.0320     7.9260     7.5380     9.7330    24.4760 
  200.2500    -6.6800     2.3060    65.0320     8.1510     7.5410     9.4480    24.4250 
  200.3750    -6.6890     2.3010    65.0320     8.2930     7.5550     7.6530    24.3660 
  200.5000    -6.6890     2.2930    65.0320     8.3170     7.5770     7.1840    24.3650 
  200.6250    -6.6960     2.2910    65.0320     8.2550     7.6010     7.5100    24.3870 
  200.7500    -6.6920     2.3030    65.0320     8.1680     7.6170     7.6960    24.4180 
  200.8750    -6.7260     2.3210    65.0320     8.1260     7.6160     7.4680    24.4650 
  201.0000    -6.8010     2.3350    65.0320     8.1520     7.6020     7.5510    24.4790 
  201.1250    -6.9270     2.3390    65.0320     8.2230     7.5850     7.8430    24.4830 
  201.2500    -7.0970     2.3360    65.0320     8.2840     7.5700     8.0200    24.4910 
  201.3750    -7.2750     2.3310    65.0320     8.2950     7.5610     7.6030    24.4830 
  201.5000    -7.4580     2.3270    65.0320     8.2800     7.5580     7.1950    24.4640 
  201.6250    -7.6540     2.3270    65.0320     8.2720     7.5580     6.6360    24.4630 
  201.7500    -7.8690     2.3310    65.0320     8.2720     7.5580     6.4090    24.4720 
  201.8750    -8.0900     2.3400    65.0320     8.2720     7.5580     6.5520    24.4640 
  202.0000    -8.1790     2.3500    65.0320     8.2720     7.5580     7.2250    24.4540 
  202.1250    -8.1790     2.3630    65.0320     8.2720     7.5580     7.8540    24.4630 
  202.2500  -999.2500     2.3760    65.0320     8.2720     7.5580     8.1650    24.4930 
  202.3750  -999.2500     2.3870    65.0320     8.2720     7.5580     8.1230    24.4890 
  202.5000  -999.2500     2.3920    65.0320     8.2720     7.5580     7.9310    24.4830 
  202.6250  -999.2500     2.3870    65.0320     8.2720     7.5580     7.6090    24.4810 
  202.7500  -999.2500     2.3730    65.0320     8.2720     7.5580     7.2910    24.4770 
  202.8750  -999.2500     2.3570    65.0320     8.2720     7.5580     7.8210    24.4780 
  203.0000  -999.2500     2.3470    65.0320     8.2720     7.5580     9.0110    24.4700 
  203.1250  -999.2500     2.3480    65.0320     8.2720     7.5580    10.7090    24.4510 
  203.2500  -999.2500     2.3580    65.0320     8.2720     7.5580    10.2260    24.4330 
  203.3750  -999.2500     2.3710    65.0320     8.2720     7.5580     8.0740    24.4390 
  203.5000  -999.2500     2.3780    65.0320     8.2720     7.5580     6.8930    24.4680 
  203.6250  -999.2500     2.3740    65.0320     8.2720     7.5580     6.7700    24.5070 
  203.7500  -999.2500     2.3500    65.0320     8.2720     7.5580     6.7930    24.5590 
  203.8750  -999.2500     2.2850    65.0320     8.2720     7.5580     6.4010    24.5760 
  204.0000  -999.2500     2.1770    65.0320     8.2720     7.5580     6.2110    24.5550 
  204.1250  -999.2500     2.0400    65.0320     8.2720     7.5580     6.3960    24.5450 
  204.2500  -999.2500     1.9030    65.0320     8.2720     7.5580     6.8740    24.4840 
  204.3750  -999.2500     1.8010    65.0320     8.2720     7.5580     7.6950    24.4160 
  204.5000  -999.2500     1.7380    65.0320     8.2720     7.5580     8.0700    24.3850 
  204.6250  -999.2500     1.7110    65.0320     8.2720     7.5580     8.1680    24.3810 
  204.7500  -999.2500     1.7060    65.0320     8.2720     7.5580     8.1700    24.3810 
  204.8750  -999.2500     1.7100    65.0320     8.2720     7.5580     8.1710    24.3810 
  205.0000  -999.2500     1.7130    65.0320     8.2720     7.5580     8.1700    24.3810 
  205.1250  -999.2500     1.7130    65.0320     8.2720     7.5580     8.1690    24.3810 
  205.2500  -999.2500     1.7140    65.0320     8.2720     7.5580     8.1690    24.3810 
  205.3750  -999.2500     1.7140    65.0320     8.2720     7.5580     8.1680    24.3810 
  205.5000  -999.2500     1.7140    65.0320     8.2720     7.5580     8.1670    24.3810 
  205.6250  -999.2500     1.7140    65.0320     8.2720     7.5580     8.1660    24.3810 
  205.7500  -999.2500     1.7140    65.0320     8.2720     7.5580     8.1660    24.3810 
  205.8750  -999.2500     1.7130    65.0320     8.2720     7.5580     8.1650    24.3790 
  206.0000  -999.2500     1.7120    65.0320     8.2720     7.5580     8.1650    24.3760 
