~V
VERS. 2.00: Ver 2.00
~W
STRT.M 55.0000:
STOP.M 242.0000:
STEP.M 0.1250:
NULL. -999.2500:
UWI. F10187:
~C
DEPT.M :
GR.API :
RML.OHMM :
RI. :
RXO.OHMM :
CALI.CM :
DEN.GM/CC :
SP.MV :
~A
   55.0000  -999.2500  -999.2500  -999.2500  -999.2500  -999.2500  -999.2500   125.7100 
   55.1250  -999.2500  -999.2500  -999.2500  -999.2500  -999.2500  -999.2500   124.3760 
   55.2500  -999.2500  -999.2500  -999.2500  -999.2500  -999.2500  -999.2500   122.9950 
   55.3750  -999.2500  -999.2500  -999.2500  -999.2500  -999.2500  -999.2500   121.4620 
   55.5000  -999.2500  -999.2500  -999.2500  -999.2500  -999.2500  -999.2500   119.9570 
   55.6250  -999.2500  -999.2500  -999.2500  -999.2500  -999.2500  -999.2500   118.7310 
   55.7500  -999.2500  -999.2500  -999.2500  -999.2500  -999.2500  -999.2500   117.7580 
   55.8750  -999.2500  -999.2500  -999.2500  -999.2500  -999.2500  -999.2500   117.0110 
   56.0000  -999.2500  -999.2500  -999.2500  -999.2500  -999.2500  -999.2500   116.4450 
   56.1250  -999.2500  -999.2500  -999.2500  -999.2500  -999.2500  -999.2500   115.9000 
   56.2500  -999.2500  -999.2500  -999.2500  -999.2500  -999.2500  -999.2500   115.1600 
   56.3750  -999.2500  -999.2500  -999.2500  -999.2500  -999.2500  -999.2500   114.2030 
   56.5000  -999.2500  -999.2500  -999.2500  -999.2500  -999.2500  -999.2500   112.8060 
   56.6250  -999.2500  -999.2500  -999.2500  -999.2500  -999.2500  -999.2500   110.6780 
   56.7500  -999.2500  -999.2500  -999.2500  -999.2500  -999.2500  -999.2500   107.9150 
   56.8750  -999.2500  -999.2500  -999.2500  -999.2500  -999.2500  -999.2500   104.5690 
   57.0000  -999.2500  -999.2500  -999.2500  -999.2500  -999.2500  -999.2500   100.8290 
   57.1250  -999.2500  -999.2500  -999.2500  -999.2500  -999.2500  -999.2500    97.0420 
   57.2500  -999.2500  -999.2500  -999.2500  -999.2500  -999.2500  -999.2500    93.6650 
   57.3750  -999.2500  -999.2500  -999.2500  -999.2500  -999.2500  -999.2500    90.9930 
   57.5000  -999.2500  -999.2500  -999.2500  -999.2500  -999.2500  -999.2500    89.0730 
   57.6250  -999.2500  -999.2500  -999.2500  -999.2500  -999.2500  -999.2500    88.0190 
   57.7500  -999.2500  -999.2500  -999.2500  -999.2500  -999.2500  -999.2500    87.5720 
   57.8750  -999.2500  -999.2500  -999.2500  -999.2500  -999.2500  -999.2500    87.4940 
   58.0000  -999.2500  -999.2500  -999.2500  -999.2500  -999.2500  -999.2500    87.5490 
   58.1250  -999.2500  -999.2500  -999.2500  -999.2500  -999.2500  -999.2500    87.5810 
   58.2500  -999.2500  -999.2500  -999.2500  -999.2500  -999.2500  -999.2500    87.3710 
   58.3750  -999.2500  -999.2500  -999.2500  -999.2500  -999.2500  -999.2500    86.5420 
   58.5000  -999.2500  -999.2500  -999.2500  -999.2500  -999.2500  -999.2500    85.0380 
   58.6250  -999.2500  -999.2500  -999.2500  -999.2500  -999.2500  -999.2500    82.7320 
   58.7500  -999.2500  -999.2500  -999.2500  -999.2500  -999.2500  -999.2500    79.8210 
   58.8750  -999.2500  -999.2500  -999.2500  -999.2500  -999.2500  -999.2500    76.6090 
   59.0000  -999.2500  -999.2500  -999.2500  -999.2500  -999.2500    -0.0030    73.3020 
   59.1250  -999.2500  -999.2500  -999.2500  -999.2500  -999.2500    -0.0030    69.9620 
   59.2500    70.9160     1.6870     0.5720     1.0750    25.6490     0.8840    66.6520 
   59.3750    70.9160     1.6870     0.5720     1.0750    25.6490     1.7810    63.6640 
   59.5000    64.2420     1.6410     0.5710     1.0450    25.7580     1.7850    61.1370 
   59.6250    58.5380     1.5880     0.5700     0.7760    25.8540     1.7980    59.2050 
   59.7500    57.0370     1.5480     0.5700     0.4090    25.8880     1.8190    57.7700 
   59.8750    56.4310     1.5260     0.5710     0.2720    25.8940     1.8460    56.6720 
   60.0000    55.9000     1.5250     0.5720     0.2540    25.8940     1.8740    55.7790 
   60.1250    57.7380     1.5340     0.5750     0.2510    25.8940     1.8940    54.9360 
   60.2500    60.1450     1.5340     0.5790     0.2430    25.8940     1.9020    54.0770 
   60.3750    60.1270     1.5100     0.5820     0.2380    25.8940     1.8980    53.1770 
   60.5000    58.7710     1.4660     0.5820     0.2290    25.8940     1.8860    52.2010 
   60.6250    57.7890     1.4290     0.5770     0.2390    25.8930     1.8800    51.2610 
   60.7500    57.6120     1.4280     0.5700     0.2610    25.8910     1.8890    50.4010 
   60.8750    57.9500     1.4710     0.5630     0.2810    25.8880     1.9160    49.5720 
   61.0000    57.6760     1.5250     0.5530     0.2960    25.8910     1.9560    48.7970 
   61.1250    54.9080     1.4730     0.5260     0.3280    25.8930     1.9990    48.1300 
   61.2500    52.7580     1.2280     0.4700     0.3730    25.8940     2.0380    47.4040 
   61.3750    54.2950     0.8100     0.3830     0.4240    25.8940     2.0850    46.3490 
   61.5000    56.7430     0.3490     0.2800     0.4720    25.8940     2.1610    44.8220 
   61.6250    56.2640     0.0220     0.1890     0.6120    25.8930     2.2760    42.2790 
   61.7500    55.0340    -0.1410     0.1280     0.8090    25.8850     2.3910    38.4540 
   61.8750    56.0990    -0.1680     0.0990     1.0220    25.8630     2.4490    33.3500 
   62.0000    60.0350    -0.0790     0.1140     1.7730    25.9700     2.3970    27.2320 
   62.1250    65.4000     0.1800     0.2200     2.5640    26.8510     2.2200    20.7340 
   62.2500    69.7310     0.6720     0.4800     3.9070    28.9120     2.0150    14.5060 
   62.3750    72.4690     1.5380     1.0070     4.6820    31.0150     1.8830     8.6550 
   62.5000    73.6160     2.9400     1.9680     5.6440    31.0280     1.8900     3.0750 
   62.6250    71.8870     4.9200     3.5990    10.2030    27.8610     2.0320    -1.9000 
   62.7500    69.5030     6.8910     5.5830    17.6530    25.4610     2.1980    -5.8980 
   62.8750    68.2520     8.2320     7.3120    17.7420    24.3020     2.3060    -8.8230 
   63.0000    67.5330     8.6580     8.2390    11.4370    23.8570     2.3240   -10.8890 
   63.1250    67.1330     8.3700     8.2120     8.4330    23.7080     2.2680   -12.5950 
   63.2500    69.4850     7.9950     7.7880     7.6060    23.6970     2.1980   -14.3200 
   63.3750    74.1750     7.7950     7.3490     7.6260    23.6970     2.1400   -16.0260 
   63.5000    75.8360     7.8020     7.1030     7.7240    23.7030     2.1010   -17.5700 
   63.6250    72.8860     7.9070     7.0630     7.9430    23.7690     2.0780   -18.8370 
   63.7500    70.3660     7.9470     7.0470     8.1300    23.9330     2.0680   -19.9260 
   63.8750    69.7640     7.8690     6.9430     8.1780    24.1550     2.0660   -20.9000 
   64.0000    69.6370     7.7220     6.7570     8.0960    24.3290     2.0660   -21.7530 
   64.1250    69.2990     7.6900     6.6720     8.0240    24.3540     2.0660   -22.4070 
   64.2500    69.2790     7.9960     6.9400     8.0230    24.3110     2.0740   -23.0010 
   64.3750    69.2810     8.8780     7.7690     8.3920    24.2780     2.1100   -23.5600 
   64.5000    70.0690    10.4820     9.2600    11.0450    24.3120     2.1870   -23.9610 
   64.6250    72.5790    12.5520    11.2700    22.8970    24.4350     2.3000   -24.2270 
   64.7500    74.6680    14.0330    12.9200    40.7510    24.4840     2.4050   -24.3940 
   64.8750    75.2480    14.0510    13.2740    30.8550    24.2400     2.4640   -24.3910 
   65.0000    76.3490    12.5380    12.1170    12.8850    23.7480     2.4590   -24.2840 
   65.1250    78.2000    10.3610    10.2340     8.8900    23.4000     2.4000   -24.2480 
   65.2500    77.2220     8.6300     8.6220     8.0710    23.2420     2.3330   -24.2300 
   65.3750    72.2930     7.6500     7.5670     8.3990    23.1960     2.2860   -24.2520 
   65.5000    67.9900     7.3050     7.0560     9.1430    23.2090     2.2660   -24.4040 
   65.6250    68.5260     7.3720     6.9730     9.5480    23.2480     2.2620   -24.6390 
   65.7500    70.8650     7.5420     7.0430     8.9070    23.3130     2.2530   -25.0090 
   65.8750    72.2500     7.7030     7.1310     8.2690    23.4320     2.2300   -25.5890 
   66.0000    73.3420     7.8440     7.1940     8.0920    23.7310     2.1930   -26.3380 
   66.1250    73.0480     8.0220     7.2600     8.3660    24.3580     2.1500   -27.1100 
