~V
VERS. 2.00: Ver 2.00
~W
STRT.M 64.0000:
STOP.M 235.0000:
STEP.M 0.1250:
NULL. -999.2500:
UWI. F10178:
~C
DEPT.M :
GR.API :
RML.OHMM :
RI. :
RXO.OHMM :
CALI.CM :
DEN.GM/CC :
SP.MV :
~A
# ...
  120.2500    68.4450     8.2410     6.9390     7.4000    23.4500     2.1820   -16.8480 
  120.3750    67.6200     8.3720     7.0360     7.4290    23.5740     2.1890   -16.7500 
  120.5000    67.0530     8.5810     7.2060     7.5080    23.6290     2.2050   -16.6430 
  120.6250    69.3130     8.8340     7.4240     8.1290    23.6090     2.2310   -16.5660 
  120.7500    71.8780     9.0430     7.6170     9.3080    23.5710     2.2560   -16.4540 
  120.8750    71.9370     9.1450     7.7280    10.1090    23.5360     2.2690   -16.3130 
  121.0000    71.1840     9.1190     7.7380     9.5660    23.5100     2.2630   -16.1690 
  121.1250    71.3860     8.9920     7.6660     8.4750    23.4630     2.2400   -16.0470 
  121.2500    69.8450     8.8530     7.5770     8.1350    23.3950     2.2110   -15.9600 
  121.3750    66.0850     8.7610     7.5100     8.3270    23.3680     2.1880   -15.8980 
  121.5000    63.1510     8.7450     7.4900     8.5780    23.4060     2.1780   -15.8480 
  121.6250    63.3600     8.8120     7.5330     8.4300    23.4820     2.1820   -15.8020 
  121.7500    64.1330     8.9310     7.6210     8.1900    23.5660     2.1930   -15.7740 
  121.8750    64.5030     9.0810     7.7450     8.0450    23.7120     2.2040   -15.8000 
  122.0000    66.1200     9.2410     7.8920     8.2930    23.8860     2.2130   -15.8800 
  122.1250    68.7980     9.3640     8.0240     9.0050    23.9830     2.2190   -15.9560 
  122.2500    69.3800     9.3960     8.0950     9.6040    24.0200     2.2250   -16.0240 
  122.3750    67.5320     9.2870     8.0600     9.0870    24.0280     2.2310   -16.1510 
  122.5000    64.8680     9.0120     7.8970     8.1500    24.0300     2.2340   -16.3160 
  122.6250    61.9130     8.6030     7.6150     7.5810    24.0560     2.2290   -16.4730 
  122.7500    60.6730     8.2310     7.3250     7.3630    24.1130     2.2130   -16.5950 
  122.8750    62.5870     8.1090     7.1710     7.2390    24.1860     2.1880   -16.6300 
  123.0000    66.3270     8.4560     7.3280     7.2360    24.2320     2.1610   -16.5530 
  123.1250    68.7290     9.4670     8.0190     7.3850    24.2460     2.1610   -16.3770 
  123.2500    68.8460    10.8070     9.1220     8.3050    24.2160     2.2060   -16.1400 
  123.3750    66.8290    11.9300    10.2810    11.8570    24.1720     2.2950   -15.7920 
  123.5000    63.2090    12.2120    10.8440    22.9920    24.1350     2.4010   -15.3100 
  123.6250    63.5220    11.1450    10.0880    32.7390    24.1400     2.4750   -14.7200 
  123.7500    72.3690     9.3300     8.5170    20.4340    24.1530     2.4910   -14.1240 
  123.8750    85.3060     7.4970     6.8450     8.3070    24.1830     2.4560   -13.5860 
  124.0000    93.3090     6.1840     5.5620     4.7330    24.1940     2.3990   -13.1370 
  124.1250    93.7290     5.6220     4.9110     4.4560    24.1820     2.3470   -12.8250 
  124.2500    93.1670     5.5600     4.7500     4.7230    24.1450     2.3100   -12.6600 
  124.3750    91.9310     5.8310     4.9570     4.6820    24.0570     2.2810   -12.6200 
  124.5000    88.3560     6.2340     5.3500     4.8880    23.9100     2.2580   -12.6630 
  124.6250    85.7690     6.5120     5.6830     5.4620    23.7820     2.2460   -12.7450 
  124.7500    89.0400     6.5660     5.8010     5.5970    23.7360     2.2480   -12.7720 
  124.8750    94.9560     6.4010     5.6870     5.3940    23.7390     2.2630   -12.7080 
  125.0000    99.0020     6.0860     5.4010     4.8910    23.7650     2.2860   -12.5730 
  125.1250    99.5790     5.6940     5.0260     4.7180    23.7810     2.3060   -12.4030 
  125.2500   101.2570     5.3090     4.6460     4.6410    23.8300     2.3200   -12.1630 
  125.3750   104.1330     4.9990     4.3170     4.5300    23.8830     2.3260   -11.8750 
  125.5000   104.0350     4.8530     4.1060     4.5000    23.9620     2.3280   -11.6500 
  125.6250   100.1780     5.0430     4.1390     4.4650    24.0680     2.3360   -11.5590 
  125.7500    96.2460     5.6230     4.4600     4.6370    24.1760     2.3600   -11.5960 
  125.8750    91.9470     6.6000     5.1140     5.5810    24.2250     2.4020   -11.7480 
  126.0000    84.4270     7.8240     6.0680     8.2900    24.1660     2.4480   -11.9580 
  126.1250    75.3410     8.8960     7.0790    12.2600    23.9910     2.4720   -12.1730 
  126.2500    69.9630     9.4300     7.7080    11.0750    23.8300     2.4630   -12.3940 
  126.3750    71.1680     9.3130     7.7450     8.8040    23.7600     2.4220   -12.6530 
  126.5000    77.5240     8.7550     7.3490     7.8200    23.7490     2.3700   -12.9190 
  126.6250    83.1470     8.2030     6.9170     7.2210    23.7610     2.3370   -13.1820 
  126.7500    83.6590     7.9890     6.7390     6.6570    23.8270     2.3300   -13.4260 
  126.8750    81.3390     8.1300     6.8650     7.5840    23.9430     2.3390   -13.6360 
  127.0000    80.5170     8.4310     7.1700    10.6110    24.1500     2.3440   -13.8290 
  127.1250    80.7380     8.5560     7.3620    11.8150    24.3530     2.3260   -14.0310 
  127.2500    80.8880     8.3460     7.2510     9.1370    24.4360     2.2950   -14.2270 
  127.3750    84.2080     7.8400     6.8470     6.9800    24.3880     2.2680   -14.3740 
  127.5000    91.1310     7.2100     6.3030     5.9170    24.2520     2.2570   -14.4830 
  127.6250    95.7950     6.6790     5.8190     5.3940    24.1520     2.2640   -14.5700 
  127.7500    95.2120     6.3400     5.4940     5.1990    24.1320     2.2770   -14.6400 
  127.8750    92.9420     6.1840     5.3320     5.3800    24.1550     2.2880   -14.6720 
  128.0000    93.0790     6.1560     5.2880     5.6090    24.1900     2.2960   -14.6690 
  128.1250    95.7430     6.2090     5.3180     5.2690    24.2530     2.2990   -14.6790 
  128.2500    96.3640     6.2900     5.3740     5.2760    24.3580     2.2980   -14.7430 
  128.3750    93.7580     6.3700     5.4250     5.4540    24.4340     2.2940   -14.8360 
  128.5000    89.7440     6.4220     5.4440     5.7640    24.4720     2.2920   -14.9190 
  128.6250    88.2930     6.4340     5.4180     5.8450    24.4730     2.2980   -14.9650 
  128.7500    90.4230     6.4380     5.3750     5.6670    24.4640     2.3120   -15.0250 
  128.8750    94.3150     6.4650     5.3470     5.4200    24.4400     2.3260   -15.1510 
  129.0000    97.2680     6.5330     5.3450     5.2930    24.4190     2.3280   -15.3230 
  129.1250    96.6770     6.6370     5.3660     5.5850    24.3300     2.3130   -15.4320 
  129.2500    92.8360     6.7350     5.3930     6.5460    24.2200     2.2860   -15.4380 
  129.3750    87.9130     6.8010     5.4130     7.7900    24.1670     2.2550   -15.3870 
  129.5000    85.5890     6.8390     5.4290     7.2860    24.1920     2.2280   -15.3160 
  129.6250    87.0570     6.9180     5.4980     6.8170    24.1950     2.2130   -15.2490 
  129.7500    87.4800     7.1480     5.7030     7.8680    24.1410     2.2110   -15.1590 
  129.8750    84.4040     7.6650     6.1330    10.4440    24.0350     2.2200   -15.0650 
  130.0000    80.6750     8.6410     6.8870    10.9380    23.8540     2.2350   -15.0280 
  130.1250    78.5110    10.4030     8.2030     9.8510    23.7600     2.2450   -15.0740 
  130.2500    75.1420    12.9120    10.1560    11.9390    23.8450     2.2430   -15.1500 
  130.3750    69.9300    15.8580    12.7240    15.4870    24.0230     2.2310   -15.2250 
  130.5000    65.4380    18.4300    15.4480    18.9540    24.1170     2.2180   -15.2590 
  130.6250    66.3900    19.1490    16.8180    22.7820    24.1340     2.2160   -15.2010 
  130.7500    71.2440    17.6850    15.8620    23.9340    24.1960     2.2310   -15.0860 
  130.8750    75.2000    14.5990    13.0860    19.2700    24.3700     2.2590   -14.8880 
  131.0000    78.5330    11.0820     9.9340    11.3580    24.5190     2.2920   -14.5790 
  131.1250    86.3960     8.3840     7.5760     6.5220    24.6320     2.3160   -14.2280 
  131.2500    97.6490     6.7690     6.1080     5.1140    24.6790     2.3240   -13.9480 
  131.3750   103.6330     6.0960     5.4070     5.0230    24.7010     2.3180   -13.7640 
