~V
VERS. 2.00: Ver 2.00
~W
STRT.M 55.0000:
STOP.M 248.0000:
STEP.M 0.1250:
NULL. -999.2500:
UWI. F10184:
~C
DEPT.M :
SP.MV :
GR.API :
RML.OHMM :
RI. :
RXO.OHMM :
CALI.CM :
DEN.GM/CC :
~A
# ...
  223.7500    -3.8150    82.7220     6.9800     6.4090     6.4130    24.1070     2.3170 
  223.8750    -3.7350    76.6820     6.9560     6.3990     6.5100    24.1280     2.3310 
  224.0000    -3.6420    70.5040     6.9830     6.4420     6.7180    24.0790     2.3610 
  224.1250    -3.5000    66.1610     7.1020     6.5640     7.0490    24.0640     2.3880 
  224.2500    -3.3730    66.5200     7.2910     6.7440     7.4370    24.0730     2.4030 
  224.3750    -3.3110    68.6860     7.5050     6.9500     7.9650    24.0430     2.4100 
  224.5000    -3.2630    69.5050     7.7050     7.1430     8.7250    23.9310     2.4190 
  224.6250    -3.1460    69.1510     7.8720     7.2990     8.6730    23.8420     2.4320 
  224.7500    -3.0830    69.0940     8.0300     7.4410     8.4950    23.9390     2.4470 
  224.8750    -3.0070    69.5250     8.2200     7.6050     8.3230    24.0610     2.4530 
  225.0000    -2.8790    70.6240     8.4830     7.8270     8.7080    24.1090     2.4490 
  225.1250    -2.7980    72.2660     8.8400     8.1280     9.4240    24.0970     2.4460 
  225.2500    -2.8060    72.0910     9.2290     8.4660     9.4800    24.0770     2.4540 
  225.3750    -2.8460    69.6160     9.5800     8.7850     8.9350    24.0820     2.4670 
  225.5000    -2.8300    68.3780     9.8260     9.0200     8.6870    24.1050     2.4730 
  225.6250    -2.8210    71.0860     9.9050     9.1070     9.4960    24.1090     2.4670 
  225.7500    -2.8490    73.5070     9.8610     9.0750    10.5110    24.0980     2.4500 
  225.8750    -2.8440    72.0060     9.7550     8.9720    10.7030    24.0900     2.4280 
  226.0000    -2.8310    69.3070     9.6610     8.8650    10.2960    24.1000     2.4070 
  226.1250    -2.8400    69.8460     9.6490     8.8170     9.8510    24.0940     2.3950 
  226.2500    -2.8370    70.5860     9.7170     8.8400     9.7530    24.0520     2.3930 
  226.3750    -2.8110    68.1100     9.8280     8.9110     9.7180    23.9860     2.4000 
  226.5000    -2.7450    64.0580     9.9260     8.9930     9.5830    23.9180     2.4170 
  226.6250    -2.7410    62.6660     9.9670     9.0510     9.4760    23.9570     2.4430 
  226.7500    -2.7060    62.6000     9.9920     9.0940     9.8290    24.0270     2.4660 
  226.8750    -2.6610    63.7070    10.0680     9.1670    10.8480    24.1040     2.4730 
  227.0000    -2.7090    66.8930    10.2470     9.3110    11.2360    24.1670     2.4690 
  227.1250    -2.7910    69.7900    10.5370     9.5460    11.5310    24.2280     2.4670 
  227.2500    -2.8190    68.9190    10.8580     9.8190    11.4110    24.2580     2.4680 
  227.3750    -2.7640    67.8600    11.1330    10.0790    11.3490    24.2700     2.4700 
  227.5000    -2.7760    70.5500    11.3120    10.2830    11.9670    24.2840     2.4670 
  227.6250    -2.8170    73.3640    11.3790    10.4030    11.9940    24.3010     2.4530 
  227.7500    -2.8040    72.2450    11.3920    10.4630    11.7880    24.2950     2.4340 
  227.8750    -2.8170    70.4180    11.3860    10.4790    11.7490    24.2790     2.4190 
  228.0000    -2.8310    71.6820    11.3760    10.4610    11.5440    24.2680     2.4110 
  228.1250    -2.8010    73.6600    11.3710    10.4190    10.8900    24.2620     2.4110 
  228.2500    -2.7550    73.8140    11.3810    10.3730    10.1780    24.2570     2.4120 
  228.3750    -2.6960    73.2450    11.4120    10.3350     9.8590    24.2370     2.4160 
  228.5000    -2.6240    72.6790    11.4540    10.3040    10.3200    24.1850     2.4300 
  228.6250    -2.5020    73.5670    11.4320    10.2410    11.6440    24.1730     2.4500 
  228.7500    -2.3950    74.6150    11.2650    10.0900    12.5790    24.1390     2.4680 
  228.8750    -2.3390    72.6380    10.9120     9.8150    11.8970    24.0980     2.4780 
  229.0000    -2.2580    67.6630    10.4140     9.4250    11.0330    24.0900     2.4790 
  229.1250    -2.1310    66.2900     9.9100     8.9970    11.2860    24.1150     2.4720 
  229.2500    -1.9960    68.5370     9.5720     8.6670    13.3390    24.0970     2.4580 
  229.3750    -1.9610    69.1000     9.5100     8.5400    16.8880    24.0730     2.4400 
  229.5000    -1.9470    65.8910     9.7500     8.6650    17.1890    24.0830     2.4210 
  229.6250    -1.9070    64.2930    10.2430     9.0330    12.8750    24.1370     2.4110 
  229.7500    -1.9380    66.6820    10.7710     9.4790    12.6130    24.1630     2.4120 
  229.8750    -1.9230    68.6590    11.1480     9.8430    13.3290    24.1500     2.4220 
  230.0000    -1.8550    67.7520    11.2390     9.9890    12.1400    24.1690     2.4320 
  230.1250    -1.7780    66.3010    10.9990     9.8270    11.1270    24.1490     2.4360 
  230.2500    -1.7670    66.3250    10.6240     9.4890    10.7350    24.1050     2.4310 
  230.3750    -1.7610    66.5890    10.2880     9.1210     8.9330    24.0750     2.4190 
  230.5000    -1.6850    66.4310    10.1170     8.8620     7.0310    24.0920     2.4080 
  230.6250    -1.6850    66.0480    10.1810     8.8240     6.1400    24.1520     2.4050 
  230.7500    -1.6730    64.0040    10.3960     8.9650     6.1630    24.1550     2.4150 
  230.8750    -1.5920    60.7690    10.6740     9.2130     6.7370    24.1140     2.4380 
  231.0000    -1.5080    59.3560    10.9280     9.4780     8.2230    24.0930     2.4710 
  231.1250    -1.5050    62.2920    11.0730     9.6670    11.0890    24.1040     2.4960 
  231.2500    -1.5200    65.0840    11.1080     9.7580    13.1040    24.0900     2.5020 
  231.3750    -1.4710    63.2810    11.0700     9.7640    13.0830    24.0710     2.4950 
  231.5000    -1.4410    57.9740    11.0100     9.7170    11.6100    24.0770     2.4880 
  231.6250    -1.4270    54.1860    10.9880     9.6670    10.2880    24.1040     2.4870 
  231.7500    -1.3800    55.5870    11.0320     9.6580     9.2550    24.1050     2.4860 
  231.8750    -1.3420    61.2000    11.1430     9.7100     8.1910    24.0740     2.4870 
  232.0000    -1.3130    67.2610    11.3060     9.8220     7.6610    23.9760     2.4890 
  232.1250    -1.3150    69.2970    11.5000     9.9870     7.6470    23.7500     2.4880 
  232.2500    -1.2860    67.1720    11.6970    10.1710     7.6470    23.5830     2.4850 
  232.3750    -1.2430    64.9770    11.8740    10.3540     6.7960    23.5080     2.4880 
  232.5000    -1.2640    64.9010    12.0080    10.5110     5.3100    23.5250     2.4990 
  232.6250    -1.2320    65.8360    12.0530    10.5950     6.2080    23.6310     2.5070 
  232.7500    -1.1580    66.7940    11.9780    10.5700     8.7260    23.7220     2.5050 
  232.8750    -1.1420    67.2780    11.7480    10.4020    10.8210    23.7870     2.4980 
  233.0000    -1.2160    66.9580    11.3660    10.0870     9.6180    23.8540     2.4990 
  233.1250    -1.2450    64.8770    10.8820     9.6620     8.8360    23.9740     2.5120 
  233.2500    -1.2100    62.4690    10.4100     9.2260     8.1940    24.0710     2.5210 
  233.3750    -1.2430    61.4780    10.0270     8.8550     7.6430    24.1120     2.5190 
  233.5000    -1.2530    61.9070     9.7720     8.5880     7.3560    24.1160     2.5080 
  233.6250    -1.2040    63.2460     9.6450     8.4370     8.0180    24.1140     2.4960 
  233.7500    -1.2070    64.1980     9.5710     8.3430     8.9300    24.1150     2.4840 
  233.8750    -1.2280    63.7330     9.4900     8.2580     9.1910    24.1110     2.4710 
  234.0000    -1.2410    62.6660     9.3600     8.1420     8.7150    24.1120     2.4580 
  234.1250    -1.2440    62.5100     9.1790     7.9800     8.1290    24.1180     2.4440 
  234.2500    -1.2590    63.0250     8.9910     7.8030     8.0980    24.1150     2.4320 
  234.3750    -1.2830    62.7720     8.8240     7.6350     8.3330    24.1130     2.4250 
  234.5000    -1.2770    62.9000     8.6890     7.4920     8.3250    24.1280     2.4220 
  234.6250    -1.2850    65.3580     8.6140     7.4070     8.4390    24.1650     2.4260 
  234.7500    -1.3260    67.6840     8.6150     7.3950     9.1980    24.1670     2.4350 
  234.8750    -1.3950    66.5380     8.7120     7.4720     9.7680    24.1410     2.4470 
