~V
VERS. 2.00: Ver 2.00
~W
STRT.M 50.0000:
STOP.M 207.0000:
STEP.M 0.1250:
NULL. -999.2500:
UWI. F10134:
~C
DEPT.M :
SP.MV :
DEN.GM/CC :
GR.API :
RML.OHMM :
RI. :
RXO.OHMM :
CALI.CM :
~A
# ...
  196.2500     5.2690     2.3120    63.8740     9.8350     7.6900     9.3540    24.8340 
  196.3750     5.3040     2.3090    63.8740     9.7370     7.6360    10.7980    24.7790 
  196.5000     5.3720     2.3090    63.8740     9.6320     7.6010     9.1590    24.7510 
  196.6250     5.4760     2.3180    63.8740     9.5630     7.6030     7.7380    24.7860 
  196.7500     5.5940     2.3280    63.8740     9.5730     7.6520     7.2300    24.8600 
  196.8750     5.7210     2.3300    63.8740     9.6970     7.7520     7.4970    24.9300 
  197.0000     5.8490     2.3190    63.8740     9.9350     7.8920     7.7640    24.9630 
  197.1250     5.9810     2.3010    63.8740    10.2270     8.0440     8.1540    24.9600 
  197.2500     6.1080     2.2870    63.8740    10.4460     8.1680     8.6050    24.9510 
  197.3750     6.2380     2.2850    63.8740    10.5120     8.2370     8.8500    24.9400 
  197.5000     6.3510     2.2930    63.8740    10.4390     8.2430     8.5260    24.9290 
  197.6250     6.4290     2.3080    63.8740    10.3290     8.1960     7.8760    24.9260 
  197.7500     6.4870     2.3260    63.8740    10.2980     8.1370     7.7270    24.9260 
  197.8750     6.5250     2.3430    63.8740    10.3810     8.0960     7.6360    24.9270 
  198.0000     6.5360     2.3570    63.8740    10.5260     8.0920     7.3270    24.9290 
  198.1250     6.5360     2.3600    63.8740    10.6360     8.1260     6.6250    24.9280 
  198.2500     6.5200     2.3520    63.8740    10.6940     8.1790     6.3840    24.9190 
  198.3750     6.4760     2.3370    63.8740    10.7470     8.2490     6.7850    24.9070 
  198.5000     6.4200     2.3190    63.8740    10.8420     8.3290     7.3810    24.9010 
  198.6250     6.3550     2.3070    63.8740    10.9670     8.3810     7.4840    24.9050 
  198.7500     6.2740     2.3020    63.8740    11.0420     8.3750     7.4710    24.9070 
  198.8750     6.1750     2.3040    63.8740    11.0050     8.3200     7.3180    24.9050 
  199.0000     6.0700     2.3050    63.8740    10.8510     8.2510     7.0920    24.9030 
  199.1250     5.9670     2.3180    63.8740    10.6550     8.2180     7.0620    24.9040 
  199.2500     5.8790     2.3250    63.8740    10.5170     8.2330     7.3950    24.9040 
  199.3750     5.8230     2.3290    63.8740    10.4700     8.2710     8.0000    24.9040 
  199.5000     5.7600     2.3280    63.8740    10.4990     8.2990     8.1520    24.8990 
  199.6250     5.7020     2.3170    63.8740    10.5640     8.3000     8.3070    24.8820 
  199.7500     5.6490     2.2910    63.8740    10.6230     8.2930     8.2100    24.8620 
  199.8750     5.5710     2.2630    63.8740    10.6690     8.2900     8.1610    24.8520 
  200.0000     5.4830     2.2480    63.8740    10.7000     8.2900     8.1690    24.8520 
  200.1250     5.3960     2.2560    63.8740    10.7120     8.2890     7.8590    24.8470 
  200.2500     5.3310     2.2890    63.8740    10.6980     8.2890     7.2820    24.8590 
  200.3750     5.2970     2.3210    63.8740    10.6790     8.2900     6.5430    24.9540 
  200.5000     5.2990     2.3370    63.8740    10.6770     8.2900     6.4460    25.1710 
  200.6250     5.3330     2.3370    63.8740    10.6770     8.2900     6.4330    25.3860 
  200.7500     5.3680     2.3300    63.8740    10.6770     8.2900     5.9360    25.3950 
  200.8750     5.4280     2.3260    63.8740    10.6770     8.2900     5.7230    25.2050 
  201.0000     5.4870     2.3230    63.8740    10.6770     8.2900     5.7860    24.9840 
  201.1250     5.5150     2.3220    63.8740    10.6770     8.2900     5.8190    24.8440 
  201.2500     5.5190     2.3240    63.8740    10.6770     8.2900     6.0230    24.7300 
  201.3750     5.4830     2.3340    63.8740    10.6770     8.2900     5.8460    24.6320 
  201.5000     5.4040     2.3590    63.8740    10.6770     8.2900     5.5450    24.5880 
  201.6250     5.3100     2.3910    63.8740    10.6770     8.2900     5.6040    24.5820 
  201.7500     5.2210     2.3670    63.8740    10.6770     8.2900     6.1530    24.5680 
  201.8750     5.1180     2.2480    63.8740    10.6770     8.2900     6.6110    24.5470 
  202.0000     4.9940     2.0630    63.8740    10.6770     8.2900     6.6800    24.5430 
  202.1250     4.8840     1.8680    63.8740    10.6770     8.2900     5.8740    24.3510 
  202.2500     4.8120     1.7090    63.8740    10.6770     8.2900     5.2130    23.9080 
  202.3750     4.7580     1.6000    63.8740    10.6770     8.2900     4.6150    23.3260 
  202.5000     4.7310     1.5420    63.8740    10.6770     8.2900     4.3310    22.8760 
  202.6250     4.7240     1.5250    63.8740    10.6770     8.2900     4.2600    22.7030 
  202.7500     4.7470     1.5260    63.8740    10.6770     8.2900     4.2610    22.7170 
  202.8750     4.8230     1.5270    63.8740    10.6770     8.2900     4.2610    22.7260 
  203.0000     4.9480     1.5290    63.8740    10.6770     8.2900     4.2610    22.7240 
  203.1250     5.1050     1.5290    63.8740    10.6770     8.2900     4.2610    22.7230 
  203.2500     5.3120     1.5300    63.8740    10.6770     8.2900     4.2600    22.7190 
  203.3750     5.4480     1.5320    63.8740    10.6770     8.2900     4.2600    22.7130 
  203.5000     5.4190     1.5350    63.8740    10.6770     8.2900     4.2590    22.7120 
  203.6250     5.3900     1.5410    63.8740    10.6770     8.2900     4.2580    22.7150 
  203.7500  -999.2500     1.5500    63.8740    10.6770     8.2900     4.2580    22.7190 
  203.8750  -999.2500     1.5590    63.8740    10.6770     8.2900     4.2580    22.7180 
  204.0000  -999.2500     1.5640    63.8740    10.6770     8.2900     4.2580    22.7170 
  204.1250  -999.2500     1.5610    63.8740    10.6770     8.2900     4.2580    22.7150 
  204.2500  -999.2500     1.5500    63.8740    10.6770     8.2900     4.2580    22.7150 
  204.3750  -999.2500     1.5390    63.8740    10.6770     8.2900     4.2580    22.7150 
  204.5000  -999.2500  -999.2500    63.8740    10.6770     8.2900     4.2580    22.7130 
  204.6250  -999.2500  -999.2500    63.8740    10.6770     8.2900     4.2570    22.7110 
  204.7500  -999.2500  -999.2500    63.8740    10.6770     8.2900     4.2580    22.7070 
  204.8750  -999.2500  -999.2500    63.8740    10.6770     8.2900     4.2590    22.7030 
  205.0000  -999.2500  -999.2500    63.8740    10.6770     8.2900     4.2590    22.7000 
  205.1250  -999.2500  -999.2500    63.8740    10.6770     8.2900     4.2570    22.7010 
  205.2500  -999.2500  -999.2500    63.8740    10.6770     8.2900     4.2550    22.7020 
  205.3750  -999.2500  -999.2500  -999.2500  -999.2500  -999.2500  -999.2500  -999.2500 
  205.5000  -999.2500  -999.2500  -999.2500  -999.2500  -999.2500  -999.2500  -999.2500 
  205.6250  -999.2500  -999.2500  -999.2500  -999.2500  -999.2500  -999.2500  -999.2500 
  205.7500  -999.2500  -999.2500  -999.2500  -999.2500  -999.2500  -999.2500  -999.2500 
  205.8750  -999.2500  -999.2500  -999.2500  -999.2500  -999.2500  -999.2500  -999.2500 
  206.0000  -999.2500  -999.2500  -999.2500  -999.2500  -999.2500  -999.2500  -999.2500 
  206.1250  -999.2500  -999.2500  -999.2500  -999.2500  -999.2500  -999.2500  -999.2500 
  206.2500  -999.2500  -999.2500  -999.2500  -999.2500  -999.2500  -999.2500  -999.2500 
  206.3750  -999.2500  -999.2500  -999.2500  -999.2500  -999.2500  -999.2500  -999.2500 
  206.5000  -999.2500  -999.2500  -999.2500  -999.2500  -999.2500  -999.2500  -999.2500 
  206.6250  -999.2500  -999.2500  -999.2500  -999.2500  -999.2500  -999.2500  -999.2500 
  206.7500  -999.2500  -999.2500  -999.2500  -999.2500  -999.2500  -999.2500  -999.2500 
  206.8750  -999.2500  -999.2500  -999.2500  -999.2500  -999.2500  -999.2500  -999.2500 
  207.0000  -999.2500  -999.2500  -999.2500  -999.2500  -999.2500  -999.2500  -999.2500 
