~V
VERS. 2.00: Ver 2.00
~W
STRT.M 58.0000:
STOP.M 213.0000:
STEP.M 0.1250:
NULL. -999.2500:
UWI. F10138:
~C
DEPT.M :
GR.API :
RML.OHMM :
RI. :
RXO.OHMM :
CALI.CM :
DEN.GM/CC :
SP.MV :
~A
# ...
  193.0000    76.0750    12.3890     9.7240    16.6770    24.0340     2.3190    -8.9790 
  193.1250    72.7300    13.3340    10.5630    17.4250    23.9940     2.3240    -9.1460 
  193.2500    70.6000    14.0400    11.2580    16.0140    23.9860     2.3250    -9.2890 
  193.3750    69.3670    14.5190    11.7780    15.4070    23.9670     2.3210    -9.4040 
  193.5000    69.9990    14.8570    12.1580    14.9680    23.9470     2.3160    -9.4950 
  193.6250    74.2190    15.1040    12.4360    14.9470    24.0190     2.3170    -9.5160 
  193.7500    78.8040    15.2230    12.6070    14.9850    23.9930     2.3270    -9.5120 
  193.8750    80.3530    15.1040    12.6020    15.5350    23.9720     2.3450    -9.5130 
  194.0000    77.8180    14.6790    12.3640    16.2810    23.9090     2.3630    -9.5290 
  194.1250    76.3050    13.9860    11.8970    15.1100    23.8300     2.3700    -9.5650 
  194.2500    78.1930    13.2990    11.3900    13.1210    23.7260     2.3650    -9.6160 
  194.3750    79.9500    12.8700    11.0290    11.8310    23.5610     2.3530    -9.6860 
  194.5000    78.7180    12.8940    10.9830    11.7770    23.7810     2.3390    -9.7400 
  194.6250    77.8510    13.5200    11.4340    12.3870    24.1380     2.3270    -9.7900 
  194.7500    78.7600    14.5580    12.3050    13.6460    24.1360     2.3170    -9.7970 
  194.8750    78.6240    15.7790    13.4650    15.3790    24.0280     2.3080    -9.7810 
  195.0000    76.3250    16.8800    14.6620    17.1900    23.9960     2.2980    -9.7310 
  195.1250    73.7750    17.4770    15.5010    18.1430    23.9960     2.2900    -9.6640 
  195.2500    72.8850    17.5000    15.8010    17.4290    23.9540     2.2870    -9.5740 
  195.3750    73.1740    16.9820    15.5320    15.6710    23.8080     2.2890    -9.4490 
  195.5000    73.0500    16.0390    14.7810    14.2230    23.7540     2.2940    -9.3140 
  195.6250    73.0770    14.8140    13.6720    13.5570    23.7570     2.2990    -9.1920 
  195.7500    75.6170    13.5460    12.4650    13.3630    23.8040     2.3020    -9.1050 
  195.8750    78.0520    12.4190    11.3400    12.9170    23.8640     2.3040    -9.0400 
  196.0000    76.8470    11.6450    10.4800    11.5850    23.8930     2.3100    -9.0180 
  196.1250    72.6200    11.6110    10.1690    10.5280    23.8350     2.3250    -9.0370 
  196.2500    70.7960    12.4850    10.5280    11.4280    23.7410     2.3480    -9.0930 
  196.3750    71.9620    14.4860    11.7330    14.4800    23.6420     2.3710    -9.1900 
  196.5000    72.9580    17.8200    14.0240    17.3700    23.6650     2.3820    -9.3330 
  196.6250    69.9070    22.8360    17.9100    23.6530    23.8030     2.3710    -9.5000 
  196.7500    65.0720    29.0370    23.1840    31.9350    24.1860     2.3420    -9.6730 
  196.8750    62.6570    35.6930    29.3150    38.9650    24.2990     2.3050    -9.8560 
  197.0000    62.4360    41.6720    35.2320    43.8810    24.3510     2.2690   -10.0260 
  197.1250    60.0410    45.3560    39.2740    49.3270    24.5320     2.2440   -10.1830 
  197.2500    58.1540    46.4810    40.9290    50.5590    24.5110     2.2290   -10.3300 
  197.3750    61.2180    45.4350    40.4090    45.7920    24.4260     2.2220   -10.4410 
  197.5000    66.9220    43.0650    38.4520    42.0500    24.4760     2.2200   -10.5240 
  197.6250    67.2210    40.1160    35.7720    41.1830    24.6440     2.2210   -10.5630 
  197.7500    63.9410    37.2650    33.0820    39.2190    24.8190     2.2220   -10.5500 
  197.8750    61.4830    34.9530    30.8170    34.5700    24.7700     2.2250   -10.5100 
  198.0000    60.0170    33.5090    29.2840    32.3480    24.7050     2.2290   -10.4790 
  198.1250    57.7700    33.2650    28.7750    32.6600    24.6880     2.2340   -10.4410 
  198.2500    56.5240    33.9780    29.1250    32.7090    24.6710     2.2340   -10.3610 
  198.3750    57.8960    35.2810    30.1360    34.8320    24.7520     2.2290   -10.2860 
  198.5000    60.7430    36.4270    31.3010    42.9160    24.9720     2.2150   -10.2140 
  198.6250    61.8340    36.1510    31.5950    46.5900    25.0510     2.1980   -10.1900 
  198.7500    62.0070    34.1550    30.5150    44.8640    25.0960     2.1910   -10.2270 
  198.8750    63.7300    30.9030    28.2250    38.0000    25.1510     2.2050   -10.2920 
  199.0000    67.3540    27.3340    25.3960    29.8580    24.7900     2.2480   -10.3330 
  199.1250    69.4600    24.4190    22.8500    25.0590    24.0520     2.3170   -10.3860 
  199.2500    68.5730    22.2460    20.8470    25.1470    23.6920     2.3840   -10.4750 
  199.3750    66.2660    20.4050    19.1510    28.4060    23.7110     2.4230   -10.5230 
  199.5000    63.0890    18.3580    17.3270    24.1600    23.7010     2.4130   -10.5130 
  199.6250    59.1370    15.7560    15.0440    19.3950    23.8520     2.3390   -10.4380 
  199.7500    57.1490    12.9170    12.5370    15.6440    24.2440     2.2250   -10.2990 
  199.8750    57.6840    10.2990    10.1750    11.2000    25.7800     2.0960   -10.1090 
  200.0000    60.4100     8.2730     8.2670     6.9740    28.8050     1.9810    -9.9010 
  200.1250    63.3950     7.0730     7.0330     4.9430    31.2660     1.9040    -9.7110 
  200.2500    65.0720     6.4790     6.3360     4.2700    32.0340     1.8710    -9.5820 
  200.3750    65.9780     6.3490     6.0880     4.1550    32.8200     1.8800    -9.5810 
  200.5000    67.3000     6.5430     6.1880     4.2940    33.1010     1.9210    -9.6840 
  200.6250    67.7730     6.9250     6.5290     4.5610    31.0340     1.9790    -9.9000 
  200.7500    66.2200     7.3260     6.9270     4.8540    30.6350     2.0300   -10.2020 
  200.8750    64.4060     7.6620     7.2800     4.9980    31.2610     2.0600   -10.5900 
  201.0000    63.5050     7.8940     7.5260     4.9720    30.9740     2.0630   -11.0430 
  201.1250    62.3520     7.9960     7.6330     5.0820    29.7500     2.0430   -11.5210 
  201.2500    62.3200     7.9960     7.6360     5.2730    29.9890     2.0190   -11.9940 
  201.3750    63.4220     7.9010     7.5450     5.8280    30.8600     1.9960   -12.4200 
  201.5000    63.9650     7.7290     7.3700     6.8250    30.6610     1.9660   -12.8040 
  201.6250    61.7610     7.5240     7.1370     7.5600    29.4250     1.9200   -13.1220 
  201.7500    59.9970     7.3730     6.9250     6.4300    28.1280     1.8740   -13.4010 
  201.8750    60.2830     7.3460     6.8080     5.3060    28.2570     1.8570   -13.6610 
  202.0000    61.8400     7.4860     6.8440     5.3700    29.1660     1.8930   -13.9550 
  202.1250    62.3440     7.8210     7.0880     6.8040    29.3180     1.9880   -14.2410 
  202.2500    61.1520     8.2580     7.4680     8.6490    28.3410     2.0910   -14.4270 
  202.3750    59.9960     8.6920     7.8840     9.0370    26.5820     2.1570   -14.4930 
  202.5000    59.8590     9.0110     8.2130     7.5290    26.4880     2.1690   -14.4160 
  202.6250    59.8590     9.1130     8.3350     6.1690    27.6730     2.1430   -14.1840 
  202.7500    59.8590     9.0620     8.2930     5.5020    28.6160     2.1110   -13.8660 
  202.8750    59.8590     8.9450     8.1710     5.3480    28.8480     2.0800   -13.4470 
  203.0000    59.8590     8.8480     8.0580     5.0870    29.1170     2.0460   -12.8940 
  203.1250    59.8590     8.8190     8.0060     4.5590    30.0110     2.0100   -12.2520 
  203.2500    59.8590     8.8280     7.9920     4.2370    31.1610     1.9820   -11.6470 
  203.3750    59.8590     8.8480     7.9950     4.2910    32.2970     1.9720   -11.1300 
  203.5000    59.8590     8.8620     8.0010     4.7710    32.9820     1.9860   -10.7430 
  203.6250    59.8590     8.8660     8.0030     5.8290    30.8340     2.0280   -10.5300 
  203.7500    59.8590     8.8640     8.0050     6.8920    27.6790     2.0900   -10.3880 
  203.8750    59.8590     8.8590     8.0120     8.0010    24.9020     2.1710   -10.2950 
  204.0000    59.8590     8.8580     8.0250    11.0100    23.8410     2.2670   -10.2340 
  204.1250    59.8590     8.8630     8.0400    19.9300    23.5130     2.3710   -10.2020 
