~V
VERS. 2.00: Ver 2.00
~W
STRT.M 55.0000:
STOP.M 242.0000:
STEP.M 0.1250:
NULL. -999.2500:
UWI. F10187:
~C
DEPT.M :
GR.API :
RML.OHMM :
RI. :
RXO.OHMM :
CALI.CM :
DEN.GM/CC :
SP.MV :
~A
# ...
  190.0000    64.1840    52.0410    49.2860    99.1620    24.0860     2.7000   -10.6410 
  190.1250    62.2240    45.0870    43.1740   103.5420    24.0370     2.7780   -10.0800 
  190.2500    60.6290    36.7280    34.7630    63.5800    24.0210     2.7970    -9.5370 
  190.3750    57.8460    29.0780    26.6980    32.6890    24.1140     2.7600    -9.0580 
  190.5000    55.0410    22.9890    20.3860    23.3000    24.3300     2.6900    -8.7210 
  190.6250    54.4920    18.5800    16.2630    16.7070    24.5410     2.6130    -8.5160 
  190.7500    54.5440    15.4000    13.5110    13.3840    24.5880     2.5500    -8.3420 
  190.8750    53.9490    13.2440    11.6330    13.3330    24.5330     2.5040    -8.2530 
  191.0000    53.7060    11.7320    10.2820    13.4540    24.4980     2.4690    -8.3320 
  191.1250    54.5390    10.6720     9.3160    10.2490    24.5160     2.4430    -8.4420 
  191.2500    54.8060     9.8990     8.6080     8.9760    24.5820     2.4280    -8.4960 
  191.3750    55.4400     9.3760     8.1310     8.3040    24.5790     2.4300    -8.5900 
  191.5000    56.5830     9.0770     7.8610     7.1510    24.5030     2.4480    -8.6670 
  191.6250    56.3200     9.0020     7.8010     6.9520    24.4140     2.4750    -8.6710 
  191.7500    54.0140     9.0740     7.8840     8.9280    24.4420     2.5000    -8.7650 
  191.8750    51.0560     9.2310     8.0530    13.4360    24.5110     2.5180    -8.9140 
  192.0000    50.6800     9.3880     8.2300    19.0130    24.5890     2.5250    -8.9830 
  192.1250    52.6490     9.4220     8.2850    17.7210    24.6320     2.5230    -9.0550 
  192.2500    53.9420     9.2830     8.1540    10.6520    24.6800     2.5160    -9.1840 
  192.3750    52.9000     8.9810     7.8490     7.1580    24.7140     2.5080    -9.2830 
  192.5000    50.5230     8.5830     7.4480     6.8900    24.6840     2.5040    -9.3650 
  192.6250    49.4900     8.2100     7.0740     7.1970    24.5820     2.5110    -9.5470 
  192.7500    50.3330     7.9800     6.8360     7.7680    24.5310     2.5250    -9.7210 
  192.8750    51.3830     7.9780     6.8160     8.8740    24.5530     2.5390    -9.8510 
  193.0000    50.0760     8.2690     7.0760     9.4410    24.5800     2.5490   -10.0440 
  193.1250    47.1680     8.9390     7.6980     9.8390    24.6200     2.5500   -10.2870 
  193.2500    46.3250     9.9140     8.6160    10.8410    24.6610     2.5470   -10.5200 
  193.3750    47.6810    11.0700     9.7540    13.5350    24.6710     2.5410   -10.7030 
  193.5000    47.8110    12.1750    10.9630    15.8330    24.6460     2.5340   -10.8360 
  193.6250    44.4470    12.9230    11.9780    14.4750    24.6410     2.5250   -10.9330 
  193.7500    42.0970    13.2770    12.6250    15.7840    24.6560     2.5130   -10.9670 
  193.8750    42.5230    13.3000    12.8530    18.0610    24.6600     2.5000   -10.9600 
  194.0000    45.9570    13.0860    12.7380    18.2610    24.6170     2.4920   -10.9230 
  194.1250    50.4890    12.6960    12.3890    15.8140    24.5750     2.4950   -10.8560 
  194.2500    53.4300    12.1990    11.9250    15.1270    24.6030     2.5020   -10.7050 
  194.3750    53.6750    11.6070    11.3730    17.3470    24.6750     2.5030   -10.5840 
  194.5000    52.8740    10.9480    10.7640    17.4440    24.7010     2.4920   -10.5070 
  194.6250    52.4460    10.3030    10.1540    14.8970    24.7050     2.4670   -10.2950 
  194.7500    50.1080     9.7550     9.5990    11.6720    24.7210     2.4410   -10.0600 
  194.8750    47.7400     9.3320     9.1260     9.3570    24.7520     2.4230    -9.8460 
  195.0000    47.4400     8.9980     8.7310     8.4060    24.7900     2.4130    -9.5130 
  195.1250    47.9720     8.6630     8.3720     8.6450    24.7220     2.4120    -9.0200 
  195.2500    47.3460     8.2610     7.9860     8.8340    24.6580     2.4160    -8.5230 
  195.3750    47.7790     7.8040     7.5550     8.1610    24.6910     2.4260    -7.9610 
  195.5000    51.2130     7.3660     7.1160     7.5020    24.7910     2.4400    -7.4050 
  195.6250    55.9000     7.0840     6.7720     6.9870    24.8050     2.4480    -7.0930 
  195.7500    62.0070     7.0320     6.6060     6.6740    24.8650     2.4460    -6.9890 
  195.8750    69.0060     7.2480     6.6680     6.5440    24.9200     2.4390    -7.0410 
  196.0000    75.0590     7.7150     6.9660     6.8200    24.9090     2.4340    -7.3580 
  196.1250    80.4420     8.3650     7.4750     7.3410    24.8980     2.4420    -8.0290 
  196.2500    86.3980     9.0200     8.0460     8.3300    24.9490     2.4570    -8.9490 
  196.3750    91.4290     9.5420     8.5490     9.4050    25.0230     2.4680   -10.0500 
  196.5000    92.9990     9.8410     8.8820    10.0340    25.0830     2.4670   -11.1980 
  196.6250    92.8470     9.8700     8.9740    10.0100    25.0810     2.4530   -12.3160 
  196.7500    94.0100     9.7350     8.9070     9.6250    25.1060     2.4340   -13.3600 
  196.8750    95.7800     9.5260     8.7510     9.2660    25.1890     2.4150   -14.3940 
  197.0000    95.1800     9.3210     8.5630     8.9610    25.2630     2.3990   -15.4350 
  197.1250    91.8840     9.1830     8.3790     8.6330    25.2700     2.3870   -16.4070 
  197.2500    91.3450     9.1120     8.2170     8.6470    25.2000     2.3810   -17.2310 
  197.3750    95.4280     9.0940     8.0850     9.1630    25.1020     2.3830   -18.0450 
  197.5000    99.0660     9.1120     7.9920     9.4820    24.9960     2.3880   -18.9730 
  197.6250    96.4880     9.1710     7.9610     9.4660    24.9520     2.3880   -19.8610 
  197.7500    92.7930     9.3080     8.0060     9.3060    24.9370     2.3800   -20.6450 
  197.8750    92.0300     9.6030     8.1610     9.2600    24.9180     2.3690   -21.3280 
  198.0000    92.4840    10.1640     8.4990     9.2410    24.8350     2.3650   -21.7990 
  198.1250    92.4610    11.1490     9.1700     9.2390    24.7070     2.3830   -21.9490 
  198.2500    92.3160    12.4850    10.1800    10.0810    24.5950     2.4220   -22.0010 
  198.3750    90.7440    13.9950    11.4570    12.1520    24.5070     2.4690   -21.8720 
  198.5000    84.7420    15.3430    12.7720    14.4900    24.4360     2.5010   -21.4170 
  198.6250    77.4220    15.9450    13.6050    18.6440    24.3930     2.4920   -20.7540 
  198.7500    77.3840    15.6080    13.6150    23.5620    24.3510     2.4510   -19.9430 
  198.8750    85.5760    14.4160    12.8020    22.3460    24.2190     2.3990   -18.8760 
  199.0000    94.4460    12.7430    11.4980    17.3370    23.8630     2.3610   -17.6910 
  199.1250    96.4820    11.1170    10.1450    13.9940    23.5320     2.3540   -16.6400 
  199.2500    95.0680     9.8900     9.0440    12.4080    23.6850     2.3620   -15.6600 
  199.3750    94.4580     9.1670     8.3030    11.2380    24.2370     2.3690   -14.7550 
  199.5000    94.5450     8.9230     7.9430    10.0570    24.8370     2.3690   -14.0050 
  199.6250    94.4600     9.1290     8.0000     9.0450    25.1530     2.3740   -13.4220 
  199.7500    93.4630     9.6090     8.3770     8.8690    25.1900     2.3960   -12.9840 
  199.8750    91.6220    10.2360     9.0070     9.4360    25.0610     2.4370   -12.7070 
  200.0000    92.6930    10.8310     9.7460    11.0440    24.8900     2.4820   -12.5010 
  200.1250    96.4400    11.0960    10.2870    13.3130    24.8100     2.5090   -12.2620 
  200.2500    96.0830    10.8880    10.3700    13.8080    24.7870     2.5070   -11.9870 
  200.3750    91.1840    10.1950     9.8990    12.6970    24.8150     2.4800   -11.6060 
  200.5000    86.6120     9.1660     8.9960    10.9780    24.8680     2.4400   -11.0640 
  200.6250    83.3850     8.0660     7.9300     9.4170    24.8700     2.4050   -10.2330 
  200.7500    78.5740     7.1320     6.9670     7.9230    24.7700     2.3860    -9.1340 
  200.8750    73.1080     6.4610     6.2070     7.0030    24.5860     2.3820    -7.9140 
  201.0000    67.6910     6.0570     5.6710     6.7310    24.4300     2.3890    -6.7070 
  201.1250    64.0770     5.8900     5.3630     6.6240    24.3050     2.4020    -5.4950 
