~V
VERS. 2.00: Ver 2.00
~W
STRT.M 52.0000:
STOP.M 236.0000:
STEP.M 0.1250:
NULL. -999.2500:
UWI. F10181:
~C
DEPT.M :
GR.API :
RML.OHMM :
RI. :
RXO.OHMM :
CALI.CM :
DEN.GM/CC :
SP.MV :
~A
# ...
  130.7500    75.2080     6.6610     6.1550     5.7160    23.2370     2.2210    -2.4560 
  130.8750    75.3960     6.5050     5.9890     5.9330    23.2540     2.2080    -2.4850 
  131.0000    78.5650     6.3730     5.8520     6.0110    23.3670     2.1980    -2.4710 
  131.1250    81.8290     6.2260     5.7170     5.7930    23.5190     2.2010    -2.4740 
  131.2500    83.7230     6.0630     5.5780     5.5640    23.6360     2.2160    -2.4800 
  131.3750    85.4520     5.9080     5.4480     5.4780    23.7210     2.2360    -2.4820 
  131.5000    87.8940     5.7890     5.3460     5.3480    23.8110     2.2560    -2.5010 
  131.6250    87.5540     5.7270     5.2900     5.4130    23.8710     2.2740    -2.5380 
  131.7500    85.5720     5.7030     5.2670     5.5110    23.9250     2.2900    -2.5590 
  131.8750    85.6400     5.6970     5.2620     5.6410    24.0250     2.3020    -2.5890 
  132.0000    87.9860     5.6930     5.2600     5.8180    24.1770     2.3090    -2.6410 
  132.1250    88.8930     5.6890     5.2540     5.8350    24.2670     2.3080    -2.6790 
  132.2500    87.2250     5.7130     5.2630     5.8800    24.2960     2.3020    -2.7110 
  132.3750    85.8200     5.8180     5.3210     5.9560    24.2980     2.2940    -2.7520 
  132.5000    85.9210     6.0580     5.4740     6.1390    24.2960     2.2920    -2.7990 
  132.6250    86.7450     6.4660     5.7620     6.5450    24.2910     2.3010    -2.8650 
  132.7500    86.5140     6.9280     6.1130     7.4070    24.2890     2.3230    -2.9400 
  132.8750    82.7000     7.2960     6.4250     8.7270    24.2890     2.3550    -3.0190 
  133.0000    76.7530     7.4380     6.5890     9.9910    24.2890     2.3860    -3.1220 
  133.1250    75.4180     7.3060     6.5360    11.8940    24.2890     2.4020    -3.2140 
  133.2500    79.2860     7.1340     6.4160    11.6720    24.2890     2.4000    -3.3080 
  133.3750    82.7610     7.2350     6.4510     8.7610    24.2890     2.3870    -3.4070 
  133.5000    80.2580     7.9220     6.8890     7.4790    24.2890     2.3810    -3.4940 
  133.6250    72.4230     9.5930     8.0510     8.9780    24.2890     2.3990    -3.5630 
  133.7500    64.8170    12.0470     9.9060    12.5170    24.2910     2.4380    -3.6250 
  133.8750    59.9820    15.0020    12.3210    17.4980    24.2950     2.4860    -3.6790 
  134.0000    57.2990    18.0070    14.9550    22.9640    24.2980     2.5300    -3.7260 
  134.1250    55.4300    19.9980    17.1590    26.0510    24.2970     2.5550    -3.7750 
  134.2500    54.9160    20.8300    18.4660    26.0850    24.2960     2.5660    -3.7840 
  134.3750    55.4650    20.5760    18.7660    25.5610    24.2950     2.5670    -3.7700 
  134.5000    54.8160    19.6840    18.3360    25.0130    24.2960     2.5630    -3.7440 
  134.6250    51.4200    18.7580    17.6400    23.5140    24.2940     2.5570    -3.6930 
  134.7500    49.2140    18.1970    17.0970    21.6230    24.2930     2.5530    -3.6580 
  134.8750    49.2800    18.1070    16.8610    19.7150    24.2930     2.5550    -3.6460 
  135.0000    48.8160    18.4530    16.9690    19.1040    24.2890     2.5620    -3.6580 
  135.1250    45.2090    19.1320    17.4040    19.6410    24.2710     2.5730    -3.7070 
  135.2500    43.1970    19.9040    17.9950    20.7010    24.2430     2.5810    -3.8070 
  135.3750    45.1850    20.6030    18.6110    21.6970    24.2270     2.5840    -3.9350 
  135.5000    47.5140    21.1150    19.1450    22.1600    24.2230     2.5810    -4.0790 
  135.6250    47.1770    21.3610    19.5120    22.1790    24.2300     2.5710    -4.2370 
  135.7500    47.3380    21.4060    19.7260    22.2030    24.2350     2.5580    -4.3710 
  135.8750    50.0580    21.2880    19.7980    22.0090    24.2180     2.5470    -4.4830 
  136.0000    53.4700    21.0520    19.7460    21.4980    24.1770     2.5400    -4.5720 
  136.1250    54.5070    20.7700    19.6100    22.1670    24.1090     2.5410    -4.6320 
  136.2500    54.1850    20.5650    19.4940    21.8910    23.9770     2.5460    -4.6640 
  136.3750    53.5720    20.5340    19.4840    19.3300    23.7860     2.5510    -4.6500 
  136.5000    52.9320    20.6880    19.6080    16.6200    23.5630     2.5550    -4.5960 
  136.6250    52.0100    20.8800    19.7670    16.2650    23.2940     2.5570    -4.5230 
  136.7500    50.2090    20.8230    19.7340    17.5240    23.1440     2.5590    -4.4650 
  136.8750    49.0300    20.2910    19.3070    19.7120    23.2100     2.5600    -4.4340 
  137.0000    50.1520    19.2130    18.4000    21.0510    23.3970     2.5580    -4.4190 
  137.1250    54.1750    17.7480    17.1110    18.8080    23.6090     2.5500    -4.4200 
  137.2500    56.4000    16.3440    15.8230    16.3120    23.8470     2.5400    -4.4250 
  137.3750    54.9810    15.3160    14.8130    14.5440    24.0700     2.5280    -4.4390 
  137.5000    53.8740    14.8290    14.2420    13.6760    24.1900     2.5190    -4.4550 
  137.6250    54.4910    14.9640    14.2210    14.6720    24.2210     2.5130    -4.4600 
  137.7500    53.4160    15.4990    14.5900    16.3630    24.2210     2.5090    -4.4490 
  137.8750    50.8460    16.2730    15.2260    17.3870    24.2210     2.5050    -4.4430 
  138.0000    49.0780    17.1130    15.9780    18.1180    24.2210     2.5000    -4.4360 
  138.1250    51.1840    17.8090    16.6590    18.9570    24.2210     2.4920    -4.4470 
  138.2500    55.3440    18.2430    17.1320    20.0860    24.2210     2.4830    -4.4640 
  138.3750    58.6950    18.3870    17.3480    20.2720    24.2150     2.4760    -4.4850 
  138.5000    58.4000    18.3170    17.3480    19.1350    24.1960     2.4740    -4.5030 
  138.6250    55.3780    18.2180    17.2630    17.4800    24.1560     2.4830    -4.5400 
  138.7500    54.0610    18.2940    17.2780    16.4360    24.1310     2.5030    -4.5850 
  138.8750    53.4330    18.6420    17.4980    16.1740    24.1010     2.5300    -4.6080 
  139.0000    52.8540    19.2450    17.9410    16.1270    24.0300     2.5550    -4.6060 
  139.1250    53.7340    19.9790    18.5400    16.3960    23.9060     2.5670    -4.5680 
  139.2500    53.6030    20.6400    19.1240    17.4880    23.8710     2.5640    -4.5240 
  139.3750    52.4710    21.0860    19.5620    19.2210    23.9150     2.5500    -4.4890 
  139.5000    52.1980    21.2330    19.7590    20.3040    23.9590     2.5320    -4.4660 
  139.6250    52.9240    21.0040    19.6180    20.8960    23.9900     2.5180    -4.3940 
  139.7500    52.3020    20.4930    19.2010    21.0020    24.0270     2.5090    -4.3040 
  139.8750    50.2870    19.7800    18.5730    21.0100    24.0830     2.5020    -4.2040 
  140.0000    49.0880    18.9660    17.8230    20.8760    24.1330     2.4940    -4.1170 
  140.1250    49.3790    18.1770    17.0660    20.0500    24.1480     2.4850    -4.0260 
  140.2500    51.0340    17.5510    16.4360    18.1720    24.1470     2.4770    -3.9400 
  140.3750    55.3160    17.2020    16.0400    17.6000    24.1300     2.4720    -3.8730 
  140.5000    59.9300    17.1970    15.9470    17.6180    24.0980     2.4730    -3.8240 
  140.6250    61.2290    17.5710    16.2040    17.9330    24.0700     2.4780    -3.8380 
  140.7500    58.9370    18.1520    16.6740    17.8820    24.0550     2.4820    -3.8720 
  140.8750    55.5860    18.7650    17.2130    19.1350    24.0680     2.4830    -3.9210 
  141.0000    53.9140    19.2000    17.6440    21.4210    24.0880     2.4820    -3.9760 
  141.1250    53.2670    19.2140    17.7420    21.2920    24.1020     2.4790    -4.0490 
  141.2500    52.8200    18.8080    17.4750    19.4270    24.1120     2.4760    -4.1250 
  141.3750    52.8760    18.0630    16.8880    18.8190    24.1110     2.4750    -4.1880 
  141.5000    54.1440    17.1520    16.1140    18.6310    24.0720     2.4760    -4.2560 
  141.6250    56.1960    16.3210    15.3590    17.2460    23.9970     2.4770    -4.3050 
  141.7500    58.4880    15.7360    14.7860    16.2350    23.9340     2.4770    -4.3170 
  141.8750    60.4780    15.4590    14.4690    15.5170    23.9390     2.4730    -4.3020 
