~V
VERS. 2.00: Ver 2.00
~W
STRT.M 49.0000:
STOP.M 243.0000:
STEP.M 0.1250:
NULL. -999.2500:
UWI. F10196:
~C
DEPT.M :
SP.MV :
DEN.GM/CC :
GR.API :
RML.OHMM :
RI. :
RXO.OHMM :
CALI.CM :
~A
# ...
   71.5000   -41.3180     2.0810    67.5190     9.1550     7.9390    15.1120    22.6200 
   71.6250   -42.1630     2.0990    66.5470     9.1610     7.8480    15.9590    22.9100 
   71.7500   -42.7120     2.1170    65.9710     9.3420     7.9280    16.0760    22.9620 
   71.8750   -43.0960     2.1310    64.8860     9.5290     8.0430    15.7720    22.9560 
   72.0000   -43.3970     2.1390    63.7670     9.6600     8.1330    15.2060    23.0080 
   72.1250   -43.6320     2.1350    63.7790     9.6920     8.1650    14.1710    23.1360 
   72.2500   -43.6940     2.1180    63.7570     9.5690     8.0990    12.6750    23.2970 
   72.3750   -43.5700     2.0990    63.6670     9.3390     7.9420    11.2410    23.3360 
   72.5000   -43.2770     2.0910    63.8230     9.0890     7.7250    11.4030    23.2420 
   72.6250   -42.8920     2.0980    63.3000     8.9310     7.5120    12.9190    23.0300 
   72.7500   -42.4660     2.1180    61.6500     8.9910     7.3960    13.6950    22.8010 
   72.8750   -42.0400     2.1380    61.7730     9.2380     7.4010    13.6450    22.5530 
   73.0000   -41.6000     2.1470    67.1060     9.5820     7.4970    13.4770    22.3370 
   73.1250   -41.1390     2.1410    73.5860     9.8890     7.6150    13.5320    22.2390 
   73.2500   -40.7340     2.1190    74.6220     9.9850     7.6520    13.9430    22.4000 
   73.3750   -40.4760     2.0940    71.4540     9.8570     7.5720    14.1900    22.5170 
   73.5000   -40.4050     2.0790    68.7710     9.5900     7.4020    14.0620    22.5050 
   73.6250   -40.5080     2.0790    70.1760     9.3370     7.2180    13.6510    22.4420 
   73.7500   -40.7490     2.0860    74.6460     9.2600     7.1200    13.8600    22.4180 
   73.8750   -41.0390     2.0880    77.7780     9.3710     7.1400    14.9640    22.4190 
   74.0000   -41.3330     2.0830    75.5800     9.6170     7.2700    15.7280    22.4290 
   74.1250   -41.6120     2.0740    68.6430     9.9060     7.4630    15.6450    22.4430 
   74.2500   -41.8540     2.0670    62.5930    10.1110     7.6350    15.4210    22.4420 
   74.3750   -42.0200     2.0640    60.9750    10.1770     7.7180    15.4570    22.4960 
   74.5000   -42.0620     2.0660    63.4470    10.1000     7.6890    15.5670    22.5960 
   74.6250   -41.9640     2.0700    67.3220     9.9300     7.5670    15.5340    22.6570 
   74.7500   -41.7680     2.0750    69.9610     9.7620     7.4080    15.3560    22.6310 
   74.8750   -41.5540     2.0820    71.0530     9.6830     7.2890    15.0640    22.5640 
   75.0000   -41.3770     2.0930    70.6850     9.7250     7.2490    14.5700    22.4600 
   75.1250   -41.2480     2.1090    69.5080     9.8650     7.2970    14.3900    22.3800 
   75.2500   -41.1640     2.1230    69.7320    10.0360     7.4190    14.7030    22.4550 
   75.3750   -41.1070     2.1290    71.9740    10.1640     7.5560    15.2370    22.7290 
   75.5000   -41.0640     2.1270    71.6220    10.2190     7.6740    15.6170    23.0520 
   75.6250   -40.9970     2.1170    65.5870    10.2180     7.7540    16.0600    23.4240 
   75.7500   -40.7730     2.1030    60.2870    10.2010     7.7890    16.2720    23.8710 
   75.8750   -40.3400     2.0850    60.7170    10.1800     7.7930    16.0330    24.2750 
   76.0000   -39.7090     2.0690    64.9830    10.0930     7.7450    15.2150    24.3540 
   76.1250   -38.9440     2.0580    69.2330     9.8370     7.5970    13.9730    23.9510 
   76.2500   -38.0150     2.0580    70.9750     9.3150     7.2820    12.8850    23.3400 
   76.3750   -36.9900     2.0640    69.8830     8.6580     6.8670    11.9560    22.9360 
   76.5000   -36.0210     2.0740    68.3920     8.0560     6.4580    11.1070    22.8640 
   76.6250   -35.2070     2.0870    70.7880     7.6950     6.1800    10.5890    22.8920 
   76.7500   -34.5660     2.1000    75.5180     7.7340     6.1620    10.1400    22.8410 
   76.8750   -33.9680     2.1040    75.3480     8.0820     6.3850    10.9350    22.8800 
   77.0000   -33.2870     2.0950    71.3740     8.6120     6.8000    12.7410    23.2120 
   77.1250   -32.4530     2.0760    69.0200     9.1270     7.2870    13.9990    23.6840 
   77.2500   -31.4210     2.0660    69.4060     9.3220     7.6130    14.0830    23.8780 
   77.3750   -30.1540     2.0750    69.2020     9.0760     7.6020    13.7110    23.6020 
   77.5000   -28.5580     2.1050    69.7210     8.4420     7.2250    13.5700    23.0580 
   77.6250   -26.6650     2.1530    75.3100     7.6200     6.5990    12.6110    22.6210 
   77.7500   -24.6680     2.2080    86.7470     6.8590     5.9030     9.9540    22.4490 
   77.8750   -22.8040     2.2600    98.7900     6.2710     5.2850     7.2080    22.4680 
   78.0000   -21.1700     2.2940   108.3720     5.8460     4.7900     6.0290    22.5160 
   78.1250   -19.8100     2.3010   111.9180     5.5150     4.4080     6.0550    22.4860 
   78.2500   -18.9150     2.2920   109.3600     5.2350     4.1320     6.1360    22.3620 
   78.3750   -18.4970     2.2890   107.2740     5.0960     3.9760     5.9230    22.3530 
   78.5000   -18.4990     2.3000   108.3990     5.3380     4.0410     5.6340    22.4460 
   78.6250   -18.8680     2.3200   108.3020     6.2840     4.4890     5.7480    22.6130 
   78.7500   -19.6260     2.3440   102.5840     8.4650     5.6720     7.0200    22.9700 
   78.8750   -20.6590     2.3750    94.5070    11.9210     7.7820    10.9380    23.4720 
   79.0000   -21.9430     2.4130    85.9860    16.4560    10.9840    21.8580    23.8340 
   79.1250   -23.4690     2.4430    77.0190    20.9630    14.8710    39.7050    23.9220 
   79.2500   -25.1940     2.4280    68.6420    22.4840    17.3510    47.7490    23.7930 
   79.3750   -26.9380     2.3600    63.7760    20.1810    16.8780    34.3460    23.5160 
   79.5000   -28.6130     2.2630    62.6890    15.9550    14.3330    21.4900    23.1270 
   79.6250   -30.1500     2.1700    64.4850    12.2310    11.5370    15.3870    22.8070 
   79.7500   -31.4700     2.1150    67.4350    10.1800     9.5980    13.7450    22.6680 
   79.8750   -32.5330     2.0940    70.1860     9.2770     8.4500    13.4780    22.6390 
   80.0000   -33.3350     2.0940    72.8960     9.0360     7.8710    13.6780    22.6760 
   80.1250   -33.9270     2.1010    72.8040     9.0540     7.6270    14.0390    22.6420 
   80.2500   -34.2390     2.1110    67.8110     9.0790     7.5350    13.9260    22.5070 
   80.3750   -34.4210     2.1270    63.2090     9.0760     7.4810    13.4320    22.4150 
   80.5000   -34.6470     2.1420    64.0480     9.1500     7.4870    12.9070    22.4010 
   80.6250   -34.9080     2.1510    68.6980     9.4260     7.6200    12.6270    22.4100 
   80.7500   -35.0530     2.1490    72.0670     9.9980     7.9660    13.0600    22.3760 
   80.8750   -35.1330     2.1390    71.4490    10.7250     8.4680    13.4230    22.3340 
   81.0000   -35.2320     2.1170    67.2150    11.3930     8.9980    13.6810    22.4580 
   81.1250   -35.3280     2.0840    62.6780    11.7460     9.3640    13.8010    22.7640 
   81.2500   -35.4220     2.0470    63.7050    11.5520     9.3430    13.7940    23.0540 
   81.3750   -35.4980     2.0280    68.6660    11.0130     9.0250    13.6890    23.0250 
   81.5000   -35.4820     2.0360    72.6310    10.4130     8.5860    13.9310    22.8770 
   81.6250   -35.4180     2.0660    73.9230     9.9910     8.2090    14.5040    22.8060 
   81.7500   -35.4000     2.1040    73.2970     9.8690     8.0180    15.5950    22.8650 
   81.8750   -35.3830     2.1380    70.4140     9.9050     7.9660    17.4420    22.9170 
   82.0000   -35.2840     2.1540    67.3580     9.9540     7.9660    19.0680    22.9320 
   82.1250   -35.1110     2.1440    65.3970     9.9000     7.9260    17.8910    22.8650 
   82.2500   -34.8880     2.1220    62.9290     9.7140     7.7810    16.1130    22.6220 
   82.3750   -34.5550     2.1160    59.3600     9.4930     7.5760    15.1050    22.2780 
   82.5000   -34.1350     2.1300    57.8780     9.3000     7.3640    14.6790    22.0930 
   82.6250   -33.6440     2.1500    60.3950     9.1490     7.1770    14.5570    22.0830 
