~V
VERS. 2.00: Ver 2.00
~W
STRT.M 49.0000:
STOP.M 251.0000:
STEP.M 0.1250:
NULL. -999.2500:
UWI. F10165:
~C
DEPT.M :
GR.API :
RML.OHMM :
RI. :
RXO.OHMM :
CALI.CM :
SP.MV :
DEN.GM/CC :
~A
# ...
   60.2500    65.0600     2.3080     2.6830    10.5070    24.6170     4.1590     2.0690 
   60.3750    68.1840     3.7770     3.9470    10.5730    24.5190     0.6470     2.0840 
   60.5000    69.0070     4.9610     5.1390    10.4340    24.4830    -2.6110     2.0970 
   60.6250    67.6700     5.4540     5.9920    10.5470    24.4760    -5.4530     2.1050 
   60.7500    68.0880     5.6250     6.5770    10.6820    24.4840    -7.8500     2.1110 
   60.8750    71.9770     5.6270     6.9730    10.6400    24.5460    -9.7560     2.1170 
   61.0000    76.9460     5.5540     7.2350     9.9770    24.7150   -11.1680     2.1220 
   61.1250    79.4690     5.5490     7.3910     8.8250    24.9310   -12.0870     2.1230 
   61.2500    79.1210     5.6510     7.4860     8.0960    24.9990   -12.7160     2.1250 
   61.3750    77.8540     5.7620     7.5080     8.4990    24.9160   -13.1720     2.1320 
   61.5000    77.4120     5.7570     7.4220     8.9820    24.8660   -13.5320     2.1510 
   61.6250    79.0190     5.5920     7.1850     8.6040    25.0140   -13.8090     2.1790 
   61.7500    83.3520     5.3760     6.8540     7.1840    25.3120   -14.0340     2.2060 
   61.8750    88.3670     5.1860     6.5070     5.9640    25.5940   -14.2310     2.2210 
   62.0000    91.0200     5.0610     6.2240     5.6050    25.7450   -14.4210     2.2230 
   62.1250    91.4080     5.0020     6.0720     5.7730    25.7800   -14.6010     2.2190 
   62.2500    92.1220     4.9670     6.0340     5.8640    25.7830   -14.7510     2.2160 
   62.3750    93.2620     4.9260     6.0780     6.0080    25.7830   -14.8740     2.2170 
   62.5000    93.5370     4.8670     6.1710     5.8630    25.7830   -14.9940     2.2210 
   62.6250    93.7650     4.8780     6.2970     5.7410    25.7830   -15.1560     2.2250 
   62.7500    95.2340     5.0420     6.4500     5.8900    25.7820   -15.3720     2.2220 
   62.8750    96.2100     5.3610     6.6410     6.2130    25.7690   -15.6160     2.2130 
   63.0000    95.4620     5.7690     6.8720     6.5120    25.7320   -15.8600     2.2040 
   63.1250    93.4960     6.1650     7.1260     6.6440    25.6710   -16.1300     2.1970 
   63.2500    91.3820     6.4670     7.3430     6.6190    25.6300   -16.4470     2.1950 
   63.3750    88.7110     6.6320     7.4540     6.7020    25.6070   -16.7800     2.1980 
   63.5000    87.4210     6.6270     7.4000     7.2300    25.6350   -17.0840     2.2050 
   63.6250    90.4810     6.4220     7.1360     7.3580    25.7170   -17.3660     2.2140 
   63.7500    94.2610     6.1120     6.7520     6.7360    25.7510   -17.6370     2.2250 
   63.8750    96.3160     5.7730     6.3210     5.8590    25.7230   -17.8860     2.2360 
   64.0000    97.2180     5.4570     5.9050     5.4280    25.6720   -18.1430     2.2410 
   64.1250    99.4820     5.2580     5.6010     5.5290    25.6480   -18.4130     2.2400 
   64.2500   102.0160     5.2890     5.5260     5.7940    25.6410   -18.6590     2.2430 
   64.3750   102.2010     5.7160     5.8520     5.9970    25.6230   -18.9170     2.2600 
   64.5000    98.2730     6.7520     6.7900     6.5640    25.5800   -19.2170     2.3010 
   64.6250    87.8580     8.8770     8.7320     9.3860    25.5220   -19.5280     2.3670 
   64.7500    75.7230    12.1980    11.6160    17.4570    25.4950   -19.8540     2.4400 
   64.8750    66.1630    16.2080    14.9580    36.1250    25.4730   -20.2210     2.4850 
   65.0000    60.8670    18.8940    17.4090    52.1480    25.4050   -20.5940     2.4640 
   65.1250    60.0120    17.6660    17.0830    39.8930    25.2570   -20.9670     2.3670 
   65.2500    62.0870    14.5510    14.8560    22.0950    25.0460   -21.3500     2.2560 
   65.3750    65.5260    11.6880    12.2420    13.1720    24.8990   -21.7050     2.1740 
   65.5000    68.3010     9.8970    10.2190    10.5300    24.8450   -22.0380     2.1340 
   65.6250    68.6250     9.2860     9.1610    10.3620    24.8550   -22.3390     2.1280 
   65.7500    67.5850     9.3730     8.7710    10.7600    24.9090   -22.5760     2.1310 
   65.8750    65.4720     9.8260     8.8020    12.0440    25.0050   -22.7690     2.1310 
   66.0000    64.0350    10.2770     8.9820    14.2950    25.0950   -22.9430     2.1270 
   66.1250    64.2950    10.3740     9.0460    14.2190    25.1270   -23.0450     2.1210 
   66.2500    63.8620    10.1640     8.9260    11.5760    25.1330   -23.0940     2.1190 
   66.3750    61.9080     9.8450     8.6890    10.1040    25.1260   -23.1390     2.1250 
   66.5000    60.3550     9.6050     8.4460     9.7630    25.1070   -23.1550     2.1380 
   66.6250    61.0970     9.5670     8.3050     9.7730    25.0570   -23.1440     2.1490 
   66.7500    62.5640     9.6860     8.2720     9.8210    25.0020   -23.1520     2.1560 
   66.8750    63.1430     9.8920     8.3080     9.9790    24.9450   -23.1590     2.1640 
   67.0000    62.5300    10.1030     8.3510    10.1850    24.9140   -23.1400     2.1660 
   67.1250    61.4800    10.2490     8.3350    10.2970    24.9080   -23.1430     2.1490 
   67.2500    61.4090    10.3400     8.2620    10.3190    24.9010   -23.1700     2.1210 
   67.3750    62.6920    10.4160     8.1640    10.3410    24.8730   -23.1720     2.1020 
   67.5000    64.2880    10.5180     8.0810    10.3460    24.8180   -23.1560     2.1010 
   67.6250    64.8670    10.6710     8.0530    10.4800    24.7520   -23.1560     2.1080 
   67.7500    63.8970    10.8330     8.0600    10.8300    24.6470   -23.1360     2.1120 
   67.8750    62.0980    10.9280     8.0610    11.2420    24.5080   -23.0980     2.1100 
   68.0000    60.6910    10.8720     7.9990    11.3730    24.4230   -23.0750     2.1050 
   68.1250    61.0820    10.5950     7.8250    11.1290    24.4020   -23.0250     2.1010 
   68.2500    62.9180    10.2580     7.6190    10.8580    24.4050   -22.9320     2.1060 
   68.3750    63.9530    10.1410     7.5380    10.8080    24.4210   -22.8380     2.1240 
   68.5000    63.8400    10.5360     7.7530    10.9100    24.4860   -22.7270     2.1530 
   68.6250    64.6920    11.6970     8.4430    11.1690    24.6480   -22.5860     2.1890 
   68.7500    66.5790    13.3690     9.4930    12.9250    24.9050   -22.4460     2.2380 
   68.8750    65.3680    15.0760    10.6530    19.5560    25.1450   -22.2830     2.2900 
   69.0000    60.9180    16.0540    11.4550    36.8370    25.2030   -22.0960     2.3060 
   69.1250    60.1570    15.4130    11.2710    28.1320    25.0090   -21.9310     2.2500 
   69.2500    63.7460    13.6420    10.2980    14.8840    24.8350   -21.7720     2.1850 
   69.3750    66.9830    11.5420     8.9840    10.5860    24.8780   -21.6020     2.1540 
   69.5000    68.7130     9.7680     7.7520     9.4520    25.0800   -21.4660     2.1570 
   69.6250    76.0060     8.7240     6.9070     8.1800    25.2620   -21.3480     2.1800 
   69.7500    86.0030     8.2570     6.4400     7.0830    25.3180   -21.2200     2.2030 
   69.8750    90.2830     8.1910     6.2770     6.6730    25.3020   -21.1320     2.2170 
   70.0000    87.4950     8.3800     6.3260     6.5200    25.2620   -21.0920     2.2210 
   70.1250    83.5330     8.7630     6.5380     6.8730    25.1930   -21.0680     2.2150 
   70.2500    81.1470     9.2050     6.8130     7.5180    25.1050   -21.0890     2.2060 
   70.3750    77.9370     9.5600     7.0600     7.7840    25.0370   -21.1710     2.1960 
   70.5000    74.2170     9.6990     7.1910     7.8140    24.9810   -21.2650     2.1870 
   70.6250    74.3420     9.5090     7.1210     8.4030    24.9800   -21.3920     2.1860 
   70.7500    79.1870     9.0880     6.8900     7.9730    25.0630   -21.5740     2.1950 
   70.8750    86.6270     8.5770     6.5740     7.0340    25.1460   -21.7570     2.2080 
   71.0000    93.1320     8.1480     6.2770     6.6550    25.1720   -21.9350     2.2130 
   71.1250    93.1750     7.9710     6.1090     6.7090    25.1470   -22.1380     2.2010 
   71.2500    88.2090     8.0650     6.1020     7.0000    25.1310   -22.3360     2.1800 
   71.3750    80.8570     8.4160     6.2600     7.3850    25.1230   -22.5400     2.1540 
