~V
VERS. 2.00: Ver 2.00
~W
STRT.M 49.0000:
STOP.M 223.0000:
STEP.M 0.1250:
NULL. -999.2500:
UWI. F10156:
~C
DEPT.M :
SP.MV :
GR.API :
RML.OHMM :
RI. :
RXO.OHMM :
CALI.CM :
DEN.GM/CC :
~A
# ...
  184.0000   -12.4980    97.5620    10.1900     7.1710     9.9220    24.6830     2.4340 
  184.1250   -12.2500    97.5660    10.3200     7.1970     9.9480    24.7000     2.4410 
  184.2500   -11.9660    99.3560    10.2740     7.1490    10.0150    24.7330     2.4380 
  184.3750   -11.6760   102.3610     9.9520     6.9630    10.2170    24.8310     2.4270 
  184.5000   -11.3680   103.1600     9.3870     6.6430    10.0410    24.9760     2.4120 
  184.6250   -11.0660    99.6420     8.7510     6.2690     9.2710    25.1180     2.3950 
  184.7500   -10.8230    94.2230     8.3300     5.9900     8.3330    25.1800     2.3880 
  184.8750   -10.5440    91.9040     8.2600     5.8900     7.5840    25.1660     2.3970 
  185.0000   -10.2870    90.9480     8.5380     5.9930     7.6280    25.2340     2.4180 
  185.1250   -10.1010    86.8910     9.0380     6.2540     8.5290    25.4580     2.4390 
  185.2500    -9.9430    79.7350     9.5120     6.5670     9.5660    25.6400     2.4390 
  185.3750    -9.8110    71.1910     9.7290     6.7790     9.6940    25.7190     2.4150 
  185.5000    -9.7530    64.4250     9.6000     6.8070     8.7400    25.8390     2.3740 
  185.6250    -9.6980    60.3870     9.1930     6.6520     7.4470    26.0820     2.3260 
  185.7500    -9.6040    57.2180     8.7030     6.3930     6.7360    26.3470     2.2880 
  185.8750    -9.5730    54.1500     8.3200     6.1530     6.5450    26.6270     2.2710 
  186.0000    -9.5290    51.7730     8.1040     5.9840     6.4450    26.7020     2.2770 
  186.1250    -9.4420    52.2880     8.0190     5.8920     6.2560    26.2470     2.3010 
  186.2500    -9.3920    53.5280     7.9740     5.8440     6.0870    24.9150     2.3290 
  186.3750    -9.3350    54.9950     7.8830     5.7820     6.1490    23.7940     2.3580 
  186.5000    -9.2470    58.4230     7.7350     5.6870     6.1630    23.2570     2.3830 
  186.6250    -9.1860    64.5360     7.5600     5.5640     6.2000    23.2360     2.4000 
  186.7500    -9.1320    70.6390     7.4260     5.4460     6.2380    23.6150     2.4040 
  186.8750    -9.0970    75.8790     7.3730     5.3620     6.3420    24.2360     2.4010 
  187.0000    -9.1170    81.5020     7.4100     5.3270     6.6070    24.9190     2.3960 
  187.1250    -9.1490    86.7850     7.5020     5.3300     6.8690    25.3340     2.3900 
  187.2500    -9.1770    85.7960     7.5750     5.3400     7.0300    25.5070     2.3770 
  187.3750    -9.2280    82.2870     7.5680     5.3190     7.0490    25.5170     2.3540 
  187.5000    -9.2710    82.6800     7.4650     5.2560     6.9500    25.5990     2.3320 
  187.6250    -9.3200    85.5180     7.3020     5.1670     6.8520    25.6900     2.3280 
  187.7500    -9.4360    86.8010     7.1830     5.1030     6.8740    25.6090     2.3480 
  187.8750    -9.5030    89.3300     7.2050     5.1160     6.9450    25.5320     2.3720 
  188.0000    -9.5520    94.8200     7.4300     5.2380     7.1780    25.3890     2.3910 
  188.1250    -9.6500    97.6810     7.8770     5.4880     7.6530    25.0970     2.4090 
  188.2500    -9.7180    91.3850     8.5270     5.8710     8.1870    24.6890     2.4260 
  188.3750    -9.7780    83.9160     9.2130     6.3110     8.5910    24.2930     2.4370 
  188.5000    -9.8970    80.8800     9.7690     6.7190     8.9750    23.9420     2.4400 
  188.6250    -9.9910    81.2840    10.0590     7.0020     9.0400    23.7970     2.4350 
  188.7500   -10.0540    81.2390     9.9900     7.0760     9.2130    23.8440     2.4270 
  188.8750   -10.1130    82.6380     9.7070     6.9950     8.8630    24.0320     2.4130 
  189.0000   -10.1550    86.8540     9.3470     6.8280     8.2530    24.2800     2.3940 
  189.1250   -10.1870    89.0620     9.0230     6.6450     7.9870    24.4610     2.3760 
  189.2500   -10.1960    86.4040     8.7930     6.4920     8.0190    24.5420     2.3720 
  189.3750   -10.2110    83.6600     8.6300     6.3740     8.1110    24.5350     2.3820 
  189.5000   -10.2130    83.5820     8.5150     6.2910     8.0350    24.5130     2.3940 
  189.6250   -10.2050    84.8420     8.4370     6.2400     7.7840    24.5150     2.4000 
  189.7500   -10.2110    87.0710     8.4020     6.2280     7.5330    24.5240     2.3960 
  189.8750   -10.2510    89.1630     8.4100     6.2510     7.5670    24.5320     2.3880 
  190.0000   -10.2680    89.0710     8.4450     6.3030     7.9150    24.5710     2.3790 
  190.1250   -10.2420    87.5280     8.4670     6.3620     8.2130    24.6480     2.3690 
  190.2500   -10.2800    87.7010     8.4250     6.3940     8.3590    24.8230     2.3600 
  190.3750   -10.2910    88.1660     8.3240     6.3950     8.3690    25.0230     2.3580 
  190.5000   -10.2740    87.6600     8.2040     6.3830     8.1460    25.1400     2.3660 
  190.6250   -10.2970    87.7290     8.1270     6.3930     7.8410    25.1210     2.3790 
  190.7500   -10.2750    89.0710     8.1490     6.4630     7.8200    24.9240     2.3850 
  190.8750   -10.2510    89.6050     8.2480     6.5880     8.1150    24.6520     2.3840 
  191.0000   -10.2810    89.0850     8.3800     6.7430     8.4230    24.4610     2.3800 
  191.1250   -10.2970    89.4320     8.5030     6.8980     8.4920    24.3960     2.3790 
  191.2500   -10.2980    89.8620     8.5930     7.0210     8.2550    24.3830     2.3850 
  191.3750   -10.3420    88.4420     8.6690     7.1120     8.1510    24.3610     2.3970 
  191.5000   -10.3590    87.3860     8.7410     7.1760     8.0300    24.3320     2.4080 
  191.6250   -10.3580    88.3630     8.7990     7.2090     7.8490    24.3140     2.4130 
  191.7500   -10.4140    89.1880     8.7750     7.1740     7.9030    24.3090     2.4140 
  191.8750   -10.4310    87.2170     8.6250     7.0480     8.0110    24.2970     2.4120 
  192.0000   -10.4390    85.1140     8.3480     6.8280     8.0720    24.3010     2.4090 
  192.1250   -10.5040    84.8390     8.0160     6.5600     8.1240    24.3650     2.4040 
  192.2500   -10.5440    85.9660     7.8320     6.3630     8.0500    24.4150     2.4030 
  192.3750   -10.5800    85.9750     8.0130     6.3620     7.9800    24.4440     2.4070 
  192.5000   -10.6670    85.0190     8.7090     6.6630     8.5260    24.4250     2.4120 
  192.6250   -10.7480    83.8880     9.9340     7.3240     9.9320    24.3700     2.4110 
  192.7500   -10.8440    83.7550    11.6200     8.4050    12.1520    24.2980     2.4060 
  192.8750   -10.9650    82.9330    13.4920     9.7830    15.8890    24.2280     2.4030 
  193.0000   -11.0950    79.8330    15.4110    11.3710    22.0340    24.1900     2.4030 
  193.1250   -11.2240    75.5780    17.4270    13.1370    22.5350    24.1990     2.4010 
  193.2500   -11.3750    73.4680    20.0050    15.3170    20.2120    24.2210     2.3860 
  193.3750   -11.5540    72.5490    23.5750    18.2250    24.0500    24.2490     2.3620 
  193.5000   -11.7420    71.6720    28.4340    22.2100    35.1350    24.2690     2.3370 
  193.6250   -11.9320    71.2940    34.6290    27.5020    46.2190    24.2730     2.3210 
  193.7500   -12.1150    71.9420    41.9740    34.2240    49.3790    24.2850     2.3130 
  193.8750   -12.3320    72.9320    49.4500    41.4820    51.4380    24.2990     2.3040 
  194.0000   -12.5300    74.1680    55.7670    48.0290    54.2850    24.3330     2.2900 
  194.1250   -12.7320    75.1500    59.0950    52.1380    58.6790    24.3620     2.2780 
  194.2500   -12.9840    73.8760    56.3150    50.8210    64.2970    24.3810     2.2770 
  194.3750   -13.1870    71.0450    48.2090    44.4420    64.6600    24.4070     2.2850 
  194.5000   -13.3990    70.7440    37.9050    35.7190    51.4070    24.4010     2.2990 
  194.6250   -13.6660    75.9680    29.1090    27.9930    29.3930    24.3510     2.3180 
  194.7500   -13.9210    84.3600    24.5250    23.4860    16.5520    24.2990     2.3340 
  194.8750   -14.1970    87.7870    23.9510    21.9630    14.8200    24.2530     2.3370 
  195.0000   -14.4960    84.1280    27.3820    23.5000    22.5650    24.2390     2.3210 
  195.1250   -14.8190    78.1730    35.0440    28.6290    40.4570    24.2570     2.2940 
