~V
VERS. 2.00: Ver 2.00
~W
STRT.M 58.0000:
STOP.M 213.0000:
STEP.M 0.1250:
NULL. -999.2500:
UWI. F10138:
~C
DEPT.M :
GR.API :
RML.OHMM :
RI. :
RXO.OHMM :
CALI.CM :
DEN.GM/CC :
SP.MV :
~A
# ...
  103.0000    63.0110     9.0080     7.6920    13.2390    27.4400     2.1680   -25.9100 
  103.1250    63.7430     8.9450     7.6250    13.0520    27.4070     2.1680   -26.0630 
  103.2500    62.1680     8.9110     7.5780    12.9900    27.2670     2.1670   -26.1960 
  103.3750    59.7570     8.9030     7.5570    12.8990    27.0220     2.1650   -26.2910 
  103.5000    60.0070     8.9160     7.5590    12.8060    26.8650     2.1660   -26.3290 
  103.6250    60.9940     8.9400     7.5770    12.8050    26.7450     2.1710   -26.3110 
  103.7500    59.5400     8.9660     7.6010    12.9970    26.6680     2.1790   -26.2940 
  103.8750    59.2350     8.9960     7.6330    13.3340    26.5900     2.1860   -26.2400 
  104.0000    63.7730     9.0320     7.6750    13.6330    26.5530     2.1890   -26.1490 
  104.1250    66.8030     9.0640     7.7210    12.6660    26.4780     2.1870   -26.0450 
  104.2500    63.5230     9.0670     7.7440    12.0590    26.4070     2.1830   -25.9280 
  104.3750    59.8470     9.0110     7.7180    11.6150    26.2310     2.1800   -25.7930 
  104.5000    62.4030     8.8750     7.6230    10.9910    25.9710     2.1780   -25.6210 
  104.6250    66.8080     8.6550     7.4610    10.3960    25.8430     2.1760   -25.3260 
  104.7500    65.8790     8.4160     7.2750     9.9530    25.7240     2.1710   -24.9000 
  104.8750    62.3620     8.2250     7.1110     9.5100    25.6060     2.1620   -24.3910 
  105.0000    61.8800     8.1540     7.0170     9.3710    25.6280     2.1500   -23.8060 
  105.1250    64.6640     8.2920     7.0700     9.5540    25.8180     2.1440   -23.0300 
  105.2500    66.6430     8.5970     7.2660     9.8170    26.0660     2.1490   -22.0380 
  105.3750    68.5090     8.9630     7.5510    10.1060    26.4040     2.1700   -20.8940 
  105.5000    69.9110     9.2310     7.8140    10.8070    26.5930     2.2030   -19.6590 
  105.6250    69.7220     9.2060     7.8830    12.2370    26.5510     2.2340   -18.4380 
  105.7500    69.8060     8.9050     7.7150    12.8420    26.4410     2.2480   -17.2960 
  105.8750    72.0540     8.4410     7.3630    10.7860    26.3930     2.2450   -16.2770 
  106.0000    75.1870     7.9730     6.9430     8.3150    26.5290     2.2360   -15.4020 
  106.1250    76.7310     7.6400     6.5830     7.4890    26.5480     2.2380   -14.7500 
  106.2500    80.1350     7.4280     6.3260     7.3860    26.4780     2.2590   -14.3120 
  106.3750    86.2280     7.2790     6.1560     7.0960    26.4400     2.2920   -14.0330 
  106.5000    91.8300     7.1260     6.0310     6.5980    26.2960     2.3220   -13.8860 
  106.6250    92.3320     6.9230     5.9010     6.1160    26.1000     2.3290   -13.9020 
  106.7500    90.2750     6.7130     5.7620     5.9250    26.0570     2.3150   -14.0100 
  106.8750    88.8580     6.5560     5.6420     5.9790    26.0710     2.2870   -14.1410 
  107.0000    87.5030     6.4850     5.5680     6.1020    26.0790     2.2580   -14.2800 
  107.1250    84.6650     6.4880     5.5440     6.1780    26.2420     2.2380   -14.3940 
  107.2500    82.4980     6.4970     5.5350     6.3410    26.2230     2.2300   -14.4860 
  107.3750    83.5770     6.4700     5.5110     6.4420    26.2150     2.2310   -14.5740 
  107.5000    86.5680     6.4030     5.4610     6.3340    26.2200     2.2370   -14.6680 
  107.6250    87.9430     6.3400     5.4010     6.0680    26.1820     2.2430   -14.7260 
  107.7500    89.6760     6.3380     5.3670     6.0010    26.1680     2.2430   -14.7430 
  107.8750    91.4830     6.4420     5.3920     6.2240    26.1600     2.2360   -14.7330 
  108.0000    90.1980     6.6780     5.5020     6.7500    26.0510     2.2240   -14.7210 
  108.1250    86.0890     7.0730     5.7320     7.5570    26.0220     2.2100   -14.7780 
  108.2500    84.5230     7.5800     6.0570     8.3020    25.9270     2.1950   -14.9240 
  108.3750    87.5020     8.1630     6.4640     8.5750    25.8700     2.1820   -15.1430 
  108.5000    90.5860     8.7810     6.9290     8.9360    25.8850     2.1690   -15.4020 
  108.6250    86.3600     9.3710     7.4190     9.4250    25.7730     2.1590   -15.6500 
  108.7500    77.1780     9.8700     7.8770     9.8660    25.5220     2.1530   -15.8310 
  108.8750    68.5890    10.1880     8.2260    10.4660    25.1930     2.1520   -15.8830 
  109.0000    64.5080    10.2080     8.3650    10.7960    24.8870     2.1550   -15.7530 
  109.1250    63.1780     9.7850     8.1530    10.6460    24.8090     2.1620   -15.3570 
  109.2500    63.4090     9.0420     7.6560    10.1470    24.8110     2.1710   -14.7140 
  109.3750    68.5550     8.1600     6.9940     9.1420    24.8130     2.1820   -13.8420 
  109.5000    77.9050     7.3550     6.3260     7.8570    24.8770     2.1940   -12.7900 
  109.6250    83.2850     6.8310     5.8150     6.5360    25.0610     2.2020   -11.7020 
  109.7500    83.5620     6.5740     5.4910     6.3480    25.1460     2.2050   -10.7080 
  109.8750    83.4580     6.5240     5.3440     6.5680    25.0950     2.2040    -9.8230 
  110.0000    84.0730     6.6080     5.3500     7.1360    24.9810     2.2010    -9.0340 
  110.1250    83.2930     6.7680     5.4950     7.2140    24.9900     2.2020    -8.3880 
  110.2500    83.1820     6.9490     5.7120     6.8770    25.1940     2.2100    -7.9160 
  110.3750    84.0470     7.1270     5.9540     6.6480    25.3740     2.2250    -7.5950 
  110.5000    83.5260     7.2600     6.1630     7.5460    25.3330     2.2470    -7.3650 
  110.6250    82.2100     7.2450     6.2460     9.1890    25.1450     2.2700    -7.1080 
  110.7500    85.2270     7.0380     6.1620     8.7400    25.1060     2.2870    -6.7990 
  110.8750    91.5800     6.6590     5.9150     7.0070    25.1420     2.2990    -6.4490 
  111.0000    94.4940     6.2060     5.5640     5.9090    25.2290     2.3040    -6.1050 
  111.1250    92.8700     5.8310     5.2140     5.6400    25.2680     2.3050    -5.8130 
  111.2500    93.0010     5.6080     4.9460     5.4270    25.2950     2.3040    -5.5790 
  111.3750    95.0440     5.5400     4.7910     5.1370    25.5230     2.3040    -5.4270 
  111.5000    94.1680     5.5910     4.7380     5.0960    25.7920     2.3050    -5.4070 
  111.6250    89.2600     5.7080     4.7610     5.3750    25.7890     2.3060    -5.5630 
  111.7500    86.2940     5.8180     4.8030     5.7190    25.7070     2.3060    -5.8660 
  111.8750    85.3670     5.8800     4.8260     5.8980    25.7990     2.2980    -6.3290 
  112.0000    83.6190     5.8990     4.8240     6.0060    26.0110     2.2830    -6.9060 
  112.1250    80.5640     5.9930     4.8670     6.1710    26.1330     2.2680    -7.5780 
  112.2500    75.5800     6.3310     5.0740     6.4580    26.2000     2.2660    -8.3390 
  112.3750    70.4230     7.0610     5.5650     7.1390    26.1620     2.2880    -9.2140 
  112.5000    68.0130     8.2470     6.4220     8.5710    26.0600     2.3290   -10.1500 
  112.6250    68.5970     9.8320     7.6890    12.2470    25.9150     2.3650   -11.1170 
  112.7500    67.3540    11.4360     9.1150    17.1830    25.7780     2.3690   -12.1410 
  112.8750    63.7080    12.6680    10.3850    19.3540    25.7510     2.3330   -13.2120 
  113.0000    61.3050    13.2410    11.1840    18.1450    25.7670     2.2710   -14.2610 
  113.1250    59.8940    13.0770    11.3080    16.0140    25.7660     2.2120   -15.2020 
  113.2500    57.2300    12.5690    11.0230    15.2890    25.7230     2.1740   -16.0390 
  113.3750    54.6300    11.9430    10.5310    15.7750    25.6910     2.1580   -16.7520 
  113.5000    55.5400    11.2770     9.9390    16.5720    25.8200     2.1570   -17.3160 
  113.6250    58.5770    10.5470     9.2720    14.9080    26.0720     2.1620   -17.7060 
  113.7500    62.1840     9.7940     8.5840    12.3230    26.2090     2.1660   -17.9530 
  113.8750    66.4930     9.1190     7.9590    10.8860    26.3560     2.1680   -18.1170 
  114.0000    69.8610     8.6550     7.4950    10.2540    26.5560     2.1680   -18.2540 
  114.1250    67.1270     8.5800     7.3390    10.1100    26.5780     2.1650   -18.3870 
