~V
VERS. 2.00: Ver 2.00
~W
STRT.M 50.0000:
STOP.M 207.0000:
STEP.M 0.1250:
NULL. -999.2500:
UWI. F10134:
~C
DEPT.M :
SP.MV :
DEN.GM/CC :
GR.API :
RML.OHMM :
RI. :
RXO.OHMM :
CALI.CM :
~A
# ...
  185.0000     6.7740     2.3580    83.6050     8.4130     6.7250     7.2830    24.9250 
  185.1250     6.5530     2.3570    83.5070     9.7040     7.4400     9.5760    24.8790 
  185.2500     6.3270     2.3690    80.5740    11.3660     8.4580    12.6830    24.7960 
  185.3750     6.1070     2.3820    78.3350    12.8340     9.4980    14.1180    24.6860 
  185.5000     5.9010     2.3910    79.4610    13.4380    10.1360    13.8110    24.5840 
  185.6250     5.7070     2.3910    82.4270    12.6710     9.9310    13.6510    24.5580 
  185.7500     5.5080     2.3860    84.4340    11.1480     9.1350    11.8650    24.5970 
  185.8750     5.3070     2.3780    85.2560     9.5050     8.1200     9.7920    24.6480 
  186.0000     5.1040     2.3690    87.1060     8.1890     7.2100     7.9710    24.6660 
  186.1250     4.9220     2.3590    90.9200     7.4220     6.6090     7.5370    24.6690 
  186.2500     4.7610     2.3480    93.0750     7.0760     6.2750     7.1500    24.7220 
  186.3750     4.6310     2.3400    92.1640     7.0440     6.1520     7.2580    24.8220 
  186.5000     4.5380     2.3350    89.0270     7.1930     6.1620     7.5550    24.9130 
  186.6250     4.4940     2.3380    88.7000     7.3740     6.2240     7.4370    24.9350 
  186.7500     4.4770     2.3430    91.2110     7.5360     6.2990     7.3670    24.9410 
  186.8750     4.4700     2.3510    91.8810     7.7590     6.4240     7.6130    25.0010 
  187.0000     4.4640     2.3590    88.7180     8.1440     6.6480     7.9230    25.1300 
  187.1250     4.4600     2.3640    86.3730     8.7240     7.0070     7.9320    25.2970 
  187.2500     4.4620     2.3640    87.1500     9.3480     7.4180     8.5910    25.4430 
  187.3750     4.4760     2.3580    86.9440     9.8350     7.7750    10.3730    25.5430 
  187.5000     4.5030     2.3450    82.1790    10.0370     7.9620    11.6180    25.5930 
  187.6250     4.5350     2.3280    74.9710     9.9000     7.8990     8.7260    25.6020 
  187.7500     4.5640     2.3120    70.4630     9.6090     7.6910     7.3390    25.6010 
  187.8750     4.5780     2.2980    68.6410     9.3110     7.4470     7.1510    25.5980 
  188.0000     4.5580     2.2920    66.7120     9.1110     7.2590     7.2270    25.6070 
  188.1250     4.4850     2.2960    64.6030     9.1030     7.1940     7.0730    25.5970 
  188.2500     4.3600     2.3060    64.1760     9.2540     7.2240     7.1740    25.4890 
  188.3750     4.1850     2.3110    65.1070     9.4930     7.3070     7.3800    25.2890 
  188.5000     3.9720     2.3060    64.4510     9.7340     7.4030     7.4280    25.1100 
  188.6250     3.7420     2.2910    61.0250     9.8820     7.4860     7.8320    25.0590 
  188.7500     3.5270     2.2800    56.6800     9.9060     7.5480     8.0270    25.0610 
  188.8750     3.3470     2.2780    52.8520     9.8420     7.5810     7.6180    25.0330 
  189.0000     3.1980     2.2810    51.6660     9.7660     7.5860     7.1610    24.9670 
  189.1250     3.0830     2.2770    53.2570     9.7520     7.5710     7.0880    24.8850 
  189.2500     2.9940     2.2650    54.9060     9.7890     7.5520     7.5500    24.8260 
  189.3750     2.9300     2.2500    55.9090     9.8080     7.5300     8.2360    24.8010 
  189.5000     2.8830     2.2440    57.4660     9.7380     7.4980     8.6100    24.7980 
  189.6250     2.8450     2.2530    60.6530     9.5720     7.4530     8.3710    24.8000 
  189.7500     2.8160     2.2710    61.8150     9.4180     7.4100     7.9100    24.8000 
  189.8750     2.8090     2.2870    60.6020     9.3810     7.3970     7.4760    24.8000 
  190.0000     2.8170     2.2970    60.2340     9.5180     7.4440     7.3760    24.8000 
  190.1250     2.8380     2.3020    62.6400     9.8640     7.5760     7.7950    24.7980 
  190.2500     2.8460     2.3040    64.3980    10.3240     7.7770     8.6490    24.8040 
  190.3750     2.8450     2.3060    64.0050    10.8010     8.0290     9.5350    24.8400 
  190.5000     2.8450     2.3070    63.3590    11.2200     8.3120     9.8140    24.8900 
  190.6250     2.8470     2.3060    64.8450    11.5370     8.6000     9.7660    24.8890 
  190.7500     2.8610     2.3040    67.3670    11.8090     8.8800     9.5930    24.9230 
  190.8750     2.8930     2.3050    68.7200    12.1020     9.1470     9.4840    24.9740 
  191.0000     2.9570     2.3170    67.6510    12.4370     9.3910     9.6380    24.9720 
  191.1250     3.0650     2.3430    64.4330    12.7360     9.5730    10.7550    24.9710 
  191.2500     3.1930     2.3680    62.1670    12.8720     9.6560    12.3570    24.9700 
  191.3750     3.3130     2.3810    63.0060    12.7690     9.6110    12.3840    24.9660 
  191.5000     3.4030     2.3760    64.6440    12.4290     9.4460    10.7860    24.9620 
  191.6250     3.4300     2.3560    63.2910    11.9350     9.2120     9.2800    24.9630 
  191.7500     3.4090     2.3350    61.9430    11.4860     8.9950     8.8580    24.9670 
  191.8750     3.3380     2.3180    63.0800    11.2050     8.8410     8.9600    24.9710 
  192.0000     3.2430     2.3060    63.8120    11.1300     8.7730     9.1310    24.9770 
  192.1250     3.1210     2.2970    61.0350    11.2230     8.7830     9.8930    24.9830 
  192.2500     2.9840     2.2900    58.7960    11.3380     8.8230    10.2140    24.9860 
  192.3750     2.8450     2.2850    59.3320    11.3810     8.8560     9.7250    24.9840 
  192.5000     2.7220     2.2830    60.6970    11.3260     8.8620     9.3840    24.9840 
  192.6250     2.6350     2.2890    61.4070    11.2090     8.8370     8.8910    24.9840 
  192.7500     2.5950     2.2990    61.5430    11.0980     8.8020     8.8850    24.9790 
  192.8750     2.6120     2.3070    61.6830    11.0130     8.7690     9.0800    24.9630 
  193.0000     2.7080     2.3040    63.1140    10.9630     8.7450     8.9910    24.9340 
  193.1250     2.9090     2.2870    65.5750    10.9620     8.7270     8.9110    24.8980 
  193.2500     3.1790     2.2690    66.0330    10.9930     8.7040     9.0760    24.8710 
  193.3750     3.5030     2.2600    65.0760    11.0310     8.6670     9.0930    24.8630 
  193.5000     3.8540     2.2610    64.3430    11.0440     8.6170     8.8920    24.8550 
  193.6250     4.2110     2.2700    63.9510    11.0000     8.5570     8.1850    24.7950 
  193.7500     4.5510     2.2820    63.5970    10.9000     8.4920     7.5030    24.7060 
  193.8750     4.8480     2.2960    63.5160    10.7580     8.4230     7.1330    24.6520 
  194.0000     5.0930     2.3100    63.5170    10.6000     8.3480     6.9940    24.6670 
  194.1250     5.2780     2.3170    63.5090    10.4510     8.2610     7.3830    24.7500 
  194.2500     5.4090     2.3130    64.1350    10.2960     8.1660     7.8940    24.8490 
  194.3750     5.4800     2.2980    64.6700    10.1060     8.0700     8.0430    24.9290 
  194.5000     5.4820     2.2850    63.8740     9.8690     7.9770     7.7930    24.9620 
  194.6250     5.4470     2.2870    63.8740     9.6140     7.8870     7.6160    24.9570 
  194.7500     5.3730     2.3040    63.8740     9.4200     7.8060     7.5830    24.9530 
  194.8750     5.3020     2.3250    63.8740     9.3350     7.7500     7.5810    24.9530 
  195.0000     5.2350     2.3390    63.8740     9.3590     7.7290     7.5770    24.9540 
  195.1250     5.1710     2.3430    63.8740     9.4460     7.7550     7.6200    24.9590 
  195.2500     5.1340     2.3430    63.8740     9.5340     7.8110     7.5290    24.9570 
  195.3750     5.1330     2.3420    63.8740     9.6060     7.8770     7.5200    24.9410 
  195.5000     5.1400     2.3380    63.8740     9.6650     7.9320     7.5030    24.9180 
  195.6250     5.1710     2.3280    63.8740     9.7230     7.9580     7.4900    24.9070 
  195.7500     5.1990     2.3160    63.8740     9.7900     7.9490     7.3370    24.9070 
  195.8750     5.2160     2.3090    63.8740     9.8580     7.9070     7.1920    24.9110 
  196.0000     5.2170     2.3090    63.8740     9.9040     7.8390     7.2900    24.9120 
  196.1250     5.2400     2.3120    63.8740     9.8970     7.7610     8.0030    24.8880 
