~V
VERS. 2.00: Ver 2.00
~W
STRT.M 50.0000:
STOP.M 284.0000:
STEP.M 0.1250:
NULL. -999.2500:
UWI. F10107:
~C
DEPT.M :
DEN.GM/CC :
SP.MV :
GR.API :
RML.OHMM :
RI. :
RXO.OHMM :
CALI.CM :
~A
# ...
  185.0000     2.2670    -5.7960    68.4210     5.9810     5.1460     4.9280    24.7490 
  185.1250     2.2980    -5.8690    70.4960     6.1680     5.3450     5.5040    24.4550 
  185.2500     2.3280    -5.9290    73.3800     6.2310     5.4440     5.9250    24.3080 
  185.3750     2.3490    -6.0100    73.3900     6.2030     5.4570     5.9350    24.2170 
  185.5000     2.3570    -6.1280    72.1390     6.1470     5.4240     5.7650    24.1450 
  185.6250     2.3530    -6.2930    74.2280     6.1440     5.4030     5.7820    24.1600 
  185.7500     2.3420    -6.4940    78.4300     6.2390     5.4420     5.9400    24.2380 
  185.8750     2.3290    -6.7240    81.8130     6.4530     5.5670     6.1600    24.3100 
  186.0000     2.3190    -6.9750    82.2170     6.7930     5.7930     6.3120    24.2390 
  186.1250     2.3190    -7.2500    79.4200     7.2640     6.1360     6.6140    23.8350 
  186.2500     2.3290    -7.5240    76.9030     7.7960     6.5510     7.0690    23.3420 
  186.3750     2.3450    -7.7680    74.8200     8.3090     6.9820     7.8010    22.9730 
  186.5000     2.3600    -7.9530    70.9930     8.7140     7.3590     8.6890    22.8060 
  186.6250     2.3680    -8.0580    67.2710     8.9270     7.6090     9.6850    22.7280 
  186.7500     2.3680    -8.0980    67.8810     9.0050     7.7530    10.0460    22.6580 
  186.8750     2.3640    -8.0770    71.9390     9.0520     7.8520     9.4580    22.5750 
  187.0000     2.3600    -8.0020    73.7980     9.1830     7.9910     8.5760    22.4740 
  187.1250     2.3630    -7.8520    69.9500     9.4600     8.2300     8.2470    22.3750 
  187.2500     2.3730    -7.6350    64.3150     9.7530     8.4950     8.8410    22.3720 
  187.3750     2.3840    -7.3490    61.6080     9.8750     8.6520     9.7660    22.5250 
  187.5000     2.3920    -7.0070    62.2410     9.6530     8.5530    10.3190    22.7270 
  187.6250     2.3860    -6.6370    64.7000     8.9650     8.0670    10.1620    22.8220 
  187.7500     2.3660    -6.2650    67.3900     8.0130     7.3260     9.6670    22.9120 
  187.8750     2.3350    -5.9120    70.2450     7.0210     6.4980     8.2430    23.1220 
  188.0000     2.3020    -5.5950    73.6670     6.1820     5.7520     6.5850    23.4560 
  188.1250     2.2800    -5.3230    76.4660     5.6290     5.2180     5.6280    23.7150 
  188.2500     2.2730    -5.0990    76.9900     5.3040     4.8770     5.2220    24.0580 
  188.3750     2.2780    -4.9300    77.1130     5.1390     4.6870     4.9640    24.5560 
  188.5000     2.2850    -4.8080    78.4840     5.0630     4.5950     4.8730    24.8890 
  188.6250     2.2820    -4.7230    80.9240     5.0080     4.5430     4.7340    24.7450 
  188.7500     2.2650    -4.6580    81.2120     4.9310     4.4810     4.5690    24.5540 
  188.8750     2.2390    -4.6060    79.5660     4.8200     4.3890     4.3910    24.5970 
  189.0000     2.2150    -4.5660    77.2560     4.6690     4.2580     4.2760    24.6120 
  189.1250     2.2060    -4.5520    74.8300     4.4710     4.0830     4.1100    24.4410 
  189.2500     2.2110    -4.5660    72.7710     4.2420     3.8760     3.8960    24.3260 
  189.3750     2.2280    -4.6120    70.5220     4.0030     3.6570     3.6430    24.4660 
  189.5000     2.2470    -4.6980    67.2380     3.7900     3.4540     3.3450    24.6440 
  189.6250     2.2630    -4.8250    64.8450     3.6760     3.3210     3.1320    24.5590 
  189.7500     2.2750    -4.9740    64.9970     3.6960     3.2900     3.0440    24.1690 
  189.8750     2.2870    -5.1330    67.8670     3.8720     3.3840     3.1350    23.7280 
  190.0000     2.3020    -5.2920    72.2460     4.1870     3.6000     3.3730    23.5090 
  190.1250     2.3160    -5.4510    73.5240     4.5980     3.9140     3.8100    23.4910 
  190.2500     2.3270    -5.6010    70.2480     5.0010     4.2460     4.4430    23.5220 
  190.3750     2.3310    -5.7450    65.5180     5.3170     4.5290     5.1220    23.5350 
  190.5000     2.3290    -5.8760    64.7650     5.4900     4.7050     5.4850    23.5370 
  190.6250     2.3210    -6.0020    70.0570     5.4930     4.7360     5.4880    23.5600 
  190.7500     2.3110    -6.1340    75.9250     5.4070     4.6750     5.4230    23.6440 
  190.8750     2.3020    -6.2730    79.2550     5.3000     4.5800     5.3640    23.7650 
  191.0000     2.2950    -6.4140    80.0750     5.2310     4.5000     5.3560    23.7630 
  191.1250     2.2930    -6.5380    79.9970     5.2300     4.4700     5.4800    23.7040 
  191.2500     2.2930    -6.6330    79.3810     5.2730     4.4780     5.6650    23.6680 
  191.3750     2.2930    -6.6910    77.1760     5.3310     4.5040     5.8160    23.6640 
  191.5000     2.2920    -6.7160    75.3700     5.3780     4.5310     5.7050    23.6800 
  191.6250     2.2870    -6.7140    75.9180     5.4030     4.5490     5.6010    23.7190 
  191.7500     2.2810    -6.6980    77.4810     5.4120     4.5600     5.5510    23.7290 
  191.8750     2.2760    -6.6770    78.7190     5.4130     4.5700     5.5620    23.6490 
  192.0000     2.2740    -6.6460    78.4660     5.4120     4.5800     5.3700    23.5570 
  192.1250     2.2740    -6.5870    75.2570     5.4120     4.5930     5.2370    23.5030 
  192.2500     2.2740    -6.5200    71.7390     5.4170     4.6070     5.1940    23.4730 
  192.3750     2.2770    -6.4620    71.4990     5.4320     4.6290     5.3700    23.4620 
  192.5000     2.2830    -6.4260    73.4310     5.4630     4.6610     5.7170    23.4600 
  192.6250     2.2950    -6.4030    72.3210     5.5050     4.7010     5.7640    23.4600 
  192.7500     2.3090    -6.3780    71.5560     5.5360     4.7350     5.7490    23.4600 
  192.8750     2.3190    -6.3410    73.7710     5.5380     4.7510     5.9100    23.4600 
  193.0000     2.3210    -6.3020    75.2100     5.5060     4.7430     6.1930    23.4600 
  193.1250     2.3130    -6.2740    72.6220     5.4580     4.7230     6.2440    23.4600 
  193.2500     2.3020    -6.2550    70.5690     5.4400     4.7200     5.7570    23.4600 
  193.3750     2.2940    -6.2320    71.1100     5.4820     4.7590     5.4060    23.4600 
  193.5000     2.2920    -6.2020    71.8300     5.5850     4.8440     5.3830    23.4600 
  193.6250     2.2960    -6.1640    71.7830     5.7060     4.9480     5.6000    23.4600 
  193.7500     2.3040    -6.1230    71.6950     5.7670     5.0130     5.8860    23.4600 
  193.8750     2.3120    -6.0920    70.8060     5.7200     4.9960     6.1470    23.4600 
  194.0000     2.3170    -6.0740    69.4290     5.5580     4.8800     6.2260    23.4600 
  194.1250     2.3170    -6.0850    68.5910     5.3260     4.6860     5.9470    23.4600 
  194.2500     2.3120    -6.1160    69.7660     5.1180     4.4910     5.3530    23.4600 
  194.3750     2.3060    -6.1480    72.4820     4.9990     4.3540     4.8650    23.4600 
  194.5000     2.2990    -6.1720    74.0330     5.0090     4.3140     4.7050    23.4600 
  194.6250     2.2950    -6.1840    71.2270     5.1770     4.4090     4.8290    23.4600 
  194.7500     2.2930    -6.1830    68.0220     5.4520     4.6100     5.1150    23.4600 
  194.8750     2.2960    -6.1650    68.4290     5.7790     4.8780     5.4480    23.4600 
  195.0000     2.3030    -6.1350    70.2590     6.0860     5.1610     5.7840    23.4600 
  195.1250     2.3100    -6.1060    69.3490     6.3040     5.3960     6.1680    23.4610 
  195.2500     2.3110    -6.1020    67.3980     6.4540     5.5780     6.6420    23.4650 
  195.3750     2.3050    -6.1500    66.8980     6.6040     5.7440     7.1060    23.4680 
  195.5000     2.2900    -6.2460    66.4230     6.8350     5.9510     7.3390    23.4700 
  195.6250     2.2690    -6.3710    63.8360     7.1960     6.2400     7.3830    23.4700 
  195.7500     2.2490    -6.5050    61.8490     7.5860     6.5540     7.9950    23.4700 
  195.8750     2.2360    -6.6240    63.6520     7.8560     6.7950     9.0830    23.4690 
  196.0000     2.2320    -6.7160    68.2880     7.8760     6.8550     9.6640    23.4590 
  196.1250     2.2390    -6.7740    72.1440     7.5770     6.6590     9.1630    23.4230 
