~V
VERS. 2.00: Ver 2.00
~W
STRT.M 30.0000:
STOP.M 209.0000:
STEP.M 0.1250:
NULL. -999.2500:
UWI. F10150:
~C
DEPT.M :
SP.MV :
DEN.GM/CC :
GR.API :
RML.OHMM :
RI. :
RXO.OHMM :
CALI.CM :
~A
# ...
  108.7500   -35.9790     1.9010    55.3170     9.1160     7.9680     7.8580    26.2300 
  108.8750   -35.9420     1.9400    54.6850     8.9470     7.7480     9.4730    25.8080 
  109.0000   -35.7890     2.0100    53.4880     9.1100     7.7560    10.8450    25.5450 
  109.1250   -35.5630     2.0810    54.4400     9.7440     8.1080    11.5670    25.4070 
  109.2500   -35.2810     2.1150    58.3960    10.8090     8.7990    12.8850    25.2810 
  109.3750   -35.0280     2.0980    63.1380    12.2700     9.8410    15.8130    25.1420 
  109.5000   -34.8290     2.0400    64.7900    13.9910    11.1860    19.1710    25.0580 
  109.6250   -34.7090     1.9770    61.3880    15.6230    12.6390    20.9770    25.0380 
  109.7500   -34.6940     1.9420    58.4350    16.6660    13.7820    22.6930    25.0490 
  109.8750   -34.7880     1.9490    59.0590    16.7160    14.2120    23.6300    25.0760 
  110.0000   -34.9740     1.9980    62.0390    15.6910    13.7420    22.8670    25.0960 
  110.1250   -35.1940     2.0680    62.4900    13.8980    12.4890    20.2500    25.1020 
  110.2500   -35.3970     2.1290    59.4540    12.0650    11.0320    16.2620    25.1020 
  110.3750   -35.5720     2.1690    57.1820    10.5780     9.7130    12.8580    25.1020 
  110.5000   -35.7350     2.1890    59.2050     9.5850     8.7140    11.3260    25.1020 
  110.6250   -35.8380     2.1970    63.7700     9.1040     8.1280    11.0910    25.1040 
  110.7500   -35.8350     2.1990    65.3920     8.9100     7.8290    10.9200    25.1190 
  110.8750   -35.7760     2.1970    64.6630     8.8650     7.7250    10.7940    25.1590 
  111.0000   -35.6540     2.1900    65.1840     8.8630     7.7190    10.9280    25.2150 
  111.1250   -35.4810     2.1800    64.6950     8.8460     7.7360    11.1580    25.2460 
  111.2500   -35.3140     2.1690    62.2100     8.8290     7.7480    11.2170    25.2600 
  111.3750   -35.1470     2.1610    60.5380     8.8520     7.7700    11.6930    25.2730 
  111.5000   -34.9320     2.1570    62.2640     8.9430     7.8220    12.5610    25.2850 
  111.6250   -34.6400     2.1570    65.2410     9.1320     7.9390    12.6850    25.2900 
  111.7500   -34.3690     2.1620    66.6570     9.4130     8.1330    13.1420    25.2910 
  111.8750   -34.0760     2.1710    67.0780     9.7800     8.4060    13.7720    25.2910 
  112.0000   -33.7700     2.1840    66.2760    10.2010     8.7370    13.6320    25.2930 
  112.1250   -33.5410     2.1970    65.1320    10.5950     9.0600    12.8970    25.3000 
  112.2500   -33.3180     2.2060    66.0770    10.8850     9.3050    12.8540    25.3210 
  112.3750   -33.0300     2.2080    66.8510    11.0600     9.4550    13.6540    25.3590 
  112.5000   -32.7190     2.2040    64.1250    11.2140     9.5660    13.8810    25.3990 
  112.6250   -32.4020     2.2020    59.6340    11.5700     9.7920    12.9590    25.4350 
  112.7500   -32.0800     2.2040    59.1900    12.2290    10.2340    12.3120    25.4710 
  112.8750   -31.8030     2.2110    61.5020    13.1180    10.8820    13.6740    25.5160 
  113.0000   -31.5390     2.2190    62.2720    13.9600    11.5770    16.5270    25.5760 
  113.1250   -31.2740     2.2230    62.3680    14.3040    11.9850    19.4840    25.5920 
  113.2500   -31.1350     2.2220    65.0250    14.0900    11.9820    18.1310    25.5270 
  113.3750   -31.1510     2.2210    68.6320    13.5820    11.6930    13.7820    25.3730 
  113.5000   -31.3050     2.2190    70.1680    13.2310    11.4130    10.4990    25.1910 
  113.6250   -31.6510     2.2080    69.4790    13.4710    11.4890    10.5990    25.0040 
  113.7500   -32.1130     2.1860    67.6120    14.1850    11.9420    14.5050    24.8760 
  113.8750   -32.6070     2.1530    64.4660    15.0320    12.5970    19.6820    24.8540 
  114.0000   -33.1470     2.1230    62.2810    15.5400    13.1180    21.9770    24.9290 
  114.1250   -33.7090     2.1130    63.6850    15.2180    13.0590    20.1420    25.0560 
  114.2500   -34.1560     2.1260    66.1030    14.2990    12.4680    17.8820    25.1440 
  114.3750   -34.5150     2.1520    68.3110    13.2570    11.6520    15.9570    25.1850 
  114.5000   -34.8420     2.1790    70.5030    12.5500    10.9780    15.0430    25.2070 
  114.6250   -35.0620     2.1970    70.4650    12.4670    10.7300    15.2630    25.2140 
  114.7500   -35.1640     2.2080    66.2160    12.8400    10.8640    16.1000    25.2050 
  114.8750   -35.2380     2.2130    60.9000    13.4650    11.2680    17.2190    25.1990 
  115.0000   -35.2790     2.2080    59.7220    14.0750    11.7570    18.0130    25.1910 
  115.1250   -35.2570     2.1900    62.5650    14.3510    12.0680    17.9940    25.2160 
  115.2500   -35.2940     2.1630    63.0200    14.2460    12.0980    17.3040    25.2820 
  115.3750   -35.3710     2.1430    60.5760    13.8820    11.8950    16.1650    25.3440 
  115.5000   -35.4300     2.1410    58.6960    13.4830    11.6090    15.3400    25.3480 
  115.6250   -35.5520     2.1620    60.6150    13.3280    11.4460    14.9860    25.2840 
  115.7500   -35.7310     2.1850    61.8690    13.4840    11.4990    15.0820    25.2330 
  115.8750   -35.9290     2.1920    60.7550    13.8860    11.7600    16.3280    25.1700 
  116.0000   -36.1730     2.1740    58.6690    14.3900    12.1480    18.0760    25.1070 
  116.1250   -36.4550     2.1370    58.9870    14.8220    12.5470    18.6830    25.1040 
  116.2500   -36.7270     2.1030    60.5750    15.1030    12.8680    18.4930    25.1490 
  116.3750   -36.9860     2.0850    61.5460    15.2430    13.0860    18.1750    25.1960 
  116.5000   -37.2030     2.0890    61.5550    15.2950    13.2190    18.2480    25.2140 
  116.6250   -37.3790     2.1050    61.6910    15.2820    13.2800    19.0420    25.2140 
  116.7500   -37.5400     2.1180    62.2970    15.1680    13.2570    19.5960    25.2100 
  116.8750   -37.6380     2.1230    62.0810    14.8820    13.0910    19.7420    25.1880 
  117.0000   -37.6650     2.1210    61.7530    14.3860    12.7440    19.3120    25.1420 
  117.1250   -37.6550     2.1220    62.2870    13.7090    12.2150    17.9380    25.1170 
  117.2500   -37.6090     2.1290    61.2620    13.0110    11.6290    16.5630    25.1430 
  117.3750   -37.5210     2.1440    59.2730    12.4200    11.0940    15.6570    25.1820 
  117.5000   -37.4860     2.1610    59.6820    12.0270    10.6950    15.2850    25.1770 
  117.6250   -37.4660     2.1790    61.7470    11.8960    10.5080    15.1820    25.1020 
  117.7500   -37.4330     2.1930    62.2570    11.9560    10.4950    15.3090    25.0110 
  117.8750   -37.4460     2.2020    63.1410    12.1430    10.6250    15.3760    24.9660 
  118.0000   -37.5330     2.2050    66.1000    12.3840    10.8470    15.6340    24.9520 
  118.1250   -37.6710     2.2030    67.4920    12.6030    11.1060    16.2760    24.9400 
  118.2500   -37.7790     2.1990    65.6550    12.7520    11.3440    16.4750    24.9560 
  118.3750   -37.9050     2.1960    62.7540    12.7970    11.5230    15.8740    25.0370 
  118.5000   -38.0010     2.1940    59.7240    12.7010    11.6070    14.7620    25.2100 
  118.6250   -37.9750     2.1940    57.0630    12.4010    11.5240    13.2210    25.4830 
  118.7500   -37.8930     2.1970    56.4220    11.9360    11.2800    11.9590    25.7720 
  118.8750   -37.7710     2.2090    57.5550    11.3770    10.9100    10.8710    25.9530 
  119.0000   -37.5420     2.2310    57.4980    10.8230    10.4850    10.4850    26.0340 
  119.1250   -37.2020     2.2630    55.4300    10.4030    10.1080    11.2310    25.8770 
  119.2500   -36.7720     2.2850    55.5610    10.1660     9.8470    11.5260    25.5090 
  119.3750   -36.1900     2.2730    58.5900    10.1160     9.7280    11.5480    25.1360 
  119.5000   -35.4520     2.2080    61.4030    10.2220     9.7490    11.7180    25.0940 
  119.6250   -34.5720     2.0890    60.1420    10.4250     9.8880    12.4610    25.6660 
  119.7500   -33.5110     1.9550    57.5470    10.6200    10.0560    13.6660    26.2560 
  119.8750   -32.2760     1.8390    57.3570    10.7440    10.1820    14.2440    26.2210 
