~V
VERS. 2.00: Ver 2.00
~W
STRT.M 50.0000:
STOP.M 205.0000:
STEP.M 0.1250:
NULL. -999.2500:
UWI. F10148:
~C
DEPT.M :
GR.API :
RML.OHMM :
RI. :
RXO.OHMM :
CALI.CM :
SP.MV :
DEN.GM/CC :
~A
# ...
  196.2500    61.6200     5.6840     5.0750     5.8760    23.4700   -17.1220     2.2940 
  196.3750    61.6200     5.8240     5.2000     5.7230    23.4920   -17.1450     2.2940 
  196.5000    61.6200     5.9650     5.3260     6.2760    23.4640   -17.1220     2.2950 
  196.6250    61.6200     6.0690     5.4190     6.7410    23.3290   -17.0710     2.2960 
  196.7500    61.6200     6.1180     5.4630     6.7970    23.4840   -17.0260     2.2940 
  196.8750    61.6200     6.1160     5.4610     6.6970    23.5560   -16.9800     2.2890 
  197.0000    61.6200     6.0870     5.4340     6.6310    23.4370   -16.8870     2.2820 
  197.1250    61.6200     6.0580     5.4090     6.5710    23.4550   -16.7760     2.2790 
  197.2500    61.6200     6.0490     5.4010     6.7400    23.4800   -16.6600     2.2790 
  197.3750    61.6200     6.0670     5.4170     6.9840    23.5120   -16.5220     2.2820 
  197.5000    61.6200     6.1040     5.4500     7.1890    23.4610   -16.4020     2.2820 
  197.6250    61.6200     6.1440     5.4850     7.1390    23.4430   -16.2570     2.2770 
  197.7500    61.6200     6.1730     5.5120     6.9180    23.4670   -16.0250     2.2720 
  197.8750    61.6200     6.1860     5.5230     6.7360    23.5110   -15.7170     2.2710 
  198.0000    61.6200     6.1760     5.5140     6.5750    23.4670   -15.3930     2.2760 
  198.1250    61.6200     6.1400     5.4830     6.4300    23.4700   -15.0850     2.2860 
  198.2500    61.6200     6.0880     5.4360     6.3850    23.4900   -14.7860     2.2990 
  198.3750    61.6200     6.0280     5.3820     6.3410    23.4820   -14.4720     2.3150 
  198.5000    61.6200     5.9680     5.3290     6.1420    23.4700   -14.1560     2.3280 
  198.6250    61.6200     5.9240     5.2900     5.9140    23.5200   -13.8680     2.3360 
  198.7500    61.6200     5.9030     5.2700     5.8020    23.5280   -13.6570     2.3380 
  198.8750    61.6200     5.8970     5.2650     5.8610    23.5300   -13.5260     2.3340 
  199.0000    61.6200     5.8950     5.2640     6.0220    23.5240   -13.4560     2.3260 
  199.1250    61.6200     5.8930     5.2620     6.0130    23.4900   -13.3920     2.3140 
  199.2500    61.6200     5.8950     5.2640     5.7440    23.4180   -13.3460     2.3010 
  199.3750    61.6200     5.9110     5.2780     5.6970    23.4900   -13.3920     2.2940 
  199.5000    61.6200     5.9430     5.3060     5.9010    23.3880   -13.4770     2.2950 
  199.6250    61.6200     5.9800     5.3390     6.1330    23.3200   -13.5660     2.3040 
  199.7500    61.6200     6.0030     5.3600     5.8080    23.2250   -13.6820     2.3150 
  199.8750    61.6200     6.0100     5.3660     5.1870    23.2190   -13.8190     2.3200 
  200.0000    61.6200     6.0060     5.3630     4.4500    23.2090   -13.9700     2.3150 
  200.1250    61.6200     6.0060     5.3630     4.2470    23.1880   -14.1090     2.3030 
  200.2500    61.6200     6.0060     5.3630     4.3120    23.4710   -14.2520     2.2850 
  200.3750    61.6200     6.0060     5.3630     4.4050    23.4570   -14.3810     2.2680 
  200.5000    61.6200     6.0060     5.3630     4.4000    23.3910   -14.4980     2.2520 
  200.6250    61.6200     6.0060     5.3630     4.3240    23.3790   -14.6280     2.2410 
  200.7500    61.6200     6.0060     5.3630     4.5510    23.3830   -14.7670     2.2340 
  200.8750    61.6200     6.0060     5.3630     5.0180    23.4190   -14.8870     2.2370 
  201.0000    61.6200     6.0060     5.3630     5.3970    23.4850   -15.0220     2.2460 
  201.1250    61.6200     6.0060     5.3630     5.4330    23.5160   -15.1560     2.2560 
  201.2500    61.6200     6.0060     5.3630     5.4410    23.6400   -15.2860     2.2650 
  201.3750    61.6200     6.0060     5.3630     5.4600    23.6390   -15.3820     2.2670 
  201.5000    61.6200     6.0060     5.3630     5.4910    23.6610   -15.4800     2.2660 
  201.6250    61.6200     6.0060     5.3630     5.3540    23.5770   -15.5960     2.2650 
  201.7500    61.6200     6.0060     5.3630     5.1040    23.5250   -15.6800     2.2670 
  201.8750    61.6200     6.0060     5.3630     4.9570    23.5800   -15.7180     2.2720 
  202.0000    61.6200     6.0060     5.3630     5.0830    23.5600   -15.7440     2.2800 
  202.1250    61.6200     6.0060     5.3630     5.2900    23.5690  -999.2500     2.2910 
  202.2500    61.6200     6.0060     5.3630     5.4540    23.4890  -999.2500     2.3030 
  202.3750    61.6200     6.0060     5.3630     5.5990    23.0720  -999.2500     2.3120 
  202.5000    61.6200     6.0060     5.3630     5.8630    22.8730  -999.2500     2.3110 
  202.6250    61.6200     6.0060     5.3630     5.8300    23.0860  -999.2500     2.2930 
  202.7500    61.6200     6.0060     5.3630     5.4290    22.9450  -999.2500     2.2530 
  202.8750    61.6200     6.0060     5.3630     4.9920    22.4480  -999.2500     2.1890 
  203.0000    61.6200     6.0060     5.3630     4.6170    21.0710  -999.2500     2.1150 
  203.1250    61.6200     6.0060     5.3630     4.2870    18.4200  -999.2500     2.0420 
  203.2500    61.6200     6.0060     5.3630     4.1420    17.3800  -999.2500     1.9820 
  203.3750    61.6200     6.0060     5.3630     4.1330    17.2230  -999.2500     1.9430 
  203.5000    61.6200     6.0060     5.3630     4.1330    17.2220  -999.2500     1.9230 
  203.6250    61.6200     6.0060     5.3630     4.1320    17.2220  -999.2500     1.9150 
  203.7500    61.6200     6.0060     5.3630     4.1320    17.2220  -999.2500     1.9150 
  203.8750    61.6200     6.0060     5.3630     4.1300    17.2220  -999.2500     1.9180 
  204.0000    61.6200     6.0060     5.3630     4.1300    17.2220  -999.2500     1.9210 
  204.1250    61.6200     6.0060     5.3630     4.1300    17.2220  -999.2500     1.9220 
  204.2500    61.6200     6.0060     5.3630     4.1280    17.2220  -999.2500     1.9220 
  204.3750    61.6200     6.0060     5.3630     4.1240    17.2220  -999.2500     1.9210 
  204.5000    61.6200     6.0060     5.3630     4.1200    17.2200  -999.2500     1.9190 
  204.6250    61.6200     6.0060     5.3630     4.1170    17.2110  -999.2500     1.9160 
  204.7500    61.6200     6.0060     5.3630     4.1150    17.1570  -999.2500     1.9130 
  204.8750  -999.2500  -999.2500  -999.2500  -999.2500  -999.2500  -999.2500     1.9110 
  205.0000  -999.2500  -999.2500  -999.2500  -999.2500  -999.2500  -999.2500     1.9100 
