~V
VERS. 2.00: Ver 2.00
~W
STRT.M 50.0000:
STOP.M 233.0000:
STEP.M 0.1250:
NULL. -999.2500:
UWI. F10166:
~C
DEPT.M :
SP.MV :
DEN.GM/CC :
GR.API :
RML.OHMM :
RI. :
RXO.OHMM :
CALI.CM :
~A
# ...
   83.7500   -17.1690     2.2110    86.0120     9.1250     6.3800     6.7240    24.9050 
   83.8750   -17.4010     2.2270    81.2640    11.3590     7.6150     8.7500    24.8000 
   84.0000   -17.9400     2.2630    74.6140    14.3730     9.4800    11.7960    24.8170 
   84.1250   -18.7080     2.3300    67.6570    17.3020    11.5840    18.2490    24.8830 
   84.2500   -19.5570     2.3880    62.7810    18.7730    12.9740    24.1790    24.9220 
   84.3750   -20.4100     2.3940    61.9270    18.0500    12.9630    21.2010    24.9230 
   84.5000   -21.1920     2.3410    64.6140    15.6990    11.7190    13.7180    24.9030 
   84.6250   -21.8460     2.2620    66.6530    13.1680    10.0930    10.1790    24.8700 
   84.7500   -22.4040     2.1990    66.4360    11.4250     8.8180     9.3890    24.8250 
   84.8750   -22.8700     2.1630    66.0490    10.6280     8.0870     9.7140    24.7690 
   85.0000   -23.2730     2.1470    66.4280    10.5980     7.8750    10.9420    24.7190 
   85.1250   -23.6180     2.1400    67.1600    11.0410     8.0730    12.4160    24.7000 
   85.2500   -23.8920     2.1360    67.4530    11.5780     8.4220    12.1610    24.7080 
   85.3750   -24.0920     2.1350    66.6240    12.0660     8.7920    10.6010    24.7300 
   85.5000   -24.2280     2.1350    64.6230    12.4430     9.1050     9.5290    24.7540 
   85.6250   -24.2970     2.1320    62.7630    12.6090     9.2840     9.5180    24.7780 
   85.7500   -24.3080     2.1270    63.4500    12.5300     9.2990     9.5810    24.8040 
   85.8750   -24.2710     2.1220    65.7460    12.2160     9.1460     9.4830    24.8340 
   86.0000   -24.1710     2.1200    67.5450    11.7610     8.8790     9.2780    24.8700 
   86.1250   -23.9830     2.1220    66.8020    11.3410     8.6060     9.0630    24.9180 
   86.2500   -23.7200     2.1290    64.4680    11.0910     8.4160     9.0520    24.9690 
   86.3750   -23.3740     2.1410    62.8580    11.0100     8.3200     9.6350    25.0010 
   86.5000   -22.9040     2.1510    63.3860    10.9950     8.2650    10.6150    25.0150 
   86.6250   -22.2630     2.1510    66.8630    10.9290     8.1830    10.8410    25.0470 
   86.7500   -21.4430     2.1410    71.8760    10.8270     8.0760    10.0630    25.0990 
   86.8750   -20.4640     2.1360    75.6030    10.7740     7.9910     8.6490    25.1410 
   87.0000   -19.3540     2.1580    77.2270    10.8450     7.9750     7.9620    25.1580 
   87.1250   -18.1900     2.2190    78.7970    11.0110     8.0240     9.2260    25.1680 
   87.2500   -17.0980     2.2900    81.3590    11.0550     8.0170    10.3200    25.1830 
   87.3750   -16.1490     2.3300    84.5340    10.8090     7.8450     9.0660    25.1930 
   87.5000   -15.4350     2.3230    88.6310    10.2830     7.4980     6.5900    25.1760 
   87.6250   -15.0250     2.2850    92.7900     9.6990     7.1090     5.6610    25.1280 
   87.7500   -14.9170     2.2480    93.0400     9.3260     6.8510     5.8810    25.0760 
   87.8750   -15.0770     2.2250    89.5430     9.2780     6.8040     6.1220    25.0140 
   88.0000   -15.4980     2.2120    86.2270     9.5290     6.9600     6.5380    24.9250 
   88.1250   -16.1680     2.2000    85.3200     9.9630     7.2530     7.3610    24.8210 
   88.2500   -17.0030     2.1820    84.9640    10.4200     7.5690     8.0720    24.7500 
   88.3750   -17.9860     2.1610    85.0530    10.8460     7.8680     8.3350    24.7180 
   88.5000   -19.0690     2.1410    84.8070    11.2120     8.1350     8.4380    24.6970 
   88.6250   -20.1810     2.1280    82.7400    11.4640     8.3420     8.8280    24.6840 
   88.7500   -21.2330     2.1220    79.3180    11.5960     8.4690     9.2270    24.6990 
   88.8750   -22.1300     2.1180    76.9320    11.5930     8.4940     9.3910    24.7480 
   89.0000   -22.8250     2.1120    76.6680    11.4480     8.4040     9.4970    24.8050 
   89.1250   -23.1920     2.1040    78.5870    11.1670     8.1940     9.7640    24.8370 
   89.2500   -23.2870     2.1000    79.8710    10.8420     7.9290     9.9700    24.8420 
   89.3750   -23.1080     2.1050    79.4740    10.5580     7.6680     9.5520    24.8360 
   89.5000   -22.6950     2.1180    78.3970    10.3820     7.4600     8.6870    24.8330 
   89.6250   -22.1040     2.1320    78.6990    10.3600     7.3440     8.3000    24.8430 
   89.7500   -21.4110     2.1410    80.9490    10.4320     7.3030     8.4710    24.8610 
   89.8750   -20.6950     2.1450    83.4750    10.5290     7.3090     8.6140    24.8800 
   90.0000   -19.9910     2.1490    84.7750    10.5980     7.3300     8.4150    24.8960 
   90.1250   -19.3890     2.1550    82.1810    10.6220     7.3500     8.1790    24.9120 
   90.2500   -18.9120     2.1650    77.4070    10.6510     7.3870     8.0730    24.9230 
   90.3750   -18.5850     2.1760    75.0040    10.7480     7.4740     8.0710    24.9300 
   90.5000   -18.3930     2.1840    75.7600    10.9540     7.6430     8.1490    24.9440 
   90.6250   -18.3800     2.1810    76.8690    11.2560     7.8910     8.4570    24.9820 
   90.7500   -18.4860     2.1670    75.9020    11.5330     8.1380     9.1080    25.0250 
   90.8750   -18.6730     2.1430    75.0320    11.6570     8.2950     9.6960    25.0360 
   91.0000   -18.8810     2.1180    75.6020    11.5330     8.2890     9.6120    25.0050 
   91.1250   -19.0780     2.0980    76.3540    11.1390     8.0780     8.9970    24.9570 
   91.2500   -19.2120     2.0890    76.9200    10.6450     7.7650     8.5850    24.9170 
   91.3750   -19.2970     2.0910    76.8920    10.1930     7.4420     8.3310    24.8800 
   91.5000   -19.3290     2.1020    77.0280     9.8780     7.1830     8.0390    24.8430 
   91.6250   -19.3300     2.1170    79.8670     9.7500     7.0360     7.8810    24.8100 
   91.7500   -19.3360     2.1280    83.2260     9.7450     6.9770     7.8650    24.7820 
   91.8750   -19.3940     2.1330    85.9490     9.8120     6.9820     7.8100    24.7580 
   92.0000   -19.5190     2.1310    86.8420     9.9180     7.0260     7.7040    24.7470 
   92.1250   -19.7460     2.1250    86.3410    10.0460     7.0990     7.7870    24.7660 
   92.2500   -20.0640     2.1180    84.1800    10.1790     7.1830     8.0640    24.8070 
   92.3750   -20.4340     2.1110    80.2350    10.2970     7.2630     8.3500    24.8470 
   92.5000   -20.8170     2.1060    76.7700    10.3770     7.3220     8.5550    24.8670 
   92.6250   -21.1650     2.1070    75.9930    10.3910     7.3410     8.6820    24.8640 
   92.7500   -21.4560     2.1130    77.9200    10.3400     7.3220     8.8320    24.8580 
   92.8750   -21.6870     2.1180    79.7980    10.2430     7.2730     8.9070    24.8570 
   93.0000   -21.8770     2.1210    78.9150    10.1300     7.2080     8.8570    24.8630 
   93.1250   -22.0010     2.1190    76.3560    10.0250     7.1400     8.7840    24.8830 
   93.2500   -22.1040     2.1180    74.6230     9.9350     7.0790     8.7660    24.9270 
   93.3750   -22.2050     2.1220    74.4630     9.8660     7.0310     8.7740    24.9980 
   93.5000   -22.3130     2.1300    74.2790     9.8250     7.0050     8.7870    25.0750 
   93.6250   -22.3820     2.1370    74.8280     9.8190     7.0080     8.8820    25.1130 
   93.7500   -22.3940     2.1360    74.7360     9.8410     7.0330     8.9690    25.0860 
   93.8750   -22.3080     2.1290    73.7980     9.8790     7.0680     8.9240    24.9830 
   94.0000   -22.1050     2.1200    73.0570     9.9170     7.1010     8.7040    24.8410 
   94.1250   -21.7410     2.1190    72.6750     9.9270     7.1120     8.4900    24.7480 
   94.2500   -21.2320     2.1260    72.5170     9.8970     7.0910     8.4630    24.7470 
   94.3750   -20.5890     2.1390    73.9120     9.8260     7.0360     8.5320    24.8110 
   94.5000   -19.8610     2.1540    78.6700     9.7220     6.9520     8.2610    24.8860 
   94.6250   -19.1000     2.1690    83.6210     9.6110     6.8430     7.5850    24.9280 
   94.7500   -18.3880     2.1790    83.9830     9.5240     6.7280     7.2000    24.9330 
   94.8750   -17.7920     2.1810    81.0820     9.4750     6.6240     7.4100    24.9080 
