~V
VERS. 2.00: Ver 2.00
~W
STRT.M 56.0000:
STOP.M 221.0000:
STEP.M 0.1250:
NULL. -999.2500:
UWI. F10169:
~C
DEPT.M :
GR.API :
RML.OHMM :
RI. :
RXO.OHMM :
CALI.CM :
SP.MV :
DEN.GM/CC :
~A
# ...
   67.2500    60.9860     8.4030     7.0150     8.0000    30.4860   -30.0460     2.0080 
   67.3750    59.7730     8.5010     7.0440     7.7820    30.3080   -29.8740     1.9670 
   67.5000    58.0490     8.6170     7.0960     8.1650    29.7000   -29.6920     1.9620 
   67.6250    58.3230     8.7410     7.1650     8.5040    29.0610   -29.4920     1.9920 
   67.7500    61.8690     8.8690     7.2470     8.6700    28.7340   -29.3070     2.0390 
   67.8750    64.5960     9.0010     7.3310     8.8190    28.5730   -29.1230     2.0730 
   68.0000    63.9200     9.1370     7.4100     9.0710    28.4740   -28.9840     2.0880 
   68.1250    61.6760     9.2570     7.4640     9.3380    28.3700   -28.8760     2.0940 
   68.2500    61.9650     9.2950     7.4410     9.3920    28.3130   -28.7660     2.1040 
   68.3750    64.4350     9.2140     7.3230     9.2520    28.2920   -28.6900     2.1210 
   68.5000    66.7900     9.0240     7.1190     8.9020    28.2660   -28.6220     2.1410 
   68.6250    68.8400     8.7910     6.8810     7.8750    28.1820   -28.5950     2.1520 
   68.7500    73.2640     8.6260     6.6900     6.7910    28.0090   -28.6590     2.1560 
   68.8750    77.2930     8.5920     6.6000     6.7230    27.9090   -28.8050     2.1580 
   69.0000    76.1420     8.6990     6.6210     7.2050    27.8950   -29.0110     2.1550 
   69.1250    70.4750     8.9020     6.7260     7.4090    27.8810   -29.2170     2.1360 
   69.2500    68.6330     9.1110     6.8530     7.7760    27.7950   -29.4740     2.1120 
   69.3750    70.6520     9.2410     6.9340     8.0680    27.6810   -29.7850     2.1030 
   69.5000    71.1900     9.2680     6.9360     8.2420    27.5780   -30.1330     2.1110 
   69.6250    70.2810     9.2120     6.8640     8.3490    27.4950   -30.5050     2.1220 
   69.7500    70.0720     9.1360     6.7620     8.4740    27.4430   -30.8350     2.1220 
   69.8750    69.3090     9.0940     6.6860     8.5180    27.4250   -31.1060     2.1170 
   70.0000    68.0080     9.1050     6.6600     8.6450    27.4220   -31.3280     2.1110 
   70.1250    68.4110     9.1640     6.6800     8.8430    27.4380   -31.5610     2.1090 
   70.2500    69.8410     9.2490     6.7240     9.0630    27.5230   -31.7210     2.1150 
   70.3750    68.6540     9.3150     6.7520     9.1770    27.7160   -31.8110     2.1270 
   70.5000    66.2610     9.3310     6.7370     9.0330    28.0280   -31.8240     2.1400 
   70.6250    65.1150     9.2870     6.6710     8.7010    28.4870   -31.7260     2.1420 
   70.7500    64.8280     9.2070     6.5640     8.1710    28.9420   -31.5340     2.1290 
   70.8750    63.6190     9.1340     6.4500     7.8130    29.1600   -31.2590     2.1120 
   71.0000    61.8240     9.0860     6.3500     7.8040    29.1840   -30.9110     2.1030 
   71.1250    60.9890     9.0660     6.2730     7.8880    29.1670   -30.4810     2.1040 
   71.2500    61.7520     9.0720     6.2230     7.9690    29.2160   -30.0580     2.1010 
   71.3750    63.1560     9.0980     6.1930     8.0410    29.3900   -29.6390     2.0800 
   71.5000    64.9210     9.1540     6.1850     8.0060    29.7520   -29.1920     2.0360 
   71.6250    66.1300     9.2480     6.2000     7.8200    30.3080   -28.7600     1.9680 
   71.7500    66.0480     9.3710     6.2340     7.6470    30.9420   -28.3100     1.8810 
   71.8750    64.4680     9.4700     6.2570     7.3110    31.1200   -27.8470     1.8040 
   72.0000    64.4120     9.4780     6.2300     6.9080    30.3260   -27.3570     1.7720 
   72.1250    68.3280     9.3370     6.1230     6.5140    28.7700   -26.8860     1.8090 
   72.2500    73.6140     9.0370     5.9260     6.5880    27.4060   -26.4600     1.9190 
   72.3750    76.6490     8.7370     5.7220     6.6530    26.8200   -26.1600     2.0540 
   72.5000    78.0360     8.6110     5.6040     6.3960    26.6580   -26.0330     2.1600 
   72.6250    80.6580     8.8060     5.6540     5.9600    26.6250   -26.0440     2.2080 
   72.7500    82.0320     9.4380     5.9520     6.2040    26.6140   -26.3140     2.2070 
   72.8750    77.8150    10.3430     6.4360     7.1540    26.6110   -26.7790     2.1950 
   73.0000    69.4640    11.3110     7.0120     8.3370    26.6100   -27.4180     2.1880 
   73.1250    63.4190    12.0790     7.5430     9.3580    26.6090   -28.2040     2.1930 
   73.2500    63.0150    12.3690     7.8480     9.9350    26.6130   -29.0940     2.2080 
   73.3750    64.5350    12.2580     7.9110    10.3260    26.6340   -29.9290     2.2220 
   73.5000    64.7480    11.9130     7.7900    10.6690    26.7000   -30.7220     2.2320 
   73.6250    63.0390    11.5210     7.5810    10.9180    26.8440   -31.4210     2.2350 
   73.7500    61.1480    11.2300     7.3820    10.7680    27.1300   -31.9590     2.2270 
   73.8750    60.4330    11.0570     7.2380    10.1020    27.5190   -32.3850     2.2000 
   74.0000    61.2520    10.9700     7.1480     9.8830    27.9290   -32.6740     2.1570 
   74.1250    62.7380    10.9290     7.0980    10.4000    28.2320   -32.8000     2.1110 
   74.2500    62.2970    10.9040     7.0740    10.7290    28.3280   -32.7530     2.0830 
   74.3750    60.7910    10.8760     7.0570    10.2700    28.3090   -32.5410     2.0760 
   74.5000    60.1200    10.8430     7.0390     9.3810    28.2230   -32.1680     2.0840 
   74.6250    60.8770    10.8200     7.0200     9.2070    28.1820   -31.7570     2.0910 
   74.7500    61.0400    10.7950     6.9880     9.5720    28.2220   -31.2410     2.0790 
   74.8750    61.8210    10.7010     6.9090     9.6510    28.2550   -30.6460     2.0510 
   75.0000    64.9110    10.4590     6.7420     9.3880    28.0990   -30.0730     2.0210 
   75.1250    69.0580    10.0370     6.4690     9.2140    27.6860   -29.5590     2.0030 
   75.2500    72.8380     9.5050     6.1250     8.8320    27.2230   -29.1840     2.0200 
   75.3750    76.5220     9.0550     5.8170     7.3510    26.8800   -29.0400     2.0720 
   75.5000    79.7700     8.8340     5.6280     6.1680    26.7290   -29.1490     2.1460 
   75.6250    80.0860     8.8970     5.6010     6.1090    26.7140   -29.4740     2.2040 
   75.7500    76.2780     9.1950     5.7330     7.4780    26.8040   -29.9360     2.2090 
   75.8750    71.6580     9.5160     5.9160     9.2410    26.9510   -30.4470     2.1890 
   76.0000    67.3910     9.7090     6.0640    10.2090    27.0580   -30.9770     2.1720 
   76.1250    64.2730     9.7090     6.1200    10.0780    27.0640   -31.4940     2.1670 
   76.2500    62.7820     9.5670     6.0810     9.6230    26.9830   -31.9260     2.1680 
   76.3750    62.7700     9.4500     6.0230     9.4450    26.9430   -32.2330     2.1600 
   76.5000    63.6030     9.4270     5.9920     9.6330    27.0100   -32.3420     2.1330 
   76.6250    62.2280     9.4760     5.9950     9.6370    27.2030   -32.1900     2.0940 
   76.7500    59.9240     9.4980     6.0020     9.6700    27.4330   -31.9120     2.0690 
   76.8750    59.9130     9.4310     5.9830     9.8620    27.5130   -31.5520     2.0720 
   77.0000    61.4780     9.2890     5.9420     9.9190    27.5060   -31.0770     2.0910 
   77.1250    60.8770     9.1530     5.9070     9.5120    27.4360   -30.5850     2.1100 
   77.2500    57.6030     9.1440     5.9310     8.7390    27.2320   -30.0660     2.1180 
   77.3750    55.7010     9.2710     6.0240     8.8220    27.0180   -29.5070     2.1220 
   77.5000    56.0380     9.4800     6.1670     9.4940    26.9260   -28.9350     2.1280 
   77.6250    58.0070     9.6870     6.3240     9.9380    26.9300   -28.3690     2.1370 
   77.7500    62.2450     9.8090     6.4460    10.0500    26.9980   -27.7680     2.1450 
   77.8750    66.5380     9.8520     6.5190    10.0370    27.1130   -27.1420     2.1500 
   78.0000    67.0000     9.8580     6.5510     9.8000    27.2760   -26.4890     2.1510 
   78.1250    63.4830     9.8430     6.5470     9.4680    27.4200   -25.6710     2.1500 
   78.2500    62.3980     9.7250     6.4640     9.6620    27.4470   -24.6760     2.1480 
   78.3750    64.6090     9.4630     6.2880     9.6180    27.3830   -23.5110     2.1440 
