~V
VERS. 2.00: Ver 2.00
~W
STRT.M 56.0000:
STOP.M 352.0000:
STEP.M 0.1250:
NULL. -999.2500:
UWI. F10109:
~C
DEPT.M :
DEN.GM/CC :
SP.MV :
GR.API :
RML.OHMM :
RI. :
RXO.OHMM :
CALI.CM :
~A
# ...
  281.0000     2.3200   -21.7590    63.0370    21.6780    19.1570    18.1540    23.7900 
  281.1250     2.3170   -21.9380    60.5930    23.0020    20.4210    19.4940    23.8060 
  281.2500     2.3110   -22.1230    59.0240    24.4110    21.8330    21.1770    23.8360 
  281.3750     2.3010   -22.3110    58.4420    25.6890    23.2040    22.0320    23.9150 
  281.5000     2.2860   -22.5020    59.1890    26.5590    24.2700    22.5300    23.9880 
  281.6250     2.2720   -22.6760    59.5000    26.7560    24.5970    22.9480    23.9990 
  281.7500     2.2650   -22.8070    58.3770    26.1090    24.0810    23.1980    23.9930 
  281.8750     2.2680   -22.9040    56.3450    24.7890    22.7980    23.5120    23.9990 
  282.0000     2.2800   -22.9560    56.2770    23.3930    21.0780    23.0710    23.9940 
  282.1250     2.2950   -22.9800    61.6720    21.5720    19.4620    19.8230    24.0080 
  282.2500     2.3060   -23.0070    68.0150    20.4980    18.3680    16.4170    24.0690 
  282.3750     2.3090   -23.0580    71.0230    20.3210    17.9670    14.7760    24.1310 
  282.5000     2.3050   -23.1350    68.1070    20.9440    18.2540    15.1770    24.1290 
  282.6250     2.2990   -23.2650    62.1300    22.1470    19.1550    17.0330    24.0970 
  282.7500     2.2950   -23.4560    58.6840    23.4950    20.3420    18.7360    23.9960 
  282.8750     2.2950   -23.6980    59.4420    24.7510    21.6000    19.4120    23.8460 
  283.0000     2.2950   -24.0140    61.5160    25.8230    22.7870    19.4000    23.7400 
  283.1250     2.2890   -24.3970    60.2750    26.7740    23.8720    19.5440    23.7280 
  283.2500     2.2770   -24.8280    57.2630    27.7830    24.9570    19.9690    23.7340 
  283.3750     2.2590   -25.2660    55.4320    28.9290    26.1120    20.9860    23.7400 
  283.5000     2.2390   -25.6990    54.6050    30.1670    27.3280    22.5510    23.7870 
  283.6250     2.2230   -26.0880    52.1460    31.2980    28.4820    24.7500    23.8810 
  283.7500     2.2130   -26.4380    51.8460    32.1130    29.4130    27.0370    23.9820 
  283.8750     2.2080   -26.7650    55.1010    32.4810    29.9970    29.2970    24.1220 
  284.0000     2.2090   -27.0590    57.4490    32.4070    30.2060    31.7750    24.3480 
  284.1250     2.2140   -27.3190    55.2410    32.0290    30.1130    32.9270    24.5360 
  284.2500     2.2200   -27.5290    53.7050    31.6320    29.9590    31.4010    24.6010 
  284.3750     2.2260   -27.6970    53.5160    31.3450    29.8760    29.0380    24.6080 
  284.5000     2.2330   -27.8250    53.7500    31.1480    29.8800    27.8930    24.6090 
  284.6250     2.2420   -27.9230    55.0090    30.8850    29.8420    29.2170    24.5970 
  284.7500     2.2560   -27.9800    57.5940    30.4940    29.5820    30.5510    24.5860 
  284.8750     2.2700   -28.0070    59.1550    29.9460    28.9890    30.1350    24.5800 
  285.0000     2.2810   -27.9950    58.8390    29.3230    28.0720    28.8070    24.5490 
  285.1250     2.2870   -27.9540    59.6830    28.9560    26.9550    26.7320    24.5040 
  285.2500     2.2880   -27.9010    60.6370    28.3070    25.8560    25.2770    24.4850 
  285.3750     2.2870   -27.8330    60.9750    27.4820    24.8760    24.2690    24.4620 
  285.5000     2.2870   -27.7650    61.2290    26.4730    24.0300    23.7850    24.4400 
  285.6250     2.2870   -27.7100    62.2410    25.4350    23.2720    23.7500    24.4500 
  285.7500     2.2870   -27.7060    64.4240    24.4360    22.5180    23.4380    24.4620 
  285.8750     2.2880   -27.7540    65.1450    23.6300    21.7410    22.4700    24.4490 
  286.0000     2.2880   -27.8690    63.3740    22.8180    20.9690    21.6060    24.4330 
  286.1250     2.2880   -28.0470    59.6650    22.1640    20.3270    21.1010    24.4320 
  286.2500     2.2840   -28.2610    59.2470    21.8770    19.9730    20.8640    24.4140 
  286.3750     2.2780   -28.5090    62.3890    22.1960    20.0980    20.7000    24.3850 
  286.5000     2.2680   -28.7780    64.9040    23.3210    20.8780    20.4000    24.3860 
  286.6250     2.2570   -29.0670    64.0390    25.4670    22.5540    20.6880    24.4050 
  286.7500     2.2490   -29.3570    61.5780    28.3080    24.9370    22.7170    24.4330 
  286.8750     2.2440   -29.6450    58.4770    31.4310    27.7570    26.7610    24.5090 
  287.0000     2.2410   -29.8990    56.2250    34.2580    30.5440    31.4180    24.6000 
  287.1250     2.2370   -30.0620    58.5970    35.9920    32.5520    34.1760    24.6130 
  287.2500     2.2280   -30.1660    62.1230    36.4720    33.4480    34.8390    24.5850 
  287.3750     2.2170   -30.2180    61.3780    35.8630    33.2370    33.7900    24.5430 
  287.5000     2.2080   -30.2400    58.1150    34.6580    32.2880    31.8880    24.4840 
  287.6250     2.2060   -30.2320    59.1460    33.4990    31.1630    30.8960    24.4110 
  287.7500     2.2090   -30.2280    61.9660    32.7930    30.3220    30.5950    24.3150 
  287.8750     2.2170   -30.2230    61.2330    32.6450    29.9290    30.4290    24.1670 
  288.0000     2.2260   -30.2320    58.7660    32.9950    29.9920    30.2260    23.9930 
  288.1250     2.2330   -30.2880    59.3260    33.6990    30.4480    30.4700    23.9040 
  288.2500     2.2380   -30.3580    61.2160    34.4530    31.0460    30.9720    23.8860 
  288.3750     2.2400   -30.4350    61.4140    35.0500    31.6030    31.1970    23.9400 
  288.5000     2.2400   -30.5020    60.5580    35.3610    31.9790    31.0000    24.0670 
  288.6250     2.2420   -30.5390    59.5620    35.3200    32.0750    30.1590    24.1950 
  288.7500     2.2460   -30.5250    56.9050    35.0830    31.9800    29.1360    24.2700 
  288.8750     2.2520   -30.4750    53.9970    34.7820    31.7880    28.3720    24.2790 
  289.0000     2.2560   -30.4010    55.0510    34.5100    31.5830    27.8810    24.2460 
  289.1250     2.2570   -30.2930    59.5330    34.2950    31.4020    27.6240    24.1960 
  289.2500     2.2550   -30.1520    61.9080    34.0800    31.2200    27.6520    24.1670 
  289.3750     2.2520   -29.9770    61.2100    33.7940    30.9940    27.9360    24.1720 
  289.5000     2.2470   -29.7650    60.2000    33.3780    30.6800    28.2700    24.1810 
  289.6250     2.2420   -29.5310    59.0840    32.7790    30.2290    28.3300    24.1740 
  289.7500     2.2370   -29.2980    56.7880    32.0530    29.6730    28.1600    24.1990 
  289.8750     2.2370   -29.0640    54.8290    31.2750    29.0650    27.9460    24.2360 
  290.0000     2.2430   -28.8140    54.5680    30.5360    28.4790    27.8850    24.2690 
  290.1250     2.2520   -28.5510    55.8650    29.9290    28.0000    27.6320    24.2880 
  290.2500     2.2580   -28.3060    57.4370    29.4320    27.6250    27.1600    24.2670 
  290.3750     2.2580   -28.0760    59.6580    28.9680    27.2960    26.7700    24.1470 
  290.5000     2.2500   -27.8660    60.7560    28.4250    26.9130    26.6930    24.0140 
  290.6250     2.2440   -27.6800    58.0460    27.6800    26.3490    26.7100    23.9800 
  290.7500     2.2470   -27.4810    54.2680    26.7670    25.6080    26.2630    23.9820 
  290.8750     2.2610   -27.2800    53.3000    25.7910    24.7670    25.2640    24.0000 
  291.0000     2.2820   -27.0910    56.1010    24.8970    23.9510    23.8240    24.0480 
  291.1250     2.3040   -26.9250    58.2960    24.2530    23.3170    22.5620    24.0920 
  291.2500     2.3180   -26.7750    59.1370    23.8620    22.8960    22.2190    24.1030 
  291.3750     2.3210   -26.6310    60.2970    23.6730    22.6630    22.5460    24.0830 
  291.5000     2.3140   -26.5030    61.4580    23.5940    22.5480    23.0680    24.0000 
  291.6250     2.3000   -26.4120    60.7690    23.5230    22.4630    23.1870    23.7970 
  291.7500     2.2870   -26.3630    60.2040    23.3930    22.3310    22.6310    23.5250 
  291.8750     2.2750   -26.3360    61.2140    23.1950    22.1300    21.7620    23.3140 
  292.0000     2.2660   -26.3160    60.3220    22.9540    21.8780    21.0480    23.2330 
  292.1250     2.2600   -26.3090    57.9960    22.7140    21.6180    20.8360    23.3080 
