~V
VERS. 2.00: Ver 2.00
~W
STRT.M 50.0000:
STOP.M 233.0000:
STEP.M 0.1250:
NULL. -999.2500:
UWI. F10166:
~C
DEPT.M :
SP.MV :
DEN.GM/CC :
GR.API :
RML.OHMM :
RI. :
RXO.OHMM :
CALI.CM :
~A
# ...
  151.2500   -16.1630     2.2210    64.3910    26.0280    22.3220    21.3480    25.6600 
  151.3750   -16.1560     2.2270    61.7040    27.0410    22.9390    25.1400    25.6600 
  151.5000   -16.1510     2.2300    61.1320    28.5550    24.0200    27.9660    25.6600 
  151.6250   -16.1290     2.2300    60.9460    29.7610    25.0440    28.1380    25.6600 
  151.7500   -16.0960     2.2270    59.8330    29.8420    25.3480    27.0880    25.6600 
  151.8750   -16.0550     2.2240    59.3830    28.4440    24.5660    25.0910    25.6600 
  152.0000   -16.0150     2.2220    60.2600    25.8630    22.8080    22.3060    25.6600 
  152.1250   -15.9900     2.2230    61.7310    22.8850    20.5770    18.8440    25.6600 
  152.2500   -15.9800     2.2280    62.7480    20.3700    18.5640    16.0380    25.6600 
  152.3750   -16.0060     2.2340    65.7180    18.7900    17.1710    14.6730    25.6600 
  152.5000   -16.0780     2.2400    69.9730    18.4530    16.6560    14.3660    25.6620 
  152.6250   -16.1830     2.2460    71.6200    19.7890    17.3760    14.8410    25.6680 
  152.7500   -16.3030     2.2530    70.9450    22.5220    19.2140    17.3410    25.6720 
  152.8750   -16.4210     2.2630    69.7780    26.1730    21.9430    23.2910    25.6720 
  153.0000   -16.5440     2.2730    68.1250    29.5970    24.7940    31.4760    25.6660 
  153.1250   -16.6320     2.2750    66.0180    30.5910    25.9960    34.7170    25.6620 
  153.2500   -16.6910     2.2650    65.8760    28.5710    24.7550    29.8170    25.6600 
  153.3750   -16.7110     2.2460    67.7340    24.5920    21.7250    21.7950    25.6600 
  153.5000   -16.7120     2.2260    69.5880    20.6010    18.4370    15.5520    25.6590 
  153.6250   -16.6760     2.2180    70.1880    18.4960    16.3860    12.5860    25.6650 
  153.7500   -16.6280     2.2170    70.5520    18.7520    15.9860    12.5110    25.6780 
  153.8750   -16.5660     2.2180    69.4690    21.6960    17.5390    16.7710    25.6820 
  154.0000   -16.5170     2.2110    66.2280    27.5640    21.3820    27.9140    25.6650 
  154.1250   -16.4800     2.1940    61.5760    36.5510    28.0040    44.3880    25.6390 
  154.2500   -16.4600     2.1760    57.4280    46.3880    35.8670    49.9960    25.6140 
  154.3750   -16.4420     2.1670    55.6910    53.4570    42.2140    45.3980    25.5720 
  154.5000   -16.4400     2.1720    56.0210    54.0660    43.8820    44.4900    25.4900 
  154.6250   -16.4300     2.1880    58.6340    47.2870    39.4560    47.2030    25.3730 
  154.7500   -16.4140     2.2040    62.8900    38.1720    32.5990    42.7120    25.2540 
  154.8750   -16.3700     2.2150    66.1250    29.7750    25.8780    29.5860    25.1580 
  155.0000   -16.3020     2.2200    66.3120    23.3980    20.5610    18.1540    25.1050 
  155.1250   -16.1920     2.2240    64.1190    19.6070    17.2040    13.3490    25.0980 
  155.2500   -16.0690     2.2260    64.2660    17.6870    15.3070    12.2460    25.1040 
  155.3750   -15.9170     2.2250    66.7140    17.0850    14.5090    13.1360    25.1080 
  155.5000   -15.7540     2.2190    68.9100    17.0720    14.3310    14.8960    25.1040 
  155.6250   -15.5590     2.2150    69.1040    16.6850    14.0770    16.1710    25.0690 
  155.7500   -15.3750     2.2200    69.4830    15.3850    13.2030    15.4490    25.0040 
  155.8750   -15.1830     2.2340    70.8470    13.3000    11.6900    12.6340    24.9240 
  156.0000   -15.0060     2.2520    73.4830    11.0140     9.9190     9.1090    24.8380 
  156.1250   -14.8400     2.2680    76.0420     9.2180     8.3980     6.8830    24.7460 
  156.2500   -14.7060     2.2780    76.6380     8.0510     7.3050     6.0620    24.6630 
  156.3750   -14.5840     2.2850    75.0610     7.3940     6.6120     5.9660    24.6020 
  156.5000   -14.4710     2.2870    73.5270     7.0320     6.2060     5.6630    24.5630 
  156.6250   -14.3510     2.2840    74.3470     6.7820     5.9740     4.9480    24.5460 
  156.7500   -14.2400     2.2760    76.6500     6.5650     5.8120     4.3760    24.5420 
  156.8750   -14.1390     2.2660    78.9670     6.4450     5.7230     4.1360    24.5260 
  157.0000   -14.0740     2.2550    80.8730     6.5030     5.7480     4.2430    24.4790 
  157.1250   -14.0260     2.2450    80.0650     6.7530     5.9180     4.5870    24.4100 
  157.2500   -14.0030     2.2370    78.7930     7.0270     6.1490     4.9150    24.3620 
  157.3750   -13.9970     2.2320    80.7640     7.1730     6.3430     5.0940    24.3770 
  157.5000   -13.9970     2.2320    85.1350     7.1020     6.4110     5.0270    24.4700 
  157.6250   -13.9850     2.2380    85.3510     6.8220     6.2950     4.8630    24.6330 
  157.7500   -13.9490     2.2440    83.5030     6.5020     6.0800     4.7050    24.8030 
  157.8750   -13.8960     2.2480    85.4100     6.2710     5.8590     4.5480    24.9270 
  158.0000   -13.8370     2.2500    89.9760     6.2070     5.7170     4.3370    24.9830 
  158.1250   -13.8240     2.2500    89.2290     6.3550     5.7240     4.2650    24.9870 
  158.2500   -13.8740     2.2530    83.5070     6.6220     5.8480     4.5820    24.9850 
  158.3750   -13.9810     2.2580    79.0220     6.8940     6.0230     5.0560    24.9840 
  158.5000   -14.1260     2.2650    78.0300     7.0420     6.1480     5.2170    24.9860 
  158.6250   -14.3080     2.2660    78.8740     6.9580     6.1110     4.9280    24.9990 
  158.7500   -14.4940     2.2610    79.9330     6.7360     5.9460     4.5370    25.0180 
  158.8750   -14.6770     2.2530    82.1690     6.5330     5.7570     4.2130    25.0330 
  159.0000   -14.8500     2.2450    84.2200     6.5060     5.6720     4.0770    25.0380 
  159.1250   -15.0330     2.2420    82.1920     6.7730     5.8040     4.4990    25.0360 
  159.2500   -15.2280     2.2410    77.8910     7.2370     6.1100     5.3940    25.0380 
  159.3750   -15.4490     2.2430    76.8400     7.7670     6.5030     6.3390    25.0500 
  159.5000   -15.6750     2.2460    80.7780     8.2210     6.8680     6.6360    25.0720 
  159.6250   -15.9130     2.2510    85.3560     8.4980     7.1030     6.0690    25.1040 
  159.7500   -16.1090     2.2580    86.1180     8.6910     7.2470     5.6360    25.1360 
  159.8750   -16.2630     2.2640    84.2880     8.9220     7.3890     5.8640    25.1570 
  160.0000   -16.3560     2.2680    81.9360     9.2590     7.5980     6.5500    25.1710 
  160.1250   -16.4260     2.2700    81.8260     9.6880     7.8860     7.2270    25.1960 
  160.2500   -16.4780     2.2690    82.0450    10.1150     8.1930     7.7230    25.2390 
  160.3750   -16.5540     2.2670    80.6480    10.5020     8.4880     7.9000    25.2760 
  160.5000   -16.6610     2.2620    79.7670    10.8920     8.7880     7.6490    25.2980 
  160.6250   -16.8350     2.2540    81.0100    11.4650     9.1840     7.7550    25.3330 
  160.7500   -17.0500     2.2430    80.5380    12.3420     9.7490     8.9830    25.3910 
  160.8750   -17.3060     2.2340    76.2470    13.5290    10.5030    10.9460    25.4570 
  161.0000   -17.5890     2.2270    73.5130    14.9330    11.4120    12.3940    25.5130 
  161.1250   -17.8810     2.2250    77.2570    16.4610    12.4620    12.7420    25.5580 
  161.2500   -18.1730     2.2260    80.7630    18.1580    13.6670    13.2240    25.6050 
  161.3750   -18.4570     2.2270    80.5330    20.3850    15.2150    14.8110    25.6590 
  161.5000   -18.7410     2.2280    77.8790    23.8010    17.5030    18.1010    25.7330 
  161.6250   -19.0080     2.2270    75.7550    29.7830    21.5270    23.3280    25.8310 
  161.7500   -19.2840     2.2240    73.6390    39.1990    28.1610    31.1340    25.9180 
  161.8750   -19.5470     2.2180    70.2930    53.3400    38.8490    46.8140    25.9690 
  162.0000   -19.7980     2.2070    65.9960    73.4090    55.0990    84.7400    25.9910 
  162.1250   -20.0250     2.1910    62.2680   100.0220    77.7690   169.8820    26.0090 
  162.2500   -20.2240     2.1760    60.0430   126.9350   101.4280   211.0830    26.0250 
  162.3750   -20.3960     2.1640    59.0020   143.8350   117.9510   172.0550    26.0280 
