~V
VERS. 2.00: Ver 2.00
~W
STRT.M 56.0000:
STOP.M 352.0000:
STEP.M 0.1250:
NULL. -999.2500:
UWI. F10109:
~C
DEPT.M :
DEN.GM/CC :
SP.MV :
GR.API :
RML.OHMM :
RI. :
RXO.OHMM :
CALI.CM :
~A
# ...
  202.2500     2.2770    -8.7330    74.2060     6.3620     5.7280     6.3140    23.3300 
  202.3750     2.2820    -8.5140    73.8220     6.3450     5.7110     6.1880    23.2940 
  202.5000     2.2890    -8.2010    71.4940     6.3110     5.6740     6.0640    23.2290 
  202.6250     2.2990    -7.7520    67.9080     6.2110     5.5840     6.0950    23.1400 
  202.7500     2.3110    -7.1980    67.8960     6.0310     5.4330     6.0520    23.0470 
  202.8750     2.3230    -6.5670    71.8410     5.7850     5.2240     5.8260    22.9760 
  203.0000     2.3320    -5.8800    76.7370     5.5140     4.9870     5.4540    22.9630 
  203.1250     2.3340    -5.2130    78.9140     5.2770     4.7690     5.0130    23.0970 
  203.2500     2.3320    -4.6270    79.5470     5.1110     4.6070     4.7550    23.3190 
  203.3750     2.3280    -4.1030    80.0670     5.0280     4.5170     4.6850    23.5380 
  203.5000     2.3270    -3.6170    78.4350     5.0210     4.4940     4.7210    23.6880 
  203.6250     2.3290    -3.2390    74.1740     5.0740     4.5280     4.7580    23.7620 
  203.7500     2.3350    -2.9850    70.9560     5.1480     4.5880     4.7260    23.8510 
  203.8750     2.3430    -2.8290    71.9450     5.2180     4.6560     4.5990    23.9550 
  204.0000     2.3520    -2.7550    75.6750     5.2710     4.7180     4.4980    24.0130 
  204.1250     2.3590    -2.7210    77.6320     5.2940     4.7600     4.5030    24.0310 
  204.2500     2.3600    -2.6830    77.7910     5.2870     4.7770     4.5260    24.0270 
  204.3750     2.3550    -2.6690    75.8770     5.2510     4.7660     4.5380    24.0020 
  204.5000     2.3470    -2.7190    72.9640     5.1910     4.7290     4.4630    23.9580 
  204.6250     2.3400    -2.8050    72.1980     5.1170     4.6700     4.3560    23.8770 
  204.7500     2.3380    -2.8730    74.2910     5.0520     4.6080     4.2740    23.7270 
  204.8750     2.3390    -2.9490    77.0710     5.0110     4.5560     4.2190    23.5560 
  205.0000     2.3410    -3.0340    77.0640     5.0020     4.5230     4.1900    23.4530 
  205.1250     2.3410    -3.1300    74.5880     5.0260     4.5190     4.2020    23.4320 
  205.2500     2.3380    -3.2500    72.9300     5.0620     4.5310     4.2600    23.4570 
  205.3750     2.3330    -3.3800    76.1840     5.0960     4.5510     4.3600    23.5400 
  205.5000     2.3270    -3.4810    83.4620     5.1170     4.5710     4.4570    23.6470 
  205.6250     2.3180    -3.5720    87.0020     5.1290     4.5900     4.4830    23.7540 
  205.7500     2.3060    -3.7020    85.0790     5.1530     4.6210     4.4390    23.8090 
  205.8750     2.2930    -3.8510    81.8780     5.2130     4.6800     4.4250    23.7700 
  206.0000     2.2810    -4.0180    80.1430     5.3210     4.7760     4.5270    23.6440 
  206.1250     2.2770    -4.1830    78.2690     5.4690     4.9050     4.7390    23.5030 
  206.2500     2.2790    -4.2960    75.7460     5.6070     5.0290     4.9630    23.4380 
  206.3750     2.2870    -4.3380    74.3380     5.6860     5.1080     5.1930    23.4330 
  206.5000     2.2970    -4.2900    75.7100     5.6720     5.1110     5.3690    23.4980 
  206.6250     2.3040    -4.1400    78.3750     5.5470     5.0180     5.3070    23.6760 
  206.7500     2.3090    -3.9240    79.7280     5.3690     4.8710     5.0320    23.9340 
  206.8750     2.3140    -3.6670    80.3080     5.1910     4.7120     4.7450    24.2180 
  207.0000     2.3210    -3.3610    81.9550     5.0560     4.5770     4.5020    24.4170 
  207.1250     2.3270    -3.0510    83.7740     4.9880     4.4880     4.4390    24.4610 
  207.2500     2.3280    -2.7880    82.8440     4.9650     4.4360     4.4510    24.4680 
  207.3750     2.3240    -2.5600    80.0530     4.9630     4.4080     4.4520    24.4780 
  207.5000     2.3190    -2.3860    77.0140     4.9590     4.3900     4.3720    24.4710 
  207.6250     2.3160    -2.2890    77.0150     4.9480     4.3790     4.3290    24.4670 
  207.7500     2.3150    -2.2230    79.3950     4.9380     4.3770     4.3190    24.4730 
  207.8750     2.3150    -2.1630    79.9940     4.9410     4.3900     4.3510    24.4650 
  208.0000     2.3130    -2.1110    77.9640     4.9610     4.4180     4.4140    24.4490 
  208.1250     2.3090    -2.0480    77.5740     4.9900     4.4570     4.4610    24.4400 
  208.2500     2.3070    -1.9630    78.7850     5.0110     4.4890     4.5210    24.4200 
  208.3750     2.3090    -1.9050    78.4000     5.0160     4.5030     4.5800    24.4030 
  208.5000     2.3160    -1.8740    77.2040     5.0030     4.4930     4.6050    24.4070 
  208.6250     2.3270    -1.8620    77.9750     4.9740     4.4570     4.5500    24.4080 
  208.7500     2.3380    -1.8880    77.5900     4.9410     4.4100     4.4720    24.3940 
  208.8750     2.3460    -1.9510    73.5590     4.9090     4.3640     4.4050    24.3910 
  209.0000     2.3520    -2.0380    71.0490     4.8840     4.3290     4.3860    24.3860 
  209.1250     2.3550    -2.1960    73.4800     4.8710     4.3100     4.3920    24.3650 
  209.2500     2.3580    -2.4020    76.2260     4.8690     4.3050     4.4220    24.3550 
  209.3750     2.3590    -2.5900    76.3270     4.8790     4.3130     4.4570    24.3180 
  209.5000     2.3600    -2.7700    73.5920     4.9050     4.3350     4.4810    24.2090 
  209.6250     2.3590    -2.9940    71.2660     4.9550     4.3800     4.4790    24.0360 
  209.7500     2.3590    -3.1960    72.2920     5.0290     4.4490     4.4640    23.8090 
  209.8750     2.3590    -3.3230    77.3290     5.1200     4.5370     4.4910    23.6270 
  210.0000     2.3580    -3.3870    84.5260     5.2110     4.6350     4.5500    23.5580 
  210.1250     2.3530    -3.3940    87.8200     5.2810     4.7240     4.6220    23.5750 
  210.2500     2.3440    -3.3350    87.6240     5.3200     4.7890     4.7130    23.6210 
  210.3750     2.3350    -3.2290    86.3400     5.3310     4.8280     4.7570    23.7270 
  210.5000     2.3300    -3.0710    85.8570     5.3280     4.8450     4.6780    23.9300 
  210.6250     2.3320    -2.8250    87.0770     5.3330     4.8560     4.6230    24.1770 
  210.7500     2.3410    -2.5690    87.7580     5.3550     4.8720     4.6670    24.4200 
  210.8750     2.3550    -2.3350    88.0800     5.3880     4.8930     4.7870    24.5940 
  211.0000     2.3700    -2.1130    88.1570     5.4170     4.9120     4.8900    24.6660 
  211.1250     2.3810    -1.8870    87.9650     5.4180     4.9100     4.9230    24.6610 
  211.2500     2.3850    -1.6900    87.8690     5.3820     4.8790     4.8470    24.6480 
  211.3750     2.3840    -1.5210    87.6990     5.3060     4.8160     4.6980    24.6160 
  211.5000     2.3790    -1.3790    87.0190     5.1960     4.7230     4.5650    24.5610 
  211.6250     2.3750    -1.2860    86.6430     5.0630     4.6090     4.4750    24.4920 
  211.7500     2.3710    -1.2110    87.8360     4.9280     4.4890     4.4040    24.3980 
  211.8750     2.3690    -1.1530    89.0720     4.8060     4.3780     4.3450    24.3180 
  212.0000     2.3670    -1.1270    86.4650     4.7130     4.2910     4.2930    24.2840 
  212.1250     2.3670    -1.1250    81.2470     4.6730     4.2510     4.2820    24.3250 
  212.2500     2.3690    -1.1470    79.1750     4.6850     4.2590     4.2850    24.4000 
  212.3750     2.3740    -1.2060    80.3190     4.7480     4.3160     4.3130    24.4480 
  212.5000     2.3800    -1.2970    81.1630     4.8480     4.4120     4.3510    24.4710 
  212.6250     2.3850    -1.3800    80.5490     4.9660     4.5320     4.4120    24.4660 
  212.7500     2.3870    -1.4770    81.3040     5.0760     4.6490     4.4670    24.4570 
  212.8750     2.3870    -1.5870    85.0380     5.1530     4.7380     4.5210    24.4580 
  213.0000     2.3840    -1.7000    88.1990     5.1760     4.7780     4.5680    24.4380 
  213.1250     2.3780    -1.8500    86.1720     5.1200     4.7420     4.5680    24.4220 
  213.2500     2.3730    -1.9880    82.4380     5.0010     4.6430     4.5200    24.4250 
  213.3750     2.3690    -2.1020    81.3400     4.8480     4.5040     4.4140    24.4200 
