~V
VERS. 2.00: Ver 2.00
~W
STRT.M 55.0000:
STOP.M 242.0000:
STEP.M 0.1250:
NULL. -999.2500:
UWI. F10187:
~C
DEPT.M :
GR.API :
RML.OHMM :
RI. :
RXO.OHMM :
CALI.CM :
DEN.GM/CC :
SP.MV :
~A
# ...
  156.2500    81.0030    12.6230    11.3710    10.6920    23.6800     2.3120    -9.9600 
  156.3750    81.9950    12.2870    10.8330     9.3150    23.7250     2.3130    -9.7820 
  156.5000    84.1170    12.7050    10.9120     8.7930    23.9260     2.3050    -9.6680 
  156.6250    82.2540    13.8060    11.7400    10.3230    24.2160     2.2940    -9.4700 
  156.7500    76.5780    14.9430    12.9090    13.6770    24.4550     2.2940    -9.2780 
  156.8750    71.8950    15.4570    13.7850    17.5390    24.5220     2.3080    -9.1770 
  157.0000    70.5670    14.8780    13.6300    19.5780    24.3760     2.3330    -9.1170 
  157.1250    72.4390    13.1560    12.1190    16.1110    24.1900     2.3570    -9.0300 
  157.2500    76.4550    11.1550    10.1910    11.5900    23.9300     2.3720    -8.9790 
  157.3750    81.8410     9.5630     8.5620     7.7770    23.6700     2.3770    -8.9690 
  157.5000    84.5440     8.7690     7.5770     6.4240    23.4640     2.3760    -9.0100 
  157.6250    81.8200     8.9180     7.3870     7.5580    23.3530     2.3730    -9.1070 
  157.7500    78.5570     9.5950     7.7410     9.9100    23.3150     2.3690    -9.2380 
  157.8750    76.7530    10.4430     8.4180    11.6910    23.3300     2.3610    -9.3890 
  158.0000    76.2280    11.1130     9.1100    12.7750    23.4040     2.3510    -9.5470 
  158.1250    76.7610    11.3240     9.4660    10.8990    23.4530     2.3400    -9.7360 
  158.2500    79.0190    11.1980     9.4760     9.5690    23.4280     2.3300    -9.8990 
  158.3750    81.2900    10.9400     9.3060     9.1380    23.3490     2.3230   -10.0070 
  158.5000    81.4950    10.7430     9.1430     9.2490    23.3960     2.3180   -10.0030 
  158.6250    81.4250    10.7160     9.1090     9.2130    23.7800     2.3170    -9.9430 
  158.7500    81.0850    10.7860     9.1690     9.2550    24.2080     2.3190    -9.8960 
  158.8750    79.7180    10.8690     9.2510     9.7070    24.4780     2.3250    -9.7830 
  159.0000    78.8540    10.9040     9.2820    10.1000    24.4390     2.3340    -9.6210 
  159.1250    79.3620    10.8800     9.2350     9.8960    24.1520     2.3420    -9.5280 
  159.2500    79.8290    10.8510     9.1640     9.2600    23.9090     2.3460    -9.4430 
  159.3750    80.5410    10.8590     9.1120     9.0030    23.9130     2.3450    -9.2970 
  159.5000    82.8400    10.9160     9.0960     9.3480    24.0920     2.3420    -9.1640 
  159.6250    86.5470    10.9950     9.1110     9.9620    24.2920     2.3380    -8.9740 
  159.7500    87.9250    11.0360     9.1240    10.2980    24.4620     2.3330    -8.6870 
  159.8750    86.6250    10.9930     9.0910     9.9010    24.5760     2.3280    -8.4100 
  160.0000    84.9280    10.8420     8.9730     9.2620    24.6250     2.3230    -8.1640 
  160.1250    85.0540    10.5810     8.7420     9.5210    24.6330     2.3190    -7.8530 
  160.2500    84.3540    10.2700     8.4420     9.8180    24.6340     2.3170    -7.5160 
  160.3750    82.1530     9.9660     8.1230     9.0940    24.6340     2.3170    -7.2090 
  160.5000    81.1040     9.7500     7.8530     7.8980    24.6340     2.3210    -6.9820 
  160.6250    81.7180     9.7840     7.7530     7.9420    24.6220     2.3270    -6.9010 
  160.7500    81.4290    10.1580     7.9140     8.6330    24.5860     2.3350    -6.8710 
  160.8750    81.2180    10.9170     8.4190     9.3210    24.5330     2.3460    -6.8710 
  161.0000    81.2280    11.9730     9.2810     9.8200    24.5130     2.3590    -6.9220 
  161.1250    77.5640    13.0130    10.3570    11.7190    24.5530     2.3710    -6.9700 
  161.2500    71.5870    13.6090    11.2160    16.0370    24.6200     2.3760    -7.0260 
  161.3750    68.5570    13.4890    11.4510    21.0410    24.6040     2.3660    -7.1010 
  161.5000    70.5280    12.6560    10.9050    18.3690    24.4540     2.3440    -7.1160 
  161.6250    74.9280    11.3970     9.7930    11.4300    24.2460     2.3200    -7.0140 
  161.7500    79.5340    10.2220     8.6640     8.4950    23.9370     2.3060    -6.9220 
  161.8750    83.7580     9.3880     7.7950     7.9740    23.6280     2.3070    -6.8240 
  162.0000    85.3680     8.9590     7.2870     7.9560    23.4110     2.3150    -6.6190 
  162.1250    83.9070     8.8960     7.1710     7.7200    23.2560     2.3210    -6.3850 
  162.2500    82.4080     9.0000     7.2870     7.3840    23.1940     2.3190    -6.2270 
  162.3750    81.6580     9.1570     7.5180     7.3370    23.3310     2.3110    -6.0640 
  162.5000    80.9490     9.2930     7.7650     7.4840    23.6490     2.3050    -5.9350 
  162.6250    79.7260     9.3600     7.9510     7.6610    23.8800     2.3040    -5.9360 
  162.7500    79.4000     9.3650     8.0640     7.4690    23.8690     2.3070    -5.9250 
  162.8750    79.0530     9.3170     8.1100     7.2180    23.7640     2.3130    -5.8830 
  163.0000    78.8530     9.2080     8.0930     7.0100    23.6890     2.3180    -5.9080 
  163.1250    80.7810     8.9810     7.9700     6.8500    23.6740     2.3210    -5.9850 
  163.2500    82.0140     8.6100     7.7040     6.9740    23.6710     2.3240    -5.9780 
  163.3750    82.7860     8.0960     7.2710     7.0570    23.6710     2.3290    -5.9570 
  163.5000    86.0990     7.5150     6.7210     6.5850    23.7120     2.3360    -5.9550 
  163.6250    91.9810     7.0450     6.2060     5.6670    23.7700     2.3450    -5.9100 
  163.7500    95.8690     6.8470     5.8880     5.0510    23.7740     2.3520    -5.9110 
  163.8750    95.1940     7.0180     5.8720     5.0210    23.7460     2.3550    -5.9880 
  164.0000    92.3000     7.5720     6.2020     5.8320    23.7070     2.3530    -6.1290 
  164.1250    89.3170     8.4410     6.9050     7.2920    23.6590     2.3440    -6.3110 
  164.2500    88.3170     9.3710     7.8090     8.7390    23.6050     2.3320    -6.4750 
  164.3750    89.5420    10.1660     8.7300     9.3280    23.5380     2.3190    -6.6600 
  164.5000    90.4530    10.7050     9.4760     9.0020    23.4740     2.3060    -6.8610 
  164.6250    87.1780    10.9690     9.9160     9.4540    23.4410     2.3000    -7.0140 
  164.7500    82.5100    11.1270    10.1740    10.2420    23.4530     2.3020    -7.0690 
  164.8750    80.5550    11.2830    10.3730    11.5190    23.5070     2.3120    -7.0190 
  165.0000    82.6280    11.4780    10.5760    11.3320    23.6060     2.3250    -6.8280 
  165.1250    84.4920    11.6760    10.7750    10.6510    23.8200     2.3350    -6.4970 
  165.2500    83.0180    11.7940    10.9070    10.8340    24.1330     2.3400    -6.2000 
  165.3750    80.0360    11.7380    10.8820    11.4900    24.4380     2.3390    -5.8220 
  165.5000    78.6080    11.4100    10.6020    12.2930    24.5970     2.3360    -5.1830 
  165.6250    78.8410    10.7150     9.9400    11.6290    24.6350     2.3350    -4.3720 
  165.7500    80.0920     9.8270     9.0250    10.6310    24.6400     2.3430    -3.4610 
  165.8750    81.5560     9.0540     8.0980     8.7580    24.6500     2.3590    -2.4890 
  166.0000    82.3050     8.7970     7.4650     6.7950    24.6530     2.3770    -1.6580 
  166.1250    80.1360    10.0150     7.6010     6.4060    24.6770     2.3830    -1.0590 
  166.2500    75.0130    13.7600     9.0560     9.1480    24.7160     2.3690    -0.5800 
  166.3750    68.9360    21.3860    13.1490    19.6230    24.7550     2.3370    -0.2780 
  166.5000    64.4910    34.7650    22.2700    51.5680    24.7850     2.2950    -0.3080 
  166.6250    62.4890    58.5900    42.1150   118.8480    24.8020     2.2580    -0.6790 
  166.7500    61.8190    92.1230    73.9220   197.6890    24.7880     2.2320    -1.3320 
  166.8750    62.6370   128.7280   111.9390   261.3300    24.7640     2.2210    -2.2270 
  167.0000    65.1580   156.9660   141.7600   209.1240    24.7390     2.2200    -3.1890 
  167.1250    67.8380   167.5130   152.5630   135.3790    24.7620     2.2260    -4.1760 
  167.2500    69.9690   168.2530   154.5290   111.5650    24.8170     2.2330    -5.1960 
  167.3750    71.2970   168.1420   155.8980   133.1790    24.9020     2.2350    -6.2520 
