~V
VERS. 2.00: Ver 2.00
~W
STRT.M 60.0000:
STOP.M 245.0000:
STEP.M 0.1250:
NULL. -999.2500:
UWI. F10162:
~C
DEPT.M :
SP.MV :
DEN.GM/CC :
GR.API :
RML.OHMM :
RI. :
RXO.OHMM :
CALI.CM :
~A
# ...
  228.7500     2.5530     2.4000    86.5610     6.4300     5.6540     7.1450    24.6190 
  228.8750     2.7010     2.4130    85.4490     6.2790     5.6060     6.7960    24.4880 
  229.0000     2.9190     2.4210    68.9900     6.2810     5.6200     5.9510    24.4200 
  229.1250     3.1210     2.4190    55.8230     6.2990     5.6320     5.6640    24.5090 
  229.2500     3.2380     2.4080    55.2370     6.3080     5.6400     5.8510    24.7050 
  229.3750     3.2710     2.3980    56.9980     6.3160     5.6470     6.5040    24.8450 
  229.5000     3.2510     2.3920    58.1230     6.3260     5.6560     7.4670    24.8480 
  229.6250     3.1610     2.3890    60.0360     6.3400     5.6700     6.8190    24.7760 
  229.7500     3.0450     2.3850    60.8370     6.3510     5.6830     5.9590    24.7400 
  229.8750     2.9980     2.3800    60.1650     6.3560     5.6890     5.7010    24.7500 
  230.0000     3.0380     2.3760    61.1570     6.3520     5.6840     5.6760    24.7570 
  230.1250     3.1980     2.3810    63.0830     6.3450     5.6720     5.6410    24.7440 
  230.2500     3.3910     2.3940    62.9590     6.3470     5.6700     5.6440    24.7170 
  230.3750     3.5090     2.4080    61.6450     6.3680     5.6900     5.7730    24.7050 
  230.5000     3.6100     2.4190    61.3190     6.4130     5.7340     5.6420    24.7230 
  230.6250     3.7370     2.4210    61.7970     6.4780     5.7990     5.4610    24.7420 
  230.7500     3.8030     2.4190    61.4350     6.5500     5.8710     5.4680    24.7750 
  230.8750     3.7250     2.4170    61.3260     6.6240     5.9410     5.7150    24.7920 
  231.0000     3.5140     2.4210    62.5150     6.6980     6.0090     5.9630    24.7860 
  231.1250     3.1730     2.4310    64.1850     6.7830     6.0850     6.0750    24.7610 
  231.2500     2.8250     2.4420    64.1050     6.8860     6.1810     6.2900    24.7570 
  231.3750     2.6060     2.4510    62.7430     7.0140     6.3020     6.7290    24.7650 
  231.5000     2.5190     2.4540    63.4980     7.1690     6.4510     6.9020    24.7620 
  231.6250     2.5280     2.4540    66.4050     7.3540     6.6270     7.4830    24.7480 
  231.7500     2.4990     2.4540    66.0900     7.5620     6.8250     8.2670    24.7150 
  231.8750     2.4310     2.4580    64.1630     7.7890     7.0440     8.9910    24.7200 
  232.0000     2.4160     2.4640    64.9380     8.0230     7.2720     9.4440    24.7610 
  232.1250     2.4510     2.4720    67.8640     8.2380     7.4840     9.5500    24.7360 
  232.2500     2.4730     2.4790    67.9910     8.4130     7.6560     9.6450    24.6350 
  232.3750     2.4130     2.4840    65.6720     8.5290     7.7670     9.8060    24.5260 
  232.5000     2.3130     2.4870    62.9330     8.5820     7.8150     9.6640    24.5740 
  232.6250     2.2180     2.4860    61.7320     8.5750     7.8010     9.7480    24.6740 
  232.7500     2.1200     2.4820    61.6690     8.5390     7.7600    10.1190    24.7430 
  232.8750     1.9900     2.4740    61.9120     8.4940     7.7120    10.1900    23.5710 
  233.0000     1.8770     2.4660    62.4580     8.4590     7.6750     9.8930    21.5670 
  233.1250     1.8840     2.4600    63.7950     8.4530     7.6680     9.5510    19.1050 
  233.2500     1.9010     2.4580    66.7880     8.4810     7.6940     9.9390    22.3260 
  233.3750     1.9220     2.4620    69.7840     8.5370     7.7520    10.5150    24.3400 
  233.5000     1.9110     2.4680    69.5560     8.6090     7.8280    10.7950    24.7710 
  233.6250     1.8540     2.4730    64.9280     8.6740     7.8950    10.7330    24.7940 
  233.7500     1.8270     2.4680    61.0420     8.7130     7.9350    10.3790    24.8040 
  233.8750     1.7380     2.4490    62.3270     8.7210     7.9390     9.9600    24.8000 
  234.0000     1.5650     2.4170    68.0260     8.7030     7.9160     9.6740    24.8020 
  234.1250     1.2970     2.3820    70.5170     8.6800     7.8880     9.6580    24.8410 
  234.2500     1.0490     2.3640    69.4110     8.6690     7.8750     9.9030    24.8730 
  234.3750     0.8760     2.3670    68.7400     8.6790     7.8860    10.3680    24.8590 
  234.5000     0.6730     2.3860    69.9890     8.7110     7.9170    10.4830    24.8040 
  234.6250     0.4100     2.4090    69.8750     8.7630     7.9680    10.2050    24.7470 
  234.7500     0.1910     2.4200    66.1160     8.8310     8.0330    10.1840    24.7000 
  234.8750     0.2510     2.4170    61.5060     8.9130     8.1100    10.4760    24.6770 
  235.0000     0.4140     2.4040    60.6890     9.0080     8.2000    10.7390    24.7170 
  235.1250     0.4820     2.3870    60.6890     9.1160     8.3040    10.1780    24.6410 
  235.2500     0.5240     2.3740    60.6890     9.2270     8.4150     9.8300    24.5220 
  235.3750     0.7250     2.3710    60.6890     9.3260     8.5150     9.0640    24.4280 
  235.5000     1.0390     2.3810    60.6890     9.3920     8.5840     8.1430    24.4630 
  235.6250     1.4380     2.4040    60.6890     9.4040     8.5940     7.3480    24.5780 
  235.7500     1.8340     2.4300    60.6890     9.3680     8.5560     8.1510    24.6320 
  235.8750     2.1320     2.4420    60.6890     9.3030     8.4850     9.5090    24.6980 
  236.0000     2.4160     2.4280    60.6890     9.2330     8.4110     9.9280    24.7610 
  236.1250     2.7950     2.3910    60.6890     9.1900     8.3640     9.0280    24.8150 
  236.2500     3.2250     2.3480    60.6890     9.1900     8.3620     8.9270    24.8560 
  236.3750     3.3460     2.3230    60.6890     9.2400     8.4110     8.4620    24.8590 
  236.5000     3.3080     2.3260    60.6890     9.3340     8.5060     7.7090    24.8280 
  236.6250     3.2500     2.3560    60.6890     9.4540     8.6290     7.4190    24.7890 
  236.7500     3.2840     2.3990    60.6890     9.5710     8.7460     9.0930    24.6900 
  236.8750     3.3330     2.4340    60.6890     9.6620     8.8370    10.0290    24.5750 
  237.0000     3.1950     2.4550    60.6890     9.7100     8.8870    10.4150    24.4330 
  237.1250     2.8170     2.4630    60.6890     9.6880     8.8700    11.1040    24.4420 
  237.2500     2.2530     2.4630    60.6890     9.5950     8.7820    11.1760    24.5090 
  237.3750     1.8410     2.4620    60.6890     9.4350     8.6240    10.3290    24.6080 
  237.5000     1.5780     2.4580    60.6890     9.2230     8.4140     8.6340    24.6890 
  237.6250     1.2500     2.4460    60.6890     8.9840     8.1790     7.5140    24.6990 
  237.7500     0.6770     2.4220    60.6890     8.7520     7.9530     7.6980    24.7200 
  237.8750    -0.0970     2.3980    60.6890     8.5500     7.7560     9.0190    24.7700 
  238.0000    -0.7440     2.3840    60.6890     8.3920     7.6040    10.2970    24.8300 
  238.1250    -1.0710     2.3880    60.6890     8.2910     7.5100     9.1660    24.8380 
  238.2500    -1.0470     2.4080    60.6890     8.2370     7.4630     7.8850    24.8130 
  238.3750    -0.7600     2.4300    60.6890     8.2180     7.4490     7.4530    24.7610 
  238.5000    -0.4180     2.4490    60.6890     8.2230     7.4560     7.8330    24.6820 
  238.6250    -0.0300     2.4660    60.6890     8.2380     7.4730     8.5160    24.8090 
  238.7500     0.4370     2.4850    60.6890     8.2530     7.4900     8.9980    24.9460 
  238.8750     1.0360     2.5040    60.6890     8.2620     7.4980     9.1930    25.0230 
  239.0000     1.6350     2.5140    60.6890     8.2620     7.4980     8.7870    25.0480 
  239.1250     2.1480     2.5060    60.6890     8.2570     7.4900     7.8940    25.0120 
  239.2500     2.4860     2.4770    60.6890     8.2540     7.4860     7.0870    24.9500 
  239.3750     2.4210     2.4420    60.6890     8.2540     7.4870     7.3320    24.9160 
  239.5000     2.1900     2.4140    60.6890     8.2580     7.4920     9.2500    24.8650 
  239.6250     1.9390     2.3990    60.6890     8.2600     7.4950    12.7210    24.7810 
  239.7500     1.7340     2.4010    60.6890     8.2580     7.4930    12.4530    24.7380 
  239.8750     1.6840     2.4130    60.6890     8.2550     7.4890     9.8340    24.6950 
