~V
VERS. 2.00: Ver 2.00
~W
STRT.M 63.0000:
STOP.M 207.0000:
STEP.M 0.1250:
NULL. -999.2500:
UWI. F10132:
~C
DEPT.M :
SP.MV :
DEN.GM/CC :
GR.API :
RML.OHMM :
RI. :
RXO.OHMM :
CALI.CM :
~A
# ...
  108.0000   -41.3820     2.1650    64.2330     9.9490     7.9070     7.8990    22.9040 
  108.1250   -41.0960     2.1640    66.1260     9.7430     7.7790     7.8630    23.0300 
  108.2500   -40.8060     2.1690    67.4440     9.5270     7.6410     7.9070    23.1720 
  108.3750   -40.5280     2.1790    66.6960     9.3140     7.5040     7.8260    23.2620 
  108.5000   -40.2730     2.1890    64.8600     9.1260     7.3820     7.5520    23.2830 
  108.6250   -40.0360     2.1930    64.0070     9.0000     7.2990     7.2240    23.2860 
  108.7500   -39.8050     2.1920    65.4860     8.9490     7.2630     7.2730    23.3220 
  108.8750   -39.5770     2.1890    66.9540     8.9700     7.2750     7.3990    23.3770 
  109.0000   -39.3440     2.1910    65.9800     9.0440     7.3270     7.4780    23.4210 
  109.1250   -39.1030     2.2000    63.9930     9.1380     7.4070     7.9110    23.4320 
  109.2500   -38.8550     2.2110    64.4440     9.2190     7.4890     9.1150    23.4300 
  109.3750   -38.5970     2.2150    65.3560     9.2670     7.5610    10.6390    23.4300 
  109.5000   -38.3310     2.2050    63.7770     9.2630     7.6080     9.8760    23.4290 
  109.6250   -38.0560     2.1820    61.3960     9.1490     7.5910     9.1180    23.4370 
  109.7500   -37.7820     2.1590    60.3210     8.8850     7.4770     8.5600    23.4680 
  109.8750   -37.5080     2.1460    61.4850     8.4640     7.2500     8.1330    23.5180 
  110.0000   -37.2310     2.1490    65.1310     7.9510     6.9370     7.4940    23.5660 
  110.1250   -36.9500     2.1660    72.0010     7.4980     6.6260     6.8080    23.5890 
  110.2500   -36.6660     2.1850    78.8610     7.2510     6.4220     6.1730    23.5810 
  110.3750   -36.3730     2.1970    80.2870     7.2750     6.3810     5.9250    23.5450 
  110.5000   -36.0620     2.2040    75.5750     7.5100     6.4870     6.1790    23.5190 
  110.6250   -35.7310     2.2130    69.7890     7.7190     6.6080     6.4880    23.5740 
  110.7500   -35.3880     2.2290    67.8660     7.6070     6.5470     6.8200    23.7130 
  110.8750   -35.0580     2.2470    70.7300     7.0240     6.1830     6.8390    23.8930 
  111.0000   -34.7730     2.2510    75.8500     6.0680     5.5510     6.0440    24.1060 
  111.1250   -34.5950     2.2280    80.0790     5.1090     4.8530     4.5340    24.4340 
  111.2500   -34.5560     2.1920    84.9740     4.4980     4.3370     3.7150    24.8320 
  111.3750   -34.6880     2.1600    89.5460     4.3850     4.1290     3.6240    25.0690 
  111.5000   -35.0000     2.1470    89.4600     4.8020     4.2800     4.3320    24.8340 
  111.6250   -35.4920     2.1590    81.1290     5.7600     4.8390     6.2150    24.0610 
  111.7500   -36.0980     2.1800    72.7640     6.9840     5.6460     7.8910    23.2910 
  111.8750   -36.7750     2.1940    69.0480     8.1830     6.5250     7.9430    22.8660 
  112.0000   -37.4740     2.1930    66.7410     9.0630     7.2630     7.4330    22.7830 
  112.1250   -38.1420     2.1860    64.4050     9.3990     7.6480     7.2350    22.8280 
  112.2500   -38.7320     2.1800    64.0610     9.3700     7.7370     7.2760    22.9060 
  112.3750   -39.2290     2.1780    65.5780     9.1670     7.6400     7.3120    23.0320 
  112.5000   -39.6240     2.1790    66.2780     8.9510     7.4740     7.3330    23.1730 
  112.6250   -39.9000     2.1840    65.1890     8.8290     7.3280     7.3020    23.2550 
  112.7500   -40.0730     2.1890    64.2170     8.8430     7.2500     7.2400    23.2850 
  112.8750   -40.1570     2.1950    64.3360     9.0200     7.2680     7.3040    23.3040 
  113.0000   -40.1780     2.2020    65.7970     9.3540     7.3920     7.7990    23.3370 
  113.1250   -40.1370     2.2140    67.7460     9.7930     7.6080     8.8820    23.3600 
  113.2500   -40.0480     2.2300    68.6880    10.2110     7.8450    10.3950    23.3670 
  113.3750   -39.9170     2.2490    68.4710    10.5040     8.0380    10.7340    23.3670 
  113.5000   -39.7520     2.2640    66.9670    10.6100     8.1390     9.4910    23.3680 
  113.6250   -39.5580     2.2690    63.5460    10.5120     8.1190     8.7100    23.3660 
  113.7500   -39.3490     2.2650    61.0200    10.3170     8.0240     8.5100    23.3650 
  113.8750   -39.1160     2.2570    62.0600    10.1020     7.8970     8.4410    23.3670 
  114.0000   -38.8550     2.2490    65.7430     9.9260     7.7810     8.3540    23.3700 
  114.1250   -38.5720     2.2490    67.1920     9.8170     7.7000     8.3270    23.3700 
  114.2500   -38.2980     2.2570    64.6540     9.7410     7.6450     8.5320    23.3970 
  114.3750   -38.0360     2.2730    61.1280     9.6700     7.5990     8.7840    23.4740 
  114.5000   -37.7940     2.2880    60.9920     9.5860     7.5500     8.9270    23.5770 
  114.6250   -37.5810     2.2920    64.2630     9.4800     7.4870     8.4720    23.5870 
  114.7500   -37.4070     2.2830    66.8240     9.3630     7.4150     7.8970    23.4630 
  114.8750   -37.2600     2.2650    66.8170     9.2570     7.3470     7.5350    23.2700 
  115.0000   -37.1300     2.2440    66.3410     9.1850     7.2990     7.4340    23.1070 
  115.1250   -37.0050     2.2270    64.9150     9.1660     7.2860     7.4440    23.0360 
  115.2500   -36.8860     2.2170    61.5400     9.1800     7.2970     7.4040    23.0140 
  115.3750   -36.7730     2.2100    59.1770     9.2070     7.3180     7.2920    23.0040 
  115.5000   -36.6770     2.2040    60.0520     9.2230     7.3340     7.1180    22.9900 
  115.6250   -36.6170     2.1980    62.8370     9.2160     7.3350     6.9090    22.9690 
  115.7500   -36.5860     2.1930    64.1070     9.2060     7.3330     6.8130    22.9560 
  115.8750   -36.5750     2.1940    63.8820     9.2170     7.3430     6.8500    22.9520 
  116.0000   -36.5650     2.2010    63.1560     9.2620     7.3760     6.8520    22.9520 
  116.1250   -36.5140     2.2130    61.0760     9.3300     7.4320     6.8690    22.9530 
  116.2500   -36.4040     2.2230    57.0240     9.3740     7.4880     6.9160    22.9520 
  116.3750   -36.2380     2.2290    53.7520     9.3610     7.5220     7.0140    22.9590 
  116.5000   -36.0180     2.2290    54.1450     9.3140     7.5380     7.0230    22.9840 
  116.6250   -35.7330     2.2320    57.8600     9.4080     7.6220     7.0960    23.0310 
  116.7500   -35.4050     2.2470    59.9550     9.8300     7.8870     7.3080    23.0940 
  116.8750   -35.0490     2.2830    59.6300    10.6560     8.4000     7.8360    23.1990 
  117.0000   -34.6620     2.3410    59.0830    11.7330     9.1060     9.0580    23.4770 
  117.1250   -34.2270     2.4070    59.2630    12.5220     9.7030    12.7450    24.0490 
  117.2500   -33.7350     2.4480    60.4830    12.4420     9.7940    18.4680    24.6820 
  117.3750   -33.1770     2.4490    63.9790    11.2790     9.1850    18.9040    25.1220 
  117.5000   -32.5790     2.4200    70.6220     9.3820     8.0340    11.5570    25.2910 
  117.6250   -31.9920     2.3820    81.1430     7.5040     6.7730     6.5000    25.3090 
  117.7500   -31.4620     2.3540    90.9940     6.1510     5.7710     5.0350    25.2990 
  117.8750   -31.0270     2.3370    95.0170     5.4040     5.1390     5.0060    25.2800 
  118.0000   -30.7090     2.3270    91.6000     5.1620     4.8640     5.1080    25.2610 
  118.1250   -30.5380     2.3160    84.4120     5.2980     4.9080     5.1210    25.2450 
  118.2500   -30.4660     2.3040    79.3950     5.6050     5.1270     5.3550    25.2250 
  118.3750   -30.4770     2.2980    77.3750     5.9960     5.4470     5.6240    25.2030 
  118.5000   -30.5360     2.3020    78.7400     6.4010     5.8020     5.5680    25.1560 
  118.6250   -30.6160     2.3160    80.6670     6.7290     6.1050     5.8010    25.0820 
  118.7500   -30.7050     2.3300    78.6260     6.8940     6.2810     6.7070    25.0650 
  118.8750   -30.8100     2.3350    75.4700     6.8380     6.2760     7.3090    25.1490 
  119.0000   -30.9520     2.3260    78.1300     6.5760     6.0930     6.6430    25.2710 
  119.1250   -31.1640     2.3050    85.1140     6.1930     5.7850     5.5120    25.3030 
