~V
VERS. 2.00: Ver 2.00
~W
STRT.M 30.0000:
STOP.M 209.0000:
STEP.M 0.1250:
NULL. -999.2500:
UWI. F10150:
~C
DEPT.M :
SP.MV :
DEN.GM/CC :
GR.API :
RML.OHMM :
RI. :
RXO.OHMM :
CALI.CM :
~A
# ...
   86.2500   -21.6000     2.2810    81.7490     5.6860     3.9140     4.8360    25.4360 
   86.3750   -21.5410     2.2870    79.3420     6.0600     4.0410     4.9650    25.3870 
   86.5000   -21.8490     2.2860    80.3900     6.8790     4.4450     5.4920    25.3480 
   86.6250   -22.5260     2.2950    80.2800     8.2370     5.2200     6.8090    25.3350 
   86.7500   -23.4230     2.3230    74.8240     9.9240     6.2760     8.9920    25.3310 
   86.8750   -24.4430     2.3700    67.2900    11.6280     7.4600    12.7550    25.3260 
   87.0000   -25.5830     2.4220    62.8260    12.9010     8.4950    17.7740    25.2940 
   87.1250   -26.7400     2.4470    62.0750    13.1850     8.9730    19.6080    25.1960 
   87.2500   -27.8100     2.4290    61.7580    12.6630     8.8830    15.6580    25.0440 
   87.3750   -28.8470     2.3730    61.3350    11.7510     8.4200    11.9170    24.9280 
   87.5000   -29.8050     2.3020    63.6840    10.8860     7.8530    10.3660    24.9020 
   87.6250   -30.6300     2.2430    70.9180    10.3630     7.4090    10.3260    24.9550 
   87.7500   -31.4150     2.2070    77.9230    10.1420     7.1400    10.5790    24.9970 
   87.8750   -32.1270     2.1920    79.0750    10.1120     7.0190    10.8380    24.9920 
   88.0000   -32.7140     2.1900    74.0820    10.1380     6.9810    10.9820    24.9390 
   88.1250   -33.2980     2.1940    66.5320    10.1180     6.9580    10.9460    24.9050 
   88.2500   -33.9220     2.1970    59.6710    10.0640     6.9250    10.8300    24.8940 
   88.3750   -34.5320     2.1990    56.3910    10.0390     6.9060    10.7110    24.8970 
   88.5000   -35.1720     2.2030    58.8490    10.1060     6.9360    10.6910    24.9070 
   88.6250   -35.8280     2.2120    65.5740    10.2850     7.0450    10.6940    24.9240 
   88.7500   -36.3800     2.2250    69.2190    10.4940     7.1950    10.8240    24.9320 
   88.8750   -36.8630     2.2370    65.9930    10.6220     7.3210    11.4110    24.9330 
   89.0000   -37.3130     2.2420    58.8920    10.5580     7.3450    12.2780    24.9310 
   89.1250   -37.6390     2.2370    55.9680    10.2130     7.1830    11.9490    24.9310 
   89.2500   -37.8730     2.2210    57.5560     9.6970     6.8760    10.8050    24.9350 
   89.3750   -38.0250     2.2000    59.1720     9.1430     6.5000     9.8250    24.9460 
   89.5000   -38.0560     2.1780    58.4360     8.6820     6.1410     9.3210    24.9740 
   89.6250   -37.9860     2.1600    56.4320     8.4300     5.8940     9.2830    25.0260 
   89.7500   -37.8620     2.1470    54.9510     8.3640     5.7750     9.3240    25.0960 
   89.8750   -37.6790     2.1410    54.9590     8.4380     5.7740     9.3610    25.1630 
   90.0000   -37.4190     2.1400    57.3570     8.5920     5.8610     9.4980    25.1780 
   90.1250   -37.0890     2.1440    60.2540     8.7680     5.9990     9.6900    25.1300 
   90.2500   -36.6860     2.1500    59.7150     8.9140     6.1390     9.7640    25.0800 
   90.3750   -36.2000     2.1560    57.1330     9.0030     6.2550     9.5390    25.0350 
   90.5000   -35.5860     2.1580    56.7900     9.0180     6.3280     9.3130    24.9850 
   90.6250   -34.8010     2.1540    58.7020     8.9350     6.3370     9.5060    24.9220 
   90.7500   -33.9160     2.1470    59.3050     8.7610     6.2810     9.4750    24.8950 
   90.8750   -32.9020     2.1400    58.3670     8.5020     6.1610     9.2280    24.8940 
   91.0000   -31.8060     2.1380    59.6860     8.1970     5.9910     8.9660    24.9230 
   91.1250   -30.6950     2.1450    65.1220     7.9210     5.8070     8.3120    24.9580 
   91.2500   -29.5990     2.1600    71.5290     7.7310     5.6500     7.3210    24.9890 
   91.3750   -28.5350     2.1760    75.3410     7.6380     5.5370     6.5630    24.9870 
   91.5000   -27.5440     2.1860    73.3300     7.6110     5.4670     6.5400    24.9400 
   91.6250   -26.6160     2.1860    69.5300     7.5820     5.4210     7.3290    24.9530 
   91.7500   -25.7220     2.1830    72.7290     7.4910     5.3630     7.3170    25.0150 
   91.8750   -24.9550     2.1860    81.6440     7.3320     5.2780     6.5540    25.1380 
   92.0000   -24.3320     2.2010    86.7290     7.1410     5.1730     5.8750    25.2620 
   92.1250   -23.8100     2.2280    82.6960     6.9770     5.0730     5.5210    25.3010 
   92.2500   -23.4130     2.2570    77.7900     6.8700     5.0000     5.5430    25.3080 
   92.3750   -23.1620     2.2790    76.1970     6.8260     4.9650     5.7030    25.3320 
   92.5000   -23.0420     2.2860    75.8250     6.8360     4.9710     5.9660    25.3990 
   92.6250   -23.1700     2.2710    75.4480     6.9070     5.0250     6.0030    25.4820 
   92.7500   -23.5150     2.2380    76.4530     7.0390     5.1190     5.9180    25.5400 
   92.8750   -23.9410     2.1960    77.9730     7.2270     5.2510     5.8750    25.5120 
   93.0000   -24.4020     2.1590    77.4410     7.4340     5.4070     6.1720    25.3760 
   93.1250   -24.8710     2.1460    76.2770     7.5920     5.5430     6.8130    25.2130 
   93.2500   -25.2680     2.1560    77.1790     7.6520     5.6190     7.1160    25.1360 
   93.3750   -25.6320     2.1810    79.7310     7.6080     5.6160     7.0110    25.1320 
   93.5000   -25.9930     2.2070    82.0100     7.4990     5.5490     6.8360    25.1800 
   93.6250   -26.2980     2.2220    81.3440     7.4030     5.4650     6.7720    25.2660 
   93.7500   -26.6270     2.2240    77.5690     7.3950     5.4240     6.8410    25.3270 
   93.8750   -27.0430     2.2170    71.1300     7.5190     5.4660     7.1000    25.3250 
   94.0000   -27.5350     2.2050    65.2780     7.7970     5.6100     7.4230    25.3080 
   94.1250   -28.1850     2.1950    63.9330     8.2310     5.8680     7.7050    25.3000 
   94.2500   -28.9900     2.1920    64.7830     8.7360     6.1930     8.0030    25.2790 
   94.3750   -29.8550     2.1970    66.3850     9.2390     6.5390     8.5750    25.2190 
   94.5000   -30.7620     2.2030    67.0600     9.6750     6.8610     9.2200    25.1460 
   94.6250   -31.7000     2.1940    64.4610     9.9720     7.1110     9.2830    25.0450 
   94.7500   -32.5620     2.1690    62.2940    10.1230     7.2760     9.0260    24.9650 
   94.8750   -33.3180     2.1410    64.2210    10.1350     7.3540     8.8160    24.9620 
   95.0000   -34.0020     2.1320    67.9910    10.0650     7.3660     8.8860    25.0060 
   95.1250   -34.5430     2.1560    67.0940    10.0560     7.3890     9.5200    25.0310 
   95.2500   -34.9160     2.1930    64.3510    10.2690     7.5250    10.1240    25.0380 
   95.3750   -35.2070     2.2170    63.7080    10.8190     7.8580    10.2190    25.0520 
   95.5000   -35.4100     2.2170    63.4750    11.7060     8.4160    10.8010    25.1230 
   95.6250   -35.5420     2.2090    61.0560    12.7430     9.1370    13.6060    25.3310 
   95.7500   -35.6770     2.2230    58.2690    13.5180     9.7810    19.5140    25.6280 
   95.8750   -35.7940     2.2660    56.2520    13.6820    10.1070    23.9480    25.7950 
   96.0000   -35.8780     2.3150    56.2960    13.1140     9.9690    19.2280    25.6530 
   96.1250   -35.9140     2.3280    59.3230    12.0200     9.3960    13.0730    25.2860 
   96.2500   -35.9380     2.2990    62.9510    10.9440     8.7170    10.5770    24.9840 
   96.3750   -35.9480     2.2480    65.2500    10.1560     8.1360    10.1510    24.8560 
   96.5000   -35.9620     2.2020    66.0780     9.7210     7.7500    10.2590    24.8130 
   96.6250   -35.9730     2.1790    64.7180     9.5980     7.5830    10.1470    24.7900 
   96.7500   -35.9060     2.1740    61.8700     9.6160     7.5350    10.0390    24.7820 
   96.8750   -35.7510     2.1770    59.7710     9.6900     7.5470    10.1090    24.7920 
   97.0000   -35.5200     2.1810    58.0440     9.7690     7.5820    10.4280    24.8190 
   97.1250   -35.2500     2.1820    56.1440     9.7950     7.6050    11.0530    24.8690 
   97.2500   -34.9240     2.1770    56.1050     9.7020     7.5680    11.3880    24.9420 
   97.3750   -34.5260     2.1690    59.4400     9.4370     7.4250    10.8490    25.0280 
