~V
VERS. 2.00: Ver 2.00
~W
STRT.M 64.0000:
STOP.M 215.0000:
STEP.M 0.1250:
NULL. -999.2500:
UWI. F10146:
~C
DEPT.M :
DEN.GM/CC :
GR.API :
RML.OHMM :
RI. :
RXO.OHMM :
CALI.CM :
SP.MV :
~A
# ...
  131.5000     2.4550    49.9260    14.3190    13.8990    12.1210    27.4670   -12.1680 
  131.6250     2.4530    53.3510    13.5200    13.2720    12.4970    27.4790   -12.2730 
  131.7500     2.4460    57.2860    12.5850    12.4730    11.7500    27.5460   -12.3650 
  131.8750     2.4360    57.6240    11.7870    11.7190    10.7440    27.6740   -12.4760 
  132.0000     2.4250    55.1300    11.3340    11.2060     9.9970    27.7380   -12.5860 
  132.1250     2.4180    55.4880    11.3940    11.1090     9.7900    27.8320   -12.7000 
  132.2500     2.4130    61.0870    11.8750    11.3800    10.1270    27.9460   -12.8930 
  132.3750     2.4110    68.8580    12.6780    11.9540    11.0380    28.0750   -13.1180 
  132.5000     2.4090    73.7750    13.6500    12.7090    12.6230    28.2570   -13.3460 
  132.6250     2.4070    73.9510    14.5920    13.4820    13.8840    28.3940   -13.6030 
  132.7500     2.4010    73.3490    15.3660    14.1380    14.2410    28.4460   -13.8390 
  132.8750     2.3890    73.9220    15.9400    14.6250    13.8110    28.6070   -14.0570 
  133.0000     2.3680    74.9810    16.3560    14.9530    13.5300    29.1240   -14.2710 
  133.1250     2.3370    74.5010    16.7140    15.1880    13.7970    29.4950   -14.4660 
  133.2500     2.3030    71.9000    17.1180    15.4400    14.5000    29.6460   -14.6360 
  133.3750     2.2760    69.8030    17.6020    15.7620    14.9640    29.5640   -14.7790 
  133.5000     2.2670    70.7430    18.1730    16.1720    15.5250    29.4440   -14.8660 
  133.6250     2.2800    75.9970    18.8330    16.6690    16.2580    29.4080   -14.9330 
  133.7500     2.3080    81.8270    19.5270    17.2050    16.9160    29.5250   -14.9560 
  133.8750     2.3400    84.7110    20.1710    17.7230    17.4920    29.6430   -14.9110 
  134.0000     2.3660    82.8000    20.6610    18.1470    17.7650    29.7280   -14.8510 
  134.1250     2.3780    76.9040    20.8590    18.3630    17.7640    29.7250   -14.7420 
  134.2500     2.3790    73.7930    20.8020    18.3630    18.2510    29.6480   -14.5960 
  134.3750     2.3730    75.4820    20.5900    18.1960    19.1510    29.5250   -14.4740 
  134.5000     2.3630    77.8060    20.3830    17.9760    19.4540    29.4210   -14.3420 
  134.6250     2.3580    76.3230    20.3550    17.8490    18.6330    29.2650   -14.2270 
  134.7500     2.3620    73.2300    20.5150    17.8660    17.4660    29.2010   -14.1790 
  134.8750     2.3770    71.2910    20.8060    18.0060    17.3380    29.1500   -14.1260 
  135.0000     2.3980    71.7040    21.1170    18.2010    17.7920    29.1140   -14.0580 
  135.1250     2.4160    75.9510    21.3090    18.3440    17.8950    29.0490   -14.0450 
  135.2500     2.4240    80.4380    21.3760    18.3900    17.4300    28.9700   -14.0260 
  135.3750     2.4240    82.5330    21.4460    18.3990    16.5270    28.9040   -14.0070 
  135.5000     2.4190    82.7230    21.7150    18.5130    16.5850    28.8740   -14.0250 
  135.6250     2.4140    81.8800    22.4160    18.9340    17.2880    28.8140   -13.9930 
  135.7500     2.4120    80.1360    23.5080    19.6810    17.9120    28.6850   -13.9410 
  135.8750     2.4110    77.9720    24.8400    20.6780    18.9620    28.5380   -13.9390 
  136.0000     2.4100    75.8960    26.0980    21.7060    20.8750    28.4280   -13.9180 
  136.1250     2.4110    72.5960    26.7350    22.3480    21.9680    28.2740   -13.8740 
  136.2500     2.4160    70.3600    26.5010    22.3580    21.2600    28.1400   -13.8650 
  136.3750     2.4250    72.1230    25.3590    21.6690    19.8740    28.0730   -13.8360 
  136.5000     2.4380    75.3720    23.5250    20.4140    18.6810    27.9710   -13.8050 
  136.6250     2.4490    75.3960    21.3920    18.8560    17.0440    27.7750   -13.7710 
  136.7500     2.4530    74.3960    19.4410    17.3670    15.2660    27.5840   -13.7060 
  136.8750     2.4500    75.9810    17.9510    16.1700    14.2830    27.4220   -13.6180 
  137.0000     2.4420    77.5250    17.0790    15.4070    13.9180    27.3000   -13.5210 
  137.1250     2.4350    75.5340    16.9860    15.2370    13.4600    27.2220   -13.4140 
  137.2500     2.4360    72.8750    17.4510    15.5590    13.2460    27.1580   -13.2910 
  137.3750     2.4440    72.2840    18.1810    16.2250    14.4990    27.0860   -13.1360 
  137.5000     2.4560    73.5590    18.6560    16.8660    16.7550    27.0000   -12.9750 
  137.6250     2.4640    77.0010    18.0180    16.7140    18.2770    26.9670   -12.8390 
  137.7500     2.4630    79.8320    16.1050    15.4250    18.1450    26.9270   -12.6990 
  137.8750     2.4480    79.4170    13.2940    13.1950    16.6350    26.9170   -12.5690 
  138.0000     2.4180    77.5650    10.3440    10.6470    12.3390    26.8920   -12.4780 
  138.1250     2.3760    80.2730     8.0520     8.4850     7.8660    26.7440   -12.3810 
  138.2500     2.3320    85.7770     6.5330     6.9180     5.3710    26.5570   -12.3150 
  138.3750     2.2950    89.1130     5.6770     5.9210     4.6490    26.4330   -12.2940 
  138.5000     2.2700    89.5910     5.3110     5.3960     4.5590    26.3390   -12.2680 
  138.6250     2.2610    91.9090     5.3200     5.2790     4.5990    26.2940   -12.3070 
  138.7500     2.2600    94.5890     5.5200     5.3970     4.7130    26.2870   -12.4130 
  138.8750     2.2630    93.7460     5.8040     5.6480     5.0470    26.2860   -12.5320 
  139.0000     2.2670    89.4000     6.0750     5.9360     5.5820    26.2860   -12.6980 
  139.1250     2.2680    84.3270     6.2250     6.1590     5.9180    26.2860   -12.9020 
  139.2500     2.2690    81.5100     6.2410     6.2640     5.9840    26.2860   -13.1060 
  139.3750     2.2700    80.9150     6.1810     6.2630     5.9730    26.2890   -13.3600 
  139.5000     2.2720    82.8000     6.1750     6.2380     5.9280    26.3050   -13.6170 
  139.6250     2.2740    84.1830     6.4310     6.3490     5.7790    26.3550   -13.8160 
  139.7500     2.2750    83.6690     7.0380     6.7100     5.8620    26.3760   -14.0180 
  139.8750     2.2700    82.6150     8.0270     7.3860     6.7140    26.4430   -14.2070 
  140.0000     2.2590    79.2970     9.3330     8.3640     8.8660    26.5480   -14.3710 
  140.1250     2.2460    72.5420    10.7600     9.5280    11.0850    26.7800   -14.5520 
  140.2500     2.2350    68.3820    11.9650    10.5860    11.8530    26.8720   -14.6930 
  140.3750     2.2290    69.5210    12.6690    11.2790    11.4180    26.9230   -14.7840 
  140.5000     2.2270    74.8380    12.7100    11.4190    10.8840    26.9820   -14.8930 
  140.6250     2.2270    79.1670    12.0430    10.9150    11.0830    27.0360   -14.9800 
  140.7500     2.2310    80.7540    11.0500    10.0690    11.2430    27.1520   -15.0650 
  140.8750     2.2370    80.7790    10.0590     9.1520    10.3810    27.2260   -15.1820 
  141.0000     2.2480    83.0820     9.3920     8.4240     8.8010    27.2600   -15.2930 
  141.1250     2.2610    87.8880     9.4720     8.2040     7.4650    27.3760   -15.4460 
  141.2500     2.2720    88.2150    10.4190     8.6090     7.6270    27.5090   -15.6820 
  141.3750     2.2730    83.1980    12.3150     9.7520     9.9430    27.6340   -15.9590 
  141.5000     2.2610    77.0230    15.0950    11.6860    13.5350    28.0160   -16.2780 
  141.6250     2.2350    73.2510    18.4740    14.3850    17.5170    28.5460   -16.6500 
  141.7500     2.2040    70.4900    21.6580    17.2650    20.3200    29.1920   -17.0000 
  141.8750     2.1750    68.3660    23.9880    19.6860    21.7500    29.7560   -17.3550 
  142.0000     2.1570    66.8880    25.1820    21.1900    22.5490    30.0830   -17.7160 
  142.1250     2.1550    66.4970    25.4270    21.7010    22.9950    30.1580   -17.9810 
  142.2500     2.1640    66.8820    25.4150    21.7830    23.0530    30.2970   -18.1970 
  142.3750     2.1780    66.8150    25.4990    21.7850    23.2120    30.6750   -18.3620 
  142.5000     2.1890    65.6300    25.8240    21.9120    24.2480    31.1160   -18.4450 
  142.6250     2.1920    65.5600    26.3830    22.2320    26.0360    31.3340   -18.4840 
