~V
VERS. 2.00: Ver 2.00
~W
STRT.M 50.0000:
STOP.M 236.0000:
STEP.M 0.1250:
NULL. -999.2500:
UWI. F10144:
~C
DEPT.M :
DEN.GM/CC :
GR.API :
RML.OHMM :
RI. :
RXO.OHMM :
CALI.CM :
SP.MV :
~A
# ...
   72.5000     2.0940    69.6020     9.4200     6.3860     8.8640    23.7760   -35.6010 
   72.6250     2.0850    68.2860     9.2650     6.3220     8.8690    23.7700   -35.5080 
   72.7500     2.0890    68.9240     9.1010     6.2200     8.7980    23.7760   -35.3300 
   72.8750     2.1000    71.0540     8.9850     6.1150     8.7240    23.7700   -35.0890 
   73.0000     2.1090    74.5020     8.9520     6.0360     8.6980    23.7290   -34.8010 
   73.1250     2.1110    74.3140     9.0170     6.0120     8.8460    23.6700   -34.4840 
   73.2500     2.1050    70.1970     9.1320     6.0290     9.0270    23.6310   -34.1750 
   73.3750     2.0960    67.3910     9.2480     6.0680     9.0500    23.6110   -33.8960 
   73.5000     2.0890    67.5810     9.3160     6.0990     8.9460    23.5900   -33.6510 
   73.6250     2.0850    68.6930     9.2890     6.0900     8.8660    23.5700   -33.4420 
   73.7500     2.0860    68.0860     9.1780     6.0330     8.8180    23.5630   -33.2550 
   73.8750     2.0910    68.2620     9.0040     5.9370     8.7550    23.5640   -33.0650 
   74.0000     2.0980    70.4580     8.8140     5.8330     8.5610    23.5640   -32.8400 
   74.1250     2.1080    72.6290     8.6720     5.7670     8.2800    23.5630   -32.5420 
   74.2500     2.1200    72.8240     8.6000     5.7560     8.0870    23.5640   -32.1520 
   74.3750     2.1370    71.3580     8.5840     5.8000     8.2320    23.5660   -31.6650 
   74.5000     2.1550    69.3020     8.5960     5.8790     9.0100    23.5740   -31.0920 
   74.6250     2.1670    68.6350     8.5990     5.9590    10.2860    23.5950   -30.4190 
   74.7500     2.1640    70.3310     8.5760     6.0170    10.3070    23.6190   -29.6490 
   74.8750     2.1500    71.8400     8.5150     6.0390     9.1640    23.6310   -28.7570 
   75.0000     2.1340    68.5710     8.3830     6.0030     8.4780    23.6270   -27.7020 
   75.1250     2.1300    65.1220     8.1050     5.8620     8.4290    23.6320   -26.4260 
   75.2500     2.1520    69.4880     7.6870     5.6180     8.1310    23.6780   -24.9720 
   75.3750     2.1810    79.4360     7.1770     5.2910     7.3510    23.8260   -23.3780 
   75.5000     2.1980    88.0610     6.6610     4.9290     6.0830    24.1570   -21.7140 
   75.6250     2.1950    93.8400     6.2490     4.5990     5.0980    24.5490   -20.1130 
   75.7500     2.1810    98.6440     5.9880     4.3380     4.5070    24.7700   -18.7050 
   75.8750     2.1700   101.1360     5.8590     4.1480     4.3860    24.8450   -17.5940 
   76.0000     2.1660   100.3230     5.7890     4.0070     4.3030    24.9520   -16.8490 
   76.1250     2.1660    99.3010     5.6680     3.8830     4.0580    25.0590   -16.5410 
   76.2500     2.1650   100.7450     5.4540     3.7550     3.8220    24.8990   -16.5700 
   76.3750     2.1660   103.9640     5.2120     3.6440     3.8200    24.4850   -16.8920 
   76.5000     2.1770   104.2820     5.1310     3.6260     4.2370    24.0830   -17.4450 
   76.6250     2.1930   100.2470     5.6190     3.8900     5.1830    23.9230   -18.2010 
   76.7500     2.2010    93.0610     6.9260     4.5700     6.1020    23.9050   -19.0870 
   76.8750     2.2000    82.5090     9.2260     5.7880     7.6100    23.9370   -20.0620 
   77.0000     2.2150    70.4160    12.1200     7.5490    11.2200    24.0220   -21.0890 
   77.1250     2.2700    61.1990    15.3350     9.4930    19.3190    24.1540   -22.1120 
   77.2500     2.3740    57.0010    16.8650    10.7190    26.3540    24.2860   -23.0880 
   77.3750     2.4610    56.7910    15.7520    10.5980    22.0150    24.5150   -23.9810 
   77.5000     2.4720    58.7170    12.8420     9.3440    12.8280    25.0250   -24.7660 
   77.6250     2.3970    60.8120    10.0730     7.8030     8.0040    25.7600   -25.4030 
   77.7500     2.2780    61.9300     8.3690     6.6280     6.5870    26.3290   -25.9170 
   77.8750     2.1700    63.0440     7.6650     5.9400     6.5000    26.5330   -26.3510 
   78.0000     2.0980    62.4070     7.6190     5.6610     6.8980    26.3470   -26.7450 
   78.1250     2.0670    61.6200     7.8430     5.6410     7.4730    25.7980   -27.1430 
   78.2500     2.0770    65.1930     7.9740     5.6550     7.8910    25.1320   -27.5530 
   78.3750     2.1040    71.8290     7.9280     5.6130     7.6150    24.6060   -27.9750 
   78.5000     2.1290    76.1090     7.7950     5.5240     6.7700    24.3500   -28.4320 
   78.6250     2.1370    75.1430     7.7630     5.4710     6.6180    24.2460   -28.9610 
   78.7500     2.1280    71.9980     7.9250     5.5120     6.7550    24.0720   -29.5730 
   78.8750     2.1140    67.7860     8.2670     5.6570     7.4790    23.8030   -30.2490 
   79.0000     2.1040    65.0940     8.6980     5.8690     8.7940    23.5610   -30.9640 
   79.1250     2.1050    65.6850     9.0680     6.0770     9.3910    23.4710   -31.7050 
   79.2500     2.1140    65.9050     9.2880     6.2170     9.3760    23.4680   -32.4360 
   79.3750     2.1240    62.9430     9.3510     6.2720     9.1960    23.4760   -33.1130 
   79.5000     2.1290    57.8980     9.3130     6.2600     9.0560    23.4820   -33.6760 
   79.6250     2.1300    55.6950     9.2580     6.2190     9.2510    23.4880   -34.0540 
   79.7500     2.1260    55.7520     9.2480     6.1900     9.3520    23.4910   -34.2610 
   79.8750     2.1200    56.4160     9.2880     6.1830     9.4310    23.4920   -34.3140 
   80.0000     2.1140    57.4470     9.3640     6.1910     9.4240    23.4910   -34.2250 
   80.1250     2.1090    59.9030     9.4600     6.2020     9.3870    23.4900   -34.0070 
   80.2500     2.1050    60.8690     9.5350     6.2000     9.3470    23.4890   -33.7170 
   80.3750     2.1050    59.8330     9.5290     6.1640     9.3170    23.4880   -33.3910 
   80.5000     2.1110    59.3090     9.3820     6.0680     9.2640    23.4860   -33.0450 
   80.6250     2.1250    60.5960     9.0500     5.8900     9.1520    23.4830   -32.6660 
   80.7500     2.1450    62.3120     8.6280     5.6650     8.7270    23.4800   -32.2600 
   80.8750     2.1580    64.8210     8.2310     5.4440     7.6680    23.4780   -31.8180 
   81.0000     2.1580    69.9460     7.9880     5.2840     6.3560    23.4770   -31.3190 
   81.1250     2.1470    73.8160     8.0200     5.2570     6.3300    23.4750   -30.7520 
   81.2500     2.1330    72.1250     8.2790     5.3540     7.1930    23.4710   -30.1440 
   81.3750     2.1260    67.3260     8.6860     5.5450     7.9880    23.4680   -29.5180 
   81.5000     2.1260    64.7030     9.1200     5.7820     8.3910    23.4700   -28.8960 
   81.6250     2.1310    65.9940     9.3980     5.9880     8.6520    23.4740   -28.2890 
   81.7500     2.1320    66.4840     9.4060     6.0930     8.6520    23.4730   -27.6920 
   81.8750     2.1280    65.6100     9.1200     6.0630     8.5400    23.4700   -27.0960 
   82.0000     2.1210    66.4490     8.6420     5.9100     8.4720    23.4720   -26.4960 
   82.1250     2.1170    70.3110     8.1730     5.6870     8.2130    23.4800   -25.8770 
   82.2500     2.1180    73.4910     7.8620     5.4790     7.4840    23.4870   -25.2480 
   82.3750     2.1270    73.2480     7.7270     5.3270     6.5700    23.4890   -24.6310 
   82.5000     2.1460    69.2590     7.7040     5.2390     6.3190    23.4860   -24.0330 
   82.6250     2.1750    65.9310     7.7150     5.2140     7.0520    23.4980   -23.4680 
   82.7500     2.2110    67.9990     7.7550     5.2410     7.3540    23.4460   -22.9210 
   82.8750     2.2420    74.3000     7.9320     5.3500     6.8390    23.3120   -22.3760 
   83.0000     2.2590    80.0990     8.3580     5.5780     6.1710    23.2230   -21.8140 
   83.1250     2.2580    81.0840     9.0320     5.9310     6.9630    23.3040   -21.1730 
   83.2500     2.2430    79.7020     9.6570     6.2800     9.0840    23.4900   -20.4280 
   83.3750     2.2310    79.4820     9.8890     6.4590    13.2650    23.7240   -19.5650 
   83.5000     2.2170    81.8800     9.4750     6.3290    18.0360    24.0270   -18.6040 
   83.6250     2.1890    87.3030     8.4250     5.8400    15.1820    24.5910   -17.5890 
