~V
VERS. 2.00: Ver 2.00
~W
STRT.M 57.0000:
STOP.M 214.0000:
STEP.M 0.1250:
NULL. -999.2500:
UWI. F10147:
~C
DEPT.M :
SP.MV :
GR.API :
RML.OHMM :
RI. :
RXO.OHMM :
CALI.CM :
DEN.GM/CC :
~A
# ...
  102.0000   -11.1420    64.6580    10.0730     8.9190     7.1980    21.0370     2.1130 
  102.1250   -11.1360    62.3630    10.1050     8.9550     7.1560    21.0190     2.1200 
  102.2500   -11.1340    61.2180    10.0230     8.9570     7.1420    21.0330     2.1240 
  102.3750   -11.1390    60.7390     9.8600     8.9190     7.1180    21.1100     2.1250 
  102.5000   -11.1430    61.2670     9.6940     8.8670     7.0770    21.1760     2.1210 
  102.6250   -11.1440    62.6730     9.6010     8.8380     7.0490    21.1660     2.1110 
  102.7500   -11.1530    62.7820     9.6310     8.8570     7.0530    21.1160     2.1000 
  102.8750   -11.1570    59.9060     9.7980     8.9400     7.0910    21.0660     2.0930 
  103.0000   -11.1560    56.1200    10.0350     9.0700     7.1750    21.0210     2.0960 
  103.1250   -11.1540    55.0620    10.2460     9.2090     7.3170    20.9710     2.1110 
  103.2500   -11.1460    57.3780    10.3590     9.3180     7.4740    20.8940     2.1350 
  103.3750   -11.1330    60.9640    10.3430     9.3610     7.5520    20.8650     2.1590 
  103.5000   -11.1160    63.7310    10.2410     9.3350     7.5330    20.9400     2.1760 
  103.6250   -11.0930    65.3090    10.1280     9.2610     7.4920    21.0780     2.1820 
  103.7500   -11.0630    66.2070    10.0530     9.1600     7.4950    21.2150     2.1780 
  103.8750   -11.0210    65.7720    10.0280     9.0510     7.5600    21.3860     2.1700 
  104.0000   -10.9750    64.0980    10.0270     8.9470     7.6600    21.6250     2.1590 
  104.1250   -10.9290    63.0600    10.0110     8.8520     7.7600    21.8760     2.1510 
  104.2500   -10.8830    63.7130     9.9540     8.7600     7.8190    22.0730     2.1470 
  104.3750   -10.8350    65.5390     9.8450     8.6600     7.8100    22.1620     2.1500 
  104.5000   -10.7940    66.6760     9.7050     8.5510     7.7590    22.1780     2.1590 
  104.6250   -10.7590    66.0460     9.5760     8.4500     7.7140    22.1690     2.1680 
  104.7500   -10.7330    65.0390     9.5140     8.3940     7.7090    22.1340     2.1760 
  104.8750   -10.7250    65.6240     9.5830     8.4300     7.7850    22.0670     2.1820 
  105.0000   -10.7250    66.9200     9.7980     8.5770     7.9400    21.9980     2.1880 
  105.1250   -10.7330    67.1170    10.1090     8.8140     8.0980    21.9540     2.1960 
  105.2500   -10.7560    66.8850    10.4410     9.0990     8.1430    21.8990     2.2010 
  105.3750   -10.7870    67.6890    10.6980     9.3660     7.9990    21.7470     2.2020 
  105.5000   -10.8230    68.2020    10.8250     9.5500     7.7790    21.5000     2.1980 
  105.6250   -10.8580    66.0940    10.8080     9.6200     7.6930    21.3030     2.1920 
  105.7500   -10.8790    62.0210    10.6600     9.5760     7.8300    21.2080     2.1890 
  105.8750   -10.8950    59.4800    10.4120     9.4380     8.0340    21.1310     2.1900 
  106.0000   -10.9160    59.4300    10.1330     9.2520     8.0820    21.0680     2.1920 
  106.1250   -10.9300    59.9570     9.8950     9.0600     7.9520    21.0650     2.1900 
  106.2500   -10.9330    59.9360     9.7590     8.8980     7.7770    21.1140     2.1840 
  106.3750   -10.9330    61.8930     9.7720     8.8150     7.6710    21.1690     2.1740 
  106.5000   -10.9310    66.6850     9.9230     8.8420     7.6530    21.2060     2.1640 
  106.6250   -10.9310    70.5670    10.1590     8.9720     7.7200    21.2440     2.1550 
  106.7500   -10.9470    70.1470    10.4160     9.1640     7.8630    21.3080     2.1480 
  106.8750   -10.9640    66.5310    10.5980     9.3350     8.0360    21.4200     2.1400 
  107.0000   -10.9740    64.0670    10.6220     9.4030     8.1770    21.5270     2.1310 
  107.1250   -10.9920    64.5730    10.4570     9.3300     8.2590    21.5820     2.1220 
  107.2500   -11.0150    65.9080    10.1340     9.1210     8.2840    21.6060     2.1160 
  107.3750   -11.0460    66.1050     9.7510     8.8300     8.2600    21.6350     2.1160 
  107.5000   -11.0830    65.7210     9.4270     8.5440     8.1810    21.6590     2.1210 
  107.6250   -11.1220    65.8540     9.2500     8.3470     8.0390    21.6180     2.1290 
  107.7500   -11.1470    66.2320     9.2570     8.2960     7.8490    21.5140     2.1350 
  107.8750   -11.1640    66.6980     9.4520     8.4330     7.6980    21.4380     2.1370 
  108.0000   -11.1910    67.8580     9.7810     8.7310     7.7100    21.4180     2.1360 
  108.1250   -11.2150    68.9230    10.1570     9.1080     7.9670    21.4290     2.1360 
  108.2500   -11.2320    68.5820    10.4820     9.4620     8.4360    21.4920     2.1360 
  108.3750   -11.2390    66.9640    10.6280     9.6560     8.9100    21.6490     2.1370 
  108.5000   -11.2440    65.5840    10.5340     9.6200     9.1430    21.8390     2.1390 
  108.6250   -11.2540    64.6380    10.2260     9.3680     9.0300    21.9320     2.1400 
  108.7500   -11.2830    63.4960     9.7750     8.9630     8.6400    21.8690     2.1390 
  108.8750   -11.3280    62.9000     9.2880     8.5030     8.1340    21.6530     2.1370 
  109.0000   -11.3640    63.2610     8.8600     8.0730     7.6660    21.3710     2.1340 
  109.1250   -11.3920    63.8420     8.5400     7.7230     7.3210    21.1560     2.1310 
  109.2500   -11.4140    63.0410     8.3330     7.4690     7.1210    21.0660     2.1280 
  109.3750   -11.4230    61.0670     8.2200     7.3120     7.0600    21.0610     2.1240 
  109.5000   -11.4140    59.7510     8.1670     7.2300     7.0870    21.0790     2.1210 
  109.6250   -11.3800    59.7330     8.1550     7.2000     7.1520    21.0970     2.1220 
  109.7500   -11.3320    60.3970     8.1980     7.2160     7.2340    21.1210     2.1250 
  109.8750   -11.2690    61.4340     8.3320     7.2880     7.3340    21.1670     2.1310 
  110.0000   -11.1970    63.2100     8.5530     7.4210     7.4560    21.2060     2.1360 
  110.1250   -11.1270    65.6290     8.8160     7.6050     7.6060    21.2070     2.1390 
  110.2500   -11.0610    67.9330     9.0510     7.8060     7.8080    21.1740     2.1380 
  110.3750   -10.9990    68.8860     9.1790     7.9630     8.0690    21.1370     2.1380 
  110.5000   -10.9460    68.3120     9.1730     8.0250     8.2930    21.1350     2.1420 
  110.6250   -10.9080    67.7750     9.0570     7.9860     8.3270    21.1750     2.1510 
  110.7500   -10.8740    67.7020     8.8890     7.8800     8.1420    21.2250     2.1620 
  110.8750   -10.8590    66.7700     8.7500     7.7830     7.9380    21.2570     2.1680 
  111.0000   -10.8790    65.7570     8.7070     7.7690     7.8920    21.2680     2.1680 
  111.1250   -10.9190    65.8250     8.7980     7.8730     7.9310    21.2370     2.1630 
  111.2500   -10.9710    65.7390     9.0280     8.0850     7.8940    21.1450     2.1570 
  111.3750   -11.0310    64.1740     9.3610     8.3590     7.7800    21.0540     2.1550 
  111.5000   -11.0990    62.6160     9.7090     8.6240     7.7050    21.0110     2.1570 
  111.6250   -11.1710    61.8370     9.9820     8.8180     7.7000    21.0040     2.1590 
  111.7500   -11.2300    60.4030    10.1120     8.9050     7.7180    21.0150     2.1570 
  111.8750   -11.2570    58.7270    10.0560     8.8740     7.7400    21.0610     2.1510 
  112.0000   -11.2510    57.9840     9.8510     8.7590     7.7650    21.1400     2.1420 
  112.1250   -11.2150    58.3760     9.5790     8.6100     7.7770    21.2140     2.1340 
  112.2500   -11.1510    59.1310     9.3090     8.4650     7.7810    21.2680     2.1290 
  112.3750   -11.0640    60.0980     9.0940     8.3420     7.8340    21.3250     2.1290 
  112.5000   -10.9480    61.8530     8.9440     8.2350     7.9450    21.4210     2.1310 
  112.6250   -10.7960    63.9500     8.8390     8.1320     8.0080    21.5680     2.1370 
  112.7500   -10.6280    65.5590     8.7650     8.0320     7.8860    21.7440     2.1470 
  112.8750   -10.4590    66.6880     8.7470     7.9690     7.6320    21.8620     2.1650 
  113.0000   -10.2950    67.7470     8.8420     7.9860     7.4800    21.8770     2.1890 
  113.1250   -10.1500    68.5640     9.0850     8.1130     7.5150    21.8110     2.2150 
