~V
VERS. 2.00: Ver 2.00
~W
STRT.M 59.0000:
STOP.M 202.0000:
STEP.M 0.1250:
NULL. -999.2500:
UWI. F10133:
~C
DEPT.M :
GR.API :
RML.OHMM :
RI. :
RXO.OHMM :
CALI.CM :
SP.MV :
DEN.GM/CC :
~A
# ...
   70.2500    70.4280     6.3910     5.6090     9.0450    27.6160   -31.0990     2.1550 
   70.3750    72.3950     6.2850     5.5240     8.6810    27.5170   -31.0410     2.1810 
   70.5000    74.4470     6.2680     5.5010     8.1070    27.3090   -30.9290     2.2130 
   70.6250    76.3720     6.3770     5.5810     8.2240    27.0910   -30.7600     2.2400 
   70.7500    78.1670     6.5770     5.7450     8.8000    26.9970   -30.5850     2.2540 
   70.8750    77.7380     6.8190     5.9710     9.1060    27.0720   -30.4050     2.2500 
   71.0000    75.1880     7.0260     6.2040     9.0330    27.3510   -30.1980     2.2310 
   71.1250    73.8750     7.0760     6.3310     8.9180    27.7810   -29.8430     2.2140 
   71.2500    76.7220     6.9260     6.2760     8.5650    27.8690   -29.2710     2.2170 
   71.3750    84.6110     6.5780     6.0170     8.2940    27.3450   -28.4610     2.2460 
   71.5000    95.7700     6.0960     5.5970     7.8960    26.6200   -27.3920     2.2960 
   71.6250   107.1910     5.5800     5.1040     6.8050    26.0430   -26.0420     2.3440 
   71.7500   113.5670     5.1270     4.6430     5.3070    25.6710   -24.5600     2.3750 
   71.8750   116.2960     4.7920     4.2620     4.8160    25.4500   -23.1160     2.3840 
   72.0000   120.5410     4.6310     3.9930     4.9030    25.3430   -21.8090     2.3770 
   72.1250   123.5670     4.8080     3.9320     4.9870    25.2550   -20.7530     2.3610 
   72.2500   118.7580     5.4580     4.1640     4.9500    25.1630   -19.9630     2.3490 
   72.3750   107.6330     6.7670     4.8350     5.0410    25.0860   -19.4750     2.3550 
   72.5000    97.7340     8.8550     6.1140     5.9770    25.0180   -19.3200     2.3960 
   72.6250    91.8640    11.6640     8.2630     9.7080    24.9490   -19.5170     2.4820 
   72.7500    84.6980    14.4450    10.9640    18.3130    24.8660   -19.9040     2.5800 
   72.8750    77.5320    16.3230    13.4340    28.2880    24.7360   -20.4180     2.6450 
   73.0000    74.3110    16.5230    14.5790    27.5400    24.5940   -21.0920     2.6380 
   73.1250    74.7200    14.8220    13.7910    18.7750    24.7400   -21.9450     2.5360 
   73.2500    74.2670    12.5040    12.1960    11.4030    25.3500   -22.8380     2.3850 
   73.3750    73.4600    10.5230    10.5970     8.0930    26.1300   -23.6530     2.2350 
   73.5000    75.6120     9.2490     9.3560     7.7270    26.4290   -24.3520     2.1260 
   73.6250    79.4310     8.5950     8.5790     8.9380    26.0190   -24.9220     2.0880 
   73.7500    80.7810     8.2610     8.1030     9.5650    25.7040   -25.3600     2.1000 
   73.8750    80.3380     8.1460     7.8470     9.4810    25.6060   -25.6160     2.1380 
   74.0000    80.8140     8.1700     7.7610     9.3360    25.6310   -25.7150     2.1780 
   74.1250    81.7880     8.2620     7.8110     9.6030    25.7080   -25.6880     2.2020 
   74.2500    80.8180     8.3140     7.8920    10.2440    25.9730   -25.6090     2.2180 
   74.3750    78.3720     8.2420     7.8990    11.5650    26.4590   -25.5300     2.2310 
   74.5000    76.7300     8.0050     7.7500    13.3640    26.8490   -25.4180     2.2470 
   74.6250    77.0050     7.6300     7.4140    12.5940    26.5480   -25.2360     2.2590 
   74.7500    78.1730     7.2510     7.0160    10.6760    26.2470   -25.1100     2.2600 
   74.8750    77.7260     6.9680     6.6670     9.2520    26.1710   -25.1350     2.2510 
   75.0000    76.6170     6.8350     6.4370     8.5290    26.3010   -25.2420     2.2370 
   75.1250    76.9200     6.8610     6.3610     9.1540    26.5280   -25.3780     2.2230 
   75.2500    75.6110     6.9570     6.3780     9.8230    26.8030   -25.5600     2.2070 
   75.3750    72.3400     7.0570     6.4320     9.8610    27.0970   -25.8160     2.1830 
   75.5000    70.9980     7.1180     6.4710     9.4220    27.4030   -26.1530     2.1550 
   75.6250    73.8540     7.1210     6.4650     9.1770    27.5850   -26.4860     2.1290 
   75.7500    76.6460     7.0970     6.4310     9.1880    27.4880   -26.7000     2.1140 
   75.8750    76.1900     7.0740     6.3900     9.4740    27.4080   -26.7910     2.1100 
   76.0000    74.8720     7.0750     6.3650     9.6050    27.4310   -26.7900     2.1150 
   76.1250    75.1440     7.1220     6.3780     9.5970    27.5470   -26.6730     2.1280 
   76.2500    76.6490     7.2050     6.4290     9.6560    27.7170   -26.4640     2.1450 
   76.3750    78.8930     7.3060     6.5060     9.6600    27.9710   -26.2140     2.1650 
   76.5000    78.5230     7.3970     6.5860     9.3080    28.3050   -25.9730     2.1850 
   76.6250    75.4150     7.4380     6.6400     8.9780    28.6190   -25.8460     2.2010 
   76.7500    71.6270     7.4290     6.6550     8.5910    28.8200   -25.7910     2.2110 
   76.8750    69.4400     7.3900     6.6350     8.7330    28.8960   -25.7550     2.2190 
   77.0000    70.3990     7.3570     6.5990     9.1010    28.9350   -25.7800     2.2300 
   77.1250    72.9450     7.3670     6.5820     9.4300    29.0520   -25.9080     2.2420 
   77.2500    72.9900     7.4150     6.5990     9.5360    29.3010   -26.1040     2.2440 
   77.3750    70.6740     7.4720     6.6440     9.4410    29.8670   -26.3230     2.2240 
   77.5000    69.0430     7.4980     6.6920     9.0100    30.8120   -26.5440     2.1800 
   77.6250    70.5310     7.4420     6.6990     8.4140    31.8270   -26.7290     2.1270 
   77.7500    72.5320     7.3070     6.6460     8.3100    32.4330   -26.8900     2.0830 
   77.8750    72.1210     7.1190     6.5390     8.9200    32.8870   -27.0320     2.0550 
   78.0000    69.0450     6.9310     6.4070     9.2310    33.4990   -27.1070     2.0360 
   78.1250    66.9800     6.8160     6.3000     9.1010    34.1000   -27.1140     2.0090 
   78.2500    68.1280     6.7940     6.2520     8.8850    34.2800   -27.0560     1.9760 
   78.3750    70.8050     6.8500     6.2680     8.6870    34.0070   -26.9070     1.9460 
   78.5000    71.8800     6.9510     6.3340     8.4700    33.2230   -26.6570     1.9400 
   78.6250    71.0600     7.0590     6.4210     8.5820    32.2220   -26.3720     1.9700 
   78.7500    70.4150     7.1550     6.4950     9.1620    31.6120   -26.1700     2.0270 
   78.8750    70.7790     7.2320     6.5440     9.4520    31.4300   -26.0400     2.0920 
   79.0000    72.2070     7.2900     6.5660     9.7490    31.4600   -25.9140     2.1440 
   79.1250    73.4640     7.3230     6.5630     9.8690    31.5260   -25.8050     2.1590 
   79.2500    71.9330     7.3410     6.5510     9.8470    31.6130   -25.7690     2.1430 
   79.3750    67.9260     7.3510     6.5360     9.3850    31.6840   -25.7830     2.1120 
   79.5000    65.8580     7.3570     6.5230     9.0770    31.6630   -25.8060     2.0880 
   79.6250    67.6500     7.3470     6.5080     9.2550    31.5210   -25.7910     2.0930 
   79.7500    67.9320     7.3140     6.4870     9.9950    31.4390   -25.6970     2.1230 
   79.8750    66.7810     7.2590     6.4590    10.3930    31.4400   -25.5800     2.1640 
   80.0000    67.6530     7.1920     6.4260    10.3350    31.5210   -25.4660     2.2000 
   80.1250    70.8030     7.1310     6.3890     9.8390    31.6200   -25.2770     2.2100 
   80.2500    71.3980     7.0880     6.3510     9.5030    31.6690   -25.0330     2.1940 
   80.3750    69.0550     7.0610     6.3160     9.4370    31.7330   -24.7990     2.1590 
   80.5000    66.5050     7.0400     6.2840     9.7740    32.0240   -24.5640     2.1210 
   80.6250    65.0150     7.0090     6.2540     9.6950    32.5580   -24.3550     2.1050 
   80.7500    65.5650     6.9650     6.2230     9.4230    33.0450   -24.1990     2.1170 
   80.8750    67.2960     6.9180     6.1910     9.2150    33.3860   -24.0100     2.1490 
   81.0000    67.0060     6.8840     6.1610     9.1420    33.6130   -23.7970     2.1830 
   81.1250    63.2250     6.8820     6.1440     9.3120    33.7890   -23.6700     2.1970 
   81.2500    58.6880     6.9100     6.1400     9.2330    33.8340   -23.5650     2.1880 
   81.3750    56.6640     6.9650     6.1480     8.8800    33.6670   -23.4060     2.1600 
