~V
VERS. 2.00: Ver 2.00
~W
STRT.M 49.0000:
STOP.M 245.0000:
STEP.M 0.1250:
NULL. -999.2500:
UWI. F10179:
~C
DEPT.M :
DEN.GM/CC :
GR.API :
RML.OHMM :
RI. :
RXO.OHMM :
CALI.CM :
SP.MV :
~A
# ...
   94.0000     2.1960    70.0450     9.9990     7.7040     8.8700    23.7300   -25.3520 
   94.1250     2.1980    72.6810     9.9650     7.6090     8.7630    23.2750   -25.5370 
   94.2500     2.2070    71.1990    10.0000     7.5730     9.3130    22.8440   -25.6000 
   94.3750     2.2120    68.2930    10.0720     7.5860     9.8920    22.8550   -25.6050 
   94.5000     2.2100    66.6360    10.1370     7.6120     9.9790    23.1860   -25.6170 
   94.6250     2.2040    67.1800    10.1990     7.6340     9.9670    23.5370   -25.6420 
   94.7500     2.1970    68.7220    10.2850     7.6500     9.9610    23.6990   -25.6640 
   94.8750     2.1920    68.4460    10.4190     7.6780     9.9810    23.6700   -25.6610 
   95.0000     2.1900    67.0360    10.5690     7.7250    10.1580    23.6510   -25.6680 
   95.1250     2.1880    65.1130    10.6930     7.7920    10.3800    23.6450   -25.7110 
   95.2500     2.1870    62.9050    10.7620     7.8690    10.5920    23.7460   -25.7940 
   95.3750     2.1840    61.4720    10.7670     7.9390    10.7500    24.0060   -25.8420 
   95.5000     2.1820    63.3100    10.7310     7.9850    10.8430    24.1250   -25.8230 
   95.6250     2.1810    66.8150    10.6650     8.0030    10.8900    23.9570   -25.7350 
   95.7500     2.1860    68.6930    10.5820     7.9980    10.8540    23.7110   -25.6020 
   95.8750     2.1950    68.8950    10.4980     7.9730    10.8720    23.6910   -25.4660 
   96.0000     2.2030    70.3400    10.4230     7.9300    10.8050    23.7010   -25.3530 
   96.1250     2.2070    70.1640    10.3680     7.8750    10.6130    23.6120   -25.2340 
   96.2500     2.2080    66.1080    10.3520     7.8300    10.5080    23.4880   -25.0910 
   96.3750     2.2100    63.9170    10.4040     7.8220    10.5060    23.6340   -24.9590 
   96.5000     2.2100    67.2020    10.5100     7.8540    10.1580    24.0650   -24.8940 
   96.6250     2.2060    72.0160    10.6520     7.9190     9.8680    24.3290   -24.9530 
   96.7500     2.1980    71.4470    10.7940     8.0040    10.4870    24.3690   -25.1310 
   96.8750     2.1940    67.5420    10.8770     8.0830    11.0580    24.2780   -25.3910 
   97.0000     2.1960    64.5220    10.8750     8.1290    11.3200    24.1840   -25.6750 
   97.1250     2.2010    61.2400    10.7840     8.1200    11.3620    24.1680   -26.0010 
   97.2500     2.2080    59.8670    10.6220     8.0520    11.3770    24.1930   -26.3720 
   97.3750     2.2130    60.6770    10.4310     7.9410    11.3630    24.2490   -26.8000 
   97.5000     2.2130    57.9360    10.2630     7.8270    11.1670    24.3350   -27.2250 
   97.6250     2.2050    52.5820    10.1400     7.7290    10.8480    24.5110   -27.5760 
   97.7500     2.1920    51.3340    10.0600     7.6530    10.6140    24.7880   -27.8390 
   97.8750     2.1780    56.1490    10.0090     7.6130    10.4880    25.0120   -28.0670 
   98.0000     2.1700    57.7260     9.9660     7.6150    10.3280    25.1620   -28.2980 
   98.1250     2.1670    56.6790     9.9230     7.6590    10.2350    25.2400   -28.5110 
   98.2500     2.1690    57.9300     9.8910     7.7340    10.2530    25.2100   -28.6840 
   98.3750     2.1750    60.9890     9.9060     7.8320    10.3270    25.0710   -28.7930 
   98.5000     2.1800    63.0390     9.9790     7.9440    10.4160    24.9380   -28.8290 
   98.6250     2.1820    62.9640    10.0580     8.0390    10.6340    24.8370   -28.7730 
   98.7500     2.1820    62.5350    10.0220     8.0440    10.6660    24.7330   -28.5890 
   98.8750     2.1830    64.3610     9.6880     7.8320    10.2520    24.7790   -28.1460 
   99.0000     2.1830    69.4850     9.0720     7.4070     9.4500    24.9660   -27.4340 
   99.1250     2.1870    77.0270     8.2790     6.8340     8.2300    25.1150   -26.4560 
   99.2500     2.2080    84.1710     7.4810     6.2310     6.5080    25.0330   -25.2220 
   99.3750     2.2490    88.3590     6.8790     5.7360     5.4950    24.6500   -23.6010 
   99.5000     2.2870    88.9070     6.5030     5.3850     5.6580    24.3990   -21.6380 
   99.6250     2.3060    88.6670     6.3100     5.1700     6.1690    24.2650   -19.5190 
   99.7500     2.3090    90.9270     6.2220     5.0560     6.4550    24.2720   -17.5100 
   99.8750     2.3110    94.3550     6.1660     5.0050     5.6020    24.3430   -15.8060 
  100.0000     2.3150    95.5000     6.1000     4.9780     4.9870    24.3520   -14.3380 
  100.1250     2.3200    95.5100     6.0430     4.9680     4.7260    24.2320   -12.9740 
  100.2500     2.3220    96.1130     6.0270     4.9830     4.8180    23.9810   -11.7080 
  100.3750     2.3230    95.2980     6.0530     5.0200     5.0190    23.8100   -10.7550 
  100.5000     2.3230    92.4450     6.0720     5.0600     5.1630    23.8100   -10.1770 
  100.6250     2.3180    90.4220     6.0460     5.0850     5.1430    23.9530    -9.8560 
  100.7500     2.3100    91.3650     5.9770     5.0920     5.1270    24.1740    -9.5680 
  100.8750     2.3020    92.2560     5.9020     5.0890     4.9990    24.3540    -9.1890 
  101.0000     2.3020    90.1300     5.8750     5.1030     4.8450    24.4120    -8.7940 
  101.1250     2.3080    88.2750     5.9200     5.1500     4.8290    24.4020    -8.5510 
  101.2500     2.3170    90.0010     6.0270     5.2330     4.9910    24.3590    -8.5210 
  101.3750     2.3250    94.6930     6.1520     5.3270     5.2590    24.3210    -8.6330 
  101.5000     2.3330    97.0580     6.2440     5.3880     5.2970    24.3400    -8.7820 
  101.6250     2.3350    96.3450     6.2870     5.3930     5.1730    24.3720    -8.9440 
  101.7500     2.3280    96.2860     6.2890     5.3500     5.1070    24.3540    -9.1090 
  101.8750     2.3180    96.3930     6.2780     5.2840     5.1620    24.1920    -9.3080 
  102.0000     2.3140    94.7910     6.2780     5.2250     5.2650    23.9040    -9.5650 
  102.1250     2.3160    93.9010     6.2850     5.1760     5.4600    23.6010    -9.8450 
  102.2500     2.3190    95.8820     6.2650     5.1250     5.5510    23.4040   -10.0950 
  102.3750     2.3220    97.9660     6.1550     5.0370     5.6170    23.4480   -10.3070 
  102.5000     2.3250    97.7100     5.9600     4.9100     5.6230    23.6190   -10.5350 
  102.6250     2.3240    96.7050     5.7900     4.7950     5.7010    23.8080   -10.8050 
  102.7500     2.3230    97.1980     5.8930     4.8260     5.9230    23.8820   -11.1470 
  102.8750     2.3340    98.4370     6.8370     5.3120     6.0200    23.8510   -11.5600 
  103.0000     2.3670    96.7680     9.0980     6.5330     6.5130    23.8340   -11.9840 
  103.1250     2.4290    89.1570    13.2130     8.9010     9.0090    23.8370   -12.4280 
  103.2500     2.5200    75.1270    19.5290    12.8990    16.3710    23.8200   -12.9380 
  103.3750     2.6120    63.2880    27.6950    18.9970    36.2430    23.8150   -13.5760 
  103.5000     2.6600    60.7800    34.5240    25.2520    52.0170    23.7650   -14.3400 
  103.6250     2.6540    64.3200    35.9930    28.0680    49.7160    23.6320   -15.1770 
  103.7500     2.6120    67.1420    30.9140    25.4220    39.5210    23.3960   -16.0410 
  103.8750     2.5480    66.3030    22.9320    19.7030    28.7240    23.1650   -16.9460 
  104.0000     2.4590    67.8970    16.3320    14.5880    18.1540    22.9850   -17.9530 
  104.1250     2.3530    72.8020    11.8880    10.8700    11.5420    22.8580   -19.0500 
  104.2500     2.2540    75.0590     9.2590     8.4350     8.3780    22.7240   -20.1690 
  104.3750     2.1950    77.6700     8.0680     7.1060     7.6070    22.4940   -21.2150 
  104.5000     2.1720    83.5240     7.6510     6.4480     7.4660    22.3830   -22.1480 
  104.6250     2.1690    86.4040     7.6950     6.2560     7.5360    22.5120   -22.9990 
  104.7500     2.1740    81.0130     7.9410     6.3440     7.5780    22.7670   -23.8220 
  104.8750     2.1780    74.3960     8.1860     6.5460     7.7320    22.9940   -24.6370 
  105.0000     2.1770    73.8190     8.3380     6.7210     8.0640    23.1720   -25.4130 
  105.1250     2.1740    75.9050     8.3930     6.8320     8.2060    23.2910   -26.1340 
