~V
VERS. 2.00: Ver 2.00
~W
STRT.M 50.0000:
STOP.M 251.0000:
STEP.M 0.1250:
NULL. -999.2500:
UWI. F10193:
~C
DEPT.M :
DEN.GM/CC :
GR.API :
RML.OHMM :
RI. :
RXO.OHMM :
CALI.CM :
SP.MV :
~A
   50.0000  -999.2500    49.0510     6.5220     2.4560     0.6330    25.6370    98.4260 
   50.1250  -999.2500    48.2940     6.3890     2.4500     0.6890    25.6340    97.7440 
   50.2500  -999.2500    48.4480     6.2740     2.4440     0.7390    25.6350    96.6060 
   50.3750  -999.2500    47.2670     6.2080     2.4400     0.7220    25.6360    95.0430 
   50.5000  -999.2500    44.4260     6.2330     2.4380     0.6620    25.6360    93.1810 
   50.6250  -999.2500    42.2880     6.3910     2.4400     0.6650    25.6350    91.2050 
   50.7500  -999.2500    42.0300     6.6040     2.4440     0.7750    25.6340    89.3180 
   50.8750  -999.2500    41.9940     6.7620     2.4450     0.8810    25.6340    87.6480 
   51.0000  -999.2500    40.4290     6.7690     2.4390     0.8900    25.6340    86.3000 
   51.1250     2.0090    40.3310     6.5950     2.4230     0.7430    25.6340    85.4370 
   51.2500     2.0090    42.8130     6.3800     2.4030     0.6870    25.6350    85.0440 
   51.3750     2.0090    45.9850     6.2380     2.3870     0.7600    25.6360    85.1260 
   51.5000     1.9570    47.3670     6.2110     2.3810     0.8720    25.6350    85.6400 
   51.6250     1.8680    47.6990     6.2510     2.3840     0.8320    25.6350    86.5600 
   51.7500     1.8230    46.9230     6.2570     2.3910     0.7610    25.6350    87.7280 
   51.8750     1.9030    43.2290     6.2040     2.3980     0.6740    25.6360    89.0580 
   52.0000     2.0980    38.7330     6.1170     2.4010     0.5580    25.6340    90.4830 
   52.1250     2.2500    38.0660     6.0390     2.3980     0.4680    25.6340    91.9570 
   52.2500     2.2700    40.3920     5.9890     2.3880     0.5240    25.6350    93.4390 
   52.3750     2.1910    42.8110     5.9610     2.3730     0.8410    25.6360    94.9170 
   52.5000     2.0800    44.2590     5.9590     2.3560     1.1960    25.6370    96.3990 
   52.6250     2.0000    43.8240     6.0010     2.3480     1.0590    25.6350    97.9190 
   52.7500     1.9630    41.4230     6.0750     2.3500     0.9950    25.6340    99.4980 
   52.8750     1.9580    39.4180     6.1530     2.3600     0.9910    25.6340   101.1160 
   53.0000     1.9690    40.6450     6.1990     2.3710     1.0420    25.6320   102.6940 
   53.1250     1.9870    43.9070     6.1980     2.3800     1.0810    25.6330   104.0520 
   53.2500     2.0090    45.3020     6.1820     2.3880     1.0840    25.6340   105.0630 
   53.3750     2.0320    45.1440     6.1770     2.3970     1.0710    25.6350   105.6320 
   53.5000     2.0510    44.5190     6.1840     2.4060     1.0320    25.6340   105.7340 
   53.6250     2.0650    44.2310     6.1550     2.4120     1.0980    25.6340   105.3680 
   53.7500     2.0740    43.4900     6.0700     2.4130     1.2440    25.6320   104.7490 
   53.8750     2.0710    42.8430     5.9440     2.4120     1.3260    25.6340   104.0360 
   54.0000     2.0570    43.5230     5.8200     2.4110     1.2150    25.6340   103.3680 
   54.1250     2.0350    45.7670     5.7490     2.4120     1.0820    25.6340   102.8620 
   54.2500     2.0170    48.7450     5.7160     2.4130     1.0380    25.6330   102.5210 
   54.3750     2.0100    49.8230     5.6880     2.4150     1.1100    25.6320   102.3250 
   54.5000     2.0120    48.5710     5.6420     2.4160     1.2150    25.6330   102.2270 
   54.6250     2.0250    47.1600     5.6000     2.4170     1.1590    25.6310   102.1670 
   54.7500     2.0420    46.2310     5.5970     2.4210     1.1000    25.6300   102.0780 
   54.8750     2.0620    46.5090     5.6330     2.4260     1.1920    25.6300   101.9330 
   55.0000     2.0800    47.9680     5.6710     2.4330     1.3820    25.6330   101.7320 
   55.1250     2.0860    49.0640     5.6690     2.4410     1.3470    25.6350   101.4900 
   55.2500     2.0780    48.3190     5.6240     2.4480     1.2010    25.6350   101.2470 
   55.3750     2.0610    46.9600     5.5530     2.4540     1.2060    25.6320   101.0270 
   55.5000     2.0440    47.3900     5.4700     2.4560     1.2810    25.6310   100.8440 
   55.6250     2.0340    48.8970     5.3620     2.4520     1.3140    25.6270   100.7230 
   55.7500     2.0300    50.3350     5.2260     2.4440     1.2120    25.6260   100.6580 
   55.8750     2.0290    50.1530     5.0740     2.4340     1.1480    25.6270   100.6370 
   56.0000     2.0290    48.3790     4.9400     2.4240     1.1950    25.6290   100.6340 
   56.1250     2.0330    45.9490     4.8530     2.4160     1.2320    25.6270   100.6160 
   56.2500     2.0430    44.8800     4.7950     2.4090     1.3420    25.6250   100.5670 
   56.3750     2.0530    46.1290     4.7560     2.4050     1.4050    25.6220   100.4790 
   56.5000     2.0600    47.6120     4.7280     2.4030     1.4270    25.6160   100.3530 
   56.6250     2.0630    47.2750     4.7220     2.4040     1.4940    25.6100   100.1860 
   56.7500     2.0620    46.7640     4.7330     2.4050     1.5690    25.6070    99.9840 
   56.8750     2.0580    47.2500     4.7390     2.4060     1.5230    25.6050    99.7610 
   57.0000     2.0510    48.0500     4.7150     2.4040     1.3550    25.6040    99.5350 
   57.1250     2.0440    48.1220     4.6550     2.3980     1.3590    25.6030    99.3220 
   57.2500     2.0380    49.7430     4.6010     2.3850     1.4630    25.6030    99.1100 
   57.3750     2.0350    51.7480     4.5840     2.3670     1.5380    25.6040    98.8750 
   57.5000     2.0340    50.7770     4.5990     2.3440     1.6360    25.6040    98.6100 
   57.6250     2.0340    46.5110     4.6040     2.3230     1.7860    25.6030    98.3370 
   57.7500     2.0360    43.2280     4.5680     2.3070     1.9950    25.6020    98.1240 
   57.8750     2.0430    42.2970     4.4960     2.3010     2.2760    25.6030    98.0350 
   58.0000     2.0520    42.7690     4.4260     2.3060     2.6650    25.6040    98.1070 
   58.1250     2.0570    43.2920     4.3970     2.3200     3.0730    25.6030    98.3470 
   58.2500     2.0550    44.0800     4.4130     2.3330     3.6240    25.6020    98.6680 
   58.3750     2.0530    43.8480     4.4600     2.3370     4.7300    25.6000    99.0110 
   58.5000     2.0570    41.3790     4.5150     2.3270     5.7710    25.5980    99.3390 
   58.6250     2.0660    40.6100     4.5530     2.3020     6.0610    25.6010    99.6420 
   58.7500     2.0730    43.0190     4.5440     2.2740     5.4570    25.6010    99.9400 
   58.8750     2.0720    45.4150     4.4740     2.2490     4.1510    25.6010   100.2590 
   59.0000     2.0620    47.1420     4.3490     2.2310     2.4690    25.5990   100.6370 
   59.1250     2.0540    51.1670     4.2050     2.2190     1.4930    25.5840   101.1260 
   59.2500     2.0590    55.8830     4.0910     2.2130     1.0850    25.5670   101.6990 
   59.3750     2.0750    56.6200     4.0200     2.2090     1.0470    25.5630   102.2640 
   59.5000     2.0960    53.4140     3.9840     2.2040     1.2020    25.5700   102.6510 
   59.6250     2.1100    50.6580     3.9580     2.1950     1.4810    25.5840   102.5680 
   59.7500     2.1080    50.5750     3.9160     2.1830     1.9800    25.5960   101.9240 
   59.8750     2.0930    51.9840     3.8570     2.1700     2.5870    25.6000   100.7030 
   60.0000     2.0720    52.6210     3.7890     2.1600     2.6160    25.6010    99.0100 
   60.1250     2.0610    53.0360     3.7250     2.1580     1.7540    25.6010    97.0390 
   60.2500     2.0620    53.1310     3.6710     2.1610     1.3260    25.6020    95.0820 
   60.3750     2.0740    50.9150     3.6380     2.1670     1.2520    25.6020    93.3120 
   60.5000     2.0890    47.2120     3.6490     2.1750     1.2490    25.6020    91.8320 
   60.6250     2.1020    45.5070     3.7450     2.1830     1.2930    25.6020    90.7510 
   60.7500     2.1160    44.8120     3.8970     2.1910     1.3520    25.6010    90.0210 
   60.8750     2.1340    43.4060     4.0490     2.1960     1.3460    25.6010    89.6270 
   61.0000     2.1540    42.2000     4.1330     2.1970     1.3000    25.6020    89.5300 
   61.1250     2.1720    42.7520     4.1050     2.1930     1.2740    25.6020    89.6960 
