~V
VERS. 2.00: Ver 2.00
~W
STRT.M 60.0000:
STOP.M 220.0000:
STEP.M 0.1250:
NULL. -999.2500:
UWI. F10154:
~C
DEPT.M :
GR.API :
RML.OHMM :
RI. :
RXO.OHMM :
CALI.CM :
DEN.GM/CC :
SP.MV :
~A
# ...
   93.7500    78.0630    10.2730     7.7980     7.9060    23.4330     2.1920   -20.9970 
   93.8750    75.4650    10.7400     8.1960     8.6530    23.4480     2.2230   -20.8110 
   94.0000    71.8990    11.0750     8.5410     9.6650    23.3340     2.2500   -20.6510 
   94.1250    68.5350    11.0680     8.6530     9.9580    23.2830     2.2590   -20.4370 
   94.2500    67.0970    10.7060     8.4830     8.9580    23.3560     2.2530   -20.1580 
   94.3750    67.6690    10.0360     8.0450     7.7660    23.5620     2.2390   -19.7710 
   94.5000    70.0930     9.1760     7.4160     7.1730    23.6380     2.2280   -19.2410 
   94.6250    74.8930     8.2930     6.7230     6.8950    23.7420     2.2240   -18.5470 
   94.7500    81.0960     7.5630     6.1180     6.2760    23.8690     2.2260   -17.7870 
   94.8750    84.9190     7.1020     5.7010     5.5630    24.0740     2.2310   -17.0670 
   95.0000    85.4190     6.9670     5.5260     5.3130    24.2220     2.2410   -16.4450 
   95.1250    83.4890     7.1700     5.6320     5.8670    24.1450     2.2520   -15.9110 
   95.2500    80.9460     7.5270     5.9120     6.9110    24.0760     2.2620   -15.3450 
   95.3750    80.1040     7.8670     6.2390     7.6030    24.0670     2.2680   -14.7540 
   95.5000    81.1570     8.0430     6.4690     7.4920    24.0850     2.2700   -14.2250 
   95.6250    84.4890     7.9750     6.4720     6.6500    24.1070     2.2710   -13.8270 
   95.7500    92.2380     7.7860     6.3250     5.8750    24.1360     2.2720   -13.4640 
   95.8750   103.0870     7.6170     6.1510     5.6160    24.1640     2.2750   -13.0670 
   96.0000   110.0100     7.5860     6.0690     5.6480    24.2130     2.2810   -12.6250 
   96.1250   106.8970     7.7550     6.1530     5.8570    24.2930     2.2920   -12.2440 
   96.2500   100.3160     8.0190     6.3320     6.5630    24.4110     2.3050   -11.9880 
   96.3750    96.4330     8.2380     6.5090     7.8210    24.4310     2.3110   -11.8690 
   96.5000    96.0530     8.2660     6.5800     7.8130    24.3530     2.3040   -11.8670 
   96.6250    94.8760     7.9920     6.4750     6.9030    24.3230     2.2820   -11.9410 
   96.7500    92.5960     7.5500     6.2690     6.4320    24.3930     2.2560   -12.0700 
   96.8750    92.0840     7.1200     6.0580     6.0460    24.3910     2.2390   -12.2770 
   97.0000    93.6280     6.8760     5.9400     5.7310    24.2580     2.2350   -12.5600 
   97.1250    93.5020     6.9650     6.0130     5.6430    24.0870     2.2410   -12.9120 
   97.2500    92.5620     7.3170     6.2710     5.9120    23.9720     2.2490   -13.3730 
   97.3750    92.1060     7.8380     6.6850     6.3150    23.9160     2.2540   -13.9070 
   97.5000    91.6890     8.4020     7.1770     6.6560    23.8980     2.2510   -14.4730 
   97.6250    91.7250     8.8500     7.5950     7.2360    23.9000     2.2410   -15.0280 
   97.7500    92.1470     9.0890     7.8050     7.8800    23.9040     2.2290   -15.4980 
   97.8750    92.6300     9.0770     7.7490     8.2790    23.9070     2.2200   -15.7830 
   98.0000    94.6560     8.8280     7.4500     7.9550    23.9290     2.2170   -15.9230 
   98.1250    98.3410     8.3830     6.9780     6.9530    23.9980     2.2240   -15.9820 
   98.2500    99.6410     7.8580     6.4600     6.2420    24.0790     2.2370   -15.9490 
   98.3750    97.7210     7.3370     5.9660     6.3160    24.0770     2.2540   -15.8280 
   98.5000    96.1270     6.9270     5.5680     6.3690    24.0430     2.2750   -15.6750 
   98.6250    96.9820     6.8660     5.4170     6.1500    24.0270     2.3010   -15.5330 
   98.7500    96.9730     7.3850     5.6290     5.9220    24.0610     2.3350   -15.4560 
   98.8750    94.6870     8.8300     6.3920     6.2750    24.1690     2.3810   -15.5210 
   99.0000    89.8970    11.5940     7.9890     8.2850    24.3680     2.4410   -15.6810 
   99.1250    85.8740    16.1220    11.0060    14.7170    24.4940     2.5080   -15.8660 
   99.2500    85.2210    21.4610    15.2850    26.7500    24.5380     2.5670   -16.0990 
   99.3750    85.0920    25.8830    19.7760    36.1160    24.5410     2.6010   -16.4450 
   99.5000    81.7800    27.3880    22.1330    35.9050    24.5160     2.6030   -16.8960 
   99.6250    77.4050    24.6890    20.1930    29.6240    24.4030     2.5660   -17.4800 
   99.7500    77.9960    19.9740    16.3320    20.6910    24.1900     2.5010   -18.1830 
   99.8750    82.8540    15.3590    12.7010    12.6650    23.9710     2.4160   -18.9870 
  100.0000    85.7620    12.1660    10.2090     9.4310    23.8660     2.3200   -19.8610 
  100.1250    82.2150    10.8720     9.0540     9.9300    23.8630     2.2230   -20.7820 
  100.2500    78.1580    10.7870     8.7920    12.4590    23.8590     2.1360   -21.7450 
  100.3750    77.7060    11.4280     9.1940    12.7470    23.7650     2.0660   -22.7230 
  100.5000    79.6340    12.3040     9.9610    12.1680    23.6020     2.0210   -23.6360 
  100.6250    80.6540    12.8560    10.6200    11.4720    23.4800     2.0040   -24.4630 
  100.7500    77.7270    12.8150    10.7840    11.2750    23.3410     2.0100   -25.2060 
  100.8750    72.2890    12.1960    10.3820    10.7500    23.1950     2.0310   -25.8560 
  101.0000    67.4820    11.2240     9.6040     9.8410    23.1330     2.0600   -26.4050 
  101.1250    67.5130    10.2370     8.7540     8.7840    23.1560     2.0880   -26.7840 
  101.2500    69.9620     9.4710     8.0550     8.2960    23.1880     2.1120   -27.0510 
  101.3750    71.3260     8.9950     7.5730     8.3900    23.1860     2.1300   -27.2550 
  101.5000    71.9000     8.7820     7.2960     8.4480    23.2340     2.1430   -27.4500 
  101.6250    73.9650     8.7710     7.1900     8.2800    23.3490     2.1510   -27.6520 
  101.7500    75.6300     8.8360     7.1650     8.3510    23.4960     2.1550   -27.8320 
  101.8750    74.8240     8.9150     7.1740     8.4680    23.5890     2.1550   -27.9530 
  102.0000    71.9950     8.9710     7.1890     8.4490    23.6120     2.1520   -28.0510 
  102.1250    69.8170     8.9850     7.1910     8.3160    23.5420     2.1490   -28.1660 
  102.2500    69.2770     8.9630     7.1730     8.0530    23.4060     2.1530   -28.2170 
  102.3750    70.6300     8.9150     7.1330     7.8030    23.2380     2.1620   -28.1700 
  102.5000    72.3750     8.8560     7.0780     7.5220    23.0850     2.1730   -28.0830 
  102.6250    73.1000     8.8140     7.0280     7.1840    23.0050     2.1790   -27.9880 
  102.7500    71.7430     8.8020     7.0000     7.0190    22.9550     2.1770   -27.9300 
  102.8750    68.8210     8.8120     6.9950     7.0420    22.9290     2.1690   -27.9350 
  103.0000    66.1580     8.8120     6.9960     7.1920    22.9400     2.1600   -27.9530 
  103.1250    65.3580     8.7600     6.9750     7.2740    23.0210     2.1530   -27.9360 
  103.2500    66.1760     8.6580     6.9180     7.2440    23.1420     2.1500   -27.9300 
  103.3750    68.7230     8.5360     6.8290     6.9220    23.2000     2.1470   -27.9720 
  103.5000    71.8510     8.4330     6.7300     6.6140    23.1600     2.1420   -28.0900 
  103.6250    72.6560     8.3850     6.6540     6.4980    23.0300     2.1330   -28.2220 
  103.7500    71.0820     8.3830     6.6150     6.5080    22.9480     2.1250   -28.3610 
  103.8750    68.8130     8.4070     6.6110     6.4530    22.9210     2.1210   -28.4700 
  104.0000    67.0230     8.4360     6.6310     6.3710    22.9180     2.1270   -28.5400 
  104.1250    66.1190     8.4580     6.6590     6.4060    22.9180     2.1430   -28.6790 
  104.2500    67.2320     8.4800     6.6860     6.5730    22.9180     2.1620   -28.8900 
  104.3750    69.7170     8.5200     6.7210     6.7250    22.9180     2.1800   -29.0810 
  104.5000    70.8710     8.5890     6.7740     6.8630    22.9180     2.1900   -29.2060 
  104.6250    69.5880     8.6910     6.8500     7.0150    22.9130     2.1880   -29.2620 
  104.7500    67.2700     8.7860     6.9250     7.5310    22.8970     2.1790   -29.2160 
  104.8750    66.7540     8.8240     6.9690     8.5650    22.8710     2.1680   -29.1220 
