~V
VERS. 2.00: Ver 2.00
~W
STRT.M 47.0000:
STOP.M 242.0000:
STEP.M 0.1250:
NULL. -999.2500:
UWI. F10188:
~C
DEPT.M :
SP.MV :
DEN.GM/CC :
GR.API :
RML.OHMM :
RI. :
RXO.OHMM :
CALI.CM :
~A
# ...
  159.5000   -21.6760     2.2900    73.3140    12.6140    12.5590    10.7810    25.6700 
  159.6250   -21.6070     2.2790    75.1170    11.1060    11.3150     9.9950    25.6880 
  159.7500   -21.5290     2.2690    76.8840    10.4390    10.5090     9.8560    25.6860 
  159.8750   -21.4450     2.2670    77.1970    10.1900    10.1230     9.4510    25.6950 
  160.0000   -21.3720     2.2690    75.6390    10.3240    10.1340     8.8820    25.7290 
  160.1250   -21.3290     2.2640    76.5810    10.6400    10.3600     8.5410    25.7820 
  160.2500   -21.3370     2.2550    79.6490    10.9720    10.6630     8.6390    25.8170 
  160.3750   -21.3480     2.2470    82.0350    11.1550    10.9030     8.9190    25.8130 
  160.5000   -21.3410     2.2470    81.8770    11.0330    10.9310     9.2240    25.7710 
  160.6250   -21.2870     2.2530    80.4330    10.6720    10.7330     9.1840    25.7320 
  160.7500   -21.1810     2.2610    80.0520    10.2200    10.3800     9.1010    25.7000 
  160.8750   -21.0670     2.2680    81.5640     9.8670    10.0100     8.9970    25.6420 
  161.0000   -20.8840     2.2730    83.1870     9.8200     9.8100     8.9920    25.5440 
  161.1250   -20.7070     2.2780    80.9390    10.1070     9.8630     8.6220    25.4610 
  161.2500   -20.4890     2.2810    75.1950    10.7110    10.1960     8.0040    25.4860 
  161.3750   -20.2490     2.2770    70.8690    11.5360    10.7550     7.6790    25.6360 
  161.5000   -20.0610     2.2630    70.7700    12.3550    11.3670     7.8680    25.7350 
  161.6250   -19.8670     2.2430    72.3750    12.8860    11.7770     8.2230    25.6800 
  161.7500   -19.7380     2.2300    74.0160    12.9430    11.8130     8.4320    25.4420 
  161.8750   -19.6450     2.2290    74.9680    12.5340    11.4550     8.1230    25.1570 
  162.0000   -19.5730     2.2390    75.0240    11.8820    10.8520     7.9790    25.1730 
  162.1250   -19.5290     2.2480    74.2750    11.3950    10.3220     8.6870    25.4850 
  162.2500   -19.5300     2.2520    73.0540    11.3760    10.1060    10.4850    25.8970 
  162.3750   -19.5840     2.2510    72.6980    12.0670    10.4140    13.0900    26.2420 
  162.5000   -19.6950     2.2500    73.5720    14.5530    11.6050    16.7220    26.3660 
  162.6250   -19.8280     2.2510    71.5600    18.8890    13.8350    20.3940    26.3860 
  162.7500   -19.9830     2.2530    67.0640    22.7040    17.3760    23.7250    26.3850 
  162.8750   -20.1760     2.2550    63.3320    28.7300    22.3440    26.7320    26.4020 
  163.0000   -20.3890     2.2500    62.5660    35.3340    28.3410    28.5110    26.4390 
  163.1250   -20.5970     2.2390    61.7170    40.3780    33.6290    29.9720    26.4700 
  163.2500   -20.7860     2.2250    61.4340    41.8100    36.3390    30.7910    26.4360 
  163.3750   -20.9450     2.2140    62.6650    38.9980    35.3960    29.9760    26.3320 
  163.5000   -21.0270     2.2140    63.6260    33.1280    31.0640    26.4130    26.1800 
  163.6250   -21.1190     2.2230    64.9600    26.7870    25.6290    22.1650    26.0770 
  163.7500   -21.2060     2.2380    68.6220    21.0950    20.3710    18.1170    25.9820 
  163.8750   -21.2500     2.2530    71.3580    16.4960    15.9430    14.4570    25.8570 
  164.0000   -21.3540     2.2670    71.2740    13.2080    12.6820    10.8080    25.6460 
  164.1250   -21.4850     2.2800    73.2640    10.8750    10.3030     8.3320    25.3660 
  164.2500   -21.6530     2.2870    78.4600     9.3100     8.6390     7.0630    25.0160 
  164.3750   -21.8180     2.2850    83.1350     8.3430     7.5390     6.6600    24.5860 
  164.5000   -22.0070     2.2800    84.5160     7.8750     6.9410     6.6840    24.1740 
  164.6250   -22.2020     2.2790    84.3030     7.6780     6.6630     6.7620    23.8200 
  164.7500   -22.3610     2.2850    84.1110     7.6310     6.6080     6.5680    23.4660 
  164.8750   -22.5070     2.2940    84.1910     7.6550     6.6830     6.3380    23.1290 
  165.0000   -22.5680     2.2980    83.2250     7.7280     6.8280     6.5970    22.9460 
  165.1250   -22.5930     2.2950    82.4470     7.8560     7.0160     6.9980    22.8690 
  165.2500   -22.5670     2.2910    82.1630     8.0390     7.2520     7.4140    22.8180 
  165.3750   -22.5070     2.2920    82.3840     8.2360     7.5200     7.4790    22.7960 
  165.5000   -22.4050     2.2980    80.1820     8.3260     7.7350     7.1300    22.8940 
  165.6250   -22.2080     2.3010    78.4390     8.2020     7.7810     6.7740    23.1460 
  165.7500   -21.9610     2.3000    81.1930     7.8150     7.5790     6.5010    23.5620 
  165.8750   -21.6710     2.2990    84.2980     7.2250     7.1500     6.0340    24.1650 
  166.0000   -21.3170     2.3020    81.6500     6.6110     6.6140     5.4180    24.8990 
  166.1250   -20.9080     2.3080    77.5040     6.1600     6.1460     4.6720    25.4410 
  166.2500   -20.4900     2.3150    77.6320     5.9440     5.8370     4.1340    25.6530 
  166.3750   -20.0840     2.3210    80.1650     5.9470     5.7080     4.1000    25.6750 
  166.5000   -19.7040     2.3230    78.9870     6.0930     5.7320     4.2850    25.6520 
  166.6250   -19.3820     2.3200    77.2720     6.2460     5.8020     4.5530    25.6170 
  166.7500   -19.1470     2.3120    77.9850     6.3170     5.8390     4.7280    25.5440 
  166.8750   -19.0100     2.3030    80.3220     6.2520     5.7730     4.6230    25.4400 
  167.0000   -19.0050     2.2970    82.8620     6.0300     5.5530     4.5190    25.2560 
  167.1250   -19.1350     2.2980    85.7520     5.7610     5.2470     4.7410    25.0700 
  167.2500   -19.3750     2.3040    87.5090     5.5990     4.9660     5.7560    24.8890 
  167.3750   -19.7730     2.3080    87.0910     5.7610     4.8650     8.1950    24.7320 
  167.5000   -20.3590     2.3050    85.5410     6.6940     5.2380    13.0810    24.5930 
  167.6250   -21.1520     2.2960    83.4640     8.7940     6.4040    20.3740    24.4320 
  167.7500   -22.0740     2.2830    80.1590    12.7800     9.0660    31.9870    24.3270 
  167.8750   -23.1050     2.2630    75.5290    19.8290    14.5370    49.2490    24.4590 
  168.0000   -24.2340     2.2330    71.5160    34.3300    26.3000    73.4780    25.0060 
  168.1250   -25.3730     2.2010    68.8080    61.1000    46.5670   102.0630    25.6280 
  168.2500   -26.5290     2.1780    66.8760    97.5500    75.8630   132.3520    26.1030 
  168.3750   -27.6280     2.1720    64.0180   140.0310   108.9220   157.8970    26.3150 
  168.5000   -28.6090     2.1760    60.2790   169.1770   133.5780   172.8110    26.3720 
  168.6250   -29.4740     2.1810    58.0460   180.0610   145.9490   183.7030    26.3930 
  168.7500   -30.2110     2.1840    57.8110   181.0370   149.4770   190.0490    26.4060 
  168.8750   -30.8320     2.1880    59.1850   179.8970   149.2590   189.0390    26.3730 
  169.0000   -31.3710     2.1950    62.5360   179.8320   148.5980   174.8330    26.2920 
  169.1250   -31.8090     2.2010    66.4620   180.2890   148.2490   164.7800    26.1600 
  169.2500   -32.1640     2.2030    66.7640   180.2540   147.8390   165.3430    25.9930 
  169.3750   -32.4380     2.2020    61.4680   179.5140   147.2510   175.5310    25.8930 
  169.5000   -32.6800     2.2040    56.5240   179.5180   147.4240   184.6540    25.8880 
  169.6250   -32.8620     2.2120    59.3480   182.3120   149.7950   186.6280    25.9390 
  169.7500   -33.0020     2.2180    66.2460   189.1750   155.5090   183.8100    26.0100 
  169.8750   -33.1030     2.2170    68.4770   199.8460   164.6110   193.1770    26.1010 
  170.0000   -33.1170     2.2080    65.3690   212.0220   175.5400   218.5140    26.1510 
  170.1250   -33.1610     2.2050    63.9230   222.0920   185.2100   243.6740    26.0860 
  170.2500   -33.1910     2.2110    64.9440   228.6170   191.9590   253.2140    25.9310 
  170.3750   -33.2190     2.2190    64.7230   233.0600   196.2740   251.8390    25.8050 
  170.5000   -33.2520     2.2190    63.5530   239.9330   201.4080   257.1500    25.8440 
  170.6250   -33.2800     2.2130    63.2050   252.5590   210.7240   280.3320    26.0380 
