~V
VERS. 2.00: Ver 2.00
~W
STRT.M 55.0000:
STOP.M 224.0000:
STEP.M 0.1250:
NULL. -999.2500:
UWI. F10137:
~C
DEPT.M :
DEN.GM/CC :
SP.MV :
GR.API :
RML.OHMM :
RI. :
RXO.OHMM :
CALI.CM :
~A
# ...
  178.7500     2.3080   -20.6840    43.7200     8.8480     8.1290     6.9430    25.0080 
  178.8750     2.3040   -20.7040    44.1570     8.8590     8.1710     7.6130    24.9880 
  179.0000     2.3030   -20.7250    44.3280     8.9160     8.2640     8.4940    24.9480 
  179.1250     2.3100   -20.7460    43.5660     8.9470     8.3420     9.0460    24.8720 
  179.2500     2.3280   -20.7670    42.7230     8.8870     8.3440     9.1010    24.7790 
  179.3750     2.3420   -20.7880    42.8470     8.7040     8.2310     8.7080    24.7560 
  179.5000     2.3410   -20.8090    44.3010     8.4360     8.0230     7.9660    24.8090 
  179.6250     2.3270   -20.8250    46.3220     8.1500     7.7750     7.2340    24.8720 
  179.7500     2.3100   -20.8320    47.3410     7.8910     7.5310     6.8610    24.8770 
  179.8750     2.2930   -20.8330    46.7850     7.6830     7.3190     6.7650    24.7740 
  180.0000     2.2660   -20.8310    45.3030     7.5200     7.1430     6.7030    24.5870 
  180.1250     2.2280   -20.8190    43.3360     7.3930     6.9960     6.4960    24.4500 
  180.2500     2.1970   -20.7950    41.1760     7.3100     6.8840     6.2270    24.4900 
  180.3750     2.2040   -20.7580    39.8750     7.3050     6.8350     6.0740    24.7320 
  180.5000     2.2580   -20.7170    41.0950     7.3980     6.8650     6.1420    25.0210 
  180.6250     2.3360   -20.6750    46.2270     7.5710     6.9750     6.4490    25.1120 
  180.7500     2.4060   -20.6330    55.0260     7.7820     7.1410     6.9300    24.9710 
  180.8750     2.4440   -20.5920    64.7870     7.9710     7.3240     7.5360    24.8610 
  181.0000     2.4520   -20.5500    73.5860     8.1150     7.4920     7.8570    24.8420 
  181.1250     2.4370   -20.5080    81.9060     8.2470     7.6420     7.7620    24.8200 
  181.2500     2.4010   -20.4670    89.1960     8.4310     7.8000     7.6440    24.8020 
  181.3750     2.3510   -20.4240    92.6890     8.7350     8.0080     7.9640    24.8880 
  181.5000     2.3040   -20.3720    91.2210     9.1610     8.2900     8.4370    25.0430 
  181.6250     2.2730   -20.3090    86.6040     9.6470     8.6260     8.8180    25.1610 
  181.7500     2.2600   -20.2320    81.8780    10.1180     8.9790     9.2460    25.1900 
  181.8750     2.2660   -20.1420    79.8220    10.4960     9.2890     9.8440    25.1370 
  182.0000     2.2850   -20.0420    80.0370    10.7380     9.5140    10.2980    25.0730 
  182.1250     2.3040   -19.9300    80.4850    10.8450     9.6440    10.0990    25.0380 
  182.2500     2.3150   -19.8030    80.5710    10.8590     9.7000     9.9420    25.0110 
  182.3750     2.3280   -19.6740    80.5050    10.8730     9.7460    10.4750    24.9710 
  182.5000     2.3510   -19.5390    79.9970    10.9890     9.8540    10.8790    24.9540 
  182.6250     2.3790   -19.3950    80.4920    11.2880    10.0760    10.7730    24.9740 
  182.7500     2.4010   -19.2180    83.1520    11.7940    10.4280    11.0650    24.9930 
  182.8750     2.4190   -18.9700    85.1830    12.4240    10.8520    12.0150    24.9740 
  183.0000     2.4380   -18.6480    84.1650    12.9560    11.2040    12.3710    24.9430 
  183.1250     2.4580   -18.2530    82.0410    13.1350    11.3200    12.2680    24.9360 
  183.2500     2.4730   -17.5330    81.5050    12.7880    11.0850    12.2660    24.9710 
  183.3750     2.4720   -17.0670    81.9720    11.8920    10.4630    11.9520    25.0210 
  183.5000     2.4500   -16.7000    81.7380    10.6920     9.5980    10.7490    25.0470 
  183.6250     2.4050   -16.3500    81.0940     9.5220     8.7100     8.9580    25.0330 
  183.7500     2.3460   -15.8000    81.9940     8.6420     7.9930     8.0850    24.9980 
  183.8750     2.2770   -15.3000    84.1710     8.3160     7.6670     7.8780    24.9470 
  184.0000     2.2060   -15.0670    84.8280     8.6900     7.8660     7.8640    24.8260 
  184.1250     2.1570   -14.7500    83.1170     9.8220     8.6610     8.8280    24.6940 
  184.2500     2.1630   -14.3330    81.8770    11.6580    10.0650    11.8490    24.6480 
  184.3750     2.2410   -14.1670    83.0590    13.7800    11.8540    16.0210    24.6970 
  184.5000     2.3470   -14.1170    83.7640    15.3080    13.3630    18.0990    24.7650 
  184.6250     2.4160   -14.0330    81.8240    15.4070    13.8270    17.4240    24.8000 
  184.7500     2.4250   -14.0000    78.6270    13.9330    12.9680    15.4810    24.8090 
  184.8750     2.4000   -14.0000    75.3090    11.5860    11.2110    12.8800    24.8200 
  185.0000     2.3730   -14.0000    70.1390     9.3510     9.3480     9.8170    24.8310 
  185.1250     2.3580   -13.9250    61.9380     7.7560     7.8750     7.4840    24.8220 
  185.2500     2.3540   -13.8500    52.6640     6.8560     6.9140     6.5170    24.8040 
  185.3750     2.3580   -13.5330    46.5340     6.5430     6.4480     6.4210    24.8330 
  185.5000     2.3640   -13.2830    45.5740     6.5800     6.3330     6.5430    24.8690 
  185.6250     2.3610   -13.2000    48.6240     6.7280     6.3920     6.6880    24.8780 
  185.7500     2.3450   -13.0670    52.8150     6.8230     6.4890     6.7620    24.9160 
  185.8750     2.3100   -12.9640    54.9810     6.7720     6.5170     6.6200    24.9970 
  186.0000     2.2560   -12.7960    55.6700     6.6090     6.4600     6.1840    25.0110 
  186.1250     2.1920   -12.6350    57.6410     6.4310     6.3640     5.5630    24.9000 
  186.2500     2.1420   -12.5570    62.0650     6.3070     6.2740     5.1240    24.7090 
  186.3750     2.1400   -12.5190    66.9790     6.2650     6.2170     5.2220    24.5030 
  186.5000     2.1910   -12.5240    69.8410     6.2700     6.1800     5.5230    24.3520 
  186.6250     2.2720   -12.5620    70.4360     6.2660     6.1280     5.6910    24.3860 
  186.7500     2.3480   -12.6180    69.4560     6.2140     6.0350     5.6570    24.6370 
  186.8750     2.3880   -12.7020    66.7720     6.1010     5.8950     5.4120    24.9380 
  187.0000     2.3880   -12.8190    62.9550     5.9600     5.7340     5.1670    25.0530 
  187.1250     2.3650   -12.9520    59.5410     5.8430     5.5900     5.1160    24.9560 
  187.2500     2.3380   -13.1110    57.5740     5.8010     5.5060     5.2000    24.7820 
  187.3750     2.3240   -13.3140    57.6230     5.9090     5.5400     5.3500    24.6020 
  187.5000     2.3210   -13.5110    60.3350     6.2170     5.7350     5.6560    24.4610 
  187.6250     2.3190   -13.6860    65.0700     6.7430     6.1100     6.2140    24.4560 
  187.7500     2.3070   -13.8620    69.3300     7.4680     6.6540     7.2460    24.5960 
  187.8750     2.2840   -14.0630    71.6190     8.3110     7.3220     9.0230    24.7430 
  188.0000     2.2570   -14.2740    72.9210     9.1300     8.0110    10.7810    24.8270 
  188.1250     2.2400   -14.4590    73.8480     9.8130     8.6300    11.6030    24.8700 
  188.2500     2.2370   -14.6110    73.7100    10.3460     9.1480    11.5440    24.9000 
  188.3750     2.2420   -14.7350    72.8550    10.7930     9.5830    12.2030    24.9260 
  188.5000     2.2430   -14.8220    72.3990    11.2390     9.9870    12.6790    24.9130 
  188.6250     2.2410   -14.8690    72.1320    11.6980    10.3760    12.4020    24.8580 
  188.7500     2.2410   -14.8890    71.4790    12.0860    10.7040    12.2670    24.8000 
  188.8750     2.2520   -14.8710    72.2720    12.2250    10.8560    12.4880    24.7290 
  189.0000     2.2750   -14.8180    75.1440    12.0180    10.7540    11.9090    24.6470 
  189.1250     2.3030   -14.7480    77.5400    11.5110    10.4190    11.3570    24.6040 
  189.2500     2.3310   -14.6620    77.6050    10.8390     9.9370    11.6610    24.6320 
  189.3750     2.3490   -14.5570    77.0420    10.1900     9.4410    11.2410    24.6520 
  189.5000     2.3490   -14.4530    77.4750     9.6980     9.0420     9.8990    24.6070 
  189.6250     2.3360   -14.3540    77.7730     9.4060     8.7940     8.8670    24.5410 
  189.7500     2.3280   -14.2580    77.1780     9.2860     8.6930     8.7270    24.4960 
  189.8750     2.3340   -14.1890    77.5770     9.2870     8.7100     8.9120    24.5080 
