~V
VERS. 2.00: Ver 2.00
~W
STRT.M 49.0000:
STOP.M 251.0000:
STEP.M 0.1250:
NULL. -999.2500:
UWI. F10165:
~C
DEPT.M :
GR.API :
RML.OHMM :
RI. :
RXO.OHMM :
CALI.CM :
SP.MV :
DEN.GM/CC :
~A
# ...
  105.2500    61.1380     8.2200     6.5070    10.2940    25.5390   -24.0550     2.1730 
  105.3750    61.0570     7.9770     6.3230    10.2590    25.5270   -24.1000     2.1930 
  105.5000    63.7620     7.8470     6.2080    10.4710    25.5220   -24.1120     2.2090 
  105.6250    67.8310     7.9760     6.2620    12.0130    25.6250   -24.1150     2.2080 
  105.7500    68.7040     8.4070     6.5250    14.8440    25.7990   -24.1410     2.1960 
  105.8750    65.5450     9.2090     7.0560    14.3310    25.8610   -24.1500     2.1810 
  106.0000    61.3500    10.4500     7.9200    12.2110    25.7150   -24.1430     2.1710 
  106.1250    58.8110    12.1840     9.2040    11.0710    25.4360   -24.1670     2.1710 
  106.2500    58.1950    14.0980    10.7200    11.7740    25.2950   -24.1750     2.1860 
  106.3750    59.1760    15.7220    12.1410    14.2840    25.2900   -24.1660     2.2190 
  106.5000    59.6100    16.4880    13.0020    17.2110    25.3190   -24.1730     2.2480 
  106.6250    57.3730    15.8600    12.8020    16.5850    25.3280   -24.1660     2.2240 
  106.7500    55.5600    14.3570    11.8500    13.3360    25.3290   -24.1450     2.1620 
  106.8750    55.4050    12.6240    10.5990    11.6880    25.3290   -24.1330     2.1070 
  107.0000    54.7540    11.1890     9.4440    11.2630    25.3290   -24.1000     2.0850 
  107.1250    54.9380    10.3530     8.6420    10.9730    25.3290   -24.0220     2.0930 
  107.2500    58.7130     9.9650     8.1570    10.5940    25.3290   -23.9590     2.1110 
  107.3750    63.3420     9.8660     7.9200    10.4210    25.3300   -23.8970     2.1310 
  107.5000    63.6730     9.9080     7.8410    10.5910    25.3560   -23.7990     2.1520 
  107.6250    60.5060     9.9930     7.8580    10.6870    25.4710   -23.6950     2.1670 
  107.7500    59.1910    10.0740     7.9140    10.7990    25.7030   -23.5830     2.1740 
  107.8750    59.8770    10.1400     7.9880    10.9840    26.0040   -23.4400     2.1680 
  108.0000    60.1470    10.1840     8.0690    11.2720    26.3060   -23.2910     2.1510 
  108.1250    58.8050    10.1940     8.1430    11.4500    26.5400   -23.1580     2.1260 
  108.2500    56.7180    10.1680     8.2020    11.4890    26.6650   -22.9920     2.1020 
  108.3750    54.2570    10.1070     8.2390    11.5130    26.7140   -22.8010     2.0850 
  108.5000    52.9360    10.0240     8.2610    11.6000    26.7570   -22.6290     2.0790 
  108.6250    52.1760     9.9360     8.2670    11.6900    26.8440   -22.4400     2.0760 
  108.7500    51.3150     9.8560     8.2550    11.7140    26.9540   -22.2190     2.0690 
  108.8750    51.9390     9.8040     8.2330    11.6150    26.9930   -21.9980     2.0620 
  109.0000    54.1280     9.7700     8.2020    11.4190    26.9220   -21.7560     2.0630 
  109.1250    57.0000     9.6510     8.1010    10.6350    26.7570   -21.4730     2.0840 
  109.2500    59.8030     9.3180     7.8480     9.8350    26.5190   -21.1850     2.1170 
  109.3750    62.4250     8.7210     7.4080    10.2430    26.1950   -20.8810     2.1450 
  109.5000    65.7220     7.9420     6.8310    12.7640    25.9250   -20.5580     2.1550 
  109.6250    73.6750     7.2050     6.2570     9.4050    25.8370   -20.2600     2.1550 
  109.7500    83.8490     6.7370     5.8400     6.6100    25.8190   -19.9640     2.1590 
  109.8750    89.9150     6.6500     5.6660     5.8450    25.7740   -19.6710     2.1620 
  110.0000    88.6800     6.9150     5.7420     6.6860    25.7170   -19.4400     2.1580 
  110.1250    85.5710     7.3790     6.0150     7.3560    25.7140   -19.2640     2.1530 
  110.2500    86.1970     7.7530     6.3100     7.4670    25.7530   -19.1060     2.1550 
  110.3750    89.3400     7.8430     6.4840     7.4210    25.7770   -18.9960     2.1630 
  110.5000    93.4250     7.6070     6.4630     7.1510    25.7610   -18.9280     2.1770 
  110.6250    96.1490     7.1830     6.2700     6.5270    25.7150   -18.8640     2.1990 
  110.7500    96.5330     6.8060     6.0440     6.0710    25.6610   -18.8340     2.2220 
  110.8750    94.5340     6.5620     5.8580     5.9700    25.6200   -18.8420     2.2410 
  111.0000    90.3060     6.4580     5.7410     6.0700    25.5960   -18.8370     2.2570 
  111.1250    87.4170     6.4840     5.7120     6.1060    25.5800   -18.8240     2.2720 
  111.2500    87.9340     6.5810     5.7430     5.9240    25.5860   -18.8500     2.2830 
  111.3750    90.6230     6.7020     5.8080     5.7270    25.6010   -18.8900     2.2840 
  111.5000    93.4470     6.7980     5.8740     5.8850    25.6000   -18.9120     2.2680 
  111.6250    95.5880     6.8020     5.8910     6.2310    25.5780   -18.9640     2.2430 
  111.7500    97.1430     6.7040     5.8400     6.1300    25.5470   -19.0420     2.2310 
  111.8750    97.6250     6.5520     5.7500     5.7310    25.5220   -19.1080     2.2420 
  112.0000    97.1550     6.4420     5.6800     5.5700    25.4890   -19.1870     2.2670 
  112.1250    97.6890     6.4990     5.7130     5.6530    25.4720   -19.3060     2.2870 
  112.2500    96.8790     6.7360     5.8640     5.8390    25.4690   -19.4080     2.2980 
  112.3750    92.6750     7.1090     6.1120     6.3800    25.4850   -19.5070     2.2960 
  112.5000    88.5970     7.5020     6.3860     7.3820    25.5490   -19.6390     2.2780 
  112.6250    89.1060     7.7480     6.5750     7.1720    25.6740   -19.7710     2.2440 
  112.7500    89.9750     7.7970     6.6310     7.1470    25.7830   -19.9020     2.2140 
  112.8750    87.6450     7.6770     6.5580     7.2260    25.8240   -20.0490     2.1990 
  113.0000    84.1320     7.4640     6.4050     7.0770    25.8290   -20.1810     2.1890 
  113.1250    83.3310     7.2790     6.2580     7.1140    25.8320   -20.3030     2.1760 
  113.2500    83.1950     7.2320     6.2050     7.2640    25.8460   -20.4590     2.1640 
  113.3750    82.9840     7.4230     6.3130     7.2260    25.8620   -20.6220     2.1600 
  113.5000    83.5200     7.9880     6.6670     7.3120    25.8260   -20.7570     2.1670 
  113.6250    83.2920     9.1960     7.4620     7.9570    25.6800   -20.9020     2.1850 
  113.7500    83.0810    11.0450     8.7520     8.8590    25.5060   -21.0500     2.2190 
  113.8750    84.5880    13.3830    10.5190    10.4190    25.3670   -21.1800     2.2760 
  114.0000    87.7170    15.7440    12.5000    14.0720    25.2480   -21.3180     2.3500 
  114.1250    85.4420    17.1100    13.9290    21.8580    25.1700   -21.4570     2.3960 
  114.2500    77.1780    16.9560    14.2030    26.7770    25.0840   -21.5610     2.3780 
  114.3750    70.1310    15.4740    13.3340    21.5180    24.9810   -21.6580     2.3060 
  114.5000    70.1790    13.4590    11.8880    14.5010    24.9100   -21.7860     2.2230 
  114.6250    74.9890    11.8150    10.5460    12.1020    24.8960   -21.8970     2.1640 
  114.7500    77.3410    10.8420     9.6150    11.4570    24.8940   -21.9840     2.1320 
  114.8750    75.0700    10.4790     9.1220    11.1460    24.8530   -22.0860     2.1210 
  115.0000    69.5690    10.5110     8.9730    10.9190    24.7960   -22.1790     2.1220 
  115.1250    66.6000    10.7170     9.0500    10.7400    24.7410   -22.2470     2.1300 
  115.2500    69.5160    10.9510     9.2130    10.5790    24.6950   -22.3280     2.1380 
  115.3750    73.9850    11.2190     9.4300    10.1720    24.6460   -22.3950     2.1490 
  115.5000    75.2580    11.5500     9.6960     9.7790    24.6700   -22.4280     2.1710 
  115.6250    73.0610    11.9010     9.9750    10.9800    24.9200   -22.4640     2.2100 
  115.7500    71.5690    12.1290    10.1730    13.8400    25.2220   -22.4840     2.2380 
  115.8750    71.7740    12.1040    10.1930    15.2850    25.3140   -22.4870     2.2250 
  116.0000    72.2190    11.7930     9.9960    12.8520    25.2750   -22.5160     2.1780 
  116.1250    71.3750    11.2750     9.6100    11.2810    25.2370   -22.5410     2.1390 
  116.2500    70.5960    10.7480     9.1710    10.7400    25.2100   -22.5400     2.1240 
  116.3750    72.1500    10.3300     8.7720    10.6470    25.1850   -22.5490     2.1220 
