~V
VERS. 2.00: Ver 2.00
~W
STRT.M 55.0000:
STOP.M 247.0000:
STEP.M 0.1250:
NULL. -999.2500:
UWI. F10183:
~C
DEPT.M :
SP.MV :
GR.API :
RML.OHMM :
RI. :
RXO.OHMM :
CALI.CM :
DEN.GM/CC :
~A
# ...
  178.7500   -10.4060    52.2990   145.3210   132.4750   101.7360    23.5970     2.2240 
  178.8750   -10.5040    51.5640   156.2870   141.6870   115.5700    23.5730     2.2160 
  179.0000   -10.5770    53.5110   157.6250   142.7610   121.0480    23.5380     2.2170 
  179.1250   -10.6060    54.1690   148.9660   135.2590   115.7230    23.5240     2.2250 
  179.2500   -10.6110    54.2200   137.3450   124.6280   103.3830    23.5220     2.2370 
  179.3750   -10.5380    55.8310   127.9090   115.1430    90.8520    23.5440     2.2510 
  179.5000   -10.4130    57.7560   123.3170   109.5050    84.3640    23.6140     2.2630 
  179.6250   -10.2710    57.2350   124.5540   109.1360    82.1290    23.6790     2.2740 
  179.7500   -10.0710    57.1490   129.1590   112.2050    84.1810    23.7230     2.2850 
  179.8750    -9.8300    58.6890   134.7980   116.8690    92.0710    23.7800     2.2940 
  180.0000    -9.5760    58.3560   138.9140   121.0510   102.7910    23.8240     2.3010 
  180.1250    -9.3060    53.9230   138.6650   122.4840   112.8290    23.8040     2.3090 
  180.2500    -8.9900    50.8450   133.9380   120.7140   114.2480    23.7350     2.3200 
  180.3750    -8.6790    51.4470   125.3080   115.7970   108.5700    23.6460     2.3370 
  180.5000    -8.3560    53.8370   113.6800   107.9970   104.5130    23.5260     2.3640 
  180.6250    -8.0080    52.7670    99.3070    96.9150   101.2060    23.4170     2.4010 
  180.7500    -7.6570    48.8770    83.0540    83.0920    91.4560    23.3420     2.4450 
  180.8750    -7.2830    46.0300    65.9530    67.3180    74.6550    23.2750     2.4900 
  181.0000    -6.8910    46.9630    49.7830    51.4290    55.7650    23.2220     2.5250 
  181.1250    -6.4880    48.7430    36.9790    38.2970    39.3320    23.2470     2.5380 
  181.2500    -6.1370    49.1040    27.8220    28.7720    26.7160    23.2910     2.5290 
  181.3750    -5.8270    50.6660    21.8990    22.5320    17.5460    23.3490     2.5040 
  181.5000    -5.5600    54.5730    18.3430    18.6670    12.8550    23.4510     2.4720 
  181.6250    -5.3310    55.3670    16.3950    16.3990    11.6240    23.5570     2.4420 
  181.7500    -5.1180    50.4140    15.1160    14.8270    11.1450    23.6320     2.4220 
  181.8750    -4.9360    44.3040    14.2180    13.6710    10.6010    23.7010     2.4130 
  182.0000    -4.7730    42.0100    13.7370    12.9090     9.4790    23.7580     2.4130 
  182.1250    -4.6860    43.4980    14.2400    12.9290     8.6050    23.7990     2.4190 
  182.2500    -4.6300    45.9630    16.2450    14.1130     9.0880    23.8460     2.4280 
  182.3750    -4.5910    48.7050    20.2420    16.9310    12.1010    23.9130     2.4450 
  182.5000    -4.5290    50.7410    26.2090    21.5590    21.2860    23.9530     2.4780 
  182.6250    -4.4910    48.8340    33.0060    27.3310    37.6580    23.9640     2.5330 
  182.7500    -4.4490    44.4370    38.1490    32.1660    55.3050    23.9620     2.5920 
  182.8750    -4.4080    41.4490    39.3620    33.9040    70.8630    23.9200     2.6300 
  183.0000    -4.3700    41.5870    35.2600    30.9660    69.5770    23.8610     2.6290 
  183.1250    -4.3200    43.6720    27.1030    24.1640    40.7440    23.8470     2.5840 
  183.2500    -4.2720    46.3550    19.1770    17.6310    20.7090    23.8520     2.5250 
  183.3750    -4.1980    48.7140    13.3780    13.0100    12.1010    23.8590     2.4730 
  183.5000    -4.1560    49.4220    10.4220    10.2690     8.4200    23.8870     2.4430 
  183.6250    -4.1200    46.9730     9.3510     8.9900     7.5350    23.9080     2.4410 
  183.7500    -4.1470    45.2220     9.0610     8.4410     7.4780    23.8940     2.4550 
  183.8750    -4.2340    45.8310     9.1730     8.3350     7.6490    23.8840     2.4730 
  184.0000    -4.3880    47.0540     9.4580     8.4770     7.7590    23.8700     2.4850 
  184.1250    -4.6300    45.9060     9.7830     8.7420     7.5290    23.8060     2.4870 
  184.2500    -4.8860    43.4700    10.0790     9.0240     7.2590    23.7320     2.4840 
  184.3750    -5.1510    42.4430    10.3190     9.2780     7.1870    23.6880     2.4830 
  184.5000    -5.4080    42.8930    10.4760     9.4620     7.5670    23.6680     2.4840 
  184.6250    -5.6410    43.4340    10.5180     9.5250     8.4050    23.6990     2.4870 
  184.7500    -5.8380    44.7930    10.4870     9.4870     9.3220    23.7750     2.4910 
  184.8750    -5.9940    46.5570    10.4420     9.3910     9.8890    23.8330     2.4950 
  185.0000    -6.1220    47.6290    10.4480     9.2980     9.7940    23.8640     2.5000 
  185.1250    -6.1680    46.7680    10.5650     9.2750     9.4350    23.9300     2.5010 
  185.2500    -6.1800    45.4490    10.7530     9.3250     9.2680    23.9900     2.4950 
  185.3750    -6.1600    44.3000    10.9480     9.4170     9.7820    23.9930     2.4850 
  185.5000    -6.1040    42.8870    11.0750     9.5010    10.6680    23.9660     2.4760 
  185.6250    -6.0680    41.7120    11.0700     9.5170    11.0290    23.9340     2.4790 
  185.7500    -6.0300    40.5310    10.9610     9.4530    10.0600    23.8920     2.4930 
  185.8750    -6.0150    38.8300    10.7860     9.3190     8.7250    23.8780     2.5090 
  186.0000    -5.9810    36.9320    10.5660     9.1230     8.2210    23.9190     2.5190 
  186.1250    -5.9510    35.8470    10.2450     8.8300     8.4550    23.9740     2.5150 
  186.2500    -5.9300    36.7640     9.7220     8.4190     8.9300    24.0340     2.5000 
  186.3750    -5.9450    39.1950     9.0080     7.8840     9.4920    24.1140     2.4800 
  186.5000    -5.9940    40.9050     8.1720     7.2640     9.7280    24.1790     2.4610 
  186.6250    -6.0350    41.4160     7.2590     6.6710     8.8100    24.2200     2.4480 
  186.7500    -6.1220    42.2230     6.8660     6.2170     7.3440    24.2670     2.4420 
  186.8750    -6.2360    43.4110     6.7060     5.9690     6.2630    24.2890     2.4430 
  187.0000    -6.4030    45.0440     6.7870     5.9440     6.2100    24.2670     2.4500 
  187.1250    -6.5990    45.5920     7.0810     6.1430     6.4340    24.2500     2.4580 
  187.2500    -6.8210    45.2730     7.4560     6.4600     6.9250    24.2310     2.4660 
  187.3750    -7.0370    45.5250     7.8180     6.8130     7.1200    24.1810     2.4700 
  187.5000    -7.2390    46.0540     8.0950     7.1310     7.2300    24.1300     2.4700 
  187.6250    -7.4660    46.7060     8.2340     7.3460     7.3610    24.0890     2.4650 
  187.7500    -7.6480    48.7040     8.2600     7.4530     7.4650    24.0050     2.4560 
  187.8750    -7.7970    51.1130     8.1940     7.4560     7.5600    23.8880     2.4450 
  188.0000    -7.8800    50.1690     8.0590     7.3700     7.5180    23.7690     2.4310 
  188.1250    -7.9390    45.4380     7.8700     7.2040     7.4450    23.6440     2.4160 
  188.2500    -7.9470    42.8520     7.6630     7.0020     7.4780    23.5500     2.4030 
  188.3750    -7.9360    44.0460     7.4750     6.8010     7.5190    23.5350     2.3920 
  188.5000    -7.9530    46.9050     7.3500     6.6460     7.3190    23.5570     2.3840 
  188.6250    -7.9680    50.6660     7.3430     6.5920     7.0260    23.5880     2.3800 
  188.7500    -7.9860    55.6020     7.4420     6.6400     6.7670    23.6800     2.3820 
  188.8750    -8.0050    61.1050     7.6210     6.7740     6.7920    23.8450     2.3880 
  189.0000    -8.0630    65.1030     7.8330     6.9600     7.1210    24.0680     2.3980 
  189.1250    -8.1480    68.0820     8.0220     7.1470     7.6010    24.3380     2.4080 
  189.2500    -8.2980    72.0250     8.1580     7.2920     8.0570    24.5520     2.4180 
  189.3750    -8.5020    77.0690     8.2300     7.3760     8.3760    24.6500     2.4300 
  189.5000    -8.7400    81.2180     8.2410     7.3920     8.4760    24.6780     2.4410 
  189.6250    -9.0390    83.6580     8.1950     7.3360     8.3070    24.7130     2.4490 
  189.7500    -9.4240    85.8160     8.1130     7.2340     8.1100    24.7340     2.4500 
  189.8750    -9.8720    87.3110     8.0090     7.0990     8.0270    24.7360     2.4450 
