~V
VERS. 2.00: Ver 2.00
~W
STRT.M 50.0000:
STOP.M 222.0000:
STEP.M 0.1250:
NULL. -999.2500:
UWI. F10145:
~C
DEPT.M :
DEN.GM/CC :
GR.API :
RML.OHMM :
RI. :
RXO.OHMM :
CALI.CM :
SP.MV :
~A
# ...
  173.7500     2.2800    77.7840   144.1210   123.3700   103.0750    24.5170   -12.0460 
  173.8750     2.2720    78.6870   151.3120   129.2930    99.8500    24.6250   -12.1580 
  174.0000     2.2600    77.0040   158.3740   135.5410    85.8080    24.7000   -12.1460 
  174.1250     2.2420    74.2180   162.0340   139.4450    77.2140    24.6870   -12.1430 
  174.2500     2.2230    72.4040   160.7430   139.4160    78.2230    24.6070   -12.2110 
  174.3750     2.2090    72.5740   154.4780   135.0910    82.7630    24.6040   -12.3320 
  174.5000     2.2040    74.6090   144.8220   127.4870    86.0360    24.7030   -12.4180 
  174.6250     2.2140    76.8370   134.2390   118.4800    87.6480    24.7700   -12.3700 
  174.7500     2.2320    78.1500   124.9350   110.1580    83.4760    24.8010   -12.3110 
  174.8750     2.2510    78.6130   117.8420   103.5110    80.6670    24.8410   -12.3360 
  175.0000     2.2660    76.6350   113.2940    98.9810    83.0470    24.8760   -12.3660 
  175.1250     2.2720    71.5090   111.7490    97.0720    83.3390    24.8110   -12.2820 
  175.2500     2.2740    67.9840   112.6880    97.3960    80.9700    24.7090   -12.1500 
  175.3750     2.2740    69.3860   115.9570    99.8600    80.4170    24.7640   -12.0460 
  175.5000     2.2740    73.5650   121.2590   104.2380    82.0050    24.8610   -12.0040 
  175.6250     2.2760    75.9600   128.1900   110.2330    85.7530    24.9170   -11.9390 
  175.7500     2.2770    77.3430   135.4850   116.7240    93.5660    24.9380   -11.8390 
  175.8750     2.2730    78.6550   141.9250   122.6250   102.9890    24.9470   -11.7530 
  176.0000     2.2640    78.0550   146.2730   126.7870   107.7570    24.9260   -11.7320 
  176.1250     2.2490    73.4590   147.2890   127.9610   111.3310    24.9110   -11.7910 
  176.2500     2.2370    70.0960   145.8660   126.7540   127.5720    24.8980   -11.8490 
  176.3750     2.2360    71.5170   143.3910   124.2590   140.7140    24.8690   -11.8930 
  176.5000     2.2470    73.0820   141.6600   122.0330   136.1290    24.8080   -11.9650 
  176.6250     2.2620    70.8790   142.8110   122.0700   121.7750    24.7630   -12.1450 
  176.7500     2.2710    70.0850   147.1900   125.0120   118.1860    24.7400   -12.3280 
  176.8750     2.2690    72.2970   154.3400   130.7760   130.6340    24.7530   -12.3840 
  177.0000     2.2590    72.4370   162.8330   138.3750   158.0820    24.8000   -12.4250 
  177.1250     2.2500    68.3260   170.1870   145.8510   176.7050    24.8240   -12.5120 
  177.2500     2.2450    68.0330   174.5780   151.3150   178.4000    24.8220   -12.5860 
  177.3750     2.2440    73.4460   175.3060   153.8890   173.3780    24.8000   -12.5980 
  177.5000     2.2450    79.0030   172.5420   153.5250   163.0570    24.7830   -12.4890 
  177.6250     2.2490    77.2450   166.1840   150.0870   153.7760    24.7730   -12.3150 
  177.7500     2.2560    73.3820   156.7460   143.9810   143.4630    24.7610   -12.1820 
  177.8750     2.2660    72.2300   144.1450   134.9430   142.2860    24.7410   -12.1170 
  178.0000     2.2780    74.0210   128.8610   123.0470   146.2800    24.7080   -11.9980 
  178.1250     2.2930    74.8770   112.2850   109.0380   130.7390    24.6740   -11.8130 
  178.2500     2.3090    74.8640    96.6670    95.0010   101.2210    24.6360   -11.7130 
  178.3750     2.3220    76.0930    83.4920    82.4920    82.8340    24.5940   -11.7490 
  178.5000     2.3310    78.6120    73.5740    72.5670    72.9780    24.5340   -11.8230 
  178.6250     2.3340    82.6400    67.6360    66.1990    63.1060    24.5030   -11.8550 
  178.7500     2.3340    86.7340    64.7860    62.8070    56.0160    24.4860   -11.9560 
  178.8750     2.3320    87.6990    64.5410    62.0440    55.8960    24.4530   -12.1480 
  179.0000     2.3310    83.9260    66.3480    63.4400    55.0490    24.3920   -12.3860 
  179.1250     2.3260    78.5750    69.7890    66.6370    56.8270    24.3790   -12.5860 
  179.2500     2.3180    75.3420    74.0070    70.7220    62.1480    24.4120   -12.7350 
  179.3750     2.3060    73.7040    78.5500    75.1520    69.1590    24.4510   -12.8600 
  179.5000     2.2950    73.2670    83.1400    79.5250    77.0500    24.5160   -13.0390 
  179.6250     2.2880    75.4080    87.7030    83.6190    82.4900    24.6520   -13.2560 
  179.7500     2.2880    77.0720    92.3260    87.5090    86.1030    24.7770   -13.3560 
  179.8750     2.2900    76.9020    97.0850    91.2910    90.9530    24.8260   -13.3600 
  180.0000     2.2940    76.6120   101.9730    95.0120    97.4910    24.8330   -13.3630 
  180.1250     2.2970    77.2700   106.8770    98.5990   106.9890    24.8320   -13.4630 
  180.2500     2.3010    76.6140   111.6960   101.9830   112.9490    24.8210   -13.5790 
  180.3750     2.3030    73.9790   116.5310   105.2250   109.5370    24.7840   -13.5790 
  180.5000     2.3030    71.8650   121.7530   108.6450   103.6990    24.7260   -13.4790 
  180.6250     2.3010    71.9600   128.2420   113.0440   106.0480    24.6910   -13.4160 
  180.7500     2.2970    73.6190   136.6130   119.0480   111.4860    24.6410   -13.4440 
  180.8750     2.2940    74.7320   147.4710   127.2360   112.2300    24.4730   -13.4910 
  181.0000     2.2920    72.5710   161.1730   137.9670   123.1560    24.1620   -13.4860 
  181.1250     2.2900    69.9120   177.9640   151.5120   153.9950    23.9770   -13.4400 
  181.2500     2.2850    70.4350   196.2800   166.5280   184.9630    24.0400   -13.4790 
  181.3750     2.2790    71.6950   214.2160   181.4050   187.6580    24.2840   -13.5910 
  181.5000     2.2710    69.1710   229.3510   194.1110   179.2730    24.4950   -13.6800 
  181.6250     2.2630    63.9600   238.4210   201.9720   194.8340    24.9180   -13.7380 
  181.7500     2.2580    61.6830   241.4100   204.9480   229.7230    25.1790   -13.8090 
  181.8750     2.2550    62.8050   239.2880   203.7990   234.7410    25.2360   -13.8950 
  182.0000     2.2510    67.8450   234.1620   200.2190   219.5790    25.2250   -13.9840 
  182.1250     2.2430    73.3430   228.5940   196.4560   202.8830    25.2900   -14.0710 
  182.2500     2.2290    73.5400   224.0140   194.0510   196.3840    25.3270   -14.1100 
  182.3750     2.2130    67.4370   219.4130   192.6050   193.1260    25.3200   -14.1730 
  182.5000     2.1980    60.6260   211.9020   189.8500   189.1970    25.3080   -14.3010 
  182.6250     2.1930    60.6650   197.3690   181.7180   198.1130    25.3310   -14.3750 
  182.7500     2.2020    64.2850   176.8910   167.7050   207.0180    25.3020   -14.3720 
  182.8750     2.2240    66.7450   153.6500   149.5710   195.6220    25.1570   -14.3490 
  183.0000     2.2550    67.8970   131.6000   130.5790   163.9610    24.9510   -14.3590 
  183.1250     2.2840    67.7270   114.3760   114.4470   112.1090    24.9420   -14.2620 
  183.2500     2.2980    67.1090   102.0850   102.4050    90.8800    25.0240   -14.0360 
  183.3750     2.3000    66.1890    94.1080    94.4220    94.2940    25.0570   -13.7360 
  183.5000     2.3030    65.8250    89.1960    89.5530    85.8680    24.9820   -13.4470 
  183.6250     2.3250    66.0190    85.8660    86.3760    70.5690    24.8800   -13.2160 
  183.7500     2.3620    65.2050    82.5680    83.1260    74.8110    24.7540   -12.9420 
  183.8750     2.3940    65.5370    79.0730    79.2860    98.2510    24.6460   -12.6010 
  184.0000     2.3980    68.0830    76.1730    75.4100    95.5630    24.6720   -12.2310 
  184.1250     2.3680    70.8300    76.0040    73.4660    62.4680    24.8450   -12.0430 
  184.2500     2.3300    73.0880    80.0820    75.2290    48.2030    24.9350   -11.9780 
  184.3750     2.3180    73.2010    89.9100    82.3660    51.4160    24.8780   -11.8840 
  184.5000     2.3490    70.0110   106.8900    96.2450    73.7980    24.7160   -11.7520 
  184.6250     2.4230    65.1850   133.8180   118.9370   130.9210    24.4930   -11.6600 
  184.7500     2.5130    63.4780   169.8600   148.8440   195.6820    24.3120   -11.6260 
  184.8750     2.5980    63.8920   214.4880   184.8890   247.7800    24.2850   -11.5770 
