~V
VERS. 2.00: Ver 2.00
~W
STRT.M 57.0000:
STOP.M 281.0000:
STEP.M 0.1250:
NULL. -999.2500:
UWI. F10139:
~C
DEPT.M :
SP.MV :
GR.API :
RML.OHMM :
RI. :
RXO.OHMM :
CALI.CM :
DEN.GM/CC :
~A
# ...
  259.5000   -12.7650    45.2560     9.6580     7.6740    10.2960    24.8920     2.3890 
  259.6250   -12.6970    46.0070     9.6540     7.7940     9.3220    24.8720     2.3810 
  259.7500   -12.6760    48.2560     9.5470     7.7760     9.2650    24.8540     2.3740 
  259.8750   -12.6990    51.4490     9.4010     7.6840     8.9000    24.8400     2.3680 
  260.0000   -12.6920    53.1990     9.2780     7.5900     8.4270    24.8090     2.3630 
  260.1250   -12.5890    50.9180     9.2190     7.5600     7.9990    24.7610     2.3620 
  260.2500   -12.4810    48.7400     9.2200     7.6020     7.7100    24.7300     2.3650 
  260.3750   -12.4430    50.1460     9.2830     7.7110     7.4880    24.7400     2.3750 
  260.5000   -12.4480    52.9530     9.4130     7.8660     7.2680    24.7610     2.3890 
  260.6250   -12.3860    52.6880     9.5970     8.0310     7.1080    24.7750     2.4040 
  260.7500   -12.2640    51.6160     9.7780     8.1640     7.0280    24.7810     2.4150 
  260.8750   -12.1570    52.3950     9.8970     8.2400     6.9360    24.7870     2.4210 
  261.0000   -12.1120    53.4430     9.9110     8.2600     6.9410    24.7800     2.4200 
  261.1250   -12.1190    50.5740     9.8180     8.2460     7.2540    24.7550     2.4170 
  261.2500   -12.1020    47.8240     9.7170     8.2350     7.4590    24.7470     2.4130 
  261.3750   -12.0410    50.4220     9.6940     8.2470     7.4680    24.7550     2.4090 
  261.5000   -11.9540    56.6890     9.7900     8.2910     7.4940    24.7760     2.4080 
  261.6250   -11.8350    58.8710     9.9630     8.3620     7.7940    24.7940     2.4130 
  261.7500   -11.7000    56.6140    10.0960     8.4400     8.1160    24.8120     2.4250 
  261.8750   -11.5400    54.8660    10.1240     8.5080     8.2310    24.8370     2.4460 
  262.0000   -11.3670    55.2930    10.0490     8.5530     8.2720    24.8550     2.4720 
  262.1250   -11.2440    55.4040     9.9560     8.5710     8.3370    24.8630     2.4940 
  262.2500   -11.1830    55.2360     9.9300     8.5780     8.5610    24.8590     2.5060 
  262.3750   -11.2060    56.3120     9.9850     8.5940     8.5790    24.8440     2.5050 
  262.5000   -11.2820    57.8610    10.0870     8.6310     8.2530    24.8160     2.4980 
  262.6250   -11.4730    56.7660    10.1560     8.6930     7.9130    24.8020     2.4890 
  262.7500   -11.7460    54.1280    10.1500     8.7550     7.8910    24.7920     2.4840 
  262.8750   -12.0600    52.9780    10.0800     8.7930     8.0080    24.7940     2.4820 
  263.0000   -12.4090    53.6000     9.9800     8.7890     8.2400    24.8430     2.4790 
  263.1250   -12.6960    53.9510     9.8730     8.7430     8.7340    24.9450     2.4760 
  263.2500   -12.8830    53.7740     9.7720     8.6890     9.5060    25.0050     2.4740 
  263.3750   -12.9870    53.8960     9.7000     8.6730     9.9140    24.9940     2.4750 
  263.5000   -12.9960    53.8480     9.7140     8.7470     9.7080    24.9840     2.4780 
  263.6250   -12.8840    53.2210     9.9670     8.9910     9.4540    24.9670     2.4840 
  263.7500   -12.7220    54.4650    10.5090     9.4130     9.3030    24.9280     2.4880 
  263.8750   -12.5750    57.4500    11.2760     9.9880     8.8860    24.8890     2.4890 
  264.0000   -12.4350    59.3760    12.0640    10.6190     9.0320    24.9000     2.4890 
  264.1250   -12.3400    58.5500    12.5290    11.1030    10.2680    24.9660     2.4860 
  264.2500   -12.2940    57.4890    12.5200    11.2840    11.7580    25.0120     2.4800 
  264.3750   -12.2570    56.6560    12.0520    11.1140    12.4210    24.9840     2.4690 
  264.5000   -12.2440    55.6830    11.3100    10.6830    12.2000    24.9140     2.4530 
  264.6250   -12.2390    55.4780    10.5840    10.1720    12.0910    24.8710     2.4360 
  264.7500   -12.1980    57.3330    10.0900     9.7590    11.7520    24.8450     2.4260 
  264.8750   -12.1120    59.9600     9.9050     9.5130    12.0100    24.8210     2.4280 
  265.0000   -11.9940    60.9670     9.9990     9.4290    13.0500    24.8140     2.4440 
  265.1250   -11.8440    60.7340    10.2400     9.4590    13.2880    24.8430     2.4680 
  265.2500   -11.6840    61.1700    10.4180     9.5110    12.5460    24.8960     2.4910 
  265.3750   -11.5190    61.4350    10.4320     9.5430    11.3980    24.9470     2.5070 
  265.5000   -11.3810    58.8160    10.2880     9.5460    10.4790    24.9680     2.5160 
  265.6250   -11.2900    54.5970    10.0830     9.5280    10.1830    24.9580     2.5170 
  265.7500   -11.2450    53.8740     9.9170     9.5080    10.2790    24.9550     2.5100 
  265.8750   -11.2310    56.9720     9.8230     9.4900    10.5370    24.9560     2.4970 
  266.0000   -11.2420    59.8260     9.7870     9.4630    10.7930    24.9630     2.4780 
  266.1250   -11.3230    58.6970     9.7750     9.4180    11.1480    24.9250     2.4570 
  266.2500   -11.4830    56.3150     9.7500     9.3610    11.1370    24.8720     2.4410 
  266.3750   -11.6870    55.5210     9.7130     9.3160    10.4730    24.8380     2.4340 
  266.5000   -11.9080    56.4860     9.6950     9.3100     9.5270    24.8440     2.4380 
  266.6250   -12.0920    57.5200     9.7540     9.3850     9.3160    24.8810     2.4540 
  266.7500   -12.2470    58.5180     9.8960     9.5310     9.3350    24.9350     2.4730 
  266.8750   -12.3580    59.2390    10.0830     9.7190     9.6210    24.9750     2.4870 
  267.0000   -12.4290    58.4840    10.2370     9.8990     9.8900    24.9350     2.4920 
  267.1250   -12.4290    56.9130    10.2700     9.9990     9.8600    24.8730     2.4870 
  267.2500   -12.3400    56.3360    10.1790     9.9890    10.1530    24.8040     2.4800 
  267.3750   -12.1910    56.6370     9.9910     9.8760    10.9630    24.7260     2.4770 
  267.5000   -12.0270    57.4390     9.7540     9.7000    11.8340    24.6840     2.4780 
  267.6250   -11.9180    59.2280     9.5400     9.5260    12.3690    24.7680     2.4840 
  267.7500   -11.8320    60.6310     9.4100     9.4020    12.7120    24.8760     2.4930 
  267.8750   -11.7660    59.9920     9.3900     9.3480    12.5550    24.7990     2.5020 
  268.0000   -11.7430    58.3310     9.4690     9.3640    11.8700    24.6370     2.5110 
  268.1250   -11.7500    57.3400     9.5950     9.4470    10.9070    24.6730     2.5150 
  268.2500   -11.7990    56.7430     9.7080     9.5760    10.4150    24.8810     2.5140 
  268.3750   -11.8980    56.3470     9.8080     9.7350    10.4700    25.1090     2.5080 
  268.5000   -12.0270    57.2540     9.9150     9.9040    10.7960    25.2760     2.4950 
  268.6250   -12.1670    59.5110    10.0550    10.0590    10.8820    25.3430     2.4760 
  268.7500   -12.3200    61.0300    10.2220    10.1960    10.8050    25.3860     2.4570 
  268.8750   -12.4830    60.4110    10.4060    10.3250    10.7010    25.3920     2.4390 
  269.0000   -12.6130    58.4020    10.6070    10.4640    11.3120    25.4060     2.4240 
  269.1250   -12.7150    57.2440    10.8460    10.6280    12.3100    25.4590     2.4120 
  269.2500   -12.7880    57.0260    11.1290    10.8240    12.9610    25.4980     2.4040 
  269.3750   -12.8460    56.6700    11.4330    11.0500    13.0290    25.4610     2.4050 
  269.5000   -12.8830    55.8400    11.7130    11.2740    12.8700    25.4000     2.4210 
  269.6250   -12.8320    55.8030    11.8800    11.4310    13.0380    25.3400     2.4530 
  269.7500   -12.7250    56.3630    11.8870    11.4660    13.1980    25.3190     2.4910 
  269.8750   -12.5930    57.3620    11.7060    11.3450    13.5230    25.3210     2.5200 
  270.0000   -12.4680    57.6010    11.3630    11.0760    13.5890    25.3520     2.5330 
  270.1250   -12.3550    57.6010    10.9580    10.7250    13.2840    25.3460     2.5300 
  270.2500   -12.2470    57.6010    10.6380    10.4110    13.3440    25.3120     2.5260 
  270.3750   -12.1300    57.6010    10.4860    10.2060    14.8470    25.3310     2.5270 
  270.5000   -12.0130    57.6010    10.5190    10.1530    15.3340    25.3980     2.5340 
  270.6250   -11.9560    57.6010    10.7040    10.2680    14.4680    25.4520     2.5390 
