~V
VERS. 2.00: Ver 2.00
~W
STRT.M 57.0000:
STOP.M 281.0000:
STEP.M 0.1250:
NULL. -999.2500:
UWI. F10139:
~C
DEPT.M :
SP.MV :
GR.API :
RML.OHMM :
RI. :
RXO.OHMM :
CALI.CM :
DEN.GM/CC :
~A
# ...
  214.5000    -7.4850    52.9470     7.7170     6.5420     6.2620    25.3410     2.3970 
  214.6250    -7.6170    54.9160     7.7780     6.6440     6.4120    25.3390     2.4230 
  214.7500    -7.7450    57.9820     7.7350     6.6630     6.3770    25.3390     2.4540 
  214.8750    -7.8790    60.2320     7.5680     6.5730     6.1890    25.3200     2.4870 
  215.0000    -8.0520    60.6430     7.3130     6.3870     6.0080    25.2810     2.5140 
  215.1250    -8.2790    61.5400     7.0860     6.1730     5.8230    25.2730     2.5240 
  215.2500    -8.5860    62.0740     7.0100     6.0310     5.7380    25.3250     2.5160 
  215.3750    -8.9610    59.8440     7.1480     6.0140     5.8200    25.4010     2.4920 
  215.5000    -9.3960    57.6140     7.4840     6.1300     6.0400    25.4460     2.4620 
  215.6250    -9.9010    60.7650     7.9040     6.3330     6.7500    25.4560     2.4390 
  215.7500   -10.4510    65.8570     8.2260     6.5170     7.7390    25.4570     2.4260 
  215.8750   -11.0060    67.7310     8.3780     6.6300     8.0410    25.4640     2.4210 
  216.0000   -11.5450    67.8870     8.4440     6.7100     7.7690    25.4830     2.4190 
  216.1250   -12.0830    70.0020     8.7540     6.9400     7.8750    25.5020     2.4170 
  216.2500   -12.6360    70.6460     9.7040     7.5450     8.8260    25.4930     2.4100 
  216.3750   -13.2390    68.8680    11.7670     8.8310    10.8250    25.4710     2.3990 
  216.5000   -13.8920    66.4130    15.4800    11.2360    13.8170    25.4580     2.3800 
  216.6250   -14.5150    64.4550    22.8010    15.7910    20.7060    25.4560     2.3500 
  216.7500   -15.0850    61.3030    35.2480    22.9450    30.3320    25.4500     2.3130 
  216.8750   -15.6450    56.5340    48.2520    32.7870    46.8620    25.4270     2.2830 
  217.0000   -16.1790    52.3530    62.2350    44.0620    69.3880    25.3660     2.2750 
  217.1250   -16.6670    51.2150    73.0000    53.5070    86.4320    25.3030     2.3060 
  217.2500   -17.0990    52.5280    78.3790    59.0780    91.0750    25.2330     2.3580 
  217.3750   -17.4220    54.6010    79.1330    60.9130    80.3420    25.1880     2.4050 
  217.5000   -17.6430    55.0510    77.6940    60.4720    72.2610    25.1990     2.4200 
  217.6250   -17.8290    53.4040    76.4690    59.4830    70.8150    25.2640     2.3900 
  217.7500   -18.0580    51.3580    76.4060    59.1000    72.4180    25.3000     2.3380 
  217.8750   -18.3610    50.9580    77.3070    59.5090    75.7480    25.2910     2.2880 
  218.0000   -18.7300    53.0370    78.4640    60.4250    74.1330    25.2690     2.2550 
  218.1250   -19.1360    55.9330    78.8720    61.2980    69.3680    25.2550     2.2430 
  218.2500   -19.5540    58.0450    78.1680    61.7380    70.4110    25.2520     2.2410 
  218.3750   -19.9930    59.3900    76.5390    61.7270    71.3790    25.2650     2.2400 
  218.5000   -20.4380    58.7880    74.5200    61.4920    67.5360    25.2720     2.2360 
  218.6250   -20.8860    54.3730    72.7030    61.3470    64.2610    25.2720     2.2300 
  218.7500   -21.2650    50.2100    71.4200    61.4840    63.1780    25.2320     2.2230 
  218.8750   -21.4710    50.2890    70.9050    62.0650    63.9910    25.1790     2.2150 
  219.0000   -21.5250    54.0370    71.1750    63.1260    66.3050    25.1550     2.2090 
  219.1250   -21.5020    56.0550    71.4560    64.0850    67.4880    25.1530     2.2080 
  219.2500   -21.4360    54.6710    70.0650    63.5970    63.8090    25.1450     2.2100 
  219.3750   -21.3110    53.0740    65.4290    60.2470    62.9030    25.1260     2.2130 
  219.5000   -21.1170    52.9320    57.2260    53.5290    67.5930    25.0880     2.2140 
  219.6250   -20.8630    53.6110    47.2610    44.7810    56.8480    25.0070     2.2140 
  219.7500   -20.6520    55.9630    38.6750    36.9500    35.6450    24.9330     2.2160 
  219.8750   -20.5700    60.9620    33.0580    31.5730    21.4530    24.8490     2.2270 
  220.0000   -20.6220    66.2220    31.0340    29.2140    16.1570    24.7560     2.2450 
  220.1250   -20.8380    68.0440    33.5110    30.7360    17.0500    24.5850     2.2650 
  220.2500   -21.1960    67.4390    40.0380    36.0630    25.1150    24.3410     2.2780 
  220.3750   -21.6620    66.3450    50.5760    45.5450    33.9360    23.9910     2.2790 
  220.5000   -22.2640    63.3300    64.4240    58.7890    36.0850    23.6120     2.2680 
  220.6250   -23.0250    59.4020    79.5060    73.8260    35.0840    23.2870     2.2490 
  220.7500   -23.8320    57.7650    92.5850    87.1390    38.4770    23.0580     2.2280 
  220.8750   -24.6450    59.2520   102.1270    96.9570    43.5300    22.9420     2.2120 
  221.0000   -25.4610    61.9170   108.4880   103.3690    44.4290    22.6790     2.2030 
  221.1250   -26.2020    62.2720   112.8950   107.2940    38.7420    22.1910     2.2030 
  221.2500   -26.8710    59.4080   116.7870   110.2070    31.4080    21.7180     2.2070 
  221.3750   -27.5250    56.5320   120.5940   112.6600    26.1720    21.3300     2.2150 
  221.5000   -28.1040    56.5290   124.2290   114.8070    23.4230    20.9560     2.2240 
  221.6250   -28.5140    58.3850   127.0340   116.3540    21.2050    20.7280     2.2320 
  221.7500   -28.8320    59.0380   128.7940   117.2760    20.7540    20.7710     2.2370 
  221.8750   -29.0860    58.9910   129.8590   117.9010    21.3830    20.9720     2.2370 
  222.0000   -29.2640    59.8410   131.2030   119.0250    22.7600    21.2050     2.2320 
  222.1250   -29.3500    61.2810   134.4580   122.0680    24.9490    21.4590     2.2240 
  222.2500   -29.3500    61.5880   140.1670   127.4950    29.8510    21.7680     2.2140 
  222.3750   -29.2410    60.3900   148.1970   135.1970    36.7430    22.0250     2.2050 
  222.5000   -29.0270    58.1770   157.7490   144.4190    48.1230    22.3140     2.1990 
  222.6250   -28.7430    55.8260   167.4340   153.8490    68.9120    22.7830     2.1960 
  222.7500   -28.4400    53.5700   175.4840   161.8420    78.3590    23.2850     2.1990 
  222.8750   -28.1220    52.3590   180.0310   166.7470    77.8730    23.5980     2.2070 
  223.0000   -27.8200    54.3070   179.1300   166.8520    88.0710    23.8250     2.2160 
  223.1250   -27.5670    57.1970   170.7120   160.1190   115.6750    24.0680     2.2240 
  223.2500   -27.3160    57.5200   157.6460   148.6960   140.5780    24.2040     2.2280 
  223.3750   -27.0760    55.6930   143.5740   135.5860   148.0410    24.2770     2.2310 
  223.5000   -26.9040    54.1220   132.1680   124.2170   129.7260    24.3480     2.2350 
  223.6250   -26.8270    53.7110   126.9030   118.1640   104.8470    24.4030     2.2410 
  223.7500   -26.7890    54.0370   127.7600   117.8300    93.6960    24.4290     2.2460 
  223.8750   -26.7950    54.1660   134.3550   122.9910   101.0670    24.4520     2.2460 
  224.0000   -26.8250    53.0230   145.3780   132.4580   123.3400    24.5030     2.2420 
  224.1250   -26.8860    52.3100   158.1480   143.9170   141.1720    24.5680     2.2340 
  224.2500   -26.9700    55.4390   168.5060   153.7140   148.6200    24.6130     2.2240 
  224.3750   -27.0840    59.9550   173.6830   159.4010   152.8500    24.6400     2.2120 
  224.5000   -27.2210    61.8630   172.7810   159.9350   155.7010    24.6530     2.2010 
  224.6250   -27.3640    60.5060   165.9660   155.0410   157.1570    24.6730     2.1920 
  224.7500   -27.5140    59.8840   155.8600   146.8080   154.8510    24.6830     2.1880 
  224.8750   -27.6490    59.4690   144.0150   136.5480   145.5810    24.6870     2.1890 
  225.0000   -27.7610    57.8330   131.5830   125.3610   130.1910    24.6920     2.1960 
  225.1250   -27.7710    55.8900   119.0230   113.8390   114.4660    24.7210     2.2080 
  225.2500   -27.7050    56.0160   106.4140   102.2310    97.4360    24.7790     2.2240 
  225.3750   -27.5750    57.0790    93.9880    90.7320    88.2650    24.8380     2.2420 
  225.5000   -27.3200    56.5480    82.2690    79.7410    84.6980    24.8690     2.2580 
  225.6250   -26.9240    53.5090    72.1640    70.0420    68.1660    24.8550     2.2670 
