~V
VERS. 2.00: Ver 2.00
~W
STRT.M 63.0000:
STOP.M 800.0000:
STEP.M 0.1250:
NULL. -999.2500:
UWI. F10168:
~C
DEPT.M :
SP.MV :
GR.API :
RML.OHMM :
RI. :
RXO.OHMM :
CALI.CM :
DEN.GM/CC :
~A
   63.0000   -25.2270    80.3780    10.5340     8.7270     9.1580    23.4260     2.2020 
   63.1250   -25.3170    78.9300    11.1080     8.9170     8.5100    23.3500     2.2120 
   63.2500   -25.3800    79.0390    11.3520     9.0950     8.6760    23.2780     2.2240 
   63.3750   -25.4640    78.2880    11.2840     9.2110     9.2300    23.2800     2.2360 
   63.5000   -25.5070    78.8650    10.9100     9.1840     9.5990    23.3780     2.2490 
   63.6250   -25.4550    82.3750    10.1450     8.8940     9.2700    23.5330     2.2660 
   63.7500   -25.3020    86.4190     9.2110     8.3740     8.1960    23.6860     2.2810 
   63.8750   -25.0180    90.1190     8.3650     7.7410     6.9410    23.7950     2.2900 
   64.0000   -24.6230    94.2460     7.8290     7.1870     6.1340    23.8350     2.2910 
   64.1250   -24.1330    95.5300     7.8020     6.9560     5.9290    23.7920     2.2850 
   64.2500   -23.6570    92.0850     8.2150     7.0870     5.9750    23.6740     2.2800 
   64.3750   -23.2180    87.8080     8.9770     7.5340     6.9100    23.4850     2.2760 
   64.5000   -22.8670    86.5120     9.8880     8.1650     9.2760    23.2400     2.2740 
   64.6250   -22.6440    88.6060    10.6310     8.7930    11.1590    22.9960     2.2710 
   64.7500   -22.5360    92.5310    11.0780     9.3010    10.6480    22.8130     2.2650 
   64.8750   -22.5830    96.5670    11.3460     9.7130     9.6500    22.7120     2.2570 
   65.0000   -22.7890    95.7810    11.7050    10.1590     8.5750    22.6740     2.2480 
   65.1250   -23.0830    87.7150    12.4990    10.8700     9.2180    22.6750     2.2360 
   65.2500   -23.4150    80.1580    13.7540    11.9210    12.3240    22.7070     2.2270 
   65.3750   -23.7180    76.2540    15.2990    13.2330    16.4300    22.8000     2.2270 
   65.5000   -24.0110    73.9000    16.7620    14.5470    17.9890    22.9780     2.2340 
   65.6250   -24.2220    73.4510    17.5800    15.3990    16.9180    23.2260     2.2420 
   65.7500   -24.3680    76.0560    17.6130    15.5910    15.7700    23.4730     2.2430 
   65.8750   -24.4510    80.2450    16.9800    15.1550    14.4200    23.6680     2.2380 
   66.0000   -24.4410    85.4070    15.9840    14.3170    14.9260    23.7780     2.2370 
   66.1250   -24.4630    90.4300    14.9720    13.3700    15.2340    23.7720     2.2480 
   66.2500   -24.4750    91.0370    14.1870    12.5520    13.0930    23.6790     2.2620 
   66.3750   -24.4870    86.1030    13.7520    11.9930    10.1350    23.5670     2.2670 
   66.5000   -24.4950    81.7090    13.7300    11.7850     9.8220    23.5220     2.2550 
   66.6250   -24.5270    84.0350    14.1330    12.0210    11.3430    23.5920     2.2270 
   66.7500   -24.6230    87.7330    14.7250    12.5350    12.3520    23.7040     2.1940 
   66.8750   -24.7440    87.1720    15.2990    13.1400    12.7220    23.7970     2.1640 
   67.0000   -24.8610    82.6300    15.7280    13.6680    13.2230    23.8470     2.1390 
   67.1250   -24.9510    81.0370    16.1170    14.1080    14.9920    23.8610     2.1260 
   67.2500   -25.0410    82.7150    16.8190    14.7170    15.6330    23.8650     2.1240 
   67.3750   -25.1220    81.7940    18.2000    15.8180    15.3760    23.8690     2.1330 
   67.5000   -25.1510    77.3720    20.5310    17.6760    14.9220    23.8770     2.1460 
   67.6250   -25.1620    75.7290    23.8300    20.3990    20.2570    23.8940     2.1510 
   67.7500   -25.1360    75.9360    27.0820    23.2180    28.5970    23.9230     2.1430 
   67.8750   -25.1100    75.0520    28.9200    24.9820    34.6190    23.9570     2.1290 
   68.0000   -25.0820    75.7420    28.1110    24.6060    33.9940    23.9760     2.1200 
   68.1250   -24.9790    80.8950    23.6980    21.6900    27.7320    23.9610     2.1290 
   68.2500   -24.8060    85.3550    18.2960    17.8200    18.8480    23.9380     2.1540 
   68.3750   -24.6150    86.7310    14.0220    14.2000    11.9670    23.9220     2.1880 
   68.5000   -24.4260    87.7050    11.3330    11.4620     9.3130    23.9160     2.2200 
   68.6250   -24.1940    90.3720     9.9850     9.8040     8.3120    23.9140     2.2440 
   68.7500   -23.9170    93.3590     9.3450     8.8310     7.7360    23.9130     2.2600 
   68.8750   -23.6450    94.8460     9.0860     8.3100     7.1590    23.9140     2.2700 
   69.0000   -23.4280    95.1080     8.9650     8.0560     7.0590    23.9190     2.2740 
   69.1250   -23.2820    95.1710     8.8540     7.9600     7.4370    23.9300     2.2710 
   69.2500   -23.1810    94.1840     8.7780     7.9500     7.4440    23.9410     2.2630 
   69.3750   -23.1200    91.8260     8.8480     8.0620     6.8590    23.9410     2.2540 
   69.5000   -23.1340    88.4600     9.1940     8.3880     6.8770    23.9070     2.2470 
   69.6250   -23.2180    83.8690     9.9910     9.1030     8.0560    23.8180     2.2480 
   69.7500   -23.3200    79.0580    11.1690    10.1710     9.9940    23.6860     2.2550 
   69.8750   -23.4070    75.3790    12.5120    11.4080    11.8040    23.5550     2.2640 
   70.0000   -23.4830    73.7780    13.5710    12.4380    13.1340    23.4460     2.2690 
   70.1250   -23.5470    75.0860    13.6370    12.6850    13.7390    23.3520     2.2650 
   70.2500   -23.5560    79.7720    12.6900    12.0840    13.8980    23.2940     2.2580 
   70.3750   -23.4740    86.0460    11.1180    10.8620    11.3620    23.3040     2.2530 
   70.5000   -23.3030    90.4130     9.5020     9.4260     8.0790    23.3600     2.2560 
   70.6250   -23.0620    91.3750     8.3770     8.2040     6.3140    23.3870     2.2670 
   70.7500   -22.7570    91.3250     7.8030     7.3680     5.9800    23.3820     2.2770 
   70.8750   -22.4360    91.3830     7.6940     6.9380     6.1090    23.3840     2.2810 
   71.0000   -22.1600    91.7180     7.8830     6.8330     6.2910    23.3930     2.2790 
   71.1250   -21.9240    94.0000     8.1630     6.9180     6.3620    23.3770     2.2750 
   71.2500   -21.7510    96.3770     8.3690     7.0230     6.7300    23.3370     2.2730 
   71.3750   -21.6800    98.2810     8.4890     7.1140     6.9610    23.2970     2.2710 
   71.5000   -21.7390   100.6270     8.6190     7.2450     6.5290    23.2510     2.2660 
   71.6250   -21.9390   102.1030     8.9440     7.5480     6.4990    23.1530     2.2540 
   71.7500   -22.2900   100.3420     9.5730     8.0910     7.2240    23.0100     2.2390 
   71.8750   -22.7170    94.6370    10.5830     8.9270     8.8660    22.8850     2.2240 
   72.0000   -23.1690    85.8230    11.9880    10.0640    11.3270    22.8680     2.2090 
   72.1250   -23.6850    75.9660    13.7060    11.4370    13.4870    23.0010     2.1910 
   72.2500   -24.2600    70.0630    15.3470    12.7460    14.4790    23.1870     2.1690 
   72.3750   -24.8110    71.4880    16.4270    13.6400    14.9110    23.3410     2.1470 
   72.5000   -25.2530    76.9510    16.4930    13.8000    15.1680    23.4380     2.1320 
   72.6250   -25.6130    82.2350    15.3130    13.0260    14.6840    23.4820     2.1260 
   72.7500   -25.9140    86.0380    13.5850    11.7610    13.7100    23.5110     2.1240 
   72.8750   -26.1530    86.0690    11.9550    10.4380    12.1210    23.5530     2.1200 
   73.0000   -26.3060    81.7180    10.9080     9.4420     9.2440    23.6090     2.1090 
   73.1250   -26.3790    78.5000    10.8380     9.1610     8.6500    23.6390     2.0950 
   73.2500   -26.4480    77.9610    11.6780     9.6500    11.0790    23.5920     2.0850 
   73.3750   -26.5930    77.9380    13.3830    10.9280    14.8140    23.4310     2.0840 
   73.5000   -26.7810    75.8710    15.7160    12.8170    16.2650    23.1730     2.0940 
   73.6250   -26.9470    72.6550    17.9310    14.7460    15.7950    22.9040     2.1120 
   73.7500   -27.0770    70.8470    19.0020    15.8960    16.3400    22.7220     2.1310 
   73.8750   -27.1480    72.9620    18.3740    15.7780    16.9700    22.6730     2.1460 
   74.0000   -27.0740    79.0450    16.2900    14.4390    16.2300    22.7980     2.1570 
   74.1250   -26.8250    84.4850    13.5760    12.3580    12.7750    23.0950     2.1700 
