~V
VERS. 2.00: Ver 2.00
~W
STRT.M 49.0000:
STOP.M 223.0000:
STEP.M 0.1250:
NULL. -999.2500:
UWI. F10156:
~C
DEPT.M :
SP.MV :
GR.API :
RML.OHMM :
RI. :
RXO.OHMM :
CALI.CM :
DEN.GM/CC :
~A
# ...
  139.0000    -8.4400    44.0420    21.7980    18.5430    23.3830    24.0400     2.5630 
  139.1250    -8.4050    48.7430    21.6460    18.5280    24.1970    24.1040     2.5690 
  139.2500    -8.4060    49.1000    21.2100    18.2660    23.5010    24.0510     2.5770 
  139.3750    -8.4010    47.1900    20.6590    17.8620    22.1280    23.9300     2.5810 
  139.5000    -8.4010    47.0930    20.1380    17.4260    21.0700    23.8090     2.5800 
  139.6250    -8.4230    48.4880    19.7530    17.0530    20.9000    23.7280     2.5770 
  139.7500    -8.4050    48.4210    19.5320    16.7940    21.5640    23.6910     2.5740 
  139.8750    -8.4140    47.8670    19.3580    16.5890    21.6050    23.6570     2.5680 
  140.0000    -8.4230    48.1240    19.1380    16.3740    20.9410    23.6600     2.5590 
  140.1250    -8.4170    48.2630    18.8360    16.1140    20.3530    23.6740     2.5510 
  140.2500    -8.4140    49.1010    18.5120    15.8420    19.9100    23.6910     2.5490 
  140.3750    -8.4290    50.9420    18.2960    15.6430    19.3940    23.7210     2.5510 
  140.5000    -8.4400    51.3390    18.2880    15.5860    19.5200    23.7600     2.5550 
  140.6250    -8.4410    49.2120    18.5290    15.6990    19.9470    23.7700     2.5580 
  140.7500    -8.4670    46.0070    19.0130    15.9880    20.1020    23.7520     2.5600 
  140.8750    -8.4840    45.1400    19.5830    16.3570    20.5130    23.7420     2.5610 
  141.0000    -8.4640    46.8620    20.0820    16.7040    20.9360    23.7540     2.5620 
  141.1250    -8.4900    48.8380    20.3640    16.9240    21.8470    23.7520     2.5650 
  141.2500    -8.5300    49.6170    20.3110    16.9200    23.3010    23.7220     2.5740 
  141.3750    -8.5570    51.1030    20.0330    16.7500    24.2830    23.6650     2.5860 
  141.5000    -8.5940    53.4620    19.6590    16.4940    23.0480    23.5700     2.5940 
  141.6250    -8.6000    53.8880    19.3230    16.2420    21.4800    23.4680     2.5930 
  141.7500    -8.6210    53.4310    19.1280    16.0710    21.6480    23.5100     2.5820 
  141.8750    -8.6360    54.4170    19.0670    15.9880    22.3600    23.6460     2.5720 
  142.0000    -8.6700    55.5820    19.1250    15.9890    23.1900    23.7770     2.5660 
  142.1250    -8.6970    55.3780    19.3090    16.0820    23.2530    23.8340     2.5630 
  142.2500    -8.6870    55.7240    19.6300    16.2930    22.2930    23.8330     2.5620 
  142.3750    -8.6970    54.9390    19.9610    16.5480    21.4980    23.8200     2.5620 
  142.5000    -8.7040    50.8480    20.0980    16.7020    20.9180    23.8170     2.5650 
  142.6250    -8.7100    45.6130    19.8020    16.5640    21.1940    23.8230     2.5700 
  142.7500    -8.7010    43.8650    18.8410    15.9200    21.5640    23.8670     2.5730 
  142.8750    -8.7070    43.9860    17.4350    14.9060    19.3430    23.9800     2.5690 
  143.0000    -8.7400    45.4350    15.8910    13.7440    15.8850    24.1500     2.5530 
  143.1250    -8.7400    49.2580    14.5500    12.6870    14.1100    24.2830     2.5290 
  143.2500    -8.7680    52.7870    13.7470    11.9800    13.6750    24.3680     2.5080 
  143.3750    -8.8040    53.4470    13.4940    11.6550    14.0030    24.4400     2.4940 
  143.5000    -8.8360    52.8150    13.7400    11.7060    14.2270    24.4670     2.4840 
  143.6250    -8.8990    53.7250    14.3390    12.0660    14.1890    24.4230     2.4780 
  143.7500    -8.9610    54.1300    15.0860    12.6200    15.0920    24.3370     2.4830 
  143.8750    -9.0270    51.2820    15.7360    13.1720    16.5100    24.2910     2.4950 
  144.0000    -9.0880    46.9590    16.1440    13.5890    17.6090    24.2710     2.5030 
  144.1250    -9.1610    45.0330    16.2500    13.7880    17.6150    24.2440     2.5050 
  144.2500    -9.2420    48.6440    16.0760    13.7410    16.8010    24.1790     2.5070 
  144.3750    -9.3140    53.2970    15.8240    13.5840    17.0570    24.1130     2.5140 
  144.5000    -9.3990    55.2700    15.6430    13.4280    17.8670    24.0490     2.5220 
  144.6250    -9.4670    53.2220    15.6300    13.3550    17.2320    24.0000     2.5240 
  144.7500    -9.5260    50.1580    15.8190    13.4170    16.9490    23.9580     2.5240 
  144.8750    -9.6130    49.6590    16.1090    13.5620    17.0560    23.9310     2.5290 
  145.0000    -9.6950    50.0800    16.4100    13.7380    16.8940    23.8840     2.5380 
  145.1250    -9.7960    50.0480    16.6520    13.8950    16.7480    23.8270     2.5440 
  145.2500    -9.8880    49.1340    16.7610    13.9880    16.7480    23.8420     2.5400 
  145.3750    -9.9610    49.4790    16.7480    14.0140    16.9720    23.9630     2.5340 
  145.5000   -10.0660    50.8340    16.6610    14.0020    17.0370    24.0370     2.5340 
  145.6250   -10.1620    51.5480    16.5760    14.0110    17.5270    23.9960     2.5390 
  145.7500   -10.2550    51.0500    16.5770    14.1180    17.7390    23.8740     2.5420 
  145.8750   -10.3450    49.8080    16.6860    14.3470    18.0730    23.7670     2.5420 
  146.0000   -10.4400    49.4110    16.8950    14.7020    18.9790    23.7310     2.5450 
  146.1250   -10.5650    51.4500    17.1850    15.1610    21.0320    23.7270     2.5540 
  146.2500   -10.6810    53.9920    17.5330    15.6920    22.0320    23.7970     2.5620 
  146.3750   -10.8030    52.8360    17.9010    16.2310    23.4680    23.9410     2.5590 
  146.5000   -10.9070    49.4020    18.2470    16.7190    26.0400    24.0780     2.5490 
  146.6250   -11.0110    47.4970    18.5110    17.0930    28.6170    24.1350     2.5390 
  146.7500   -11.1510    47.9080    18.5300    17.2110    29.6170    24.1210     2.5350 
  146.8750   -11.2820    47.7180    18.1540    16.9490    28.3790    24.0880     2.5290 
  147.0000   -11.4410    47.1460    17.2320    16.1670    24.5640    24.0700     2.5210 
  147.1250   -11.5780    47.6640    15.7410    14.8360    20.3230    24.0690     2.5120 
  147.2500   -11.7320    47.4000    13.8680    13.1380    16.6200    24.0770     2.5000 
  147.3750   -11.9170    46.9830    12.1350    11.5410    13.6040    24.0710     2.4810 
  147.5000   -12.1200    47.8630    11.0030    10.3950    11.0010    24.0360     2.4550 
  147.6250   -12.3900    50.6770    10.8900     9.9480     9.9820    23.9850     2.4270 
  147.7500   -12.6420    57.0690    12.4820    10.5930    10.7790    23.9800     2.3990 
  147.8750   -12.9060    65.1460    15.9960    12.5170    14.1910    24.0420     2.3680 
  148.0000   -13.1840    71.3480    21.7690    16.2030    23.2850    24.1780     2.3300 
  148.1250   -13.4580    72.1960    29.8680    22.2140    39.2620    24.3610     2.2900 
  148.2500   -13.7360    69.5940    39.7540    31.0670    53.8830    24.5430     2.2610 
  148.3750   -13.9890    67.4510    49.0970    40.8910    67.3410    24.6410     2.2440 
  148.5000   -14.2330    66.7680    55.6040    49.0670    81.5950    24.6810     2.2380 
  148.6250   -14.4530    67.3190    58.2440    53.7410    76.6690    24.7310     2.2420 
  148.7500   -14.6710    68.4710    57.8610    54.9940    66.7550    24.8390     2.2510 
  148.8750   -14.8860    70.0080    56.8540    55.0640    58.5540    24.8940     2.2630 
  149.0000   -15.0510    70.7970    56.0360    54.8770    47.4160    24.8320     2.2750 
  149.1250   -15.2470    70.9750    55.4370    54.6600    38.6330    24.7400     2.2810 
  149.2500   -15.4460    70.2050    54.7070    54.2250    35.0010    24.7320     2.2760 
  149.3750   -15.6310    69.5850    53.4380    53.2700    29.5510    24.7800     2.2680 
  149.5000   -15.8340    69.4180    51.2400    51.4130    23.4580    24.8330     2.2620 
  149.6250   -16.0280    69.6860    47.8900    48.3930    22.2990    24.7780     2.2590 
  149.7500   -16.2430    69.1490    43.5570    44.3310    24.5000    24.6370     2.2590 
  149.8750   -16.4610    69.0950    39.2810    40.2190    25.2590    24.5200     2.2690 
  150.0000   -16.6880    71.1620    36.0300    36.9030    21.2640    24.4710     2.2940 
  150.1250   -16.9190    73.0460    34.6780    35.0770    15.5030    24.4560     2.3240 
