~V
VERS. 2.00: Ver 2.00
~W
STRT.M 50.0000:
STOP.M 222.0000:
STEP.M 0.1250:
NULL. -999.2500:
UWI. F10145:
~C
DEPT.M :
DEN.GM/CC :
GR.API :
RML.OHMM :
RI. :
RXO.OHMM :
CALI.CM :
SP.MV :
~A
# ...
  106.2500     2.3150    77.4740    10.2500     9.1760     8.0460    21.4390   -12.1370 
  106.3750     2.3230    76.3490     9.8070     8.8960     7.2730    21.0740   -11.9900 
  106.5000     2.3160    73.1450     9.2930     8.4750     7.1380    20.8580   -11.8290 
  106.6250     2.3140    73.0750     8.9010     8.0880     7.1930    20.8320   -11.6430 
  106.7500     2.3200    76.4630     8.6840     7.8350     7.1350    20.9020   -11.4610 
  106.8750     2.3260    80.5920     8.6270     7.7370     6.9980    20.9810   -11.2920 
  107.0000     2.3200    81.6390     8.7020     7.7740     6.8860    20.9650   -11.1500 
  107.1250     2.2980    79.5070     8.8960     7.9260     6.8880    20.7930   -10.9920 
  107.2500     2.2730    77.3600     9.1540     8.1350     7.0270    20.6810   -10.8040 
  107.3750     2.2550    78.9910     9.4170     8.3550     7.4150    20.7060   -10.5480 
  107.5000     2.2510    84.3470     9.6080     8.5270     8.0450    20.8440   -10.1730 
  107.6250     2.2590    88.5650     9.6390     8.5650     8.4490    21.0700    -9.7540 
  107.7500     2.2680    89.5590     9.5200     8.4630     7.9370    21.2630    -9.4160 
  107.8750     2.2710    89.0430     9.2930     8.2490     6.8890    21.3020    -9.1990 
  108.0000     2.2650    88.4160     9.0270     7.9870     6.4360    21.1180    -9.0470 
  108.1250     2.2540    87.2950     8.8120     7.7600     6.3620    20.8070    -8.9330 
  108.2500     2.2450    87.5920     8.6930     7.6110     6.4800    20.5180    -8.8630 
  108.3750     2.2410    88.0020     8.6730     7.5460     6.5510    20.3460    -8.8910 
  108.5000     2.2420    85.3820     8.7170     7.5440     6.6230    20.2110    -9.0730 
  108.6250     2.2450    81.9620     8.7750     7.5780     6.6290    20.0930    -9.4100 
  108.7500     2.2470    82.5080     8.8260     7.6220     6.6130    20.0160    -9.7980 
  108.8750     2.2480    85.5710     8.8870     7.6740     6.6820    19.9450   -10.1720 
  109.0000     2.2490    86.2500     8.9810     7.7370     6.8620    19.8150   -10.5290 
  109.1250     2.2460    82.6520     9.0960     7.8040     7.0280    19.6350   -10.8740 
  109.2500     2.2400    81.0330     9.1710     7.8520     7.0220    19.5190   -11.1950 
  109.3750     2.2280    83.2880     9.1570     7.8580     6.9280    19.5600   -11.4830 
  109.5000     2.2110    86.1040     9.0570     7.8160     6.8730    19.6780   -11.7320 
  109.6250     2.1930    86.1620     8.9540     7.7530     7.0070    19.5900   -11.8940 
  109.7500     2.1780    85.3510     8.9550     7.7300     7.1860    19.4320   -11.9590 
  109.8750     2.1710    85.7960     9.1070     7.7990     7.3140    19.4380   -11.9220 
  110.0000     2.1720    84.8350     9.3810     7.9840     7.5700    19.5910   -11.8160 
  110.1250     2.1770    81.5480     9.6620     8.2550     8.1910    19.7780   -11.7240 
  110.2500     2.1790    79.5950     9.8110     8.4990     8.8410    19.9350   -11.6680 
  110.3750     2.1740    79.7330     9.7470     8.6100     9.3760    20.0890   -11.6600 
  110.5000     2.1620    80.4180     9.4540     8.5170     9.7880    20.3010   -11.6680 
  110.6250     2.1440    79.5840     8.9690     8.1930     9.8340    20.4430   -11.6850 
  110.7500     2.1240    78.0740     8.4200     7.7500     8.7560    20.4350   -11.7260 
  110.8750     2.1020    76.4480     7.8930     7.2730     8.1750    20.3230   -11.8340 
  111.0000     2.0800    75.2020     7.4460     6.8350     8.0980    20.2070   -11.9780 
  111.1250     2.0620    74.5870     7.1350     6.4930     8.0150    20.1360   -12.0560 
  111.2500     2.0510    75.2420     6.9520     6.2500     7.8470    20.0510   -12.0590 
  111.3750     2.0480    76.0180     6.8850     6.1060     7.6560    19.9700   -11.9700 
  111.5000     2.0490    78.5860     6.9030     6.0500     7.6000    19.8810   -11.8490 
  111.6250     2.0500    83.0050     6.9700     6.0660     8.0980    19.8220   -11.7990 
  111.7500     2.0470    85.9950     7.0400     6.1130     8.3800    19.8180   -11.8200 
  111.8750     2.0410    85.4880     7.0930     6.1660     8.3900    19.8710   -11.8550 
  112.0000     2.0360    83.2370     7.1170     6.2060     8.2610    19.9620   -11.8940 
  112.1250     2.0360    81.5100     7.1060     6.2230     8.1600    20.0210   -11.9720 
  112.2500     2.0410    79.1580     7.0710     6.2230     7.9670    20.0610   -12.0850 
  112.3750     2.0440    78.7080     7.0240     6.2150     7.7380    20.0690   -12.2710 
  112.5000     2.0440    82.0310     6.9720     6.2040     7.5280    20.0400   -12.5090 
  112.6250     2.0380    83.5090     6.9280     6.1890     7.5020    19.9800   -12.6850 
  112.7500     2.0300    80.3590     6.9000     6.1680     7.6350    19.9630   -12.7480 
  112.8750     2.0250    76.0090     6.8980     6.1410     7.8650    20.0000   -12.6950 
  113.0000     2.0260    76.4860     6.9270     6.1130     8.0630    20.0640   -12.5670 
  113.1250     2.0360    80.6610     6.9810     6.0970     8.1400    20.1560   -12.4230 
  113.2500     2.0500    81.5090     7.0370     6.1040     8.1880    20.2160   -12.2790 
  113.3750     2.0660    79.1540     7.0830     6.1400     8.2250    20.2670   -12.0820 
  113.5000     2.0810    77.2080     7.1250     6.2050     8.3030    20.3920   -11.7840 
  113.6250     2.0950    79.0230     7.1770     6.2850     8.5130    20.5100   -11.3540 
  113.7500     2.1080    81.6270     7.2300     6.3580     8.6300    20.4980   -10.8400 
  113.8750     2.1190    82.8780     7.2530     6.4020     8.7260    20.4450   -10.3060 
  114.0000     2.1300    82.5570     7.2130     6.4060     8.8530    20.5150    -9.7400 
  114.1250     2.1460    83.5490     7.0910     6.3650     8.9180    20.7940    -9.0120 
  114.2500     2.1660    85.1930     6.9270     6.2970     8.5610    21.0980    -8.0900 
  114.3750     2.1900    86.5550     6.7550     6.2110     7.9960    21.3950    -6.9930 
  114.5000     2.2110    86.7420     6.5970     6.1130     7.7960    21.7120    -5.8130 
  114.6250     2.2230    86.1200     6.4920     6.0150     8.0850    21.9520    -4.6900 
  114.7500     2.2280    85.8710     6.4850     5.9560     8.1240    22.0410    -3.6710 
  114.8750     2.2340    86.6480     6.6420     6.0040     7.8290    22.0480    -2.7300 
  115.0000     2.2500    88.0890     7.0170     6.2330     7.5400    22.1290    -1.8470 
  115.1250     2.2870    86.5010     7.6310     6.7280     8.1900    22.4230    -1.0780 
  115.2500     2.3330    82.3680     8.3200     7.4000     9.9900    22.8360    -0.4720 
  115.3750     2.3720    79.4970     8.8850     8.0890    12.9350    23.3020    -0.0640 
  115.5000     2.3880    81.1850     9.1230     8.5750    15.3520    23.6540     0.1590 
  115.6250     2.3750    86.9980     8.8750     8.6110    13.7130    23.7460     0.2580 
  115.7500     2.3480    92.2700     8.3310     8.2800    10.1570    23.5430     0.3340 
  115.8750     2.3200    95.5520     7.7220     7.7670     7.8820    23.0780     0.4240 
  116.0000     2.2970    96.6660     7.2560     7.2850     7.4130    22.6400     0.5150 
  116.1250     2.2790    95.6600     7.0750     7.0050     8.0520    22.4500     0.5650 
  116.2500     2.2660    95.0750     7.0810     6.8940     9.2080    22.4680     0.5890 
  116.3750     2.2630    97.0930     7.1450     6.8600    10.4070    22.6030     0.6380 
  116.5000     2.2730   100.8200     7.1490     6.8000    10.2660    22.7750     0.7670 
  116.6250     2.2950   100.1480     7.0540     6.6670     9.5810    22.9400     1.0360 
  116.7500     2.3200    99.3520     6.9790     6.5510    10.2550    23.1390     1.3850 
  116.8750     2.3480   102.3380     7.0750     6.5720    10.2050    23.3760     1.7150 
  117.0000     2.3830   104.8840     7.4760     6.8460     8.2660    23.6350     1.9640 
  117.1250     2.4290    97.6410     8.2820     7.5010     9.7060    23.8780     2.1760 
  117.2500     2.4760    84.1090     9.3040     8.4520    14.6720    24.0410     2.3940 
  117.3750     2.5160    75.0130    10.2670     9.5350    17.0180    24.1000     2.5880 
