~V
VERS. 2.00: Ver 2.00
~W
STRT.M 53.0000:
STOP.M 219.0000:
STEP.M 0.1250:
NULL. -999.2500:
UWI. F10171:
~C
DEPT.M :
SP.MV :
DEN.GM/CC :
GR.API :
RML.OHMM :
RI. :
RXO.OHMM :
CALI.CM :
~A
# ...
  199.2500   -26.5320     2.3530    76.9490     6.7640     6.7750     6.9060    24.9660 
  199.3750   -26.4360     2.3610    75.0760     6.7640     6.6820     6.8660    24.9660 
  199.5000   -26.4250     2.3700    73.0500     6.8890     6.7330     6.9190    24.9630 
  199.6250   -26.4460     2.3730    73.9240     7.0700     6.8700     7.0030    24.9490 
  199.7500   -26.5070     2.3700    77.7370     7.2420     7.0270     7.0430    24.9090 
  199.8750   -26.5320     2.3650    79.7080     7.3340     7.1290     7.1300    24.8680 
  200.0000   -26.5620     2.3590    79.3890     7.3190     7.1390     7.1760    24.8150 
  200.1250   -26.5610     2.3510    78.3390     7.2010     7.0480     7.1210    24.7480 
  200.2500   -26.5140     2.3400    76.1490     7.0260     6.8890     6.9810    24.6790 
  200.3750   -26.3090     2.3300    72.3060     6.8810     6.7250     6.8220    24.7000 
  200.5000   -25.9860     2.3280    72.2840     6.8300     6.6150     6.7230    24.7560 
  200.6250   -25.5430     2.3370    79.2160     6.8980     6.5880     6.9180    24.8020 
  200.7500   -25.0060     2.3520    88.1170     7.0630     6.6390     7.4750    24.8270 
  200.8750   -24.4430     2.3590    91.9580     7.2660     6.7450     7.8820    24.8500 
  201.0000   -23.8620     2.3580    90.6320     7.4210     6.8430     8.1040    24.8770 
  201.1250   -23.3260     2.3540    88.9440     7.4650     6.8870     8.3170    24.8900 
  201.2500   -22.8450     2.3540    90.2010     7.3830     6.8490     8.4600    24.8910 
  201.3750   -22.4320     2.3620    92.1500     7.2640     6.7800     8.5750    24.8910 
  201.5000   -22.0860     2.3770    93.0510     7.3300     6.8390     8.5870    24.8900 
  201.6250   -21.8860     2.3980    92.8030     7.8070     7.2090     8.5250    24.8790 
  201.7500   -21.7650     2.4280    90.4850     8.8460     8.0410     8.8430    24.8340 
  201.8750   -21.6920     2.4680    84.8790    10.4320     9.4050    11.0690    24.7330 
  202.0000   -21.6670     2.5070    78.0890    11.9770    10.8610    16.7770    24.6390 
  202.1250   -21.6570     2.5260    73.7570    12.7110    11.7290    23.4760    24.5950 
  202.2500   -21.6610     2.4970    71.8960    12.0730    11.4170    22.8480    24.5710 
  202.3750   -21.7330     2.3990    68.6110    10.2380     9.9440    13.5840    24.5150 
  202.5000   -21.8320     2.2900    61.9110     8.3370     8.2630     7.4460    24.4550 
  202.6250   -21.8720     2.2160    53.7910     6.9410     6.8900     5.5370    24.4390 
  202.7500   -21.8690     2.1890    47.2140     6.1880     5.9990     5.5770    24.5110 
  202.8750   -21.8200     2.1980    46.2020     6.0200     5.6270     5.8350    24.6020 
  203.0000   -21.7010     2.2160    50.1040     6.1420     5.5770     5.5730    24.5980 
  203.1250   -21.5040     2.2360    55.4740     6.4070     5.7330     5.0390    24.5970 
  203.2500   -21.2520     2.2530    58.7520     6.7280     6.0060     4.9810    24.6750 
  203.3750   -20.9870     2.2620    59.7020     7.0690     6.3370     5.3680    24.7530 
  203.5000   -20.7670     2.2610    62.5710     7.3930     6.6700     5.8540    24.8150 
  203.6250   -20.5840     2.2560    65.8560     7.6510     6.9570     6.1580    24.8430 
  203.7500   -20.4890     2.2520    67.4550     7.8030     7.1560     6.7960    24.7970 
  203.8750   -20.4510     2.2510    68.6810     7.8370     7.2360     7.6600    24.6710 
  204.0000   -20.4590     2.2510    72.5200     7.8350     7.2490     7.8370    24.5550 
  204.1250   -20.5170     2.2540    77.4170     7.8650     7.2520     7.4660    24.5710 
  204.2500   -20.6420     2.2600    79.6590     7.9570     7.2780     7.5670    24.7260 
  204.3750   -20.7670     2.2670    80.6790     8.0580     7.3020     7.3960    24.8420 
  204.5000   -20.8800     2.2690    85.2550     8.0640     7.2520     7.2660    24.8770 
  204.6250   -21.0160     2.2620    92.8870     7.9030     7.0720     7.2400    24.8660 
  204.7500   -21.1730     2.2540    99.2880     7.5730     6.7550     7.0150    24.8330 
  204.8750   -21.3640     2.2590   101.8110     7.1490     6.3570     6.1240    24.8030 
  205.0000   -21.6000     2.2700   102.3960     6.7770     5.9900     5.6690    24.7700 
  205.1250   -21.8830     2.2750   103.3090     6.5460     5.7250     5.7170    24.7390 
  205.2500   -22.1980     2.2660   105.1060     6.4860     5.5940     5.9720    24.7340 
  205.3750   -22.4980     2.2500   104.4700     6.5940     5.6110     5.9860    24.7680 
  205.5000   -22.7570     2.2420   102.7830     6.7760     5.7140     6.0650    24.8350 
  205.6250   -22.9710     2.2460   103.4770     6.9670     5.8520     6.1970    24.8550 
  205.7500   -23.1080     2.2590   106.5180     7.1170     5.9790     6.4190    24.8410 
  205.8750   -23.1750     2.2670   106.7030     7.2040     6.0630     6.7080    24.8460 
  206.0000   -23.2150     2.2690   103.3910     7.2360     6.1020     6.8900    24.8450 
  206.1250   -23.1670     2.2690   101.1290     7.2110     6.0910     6.6970    24.7790 
  206.2500   -23.0470     2.2690   102.5250     7.1290     6.0320     6.5380    24.6420 
  206.3750   -22.9190     2.2600   104.4920     7.0040     5.9310     6.4340    24.5460 
  206.5000   -22.7170     2.2410   105.3480     6.8850     5.8200     6.3310    24.5560 
  206.6250   -22.4560     2.2260   106.1690     6.8100     5.7300     6.8830    24.5460 
  206.7500   -22.1500     2.2240   107.6470     6.8050     5.6850     7.7590    24.4340 
  206.8750   -21.8250     2.2340   107.6910     6.8830     5.7090     7.3380    24.3210 
  207.0000   -21.4200     2.2470   105.8340     7.0040     5.7820     6.4250    24.3270 
  207.1250   -21.0200     2.2570   104.4960     7.1360     5.8830     6.0950    24.3750 
  207.2500   -20.5690     2.2640   104.6300     7.2510     5.9880     6.1950    24.3660 
  207.3750   -20.1160     2.2730   103.9610     7.3290     6.0770     6.3650    24.2860 
  207.5000   -19.7200     2.2860   101.6190     7.3770     6.1470     6.5400    24.2730 
  207.6250   -19.3620     2.3010    99.9460     7.4050     6.1990     6.8270    24.4050 
  207.7500   -19.0250     2.3080   100.5050     7.4170     6.2340     7.0180    24.6410 
  207.8750   -18.7000     2.3000   103.2110     7.4110     6.2460     6.3980    24.9910 
  208.0000   -18.4170     2.2830   104.8840     7.3840     6.2360     5.8670    25.1810 
  208.1250   -18.1580     2.2650   104.8840     7.3300     6.1990     5.6200    25.1300 
  208.2500   -17.9560     2.2520   104.8840     7.2340     6.1260     5.4620    24.9450 
  208.3750   -17.7570     2.2410   104.8840     7.0850     6.0030     5.7900    24.9080 
  208.5000   -17.6120     2.2240   104.8840     6.9110     5.8540     6.2120    24.8590 
  208.6250   -17.5220     2.1950   104.8840     6.7510     5.7090     6.3730    24.8340 
  208.7500   -17.5050     2.1600   104.8840     6.6480     5.6010     6.2910    24.9030 
  208.8750   -17.6070     2.1370   104.8840     6.6540     5.5710     6.0000    25.0340 
  209.0000   -17.7400     2.1360   104.8840     6.7500     5.6110     5.7670    25.0990 
  209.1250   -17.9320     2.1450   104.8840     6.8950     5.7010     5.7670    25.1170 
  209.2500   -18.1270     2.1500   104.8840     7.0260     5.8040     5.9680    25.0670 
  209.3750   -18.3110     2.1550   104.8840     7.0700     5.8730     6.0250    24.9590 
  209.5000   -18.4840     2.1740   104.8840     7.0270     5.8930     6.0110    24.8580 
  209.6250   -18.6630     2.2010   104.8840     6.9540     5.8900     6.1010    24.8130 
  209.7500   -18.8350     2.2190   104.8840     6.9540     5.9280     6.4040    24.8050 
  209.8750   -18.9530     2.2150   104.8840     7.1600     6.1030     6.0310    24.8060 
  210.0000   -19.0610     2.2030   104.8840     7.5530     6.4140     6.1780    24.8190 
  210.1250   -19.0960     2.1990   104.8840     8.0520     6.8080     6.8650    24.8460 
  210.2500   -19.1280     2.2040   104.8840     8.5050     7.1760     8.9020    24.8310 
  210.3750   -19.1670     2.2120   104.8840     8.6850     7.3410    11.1190    24.8440 
