~V
VERS. 2.00: Ver 2.00
~W
STRT.M 55.0000:
STOP.M 251.0000:
STEP.M 0.1250:
NULL. -999.2500:
UWI. F10189:
~C
DEPT.M :
DEN.GM/CC :
SP.MV :
GR.API :
RML.OHMM :
RI. :
RXO.OHMM :
CALI.CM :
~A
# ...
   88.7500     2.1460   -28.4790    57.6100     7.0730     6.7660     7.4940    27.1450 
   88.8750     2.1320   -28.4790    59.8180     7.0350     6.6830     7.3690    27.1820 
   89.0000     2.1190   -28.4730    62.5920     6.9870     6.5960     7.5280    27.2540 
   89.1250     2.1140   -28.4790    65.1930     6.9290     6.5140     7.9050    27.5010 
   89.2500     2.1150   -28.5090    64.7270     6.8870     6.4510     8.0940    27.6960 
   89.3750     2.1180   -28.5260    61.1090     6.8830     6.4160     8.0790    27.5920 
   89.5000     2.1230   -28.5160    57.2450     6.9220     6.4180     8.0360    27.2760 
   89.6250     2.1310   -28.4640    58.3290     7.0050     6.4620     8.2660    27.0610 
   89.7500     2.1400   -28.3780    60.7240     7.1160     6.5330     8.6760    26.9460 
   89.8750     2.1510   -28.2740    60.9770     7.2210     6.6090     8.8150    26.7470 
   90.0000     2.1600   -28.1800    61.4770     7.2850     6.6680     8.7020    26.5120 
   90.1250     2.1600   -28.0910    64.7680     7.2750     6.6870     8.8480    26.3940 
   90.2500     2.1560   -27.9910    66.9410     7.2180     6.6680     9.3670    26.2950 
   90.3750     2.1560   -27.9220    64.6160     7.1490     6.6140    10.0330    26.1530 
   90.5000     2.1600   -27.8990    61.6550     7.0940     6.5340    10.4450    26.0450 
   90.6250     2.1560   -27.9450    63.4530     7.0410     6.4380    10.1230    26.1000 
   90.7500     2.1490   -28.0240    67.3440     6.9600     6.3430     9.7610    26.2500 
   90.8750     2.1530   -28.1080    70.7820     6.8480     6.2590     9.7030    26.3680 
   91.0000     2.1690   -28.1980    72.5710     6.7260     6.1930     9.9900    26.4440 
   91.1250     2.1840   -28.2930    72.0710     6.6250     6.1490    10.7310    26.5530 
   91.2500     2.1880   -28.3970    70.1130     6.5540     6.1200    11.2410    26.6670 
   91.3750     2.1850   -28.4820    67.4730     6.5040     6.0960    11.0120    26.7160 
   91.5000     2.1750   -28.5400    63.8310     6.4650     6.0750    10.3280    26.7250 
   91.6250     2.1590   -28.5780    62.0610     6.4440     6.0590     9.2160    26.8560 
   91.7500     2.1440   -28.6130    64.6430     6.4560     6.0540     8.6680    27.0720 
   91.8750     2.1380   -28.6350    68.5720     6.4940     6.0620     8.4770    27.2600 
   92.0000     2.1450   -28.6320    68.4480     6.5400     6.0820     8.0180    27.3050 
   92.1250     2.1560   -28.6190    64.8490     6.5740     6.1030     7.6440    27.2450 
   92.2500     2.1580   -28.6320    62.8820     6.5950     6.1170     7.5410    27.2210 
   92.3750     2.1440   -28.6670    63.5370     6.6110     6.1180     7.7090    27.2160 
   92.5000     2.1190   -28.6860    63.3030     6.6310     6.1030     8.1320    27.2010 
   92.6250     2.1020   -28.6480    61.3330     6.6430     6.0730     8.5920    27.1500 
   92.7500     2.1030   -28.5670    60.8870     6.6250     6.0340     8.9670    26.9890 
   92.8750     2.1180   -28.4450    63.1480     6.5800     5.9950     8.8710    26.7940 
   93.0000     2.1320   -28.2900    65.6980     6.5300     5.9640     8.5270    26.5920 
   93.1250     2.1380   -28.1050    65.3690     6.5200     5.9500     8.5280    26.4860 
   93.2500     2.1390   -27.8590    63.1000     6.5640     5.9600     8.8820    26.4510 
   93.3750     2.1370   -27.5450    61.2720     6.6630     6.0010     9.2670    26.4570 
   93.5000     2.1350   -27.1730    60.1650     6.7970     6.0740     9.3630    26.4300 
   93.6250     2.1350   -26.7590    63.1030     6.9220     6.1580     8.9060    26.4840 
   93.7500     2.1400   -26.2940    66.4760     6.9750     6.2000     8.3750    26.6300 
   93.8750     2.1510   -25.7960    66.0600     6.9070     6.1480     8.2030    26.7380 
   94.0000     2.1700   -25.2620    63.3980     6.7120     5.9880     8.2120    26.7400 
   94.1250     2.1960   -24.7190    64.5010     6.4520     5.7570     8.2410    26.6540 
   94.2500     2.2150   -24.2800    69.4950     6.2490     5.5550     7.9010    26.5570 
   94.3750     2.2240   -24.0000    72.7390     6.1870     5.4530     7.3710    26.4460 
   94.5000     2.2210   -23.8950    71.1350     6.3030     5.4900     7.1260    26.3980 
   94.6250     2.2000   -23.9120    66.0260     6.5760     5.6750     7.5820    26.5430 
   94.7500     2.1690   -23.9750    61.9380     6.8680     5.9210     8.2920    26.8700 
   94.8750     2.1450   -24.0460    61.7650     7.0590     6.1420     8.6500    27.0800 
   95.0000     2.1430   -24.1210    63.5040     7.0720     6.2650     8.4550    26.7620 
   95.1250     2.1610   -24.1840    65.0800     6.9060     6.2500     8.4510    25.9360 
   95.2500     2.1820   -24.1450    66.4670     6.7030     6.1630     8.8930    25.1610 
   95.3750     2.1980   -23.9650    66.3860     6.5560     6.0690     9.4990    24.6900 
   95.5000     2.2050   -23.6450    64.5460     6.4940     6.0110     9.8480    24.4840 
   95.6250     2.2130   -23.2060    62.2820     6.5000     5.9990     9.4160    24.3330 
   95.7500     2.2250   -22.7080    62.6290     6.5290     6.0060     8.9530    24.0810 
   95.8750     2.2200   -22.2240    65.1670     6.5630     6.0130     8.6580    23.7390 
   96.0000     2.1930   -21.7830    67.4720     6.5950     6.0130     8.6580    23.4080 
   96.1250     2.1740   -21.3790    67.5870     6.6210     6.0150     8.9230    23.2630 
   96.2500     2.1790   -21.0140    67.5800     6.6340     6.0300     9.0110    23.3020 
   96.3750     2.1960   -20.6680    68.1090     6.6220     6.0530     8.6600    23.4520 
   96.5000     2.2020   -20.3310    67.6330     6.5800     6.0620     8.2510    23.5350 
   96.6250     2.2000   -20.0160    65.8290     6.5160     6.0280     7.7880    23.5110 
   96.7500     2.2010   -19.7330    66.4540     6.4630     5.9580     7.6930    23.4730 
   96.8750     2.2030   -19.4440    70.2560     6.4510     5.8880     7.8230    23.4520 
   97.0000     2.2050   -19.1590    71.9590     6.5120     5.8640     7.5650    23.4930 
   97.1250     2.2070   -18.9070    67.7510     6.6610     5.9330     7.1840    23.6320 
   97.2500     2.2130   -18.7160    63.3890     6.8440     6.0710     7.0670    23.7780 
   97.3750     2.2210   -18.6080    63.1380     7.0010     6.2330     7.2080    23.8430 
   97.5000     2.2310   -18.5610    66.5310     7.0740     6.3640     7.5520    23.8530 
   97.6250     2.2290   -18.6100    66.9260     7.0180     6.4020     7.9060    23.8590 
   97.7500     2.2080   -18.7650    65.2540     6.8890     6.3590     7.9150    23.8930 
   97.8750     2.1880   -19.0080    66.3530     6.7650     6.2720     7.4010    23.9590 
   98.0000     2.1850   -19.3050    69.7880     6.7110     6.1890     7.0420    24.0890 
   98.1250     2.1950   -19.5940    69.0450     6.7510     6.1610     7.1830    24.2980 
   98.2500     2.1950   -19.8210    63.8470     6.8190     6.1850     7.5910    24.5360 
   98.3750     2.1830   -19.9750    61.0550     6.8470     6.2300     7.8900    24.7340 
   98.5000     2.1770   -20.0620    62.9750     6.7870     6.2520     7.7280    24.8140 
   98.6250     2.1800   -20.0740    64.6730     6.6310     6.2100     7.4830    24.7190 
   98.7500     2.1910   -20.0320    65.8460     6.4500     6.1160     7.4250    24.5010 
   98.8750     2.2090   -19.9750    69.7490     6.3050     6.0060     7.6420    24.2920 
   99.0000     2.2310   -19.9340    76.0370     6.2320     5.9290     8.1220    24.1840 
   99.1250     2.2470   -19.9280    77.0550     6.2600     5.9340     8.7670    24.1620 
   99.2500     2.2540   -19.9770    72.5100     6.3710     6.0280     9.0420    24.1600 
   99.3750     2.2520   -20.0810    68.1190     6.5500     6.2030     8.9980    24.1650 
   99.5000     2.2340   -20.2510    68.5580     6.7650     6.4310     8.9930    24.1790 
   99.6250     2.2060   -20.4640    71.6330     6.9670     6.6610     9.0600    24.2080 
   99.7500     2.1880   -20.6630    70.2460     7.1200     6.8510     9.0090    24.2380 
   99.8750     2.1830   -20.8360    64.2570     7.2080     6.9840     8.4790    24.2930 
