~V
VERS. 2.00: Ver 2.00
~W
STRT.M 50.0000:
STOP.M 224.0000:
STEP.M 0.1250:
NULL. -999.2500:
UWI. F10153:
~C
DEPT.M :
GR.API :
RML.OHMM :
RI. :
RXO.OHMM :
CALI.CM :
SP.MV :
DEN.GM/CC :
~A
# ...
  140.0000    57.9620   248.8050   223.2740   192.7730    26.2330   -22.0990     2.2010 
  140.1250    58.2370   200.7720   182.3160   158.5010    26.2170   -21.9640     2.2030 
  140.2500    59.7710   149.8480   140.4790   139.1810    26.2010   -21.7690     2.2120 
  140.3750    63.8040   112.1640   106.5220   108.2490    26.1740   -21.5620     2.2270 
  140.5000    68.2760    87.1860    82.7620    69.6380    26.1430   -21.3720     2.2440 
  140.6250    70.8630    71.8240    67.9860    47.8000    26.1250   -21.1890     2.2570 
  140.7500    71.5640    62.5160    59.1370    41.1040    26.1180   -21.0210     2.2630 
  140.8750    70.6070    58.0670    55.0540    40.4510    26.1040   -20.9170     2.2590 
  141.0000    69.2910    56.2320    53.5410    40.1110    26.0590   -20.8750     2.2530 
  141.1250    68.8720    55.4370    53.1170    39.7060    25.9650   -20.8680     2.2500 
  141.2500    69.5660    54.7740    52.8870    38.7540    25.8410   -20.8870     2.2520 
  141.3750    72.2940    53.7570    52.2700    36.9850    25.7260   -20.9590     2.2590 
  141.5000    76.9300    52.6060    51.3540    35.4930    25.6040   -21.0920     2.2660 
  141.6250    81.1070    51.8940    50.6240    34.5460    25.4220   -21.2550     2.2690 
  141.7500    82.2710    51.9170    50.3990    33.5370    25.2100   -21.3990     2.2700 
  141.8750    79.3200    53.2160    51.1710    32.4320    25.0600   -21.4770     2.2670 
  142.0000    75.3090    55.7910    52.9770    33.5590    24.9270   -21.5380     2.2640 
  142.1250    73.2220    59.5120    55.7110    41.1640    24.7120   -21.6630     2.2640 
  142.2500    73.9000    63.9990    59.0550    56.1690    24.4580   -21.8630     2.2630 
  142.3750    76.4420    68.8450    62.6410    68.9730    24.3400   -22.0900     2.2610 
  142.5000    77.1560    73.3650    65.8940    68.7240    24.3730   -22.2640     2.2550 
  142.6250    74.8950    77.0400    68.3840    67.4900    24.4380   -22.3970     2.2500 
  142.7500    72.3330    79.9210    70.1720    67.3390    24.4700   -22.5430     2.2480 
  142.8750    72.9040    82.3910    71.5820    60.9460    24.4680   -22.7450     2.2480 
  143.0000    74.9120    83.4900    73.4720    54.4300    24.4640   -22.9660     2.2470 
  143.1250    75.0890    84.8730    76.7360    56.7070    24.4650   -23.1570     2.2400 
  143.2500    72.8630    89.4310    81.5800    68.9230    24.4780   -23.3100     2.2270 
  143.3750    70.5540    97.2170    88.3060    91.3820    24.5460   -23.4310     2.2120 
  143.5000    70.8400   105.2400    95.6310   107.6020    24.6900   -23.5480     2.2010 
  143.6250    72.2560   111.0260   101.4390   112.1350    24.8820   -23.6610     2.1980 
  143.7500    73.4590   113.4860   104.6300   109.2950    25.0690   -23.7670     2.2040 
  143.8750    75.3680   111.7340   104.1070    99.5020    25.1750   -23.8780     2.2180 
  144.0000    77.8340   107.9450   101.4450    86.8240    25.1750   -23.9960     2.2350 
  144.1250    78.6420   104.1840    98.3860    76.4590    25.0590   -24.0920     2.2490 
  144.2500    77.1270   101.0010    95.5720    71.8410    24.8640   -24.1500     2.2550 
  144.3750    74.6040    97.9960    92.7720    76.1100    24.6500   -24.1760     2.2520 
  144.5000    73.4070    94.0670    89.1370    81.6440    24.4840   -24.2120     2.2460 
  144.6250    74.6720    88.4490    84.0110    77.3570    24.3770   -24.2720     2.2440 
  144.7500    77.1910    81.5830    77.7390    65.0880    24.2970   -24.3230     2.2460 
  144.8750    78.3800    74.8190    71.4130    54.1380    24.2130   -24.3000     2.2490 
  145.0000    78.6550    70.0470    66.6930    48.9100    24.1270   -24.2190     2.2530 
  145.1250    78.3620    68.9330    65.0990    49.3270    24.0660   -24.1540     2.2560 
  145.2500    76.0040    71.7850    66.9980    55.1010    24.0410   -24.1180     2.2580 
  145.3750    72.0720    80.5230    74.2900    70.4880    24.0780   -24.0680     2.2580 
  145.5000    71.7110    94.7470    86.7540    90.5660    24.1920   -23.9600     2.2540 
  145.6250    74.3540   112.9720   103.0450   109.3160    24.3810   -23.7990     2.2420 
  145.7500    74.6430   132.3870   120.5160   128.3200    24.6040   -23.6320     2.2250 
  145.8750    69.9100   147.3190   134.0590   149.9220    24.7910   -23.5190     2.2120 
  146.0000    66.4110   153.3250   139.7320   163.9430    24.8910   -23.4560     2.2100 
  146.1250    68.7470   149.5830   136.6890   150.5290    24.9050   -23.3930     2.2190 
  146.2500    74.2920   139.4000   127.7230   117.6670    24.8780   -23.3190     2.2340 
  146.3750    78.3990   125.5590   115.1350    91.6010    24.8530   -23.2750     2.2470 
  146.5000    79.1870   111.6810   102.2540    81.8070    24.8430   -23.2770     2.2520 
  146.6250    77.0450   100.0000    91.2420    81.1780    24.8430   -23.3230     2.2530 
  146.7500    73.7750    91.0170    82.6600    79.1620    24.8430   -23.4130     2.2530 
  146.8750    71.7840    86.1210    77.8610    71.6790    24.8430   -23.5670     2.2550 
  147.0000    71.9270    85.1400    76.7240    68.1920    24.8500   -23.7380     2.2590 
  147.1250    73.1940    87.7410    78.9660    67.0020    24.8630   -23.8760     2.2630 
  147.2500    74.3920    92.9710    83.7390    67.4130    24.8790   -23.9930     2.2680 
  147.3750    75.4010    99.9300    90.3820    74.8110    24.8980   -24.1350     2.2760 
  147.5000    76.1050   105.8940    96.5080    79.9760    24.9190   -24.3090     2.2810 
  147.6250    76.1050   107.5200    99.0700    77.3930    24.9280   -24.4700     2.2810 
  147.7500    75.7330   103.9000    97.0250    72.2570    24.9050   -24.5760     2.2750 
  147.8750    75.5630    94.4760    89.4110    60.8390    24.8280   -24.5930     2.2640 
  148.0000    76.2040    82.8450    79.2090    45.0430    24.7120   -24.5970     2.2560 
  148.1250    77.1100    72.5010    69.6510    33.4130    24.5600   -24.6570     2.2530 
  148.2500    77.6890    64.6250    62.0620    29.3420    24.3810   -24.7480     2.2550 
  148.3750    77.7930    60.3800    57.6870    33.5580    24.2050   -24.8100     2.2600 
  148.5000    77.2990    59.1160    56.0680    38.3710    24.0760   -24.8310     2.2650 
  148.6250    75.6590    60.1680    56.6720    41.7800    23.9950   -24.8440     2.2700 
  148.7500    73.3930    62.8060    58.8410    46.4150    23.9220   -24.8740     2.2700 
  148.8750    72.8610    66.8180    62.3750    49.6300    23.8080   -24.9220     2.2630 
  149.0000    74.0270    71.5710    66.6040    53.7360    23.6610   -24.9510     2.2470 
  149.1250    73.8610    76.6010    71.0290    61.7500    23.5260   -24.9400     2.2270 
  149.2500    72.0720    81.6080    75.3640    67.9610    23.4400   -24.9050     2.2080 
  149.3750    72.4030    86.3410    79.3290    63.3280    23.4420   -24.8700     2.1980 
  149.5000    75.9360    90.9820    83.0430    55.5070    23.5090   -24.8520     2.1960 
  149.6250    79.2530    95.9660    86.8660    51.9390    23.6030   -24.8750     2.1970 
  149.7500    80.3180   101.4380    90.9690    50.5710    23.6980   -24.9370     2.1990 
  149.8750    77.9310   107.4260    95.4410    48.4210    23.7660   -25.0200     2.2040 
  150.0000    72.6390   113.5560   100.0650    44.9500    23.8030   -25.0940     2.2120 
  150.1250    66.7740   119.5330   104.6460    41.1400    23.8250   -25.1680     2.2160 
  150.2500    63.1720   125.4390   109.2310    39.1090    23.8520   -25.2700     2.2140 
  150.3750    63.9710   131.7770   114.2430    43.5930    23.8940   -25.4260     2.2020 
  150.5000    67.7260   138.5930   119.8070    57.0890    23.9450   -25.5950     2.1880 
  150.6250    70.8690   144.7470   125.1980    65.0340    23.9950   -25.7130     2.1830 
  150.7500    71.0250   148.9160   129.4290    59.1540    24.0400   -25.7760     2.1860 
  150.8750    69.2960   148.4760   130.4790    48.6220    24.0980   -25.8200     2.1930 
  151.0000    69.4000   143.7040   128.1800    45.5990    24.2070   -25.8980     2.1950 
  151.1250    71.0140   136.8500   123.9080    47.0800    24.3880   -25.9850     2.1910 
