~V
VERS. 2.00: Ver 2.00
~W
STRT.M 47.0000:
STOP.M 242.0000:
STEP.M 0.1250:
NULL. -999.2500:
UWI. F10188:
~C
DEPT.M :
SP.MV :
DEN.GM/CC :
GR.API :
RML.OHMM :
RI. :
RXO.OHMM :
CALI.CM :
~A
# ...
   80.7500   -45.1910     2.1090    60.8910     9.9200     8.2420    11.0680    25.5500 
   80.8750   -45.5050     2.1130    60.3160    10.0320     8.3570    10.4230    25.7990 
   81.0000   -45.6970     2.1060    59.9960    10.1980     8.4610    10.0540    26.2540 
   81.1250   -45.8650     2.0920    60.4730    10.3930     8.5730    10.3340    26.4080 
   81.2500   -46.0330     2.0790    59.3080    10.5650     8.6930    10.7880    26.2020 
   81.3750   -46.2070     2.0740    56.6690    10.6570     8.7940    11.0440    25.7130 
   81.5000   -46.4070     2.0860    56.9190    10.6160     8.8140    10.9990    25.2050 
   81.6250   -46.6650     2.1160    60.3490    10.4860     8.7340    11.1680    24.8960 
   81.7500   -46.9590     2.1570    62.0780    10.3170     8.5690    11.6100    24.7960 
   81.8750   -47.2330     2.1960    60.8520    10.1620     8.3690    12.0770    24.8230 
   82.0000   -47.4220     2.2150    61.2310    10.0870     8.2110    12.1140    24.7990 
   82.1250   -47.4950     2.2160    64.0970    10.1210     8.1470    12.1000    24.8190 
   82.2500   -47.4260     2.2080    67.0080    10.2760     8.1930    11.9420    24.9660 
   82.3750   -47.2200     2.1950    67.4670    10.5430     8.3440    12.2730    25.2080 
   82.5000   -46.8480     2.1740    64.6100    10.8910     8.5820    13.0740    25.4220 
   82.6250   -46.2900     2.1490    61.1730    11.2230     8.8430    13.5500    25.5050 
   82.7500   -45.5110     2.1260    58.6510    11.4410     9.0640    13.3930    25.4810 
   82.8750   -44.5100     2.1080    57.3730    11.4740     9.1900    12.9110    25.3290 
   83.0000   -43.2560     2.1040    58.3640    11.2780     9.1710    12.7870    24.9670 
   83.1250   -41.7610     2.1180    61.3410    10.9160     9.0130    12.8470    24.5840 
   83.2500   -40.0500     2.1460    64.4570    10.4460     8.7250    12.2070    24.4330 
   83.3750   -38.1200     2.1760    63.3990     9.9730     8.3630    10.8890    24.5420 
   83.5000   -35.9670     2.1940    60.6610     9.6280     8.0320     9.6700    24.8970 
   83.6250   -33.7500     2.2040    63.9350     9.4210     7.7840     9.1640    25.3290 
   83.7500   -31.6110     2.2160    72.5540     9.2970     7.6070     8.8360    25.6030 
   83.8750   -29.6790     2.2470    80.2220     9.1530     7.4470     8.2560    25.6130 
   84.0000   -28.0550     2.3040    82.1010     8.8290     7.2120     7.2850    25.4280 
   84.1250   -26.7890     2.3590    81.8180     8.3040     6.8720     6.4200    25.2120 
   84.2500   -25.9250     2.3740    84.0180     7.6700     6.4790     5.5920    25.0760 
   84.3750   -25.4310     2.3440    88.3500     7.0790     6.1280     5.2810    25.0350 
   84.5000   -25.2900     2.3030    90.2700     6.7100     5.9390     5.5280    25.0110 
   84.6250   -25.3850     2.2770    87.5080     6.6100     5.9520     5.7980    24.9830 
   84.7500   -25.6080     2.2610    83.2460     6.7500     6.1630     6.1000    24.9770 
   84.8750   -25.8210     2.2460    82.5110     7.0110     6.5010     6.3930    24.9810 
   85.0000   -25.9240     2.2350    85.0560     7.2200     6.8150     6.5850    25.0150 
   85.1250   -25.9010     2.2310    87.6160     7.2760     6.9780     6.2320    25.0480 
   85.2500   -25.7360     2.2350    88.8830     7.1440     6.9320     5.5260    25.0610 
   85.3750   -25.4860     2.2490    88.7740     6.8330     6.6740     4.7810    25.0630 
   85.5000   -25.2580     2.2690    90.6840     6.3680     6.2340     4.3870    25.0530 
   85.6250   -25.0400     2.2800    93.4620     5.8370     5.7130     4.4420    25.0280 
   85.7500   -24.8680     2.2850    94.9040     5.3290     5.1860     4.6390    25.0040 
   85.8750   -24.8570     2.2980    95.9360     4.9840     4.7590     4.7700    24.9880 
   86.0000   -25.1390     2.3290    98.5740     5.0530     4.6300     5.4490    24.9480 
   86.1250   -25.6380     2.3630   100.5250     5.6260     4.8910     6.8770    24.8710 
   86.2500   -26.3620     2.3830    96.5920     6.7460     5.6280     8.8960    24.7970 
   86.3750   -27.3170     2.3840    87.7540     8.3220     6.8650    11.2030    24.7510 
   86.5000   -28.3620     2.3820    77.9180     9.9260     8.4480    12.8750    24.7000 
   86.6250   -29.3830     2.3810    70.3870    10.7570     9.7000    13.7400    24.5720 
   86.7500   -30.2850     2.3640    68.1620    10.3290     9.9760    13.1400    24.3990 
   86.8750   -30.9970     2.3170    72.2110     8.9680     9.2210    10.7610    24.2620 
   87.0000   -31.4990     2.2620    79.7540     7.5740     8.0340     8.4580    24.1710 
   87.1250   -31.8610     2.2310    84.8010     6.6790     7.0540     7.0340    24.0610 
   87.2500   -32.0760     2.2220    85.9400     6.3120     6.4450     6.1510    24.0060 
   87.3750   -32.1510     2.2230    84.7250     6.3210     6.1800     5.7120    24.0280 
   87.5000   -32.2010     2.2270    82.6810     6.4980     6.1590     6.0830    23.9980 
   87.6250   -32.3610     2.2330    79.5710     6.6290     6.1950     6.7140    23.8630 
   87.7500   -32.7500     2.2380    76.2050     6.6660     6.2190     7.2400    23.7250 
   87.8750   -33.3840     2.2400    75.4040     6.7010     6.2580     7.5160    23.6640 
   88.0000   -34.2170     2.2360    79.1030     6.9210     6.4370     8.0500    23.6660 
   88.1250   -35.2450     2.2280    81.2370     7.3910     6.8180     9.3180    23.6860 
   88.2500   -36.4380     2.2190    78.4970     8.0740     7.4020    10.7720    23.6900 
   88.3750   -37.6930     2.2110    73.7720     8.8100     8.0950    11.8030    23.6690 
   88.5000   -38.9210     2.2020    70.8160     9.2620     8.6370    12.3190    23.6480 
   88.6250   -40.0820     2.1890    67.8970     9.2560     8.8100    11.9490    23.6290 
   88.7500   -41.0880     2.1710    65.0760     8.8510     8.5900    10.9730    23.6490 
   88.8750   -41.8920     2.1490    65.4580     8.2900     8.1360    10.2030    23.7750 
   89.0000   -42.4990     2.1310    68.2770     7.8540     7.6740     9.5190    23.9910 
   89.1250   -42.8840     2.1200    68.5820     7.6440     7.3540     9.1840    24.0990 
   89.2500   -43.0350     2.1140    65.4810     7.6300     7.2000     9.3610    24.1250 
   89.3750   -43.0390     2.1130    62.2260     7.7040     7.1640    10.1190    24.1920 
   89.5000   -42.9590     2.1150    62.8230     7.7340     7.1710    10.9540    24.2750 
   89.6250   -42.8230     2.1190    64.2470     7.6840     7.1630    11.2440    24.3120 
   89.7500   -42.7010     2.1240    61.8600     7.5960     7.1320    10.9180    24.3180 
   89.8750   -42.6000     2.1290    57.3980     7.5320     7.0850    10.5590    24.3180 
   90.0000   -42.4750     2.1340    57.7490     7.5510     7.0410    10.4810    24.3090 
   90.1250   -42.3530     2.1400    61.9050     7.6360     7.0240    10.4410    24.2890 
   90.2500   -42.2810     2.1460    64.9390     7.7400     7.0470    10.1940    24.2770 
   90.3750   -42.2400     2.1510    64.9170     7.8180     7.1000     9.7170    24.2940 
   90.5000   -42.1610     2.1540    64.8030     7.8450     7.1540     9.6280    24.3860 
   90.6250   -42.0690     2.1520    65.0510     7.8380     7.1770     9.8310    24.5480 
   90.7500   -41.9770     2.1420    66.0430     7.8100     7.1560    10.4070    24.8020 
   90.8750   -41.9040     2.1190    68.0820     7.7600     7.0960    11.1100    25.0850 
   91.0000   -41.8160     2.0890    69.2470     7.6850     7.0090    11.2420    25.1940 
   91.1250   -41.6510     2.0690    67.5830     7.5930     6.9160    11.2560    24.9300 
   91.2500   -41.4270     2.0720    65.4910     7.4970     6.8280    11.6300    24.5840 
   91.3750   -41.1530     2.0940    65.2170     7.4080     6.7520    12.3890    24.4100 
   91.5000   -40.8130     2.1190    65.7930     7.3400     6.6990    12.9190    24.3880 
   91.6250   -40.4450     2.1350    65.4790     7.2940     6.6690    12.6440    24.3780 
   91.7500   -40.0410     2.1440    66.4290     7.2710     6.6630    11.6760    24.3350 
   91.8750   -39.5600     2.1510    70.6550     7.2640     6.6700    10.8600    24.2650 
