~V
VERS. 2.00: Ver 2.00
~W
STRT.M 55.0000:
STOP.M 247.0000:
STEP.M 0.1250:
NULL. -999.2500:
UWI. F10183:
~C
DEPT.M :
SP.MV :
GR.API :
RML.OHMM :
RI. :
RXO.OHMM :
CALI.CM :
DEN.GM/CC :
~A
# ...
   88.7500   -12.6310    51.4150     8.8350     7.8800    10.0390    23.0930     2.1680 
   88.8750   -12.7650    49.3890     8.7560     7.5740     9.8160    23.1450     2.1440 
   89.0000   -12.8230    48.9040     9.0690     7.6280     9.7200    23.1340     2.1320 
   89.1250   -12.8170    51.0010     9.4650     7.8640     9.5280    23.0910     2.1320 
   89.2500   -12.8080    54.5190     9.7120     8.0790     9.2810    23.0700     2.1390 
   89.3750   -12.7620    56.8770     9.7330     8.1760     9.1480    23.0660     2.1490 
   89.5000   -12.6590    56.8270     9.5490     8.1260     9.1350    23.0940     2.1560 
   89.6250   -12.4880    56.4080     9.2400     7.9470     9.0650    23.1520     2.1570 
   89.7500   -12.3170    56.1360     8.9320     7.7260     8.8790    23.1960     2.1540 
   89.8750   -12.1870    55.2510     8.6820     7.5110     8.6480    23.2130     2.1510 
   90.0000   -12.0910    53.0390     8.5030     7.3260     8.4570    23.2390     2.1490 
   90.1250   -11.9860    52.0110     8.3820     7.1770     8.4060    23.2670     2.1490 
   90.2500   -11.9140    52.7060     8.2960     7.0530     8.3950    23.2610     2.1520 
   90.3750   -11.8880    54.2180     8.2480     6.9620     8.3310    23.2310     2.1580 
   90.5000   -11.8840    56.2180     8.2580     6.9190     8.1690    23.2150     2.1650 
   90.6250   -11.9310    58.4910     8.3590     6.9500     8.0600    23.1970     2.1700 
   90.7500   -12.0030    59.3250     8.5330     7.0420     8.1230    23.1440     2.1710 
   90.8750   -12.1150    58.2020     8.7480     7.1760     8.3400    23.0850     2.1670 
   91.0000   -12.2010    56.2280     8.9520     7.3180     8.5480    23.0450     2.1640 
   91.1250   -12.2880    54.7300     9.0810     7.4250     8.6190    22.9800     2.1650 
   91.2500   -12.3570    52.9360     9.1200     7.4750     8.6140    22.9070     2.1710 
   91.3750   -12.3930    52.3480     9.0860     7.4710     8.6400    22.8700     2.1770 
   91.5000   -12.4630    54.1570     9.0210     7.4350     8.7540    22.8680     2.1820 
   91.6250   -12.5010    55.3120     8.9790     7.4010     8.8350    22.8950     2.1820 
   91.7500   -12.5640    55.1390     8.9820     7.3910     8.8730    22.9570     2.1820 
   91.8750   -12.5900    55.4820     9.0260     7.4090     8.8770    23.0320     2.1820 
   92.0000   -12.6280    55.3610     9.0930     7.4470     8.8660    23.1020     2.1840 
   92.1250   -12.6780    51.8880     9.1560     7.4890     8.8580    23.1760     2.1850 
   92.2500   -12.7230    48.2610     9.1960     7.5210     8.8580    23.2520     2.1830 
   92.3750   -12.7580    47.5250     9.2080     7.5350     8.8520    23.2850     2.1790 
   92.5000   -12.7560    48.9010     9.1920     7.5310     8.8650    23.2790     2.1740 
   92.6250   -12.7000    51.4450     9.1520     7.5130     8.9150    23.2760     2.1680 
   92.7500   -12.5580    55.4560     9.1030     7.4920     8.9970    23.2540     2.1630 
   92.8750   -12.3980    58.9740     9.0580     7.4770     9.0770    23.2340     2.1600 
   93.0000   -12.2130    59.9780     9.0260     7.4730     9.1360    23.2310     2.1630 
   93.1250   -11.9900    57.7550     9.0210     7.4890     9.1610    23.2010     2.1760 
   93.2500   -11.7280    54.3910     9.0470     7.5250     9.1600    23.1660     2.1950 
   93.3750   -11.4610    51.6050     9.1060     7.5810     9.1250    23.1830     2.2130 
   93.5000   -11.1630    51.4490     9.1960     7.6550     9.0260    23.2310     2.2200 
   93.6250   -10.8700    54.3620     9.3000     7.7360     8.8940    23.2480     2.2130 
   93.7500   -10.5900    58.4450     9.3730     7.7960     8.8410    23.2520     2.2000 
   93.8750   -10.3000    60.3120     9.3590     7.7970     8.8690    23.2740     2.1890 
   94.0000    -9.9790    57.9400     9.2020     7.6990     8.9060    23.2870     2.1820 
   94.1250    -9.5700    55.1250     8.8330     7.4510     8.7560    23.2820     2.1810 
   94.2500    -9.1430    57.0090     8.3070     7.0830     8.4380    23.2970     2.1840 
   94.3750    -8.7110    64.1750     7.7120     6.6480     7.8660    23.3170     2.1910 
   94.5000    -8.2820    72.7350     7.1730     6.2280     7.0640    23.3140     2.2020 
   94.6250    -7.8800    75.8920     6.8650     5.9420     6.2650    23.3180     2.2120 
   94.7500    -7.5410    75.1510     6.8410     5.8450     5.7690    23.3360     2.2130 
   94.8750    -7.2570    73.5630     7.0900     5.9480     5.8600    23.3410     2.2070 
   95.0000    -7.0130    71.1320     7.5160     6.2020     6.3800    23.3450     2.1970 
   95.1250    -6.8360    65.6960     7.9280     6.4930     7.0920    23.3690     2.1930 
   95.2500    -6.6800    61.9150     8.1270     6.6700     7.5930    23.3840     2.2000 
   95.3750    -6.5250    63.9030     8.0030     6.6360     7.5770    23.4020     2.2180 
   95.5000    -6.4270    69.8350     7.5760     6.3770     6.9290    23.4330     2.2410 
   95.6250    -6.3980    75.7020     7.0130     5.9780     5.9860    23.4260     2.2630 
   95.7500    -6.3870    79.3020     6.5870     5.6340     5.3260    23.3890     2.2790 
   95.8750    -6.4410    79.4770     6.4650     5.4700     5.1240    23.3540     2.2840 
   96.0000    -6.6040    76.1540     6.7080     5.5530     5.3600    23.3000     2.2800 
   96.1250    -6.9120    71.6200     7.3110     5.9170     6.1070    23.2230     2.2700 
   96.2500    -7.2780    67.5110     8.0710     6.4470     7.0750    23.1750     2.2610 
   96.3750    -7.7040    64.8160     8.8180     7.0330     7.9570    23.1460     2.2560 
   96.5000    -8.1790    64.3520     9.3930     7.5530     8.6150    23.1100     2.2540 
   96.6250    -8.6850    64.4600     9.6410     7.8680     9.0660    23.0980     2.2500 
   96.7500    -9.1370    63.9290     9.6130     7.9720     9.2560    23.0950     2.2420 
   96.8750    -9.5020    63.8940     9.4030     7.9060     9.2930    23.0730     2.2310 
   97.0000    -9.8210    64.3650     9.1380     7.7520     9.2720    23.0590     2.2210 
   97.1250   -10.0400    64.8600     8.9440     7.5990     9.1640    23.0740     2.2170 
   97.2500   -10.2260    65.6790     8.8540     7.4940     9.1050    23.0810     2.2200 
   97.3750   -10.4080    64.9850     8.8520     7.4420     9.1740    23.0920     2.2260 
   97.5000   -10.5470    60.3380     8.8880     7.4250     9.2910    23.1120     2.2320 
   97.6250   -10.6140    53.3960     8.9060     7.4140     9.2730    23.1100     2.2320 
   97.7500   -10.6780    50.4070     8.8860     7.3940     9.1070    23.1030     2.2270 
   97.8750   -10.7280    50.8180     8.8450     7.3680     8.9110    23.1120     2.2200 
   98.0000   -10.7240    50.8770     8.8100     7.3520     8.7700    23.1100     2.2130 
   98.1250   -10.7070    50.9440     8.8060     7.3610     8.7170    23.1000     2.2090 
   98.2500   -10.7180    52.9540     8.8190     7.3860     8.7510    23.1070     2.2070 
   98.3750   -10.7100    56.0840     8.8220     7.4100     8.7790    23.1040     2.2070 
   98.5000   -10.6750    58.4780     8.7870     7.4110     8.7440    23.0800     2.2080 
   98.6250   -10.6830    58.6110     8.6990     7.3720     8.6990    23.0630     2.2060 
   98.7500   -10.6840    57.5160     8.5830     7.3010     8.6850    23.0320     2.2010 
   98.8750   -10.6770    57.7320     8.4630     7.2120     8.6880    22.9860     2.1930 
   99.0000   -10.6570    58.9560     8.3550     7.1200     8.6570    22.9590     2.1840 
   99.1250   -10.6510    58.5450     8.2640     7.0320     8.5310    22.9450     2.1800 
   99.2500   -10.6320    57.0440     8.1810     6.9520     8.3540    22.9250     2.1840 
   99.3750   -10.5910    57.3190     8.1000     6.8780     8.1710    22.9400     2.1940 
   99.5000   -10.6020    58.5650     8.0270     6.8150     8.0270    23.0020     2.2060 
   99.6250   -10.6230    57.7720     7.9860     6.7800     7.9440    23.0890     2.2130 
   99.7500   -10.6870    56.0790     7.9900     6.7820     7.9440    23.2080     2.2100 
   99.8750   -10.7700    56.1420     8.0450     6.8250     8.0440    23.3320     2.1980 
