~V
VERS. 2.00: Ver 2.00
~W
STRT.M 50.0000:
STOP.M 284.0000:
STEP.M 0.1250:
NULL. -999.2500:
UWI. F10107:
~C
DEPT.M :
DEN.GM/CC :
SP.MV :
GR.API :
RML.OHMM :
RI. :
RXO.OHMM :
CALI.CM :
~A
# ...
  263.7500     2.3340   -21.4430    46.2880    71.4920    65.2780    58.8190    23.6570 
  263.8750     2.4180   -21.6380    43.7810    80.7310    73.7800    66.7940    23.6180 
  264.0000     2.5120   -21.7970    43.7910    89.9320    82.9550    86.0030    23.5300 
  264.1250     2.5960   -21.8890    44.3240    95.3060    89.6810   123.2400    23.4870 
  264.2500     2.6590   -21.8440    43.6070    94.2460    91.1660   170.7690    23.4720 
  264.3750     2.7000   -21.6300    44.0770    85.9170    85.8850   211.0510    23.4730 
  264.5000     2.7240   -21.2030    47.0690    72.3280    74.6130   215.1000    23.4720 
  264.6250     2.7350   -20.4330    49.5240    57.0640    59.8320   173.2110    23.4700 
  264.7500     2.7290   -19.3580    49.9040    42.8500    44.9700   117.9880    23.4700 
  264.8750     2.6980   -18.0220    49.9810    30.5190    31.7400    77.9760    23.4700 
  265.0000     2.6300   -16.4610    50.4300    20.5110    21.1530    55.0690    23.4700 
  265.1250     2.5140   -14.7290    50.4320    13.5080    13.9830    36.4290    23.4800 
  265.2500     2.3730   -12.9880    50.1390     8.9090     9.3080    19.7990    23.5980 
  265.3750     2.2350   -11.3480    49.8080     6.2220     6.4950    10.3500    24.0120 
  265.5000     2.1270    -9.8860    47.4800     4.8740     4.9660     6.7960    25.0080 
  265.6250     2.0760    -8.7390    43.5600     4.4820     4.4030     5.1180    26.4950 
  265.7500     2.0780    -7.8970    40.1850     4.5890     4.3900     3.8810    27.6700 
  265.8750     2.1230    -7.3270    36.6320     5.0230     4.7680     3.5430    27.2980 
  266.0000     2.1970    -7.0090    32.9000     5.6500     5.4000     3.8990    25.9880 
  266.1250     2.2760    -6.9220    30.9850     6.3210     6.1350     4.6900    25.3860 
  266.2500     2.3390    -6.9380    31.2110     6.8830     6.7890     5.4610    24.9900 
  266.3750     2.3750    -6.9960    31.6370     7.2410     7.2400     6.1470    24.5980 
  266.5000     2.3790    -7.0650    32.0620     7.3470     7.4040     6.7900    24.3250 
  266.6250     2.3510    -7.1100    35.1400     7.1620     7.2140     7.0250    24.2980 
  266.7500     2.3090    -7.1420    39.6770     6.7890     6.7790     6.7660    24.4740 
  266.8750     2.2730    -7.1810    43.0700     6.3180     6.2040     6.2710    24.9400 
  267.0000     2.2590    -7.2100    43.6930     5.8560     5.6070     5.8140    25.5100 
  267.1250     2.2740    -7.2450    43.1300     5.5440     5.1410     5.0790    25.6230 
  267.2500     2.3020    -7.3200    44.8930     5.4230     4.8770     4.5870    25.1710 
  267.3750     2.3270    -7.4140    49.1360     5.5010     4.8420     4.7550    24.7810 
  267.5000     2.3390    -7.5270    53.9140     5.7280     5.0160     5.2680    24.4140 
  267.6250     2.3370    -7.6880    56.7660     6.0220     5.3630     6.0950    24.1830 
  267.7500     2.3360    -7.8530    58.2420     6.3820     5.7760     7.1780    24.1080 
  267.8750     2.3420    -8.0050    59.5270     6.7240     6.1780     8.0510    24.0650 
  268.0000     2.3560    -8.1660    60.9490     7.0150     6.5140     7.9040    23.9640 
  268.1250     2.3730    -8.3010    64.3290     7.2340     6.7420     8.0550    23.8000 
  268.2500     2.3860    -8.4010    69.8480     7.3110     6.8800     8.3000    23.6830 
  268.3750     2.3910    -8.4830    75.9310     7.3070     6.9370     8.5510    23.6200 
  268.5000     2.3890    -8.5500    81.4650     7.2370     6.9150     8.7860    23.5930 
  268.6250     2.3820    -8.5970    86.1910     7.1550     6.8060     8.9500    23.5750 
  268.7500     2.3740    -8.6370    90.9060     7.0300     6.6430     8.8730    23.5650 
  268.8750     2.3660    -8.6670    93.7610     6.8970     6.4600     8.3480    23.5650 
  269.0000     2.3610    -8.6790    95.0230     6.7890     6.2910     7.6110    23.5660 
  269.1250     2.3600    -8.6910    96.4060     6.7230     6.1590     7.2750    23.5610 
  269.2500     2.3610    -8.7010    97.3360     6.6760     6.0500     7.2820    23.5460 
  269.3750     2.3630    -8.7080    95.5680     6.6220     5.9510     7.4680    23.5380 
  269.5000     2.3660    -8.7150    91.0670     6.5460     5.8450     7.5430    23.5370 
  269.6250     2.3690    -8.7030    86.8940     6.4500     5.7330     7.2340    23.5360 
  269.7500     2.3720    -8.6800    86.7630     6.3640     5.6320     6.9440    23.5260 
  269.8750     2.3750    -8.6620    89.0310     6.3190     5.5640     6.8330    23.5020 
  270.0000     2.3790    -8.6270    90.2960     6.3270     5.5430     6.8180    23.4840 
  270.1250     2.3810    -8.5740    89.2380     6.3840     5.5740     6.7740    23.4770 
  270.2500     2.3810    -8.4880    87.3720     6.4580     5.6310     6.8120    23.4760 
  270.3750     2.3800    -8.3480    86.4100     6.5170     5.6880     7.0670    23.4780 
  270.5000     2.3780    -8.1650    87.3570     6.5370     5.7220     7.2720    23.4850 
  270.6250     2.3760    -7.9350    89.3170     6.4990     5.7100     7.0310    23.5020 
  270.7500     2.3740    -7.6540    90.7500     6.4100     5.6540     7.0980    23.5260 
  270.8750     2.3730    -7.3310    90.2270     6.2740     5.5570     7.2990    23.5360 
  271.0000     2.3700    -7.0000    88.9710     6.0990     5.4210     7.0020    23.5370 
  271.1250     2.3650    -6.6830    88.0970     5.8810     5.2440     6.7380    23.5370 
  271.2500     2.3570    -6.3960    87.3060     5.6330     5.0350     6.4860    23.5370 
  271.3750     2.3490    -6.1710    86.6800     5.3640     4.8030     6.2790    23.5300 
  271.5000     2.3410    -6.0050    86.4050     5.0930     4.5640     5.9510    23.5130 
  271.6250     2.3370    -5.8960    87.0060     4.8520     4.3440     5.4350    23.4850 
  271.7500     2.3370    -5.8280    87.6420     4.6550     4.1570     5.0520    23.4720 
  271.8750     2.3410    -5.7770    87.7220     4.5070     4.0120     4.8210    23.4700 
  272.0000     2.3450    -5.7380    89.0310     4.4050     3.9080     4.6920    23.4700 
  272.1250     2.3460    -5.6870    91.7930     4.3440     3.8460     4.6020    23.4700 
  272.2500     2.3460    -5.5890    92.5950     4.3050     3.8080     4.5910    23.4700 
  272.3750     2.3430    -5.4340    91.2720     4.2810     3.7870     4.5840    23.4700 
  272.5000     2.3400    -5.2400    90.0080     4.2720     3.7800     4.5500    23.4700 
  272.6250     2.3380    -5.0300    89.4970     4.2780     3.7890     4.5260    23.4700 
  272.7500     2.3370    -4.8260    87.7340     4.2970     3.8100     4.5390    23.4730 
  272.8750     2.3360    -4.6580    85.3050     4.3270     3.8440     4.5750    23.4900 
  273.0000     2.3360    -4.5200    84.5950     4.3680     3.8880     4.5910    23.5320 
  273.1250     2.3380    -4.4150    85.4670     4.4180     3.9410     4.6040    23.5530 
  273.2500     2.3440    -4.3570    85.9950     4.4670     3.9930     4.6240    23.5240 
  273.3750     2.3520    -4.3500    86.0660     4.5080     4.0380     4.6500    23.4710 
  273.5000     2.3620    -4.3660    86.0660     4.5310     4.0710     4.6490    23.4280 
  273.6250     2.3680    -4.3870    86.0660     4.5290     4.0880     4.6510    23.4120 
  273.7500     2.3700    -4.4300    86.0660     4.5050     4.0930     4.6550    23.4140 
  273.8750     2.3680    -4.4800    86.0660     4.4690     4.0910     4.6960    23.4250 
  274.0000     2.3640    -4.5290    86.0660     4.4300     4.0860     4.7240    23.4140 
  274.1250     2.3610    -4.5750    86.0660     4.4010     4.0870     4.7960    23.4130 
  274.2500     2.3610    -4.6290    86.0660     4.3970     4.1040     4.8090    23.4600 
  274.3750     2.3640    -4.6790    86.0660     4.4360     4.1510     4.7900    23.5820 
  274.5000     2.3670    -4.7380    86.0660     4.5340     4.2390     4.8400    23.6880 
  274.6250     2.3660    -4.8090    86.0660     4.7040     4.3800     4.9670    23.7310 
  274.7500     2.3600    -4.8550    86.0660     4.9080     4.5450     5.1040    23.7500 
  274.8750     2.3510    -4.8840    86.0660     5.0910     4.6920     5.2800    23.7760 
