~V
VERS. 2.00: Ver 2.00
~W
STRT.M 63.0000:
STOP.M 207.0000:
STEP.M 0.1250:
NULL. -999.2500:
UWI. F10132:
~C
DEPT.M :
SP.MV :
DEN.GM/CC :
GR.API :
RML.OHMM :
RI. :
RXO.OHMM :
CALI.CM :
~A
# ...
  141.7500   -25.8410     2.5380    47.5530    12.4350    10.8610     8.7800    25.7760 
  141.8750   -25.5910     2.5340    48.9210    12.4410    10.7930     8.7960    25.7760 
  142.0000   -25.4040     2.5280    49.0000    12.8300    11.0230     9.0050    25.7790 
  142.1250   -25.3270     2.5190    47.9120    13.4150    11.4460     9.6190    25.7810 
  142.2500   -25.3650     2.5090    48.3510    13.8880    11.8310    10.5390    25.7820 
  142.3750   -25.5030     2.5010    50.3770    14.0790    12.0290    11.0410    25.7830 
  142.5000   -25.7120     2.4990    51.3940    13.9800    12.0090    10.4360    25.7820 
  142.6250   -25.9630     2.5030    50.5120    13.7780    11.8790     9.8920    25.7820 
  142.7500   -26.2140     2.5090    50.2760    13.7830    11.8610     9.9720    25.7810 
  142.8750   -26.4320     2.5130    51.8470    14.2000    12.1150    10.5910    25.7810 
  143.0000   -26.5820     2.5190    53.0140    15.0940    12.7190    11.6900    25.7740 
  143.1250   -26.6400     2.5290    50.6400    16.3590    13.6570    13.1570    25.7550 
  143.2500   -26.6320     2.5450    48.1590    17.5670    14.6460    13.9200    25.7370 
  143.3750   -26.5910     2.5630    48.9240    18.3100    15.3790    14.4840    25.7290 
  143.5000   -26.5370     2.5770    52.3720    18.2940    15.5860    14.1640    25.7240 
  143.6250   -26.4810     2.5810    54.8410    17.4310    15.1270    13.2850    25.7090 
  143.7500   -26.4330     2.5740    55.3640    16.2030    14.3310    11.8780    25.6900 
  143.8750   -26.3910     2.5600    54.6430    14.9820    13.4770    10.5020    25.6650 
  144.0000   -26.3540     2.5460    53.4400    14.0160    12.7660     9.6930    25.5890 
  144.1250   -26.3190     2.5370    53.5810    13.4420    12.3190     9.7570    25.4140 
  144.2500   -26.2810     2.5360    54.0860    13.1420    12.0700     9.9160    25.1810 
  144.3750   -26.2330     2.5430    53.4500    13.0230    11.9570     9.3230    24.9400 
  144.5000   -26.1700     2.5550    51.5050    13.0350    11.9400     8.2400    24.7470 
  144.6250   -26.1060     2.5700    51.1910    13.2320    12.0520     7.8930    24.6570 
  144.7500   -26.0500     2.5860    52.8970    13.6650    12.3330     7.8650    24.6370 
  144.8750   -26.0110     2.5940    53.9580    14.3960    12.8330     8.2300    24.6450 
  145.0000   -25.9940     2.5840    53.4000    15.4120    13.5600     9.3470    24.7100 
  145.1250   -26.0000     2.5490    53.5110    16.6010    14.4460    10.8730    24.9980 
  145.2500   -26.0210     2.5060    57.0540    17.8120    15.3430    12.3590    25.4930 
  145.3750   -26.0700     2.4690    61.4800    19.1350    16.2630    14.6630    26.0690 
  145.5000   -26.1580     2.4470    62.3380    20.9670    17.4220    18.4560    26.5570 
  145.6250   -26.2800     2.4370    59.2330    24.5430    19.5510    24.9470    26.8370 
  145.7500   -26.4250     2.4200    57.6910    31.2290    23.6340    35.0180    26.9890 
  145.8750   -26.5930     2.3880    59.4180    42.9330    31.3530    49.5160    27.0920 
  146.0000   -26.7640     2.3440    60.0400    61.8570    45.0440    68.3480    27.1940 
  146.1250   -26.9100     2.3040    57.5830    91.9430    68.8580    90.5970    27.2850 
  146.2500   -27.0120     2.2750    56.8350   131.7710   101.7460   112.9750    27.3560 
  146.3750   -27.0630     2.2570    58.5090   175.9870   138.9050   134.4680    27.4310 
  146.5000   -27.0710     2.2410    59.9080   213.3850   171.0090   154.7390    27.5480 
  146.6250   -27.0490     2.2240    58.6680   232.3130   188.7870   172.9410    27.7410 
  146.7500   -27.0180     2.2090    56.6330   239.3910   196.7600   188.8040    27.9380 
  146.8750   -27.0010     2.2000    53.7700   242.5350   200.9210   203.2070    28.0820 
  147.0000   -27.0230     2.1990    50.7610   245.8300   205.0410   214.3810    28.1820 
  147.1250   -27.0960     2.2050    50.2710   249.2800   209.6800   220.8700    28.2860 
  147.2500   -27.1860     2.2100    51.9460   250.8680   213.1430   224.2110    28.3880 
  147.3750   -27.2720     2.2110    54.2020   248.9190   213.7330   219.0980    28.4670 
  147.5000   -27.3370     2.2080    56.4130   243.0470   210.7040   203.4140    28.5210 
  147.6250   -27.3740     2.2050    59.1620   234.3530   204.5720   182.5820    28.5490 
  147.7500   -27.3840     2.2050    59.7250   225.4820   197.7380   166.9230    28.5560 
  147.8750   -27.3650     2.2110    56.8880   217.5960   191.4480   157.9970    28.5550 
  148.0000   -27.3170     2.2200    52.7540   210.6630   185.8700   153.4190    28.5540 
  148.1250   -27.2600     2.2300    52.2180   203.8810   180.3510   151.0770    28.5530 
  148.2500   -27.2060     2.2360    54.9820   196.6010   174.3030   152.2770    28.5510 
  148.3750   -27.1680     2.2390    56.8010   188.9190   167.7560   155.4040    28.5500 
  148.5000   -27.1650     2.2400    56.1760   181.6590   161.4010   158.2150    28.5480 
  148.6250   -27.2260     2.2410    55.8420   176.5930   156.8860   157.3730    28.5490 
  148.7500   -27.3340     2.2390    57.7960   174.4420   155.0730   152.6890    28.5760 
  148.8750   -27.4710     2.2330    58.6020   175.2730   156.1640   148.2940    28.6380 
  149.0000   -27.6200     2.2240    54.8840   178.5090   159.7190   147.4420    28.7390 
  149.1250   -27.7670     2.2160    49.3350   182.7020   164.5690   152.0250    28.8570 
  149.2500   -27.8980     2.2120    46.0840   184.9280   168.0020   157.3910    28.9520 
  149.3750   -28.0080     2.2150    45.5980   182.3110   167.1990   162.8090    28.9980 
  149.5000   -28.1020     2.2230    46.8190   173.3460   160.3640   166.8230    28.9600 
  149.6250   -28.2020     2.2270    49.0240   158.8430   147.5820   159.2720    28.8240 
  149.7500   -28.3400     2.2170    50.8400   143.3960   133.0590   143.0380    28.6970 
  149.8750   -28.5190     2.1920    52.5700   130.1080   120.0140   124.1270    28.6810 
  150.0000   -28.7260     2.1630    55.7300   120.7450   110.5670   107.4090    28.7620 
  150.1250   -28.9210     2.1480    58.2410   116.4320   106.1470    93.8010    28.7280 
  150.2500   -29.0660     2.1540    58.4890   115.7760   105.5210    84.1290    28.4930 
  150.3750   -29.1410     2.1770    57.7500   117.4770   107.4940    82.0570    28.2010 
  150.5000   -29.1390     2.2000    58.4790   119.6800   110.2940    86.0450    28.1110 
  150.6250   -29.0440     2.2070    60.9230   119.7820   111.3210    90.4770    28.4000 
  150.7500   -28.8810     2.2040    61.8000   116.7560   109.2960    95.8730    28.7790 
  150.8750   -28.6710     2.2020    60.1860   111.0320   104.4200   100.6990    28.9660 
  151.0000   -28.4400     2.2100    57.6710   104.0750    97.9980   103.3150    28.9120 
  151.1250   -28.2160     2.2270    56.4350    97.7560    91.7570    99.1350    28.7840 
  151.2500   -28.0260     2.2430    55.6730    93.2780    86.9350    89.0560    28.7240 
  151.3750   -27.8820     2.2520    54.6320    91.3140    84.2350    80.3560    28.7060 
  151.5000   -27.7850     2.2530    54.4010    92.1470    84.0360    78.2300    28.6990 
  151.6250   -27.7630     2.2510    56.7530    96.1310    86.7820    82.1350    28.6650 
  151.7500   -27.8080     2.2500    59.4500   102.4650    91.7860    89.3150    28.5890 
  151.8750   -27.9000     2.2470    59.6620   110.6690    98.6260    97.3490    28.4930 
  152.0000   -28.0230     2.2350    57.1510   120.0540   106.6780   105.1250    28.4450 
  152.1250   -28.1380     2.2110    55.0490   129.5490   115.0000   114.0770    28.5260 
  152.2500   -28.2200     2.1850    54.7760   137.9470   122.4820   123.5900    28.6220 
  152.3750   -28.2690     2.1680    54.3950   144.4030   128.3510   130.8580    28.5930 
  152.5000   -28.3000     2.1670    54.2940   148.4610   132.1510   133.4810    28.4190 
  152.6250   -28.3350     2.1910    55.9790   149.6290   133.4000   132.1490    28.2390 
  152.7500   -28.3820     2.2280    56.2400   148.1530   132.3460   131.7900    28.1430 
  152.8750   -28.4500     2.2600    55.2240   143.3780   128.4530   133.4430    28.0940 
