~V
VERS. 2.00: Ver 2.00
~W
STRT.M 50.0000:
STOP.M 211.0000:
STEP.M 0.1250:
NULL. -999.2500:
UWI. F10140:
~C
DEPT.M :
DEN.GM/CC :
GR.API :
RML.OHMM :
RI. :
RXO.OHMM :
CALI.CM :
SP.MV :
~A
# ...
   83.7500     2.2190    92.1190     7.2880     6.1460     7.4370    27.1500   -16.4480 
   83.8750     2.2090    92.8390     7.3910     6.1760     7.3490    27.0260   -17.4290 
   84.0000     2.1960    92.3630     7.5080     6.2280     7.5050    26.8360   -18.2940 
   84.1250     2.1830    89.4770     7.6030     6.2830     7.8850    26.5460   -19.0290 
   84.2500     2.1760    87.2250     7.6580     6.3230     8.1980    26.2210   -19.6580 
   84.3750     2.1750    87.0120     7.6750     6.3370     8.2590    25.9560   -20.1530 
   84.5000     2.1780    87.9590     7.6900     6.3280     8.1980    25.8300   -20.4750 
   84.6250     2.1810    86.4070     7.7940     6.3440     8.2270    25.9180   -20.5530 
   84.7500     2.1820    84.4420     8.0530     6.4510     8.3200    26.2150   -20.4570 
   84.8750     2.1860    85.2660     8.4880     6.6950     8.4290    26.6670   -20.2540 
   85.0000     2.2000    88.8400     9.0350     7.0770     8.9750    27.1700   -19.9890 
   85.1250     2.2320    89.5010     9.5180     7.5160    11.1840    27.5830   -19.7090 
   85.2500     2.2720    85.9210     9.7580     7.8390    14.9520    27.7280   -19.4290 
   85.3750     2.3040    83.1740     9.6630     7.9130    16.1230    27.4890   -19.1330 
   85.5000     2.3100    82.7830     9.2680     7.6990    12.0420    27.0310   -18.8610 
   85.6250     2.2870    82.3510     8.7110     7.2700     9.4210    26.7340   -18.7010 
   85.7500     2.2510    82.9550     8.2020     6.8170     8.7250    26.7530   -18.6320 
   85.8750     2.2220    86.1380     7.8400     6.4440     8.6260    26.9290   -18.6050 
   86.0000     2.2060    88.8000     7.6460     6.1970     8.6880    27.0940   -18.6080 
   86.1250     2.2020    85.0630     7.5950     6.0840     8.5640    27.1690   -18.6220 
   86.2500     2.1990    80.6990     7.6030     6.0440     8.3010    27.1970   -18.6220 
   86.3750     2.1940    82.9360     7.6300     6.0460     7.9030    27.1980   -18.6220 
   86.5000     2.1860    89.7680     7.6630     6.0730     7.6310    27.1700   -18.5880 
   86.6250     2.1790    91.8120     7.7090     6.1230     7.5760    27.1200   -18.4310 
   86.7500     2.1740    88.2870     7.7730     6.1950     7.6430    27.0830   -18.1610 
   86.8750     2.1710    84.8240     7.8490     6.2890     7.7780    27.0860   -17.7880 
   87.0000     2.1680    86.1330     7.9140     6.3930     7.8370    27.1670   -17.2750 
   87.1250     2.1670    89.5680     7.9110     6.4580     7.9740    27.4270   -16.5680 
   87.2500     2.1750    89.6070     7.7890     6.4230     8.0430    27.9000   -15.7170 
   87.3750     2.1940    86.7630     7.5150     6.2400     8.3090    28.5810   -14.7170 
   87.5000     2.2230    86.0870     7.0930     5.9070     8.4120    29.3800   -13.5700 
   87.6250     2.2490    89.2400     6.5880     5.4730     7.8840    30.1470   -12.3160 
   87.7500     2.2620    94.0330     6.1270     5.0540     6.3140    30.7160   -11.0380 
   87.8750     2.2560   100.3820     5.8000     4.7260     5.5630    31.0210    -9.8050 
   88.0000     2.2360   103.6640     5.6560     4.5350     5.4400    31.1250    -8.7030 
   88.1250     2.2140    98.9910     5.7160     4.5130     5.5190    31.1370    -7.8420 
   88.2500     2.1950    92.7580     5.8980     4.6150     5.6700    31.1250    -7.1990 
   88.3750     2.1830    90.7480     6.1340     4.8000     5.9330    31.0950    -6.7920 
   88.5000     2.1750    92.4240     6.3560     5.0150     6.3860    31.0450    -6.6250 
   88.6250     2.1730    93.6860     6.4870     5.1910     6.8970    30.9780    -6.6640 
   88.7500     2.1760    93.6830     6.5060     5.2870     7.3000    30.8960    -6.7580 
   88.8750     2.1850    92.5710     6.4140     5.2840     7.2860    30.8100    -6.8320 
   89.0000     2.2020    91.6660     6.2460     5.1940     6.6650    30.7320    -6.8570 
   89.1250     2.2250    93.9930     6.0610     5.0520     6.0230    30.6590    -6.8110 
   89.2500     2.2480    98.0080     5.9200     4.9170     5.8590    30.5930    -6.7000 
   89.3750     2.2680   101.0160     5.8520     4.8200     5.8680    30.5380    -6.5380 
   89.5000     2.2800   101.8760     5.8540     4.7700     5.8530    30.4890    -6.3380 
   89.6250     2.2830   101.7000     5.9060     4.7690     5.8610    30.4420    -6.1750 
   89.7500     2.2810   102.7300     5.9680     4.7930     5.8820    30.3890    -6.1360 
   89.8750     2.2750   103.0270     6.0310     4.8310     5.8800    30.3240    -6.2760 
   90.0000     2.2670    99.9510     6.1000     4.8810     5.8720    30.2520    -6.6040 
   90.1250     2.2570    94.5930     6.1920     4.9510     5.9150    30.1840    -7.1480 
   90.2500     2.2470    90.8990     6.3110     5.0390     6.2010    30.1280    -7.8660 
   90.3750     2.2380    89.5120     6.4550     5.1430     6.6690    30.0650    -8.7270 
   90.5000     2.2350    89.7030     6.6170     5.2580     7.1580    29.9460    -9.6940 
   90.6250     2.2390    89.3090     6.7990     5.3820     7.5000    29.6500   -10.7270 
   90.7500     2.2450    88.3120     7.0000     5.5190     7.7020    29.1360   -11.7930 
   90.8750     2.2460    86.8640     7.2200     5.6750     7.7120    28.4250   -12.8700 
   91.0000     2.2360    85.7440     7.4520     5.8490     7.7040    27.6520   -13.9330 
   91.1250     2.2170    87.0120     7.6850     6.0310     7.8200    27.0810   -14.9370 
   91.2500     2.1930    87.9610     7.9110     6.2040     8.0620    26.7470   -15.8640 
   91.3750     2.1700    86.5200     8.1260     6.3630     7.9780    26.5750   -16.6930 
   91.5000     2.1490    82.6020     8.3310     6.5070     7.7580    26.3500   -17.4260 
   91.6250     2.1320    81.1590     8.5140     6.6420     7.5790    25.8960   -18.0320 
   91.7500     2.1240    84.5520     8.6550     6.7630     7.6460    25.3970   -18.4850 
   91.8750     2.1270    87.8420     8.7290     6.8520     7.8070    25.0790   -18.7950 
   92.0000     2.1430    85.8590     8.7200     6.8820     8.0130    25.0190   -18.9840 
   92.1250     2.1640    80.4190     8.6270     6.8330     8.1650    25.1140   -19.0800 
   92.2500     2.1760    79.7040     8.5030     6.7350     8.1260    25.1490   -19.1550 
   92.3750     2.1750    83.7040     8.3930     6.6270     7.7880    25.0080   -19.2770 
   92.5000     2.1620    87.4490     8.3300     6.5460     7.3800    24.7040   -19.4760 
   92.6250     2.1470    88.1230     8.3300     6.5230     7.5060    24.4200   -19.7760 
   92.7500     2.1400    87.8570     8.3730     6.5440     7.8120    24.2760   -20.1670 
   92.8750     2.1440    86.5870     8.4540     6.5950     7.9790    24.2250   -20.6100 
   93.0000     2.1530    84.9990     8.5900     6.6800     8.0080    24.1680   -21.0490 
   93.1250     2.1570    85.4790     8.8370     6.8380     8.0170    24.0090   -21.4320 
   93.2500     2.1530    85.5560     9.2010     7.0930     8.1570    23.7750   -21.7490 
   93.3750     2.1440    84.2550     9.6560     7.4520     8.3460    23.5200   -21.9900 
   93.5000     2.1380    82.4160    10.1220     7.8780     8.6150    23.2860   -22.1360 
   93.6250     2.1400    79.6640    10.4480     8.2650     9.0800    23.1440   -22.1890 
   93.7500     2.1510    77.1240    10.5500     8.4960     9.5760    23.1170   -22.2140 
   93.8750     2.1650    78.0710    10.4090     8.5150     9.7880    23.1950   -22.2500 
   94.0000     2.1760    82.6530    10.0880     8.3430     9.5590    23.3300   -22.3270 
   94.1250     2.1790    83.0170     9.7010     8.0620     9.2720    23.4700   -22.4710 
   94.2500     2.1760    78.5350     9.3700     7.7960     9.0600    23.5580   -22.6380 
   94.3750     2.1710    77.0560     9.1450     7.5990     8.9490    23.6020   -22.7750 
   94.5000     2.1650    80.2670     9.0240     7.4880     8.8730    23.6150   -22.9010 
   94.6250     2.1610    79.7530     8.9840     7.4540     8.8180    23.5970   -23.0570 
   94.7500     2.1580    73.6490     8.9810     7.4570     8.8060    23.5410   -23.2120 
   94.8750     2.1560    69.3620     8.9990     7.4820     8.8500    23.4340   -23.3370 
