~V
VERS. 2.00: Ver 2.00
~W
STRT.M 55.0000:
STOP.M 239.0000:
STEP.M 0.1250:
NULL. -999.2500:
UWI. F10186:
~C
DEPT.M :
GR.API :
RML.OHMM :
RI. :
RXO.OHMM :
CALI.CM :
DEN.GM/CC :
SP.MV :
~A
# ...
  156.2500    72.2550     7.9360     7.5290     6.4630    24.4610     2.3290    -1.8170 
  156.3750    76.6170     8.0160     7.6390     6.6830    24.4510     2.3210    -1.7390 
  156.5000    76.7280     7.8840     7.5540     6.8720    24.4440     2.3090    -1.6860 
  156.6250    73.0310     7.4680     7.1700     6.7690    24.4150     2.2980    -1.6690 
  156.7500    70.0360     6.8870     6.5890     6.2870    24.3920     2.2900    -1.6370 
  156.8750    70.7500     6.2670     5.9350     5.4360    24.3800     2.2880    -1.5910 
  157.0000    74.5630     5.7310     5.3400     4.4200    24.3980     2.2920    -1.5580 
  157.1250    76.2900     5.4140     4.9410     4.0780    24.3920     2.3030    -1.5410 
  157.2500    74.6420     5.3660     4.7810     4.1070    24.3880     2.3160    -1.5790 
  157.3750    73.5580     5.6880     4.9240     4.3730    24.3860     2.3300    -1.7130 
  157.5000    75.2580     6.5560     5.4740     4.9320    24.3760     2.3400    -1.8810 
  157.6250    75.2370     8.3830     6.7230     6.2180    24.2920     2.3410    -1.9990 
  157.7500    70.9050    11.2430     8.7860     8.3870    24.1730     2.3280    -2.1130 
  157.8750    64.5730    15.0090    11.6870    11.4790    24.1300     2.2990    -2.2920 
  158.0000    59.3780    19.0370    15.0680    16.7060    24.2050     2.2600    -2.5040 
  158.1250    56.6320    21.8650    17.9080    26.1660    24.3070     2.2280    -2.6380 
  158.2500    56.1260    22.3580    19.0850    35.7370    24.3770     2.2140    -2.7260 
  158.3750    58.2210    20.1400    17.9310    36.4350    24.3940     2.2210    -2.7830 
  158.5000    62.5530    16.0790    14.9230    27.5680    24.3780     2.2470    -2.7840 
  158.6250    70.0030    12.0290    11.6200    16.8550    24.3550     2.2790    -2.7550 
  158.7500    77.1560     9.1680     9.1290     9.8790    24.3350     2.3040    -2.7290 
  158.8750    79.5730     7.5540     7.5650     6.7510    24.2590     2.3190    -2.6760 
  159.0000    75.9800     6.8450     6.7370     5.7840    24.1520     2.3240    -2.6200 
  159.1250    71.9140     6.7160     6.4650     5.6130    24.0770     2.3230    -2.6030 
  159.2500    71.8850     6.8020     6.4590     5.4320    24.0660     2.3200    -2.5800 
  159.3750    73.4370     6.9520     6.5780     5.3080    24.0820     2.3180    -2.5850 
  159.5000    72.9440     7.0740     6.7150     5.3050    24.1050     2.3150    -2.6680 
  159.6250    71.7120     7.1150     6.8000     5.3740    24.1170     2.3120    -2.8090 
  159.7500    73.0040     7.0950     6.8250     5.5070    24.1300     2.3100    -2.9400 
  159.8750    75.9940     7.0600     6.8180     5.6340    24.1290     2.3080    -3.1260 
  160.0000    78.1730     7.0880     6.8340     5.6620    24.1310     2.3060    -3.3700 
  160.1250    78.4240     7.3270     6.9810     5.7600    24.1410     2.3060    -3.6330 
  160.2500    77.8200     7.8560     7.3340     6.1050    24.1610     2.3050    -3.9140 
  160.3750    75.8600     8.7350     7.9530     6.7920    24.1760     2.3030    -4.2220 
  160.5000    72.2350     9.9660     8.8640     7.8830    24.1630     2.3020    -4.5540 
  160.6250    66.4910    11.5260    10.0870     9.4980    24.1210     2.2990    -4.8840 
  160.7500    62.0570    13.2450    11.4980    11.5970    24.1000     2.2950    -5.2110 
  160.8750    62.7480    15.0010    12.9970    14.0270    24.1050     2.2910    -5.5330 
  161.0000    66.7010    16.6950    14.4770    16.0530    24.1090     2.2870    -5.9030 
  161.1250    66.9370    18.2420    15.8290    17.5490    24.0970     2.2840    -6.3030 
  161.2500    63.1580    19.6550    17.0360    19.2730    24.0940     2.2830    -6.7090 
  161.3750    60.8330    20.9830    18.1230    21.2550    24.1060     2.2840    -7.0920 
  161.5000    62.5520    22.3650    19.1920    23.0770    24.1680     2.2850    -7.4960 
  161.6250    63.9130    24.2300    20.5360    24.2040    24.2660     2.2840    -7.9790 
  161.7500    62.4490    27.1530    22.5940    25.1350    24.3810     2.2820    -8.5060 
  161.8750    60.6270    31.9870    26.0700    26.9050    24.4860     2.2790    -9.0620 
  162.0000    60.9620    39.8340    32.0080    31.5220    24.5460     2.2760    -9.6570 
  162.1250    61.5640    52.9620    42.6830    42.7220    24.5730     2.2700   -10.3050 
  162.2500    60.3970    72.0530    59.0300    61.5030    24.6060     2.2610   -10.9690 
  162.3750    58.5390    97.6010    81.6600    91.8240    24.6380     2.2500   -11.6970 
  162.5000    58.3200   128.6030   109.6570   135.8030    24.6720     2.2380   -12.4280 
  162.6250    60.7360   162.0610   140.1520   171.1690    24.6590     2.2290   -13.0830 
  162.7500    62.4770   193.0940   168.6490   186.6600    24.6470     2.2210   -13.6970 
  162.8750    60.7520   218.9530   192.9690   189.1430    24.6450     2.2150   -14.2990 
  163.0000    56.3080   240.0240   213.6280   189.6750    24.6350     2.2090   -14.8210 
  163.1250    53.8460   258.5540   232.5940   195.2350    24.6040     2.2040   -15.2230 
  163.2500    54.6110   274.7690   250.2410   209.4150    24.5880     2.1980   -15.5620 
  163.3750    55.9140   284.7310   263.5050   223.8640    24.6000     2.1910   -15.7960 
  163.5000    56.6460   286.8680   267.9650   242.6980    24.6270     2.1830   -15.9440 
  163.6250    56.1140   274.5070   258.6830   259.1140    24.6540     2.1780   -16.1180 
  163.7500    55.6630   256.5750   239.9820   244.4130    24.6610     2.1790   -16.2980 
  163.8750    56.6620   243.4580   218.4040   195.7990    24.6620     2.1860   -16.3820 
  164.0000    58.2080   226.0350   200.7270   152.7240    24.6640     2.1970   -16.3710 
  164.1250    58.5050   215.6940   191.5290   136.3700    24.6740     2.2050   -16.4040 
  164.2500    57.2370   211.1400   188.0740   137.6340    24.6850     2.2090   -16.4780 
  164.3750    55.7780   207.8950   186.7160   152.4380    24.6790     2.2090   -16.5190 
  164.5000    55.3070   202.5040   184.0320   179.8640    24.6680     2.2090   -16.5170 
  164.6250    55.8270   194.1080   178.4380   190.7090    24.6620     2.2140   -16.5040 
  164.7500    56.8780   186.4000   172.6040   163.5630    24.6610     2.2230   -16.4960 
  164.8750    57.3030   183.1950   169.9650   132.6240    24.6590     2.2320   -16.4750 
  165.0000    56.3680   186.6190   173.0200   124.0000    24.6500     2.2390   -16.4260 
  165.1250    54.3280   196.1860   182.2020   140.5120    24.6440     2.2440   -16.3450 
  165.2500    53.0480   206.1900   192.5450   179.2060    24.6520     2.2480   -16.2910 
  165.3750    52.2390   211.1520   198.8150   219.0780    24.6750     2.2510   -16.2560 
  165.5000    51.0980   207.1080   196.9200   232.6310    24.6980     2.2520   -16.2060 
  165.6250    50.9380   193.6500   185.5340   223.1200    24.6970     2.2530   -16.1560 
  165.7500    51.4980   178.5730   171.1820   195.7250    24.6580     2.2520   -16.1270 
  165.8750    50.9810   168.0240   159.8040   153.9660    24.5990     2.2480   -16.1160 
  166.0000    50.1590   164.9550   155.1000   122.4630    24.5300     2.2370   -16.1020 
  166.1250    51.5190   169.4150   158.0280   123.9160    24.4920     2.2200   -16.0820 
  166.2500    52.6150   176.4670   164.1160   148.2820    24.4860     2.2050   -16.0290 
  166.3750    51.9040   181.8480   169.3550   175.5550    24.5040     2.1980   -15.9300 
  166.5000    50.6230   182.0930   170.4620   197.1110    24.5550     2.2010   -15.7970 
  166.6250    50.0600   175.4670   165.5820   210.3540    24.5870     2.2160   -15.6380 
  166.7500    50.5570   166.0250   157.8050   198.2670    24.5640     2.2370   -15.4430 
  166.8750    52.8240   157.4630   150.2630   164.2080    24.5290     2.2560   -15.2340 
  167.0000    56.4030   151.4730   144.8100   137.2540    24.5230     2.2660   -15.0220 
  167.1250    57.4760   146.9110   140.9530   140.0090    24.5300     2.2610   -14.7230 
  167.2500    56.3170   140.6870   135.9580   154.4380    24.5500     2.2480   -14.3480 
  167.3750    56.8220   130.8560   127.7970   156.7590    24.5670     2.2340   -14.0090 
