~V
VERS. 2.00: Ver 2.00
~W
STRT.M 44.0000:
STOP.M 255.0000:
STEP.M 0.1250:
NULL. -999.2500:
UWI. F10191:
~C
DEPT.M :
DEN.GM/CC :
SP.MV :
GR.API :
RML.OHMM :
RI. :
RXO.OHMM :
CALI.CM :
~A
# ...
  167.7500     2.2370   -26.5840    72.5970    19.2680    16.9330    19.9820    25.0730 
  167.8750     2.2290   -27.0400    70.5660    19.2660    17.1480    19.0180    24.9720 
  168.0000     2.2200   -27.4780    70.6410    19.1260    17.0030    18.7260    24.6750 
  168.1250     2.2100   -27.8590    70.9610    19.4420    17.0400    19.7780    24.2200 
  168.2500     2.2030   -28.2840    70.0880    20.3400    17.4980    20.5920    24.2320 
  168.3750     2.2040   -28.7030    70.9240    21.8460    18.4470    21.8810    24.6980 
  168.5000     2.2110   -29.0710    73.8640    24.0650    19.9670    23.7450    25.0890 
  168.6250     2.2240   -29.4770    74.6240    27.6270    22.5090    26.0930    25.2030 
  168.7500     2.2350   -29.8980    71.1110    33.2220    26.6600    29.2440    25.1970 
  168.8750     2.2380   -30.2550    65.1300    43.7200    33.7130    35.2600    25.1760 
  169.0000     2.2250   -30.6150    60.7790    59.4820    45.8330    51.0320    25.1850 
  169.1250     2.1970   -30.9340    59.5930    85.3170    67.7200   102.0040    25.2270 
  169.2500     2.1690   -31.1860    58.6880   123.6750   100.4580   187.2910    25.2670 
  169.3750     2.1530   -31.4560    56.7410   174.6720   142.3770   264.8130    25.2830 
  169.5000     2.1510   -31.7020    54.7910   229.1790   185.4700   297.2170    25.2840 
  169.6250     2.1590   -31.8270    53.7100   262.3480   213.7340   309.9590    25.2820 
  169.7500     2.1700   -31.9580    53.6760   266.4990   222.0630   304.7230    25.2680 
  169.8750     2.1810   -32.1120    56.0460   251.6320   214.8070   271.4140    25.2400 
  170.0000     2.1920   -32.2080    60.1000   230.6300   200.1240   225.7170    25.2450 
  170.1250     2.2000   -32.3680    60.9740   211.4060   184.7180   188.6990    25.3820 
  170.2500     2.1960   -32.5740    57.3350   196.6250   172.2260   162.9220    25.6310 
  170.3750     2.1850   -32.7250    53.1480   186.9080   163.8990   149.0340    25.7690 
  170.5000     2.1790   -32.8860    51.8660   181.5970   159.6200   146.0790    25.6780 
  170.6250     2.1830   -33.1480    53.5880   179.0350   158.2390   151.3230    25.4670 
  170.7500     2.1870   -33.3950    56.3230   176.1680   157.0680   152.4110    25.3430 
  170.8750     2.1830   -33.6150    58.8090   171.0200   154.2760   155.5050    25.2930 
  171.0000     2.1780   -33.9050    61.1320   162.8330   148.8940   156.8680    25.2810 
  171.1250     2.1790   -34.1480    63.5390   152.3820   141.0710   154.0310    25.2790 
  171.2500     2.1810   -34.3410    65.2160   142.1990   132.8720   139.4880    25.2640 
  171.3750     2.1770   -34.6130    64.4660   133.9420   125.9150   112.2750    25.2020 
  171.5000     2.1690   -34.8820    62.0000   128.3860   121.1880    84.4610    25.0570 
  171.6250     2.1660   -35.0450    60.7360   125.6300   119.0980    64.8920    24.7920 
  171.7500     2.1720   -35.2390    61.7120   124.0290   118.2930    55.9470    24.5410 
  171.8750     2.1820   -35.4320    63.3260   122.1450   117.4510    52.6200    24.3910 
  172.0000     2.1900   -35.5900    64.5100   118.8610   115.4440    52.0580    24.3260 
  172.1250     2.1870   -35.7510    63.7770   113.6370   111.5690    51.1600    24.2890 
  172.2500     2.1810   -35.8670    61.7880   107.5260   106.6150    51.1130    24.2740 
  172.3750     2.1760   -35.9240    62.1800   101.5560   101.4740    49.8650    24.2690 
  172.5000     2.1740   -35.9310    66.4130    96.4260    96.8540    49.6280    24.2680 
  172.6250     2.1700   -35.9180    68.5180    92.4780    93.1380    48.8510    24.2680 
  172.7500     2.1660   -35.8610    66.1200    89.4560    90.1640    49.0070    24.2680 
  172.8750     2.1710   -35.7540    63.8190    87.3230    87.9320    50.9260    24.2680 
  173.0000     2.1820   -35.5830    65.9980    86.0540    86.4330    52.7870    24.2640 
  173.1250     2.1900   -35.4220    68.1220    85.8630    85.8280    53.5140    24.2470 
  173.2500     2.1890   -35.3030    66.4900    86.8750    86.2510    55.9480    24.2190 
  173.3750     2.1870   -35.1330    63.5000    89.4390    88.0830    62.7530    24.2120 
  173.5000     2.1890   -35.0220    61.5130    93.8730    91.6730    71.8670    24.2480 
  173.6250     2.1890   -35.0050    61.1430   100.8190    97.6560    77.6980    24.3320 
  173.7500     2.1830   -34.9610    61.1610   109.9330   105.7210    87.4780    24.3730 
  173.8750     2.1790   -35.0080    60.7750   120.6130   115.3100   110.3980    24.3630 
  174.0000     2.1780   -35.1620    59.8620   131.5530   125.2360   134.9790    24.3440 
  174.1250     2.1770   -35.2890    59.7450   140.5720   133.5860   141.4560    24.3260 
  174.2500     2.1780   -35.4460    60.6350   146.6010   139.3640   132.9120    24.2770 
  174.3750     2.1880   -35.7220    61.0950   149.8260   142.5970   125.0790    24.1700 
  174.5000     2.2050   -35.9860    60.9920   151.6880   144.4250   124.9510    24.0550 
  174.6250     2.2140   -36.2330    61.9250   153.9980   146.5250   130.7190    24.1410 
  174.7500     2.2100   -36.5540    64.3600   156.9900   149.3760   138.2460    24.5010 
  174.8750     2.1980   -36.8100    66.2670   159.5100   152.0980   144.8990    24.9340 
  175.0000     2.1840   -36.9810    66.1410   160.0390   153.3360   151.4380    25.1650 
  175.1250     2.1670   -37.1980    63.9340   157.1280   151.6060   151.8770    25.2060 
  175.2500     2.1560   -37.3750    61.9960   151.7340   147.4560   144.3510    25.2060 
  175.3750     2.1570   -37.4240    61.4820   145.2470   141.9690   127.8220    25.2060 
  175.5000     2.1740   -37.4690    61.7520   139.1510   136.5030   111.6250    25.2060 
  175.6250     2.2020   -37.4310    61.2600   134.6210   132.2730   117.4890    25.2050 
  175.7500     2.2310   -37.3080    62.5440   131.4350   129.2990   127.7070    25.2040 
  175.8750     2.2580   -37.2070    65.3810   128.9390   127.1000   137.6260    25.2050 
  176.0000     2.2760   -37.0730    66.6890   126.1750   124.8200   129.4770    25.2060 
  176.1250     2.2690   -36.8850    65.0380   122.2360   121.4850   116.9450    25.2060 
  176.2500     2.2420   -36.7280    62.9900   117.6170   117.3170   108.7960    25.2060 
  176.3750     2.2120   -36.5800    60.7410   113.4370   113.2330   104.0250    25.2060 
  176.5000     2.1940   -36.3950    57.8680   110.9500   110.4250    94.8300    25.2060 
  176.6250     2.1960   -36.3160    57.5060   111.5750   110.3520    89.8390    25.2060 
  176.7500     2.2070   -36.2610    59.5570   115.1110   113.0330    97.7130    25.2060 
  176.8750     2.2170   -36.1740    60.4330   121.0360   118.0740   111.4410    25.2060 
  177.0000     2.2200   -36.1820    60.0090   128.2510   124.4730   120.4020    25.2060 
  177.1250     2.2150   -36.2520    60.8500   135.1110   130.7090   124.1380    25.2060 
  177.2500     2.2130   -36.3010    62.3380   140.3350   135.5200   127.7580    25.2060 
  177.3750     2.2160   -36.4090    63.6400   143.4410   138.3820   131.7620    25.2060 
  177.5000     2.2180   -36.6030    63.8520   144.6330   139.3860   132.8260    25.2060 
  177.6250     2.2170   -36.7520    63.3650   144.3090   138.8310   129.8750    25.2060 
  177.7500     2.2190   -36.9260    62.2110   143.1500   137.3700   129.7010    25.2060 
  177.8750     2.2260   -37.1730    59.3560   141.3690   135.1960   131.7030    25.2060 
  178.0000     2.2290   -37.3660    55.2240   139.2470   132.5490   130.3980    25.2060 
  178.1250     2.2240   -37.5180    54.8550   137.3890   129.9670   125.5190    25.2060 
  178.2500     2.2170   -37.6890    59.2730   136.3500   128.0560   121.4210    25.2060 
  178.3750     2.2110   -37.7910    63.4960   136.4150   127.1810   120.7450    25.2060 
  178.5000     2.2100   -37.8420    62.5660   137.5660   127.4240   122.9160    25.2060 
  178.6250     2.2150   -37.8750    60.6280   139.5390   128.6580   127.4240    25.2060 
  178.7500     2.2260   -37.8360    61.7530   141.5860   130.1710   131.1380    25.2060 
  178.8750     2.2370   -37.7410    62.0210   143.1370   131.3960   131.9790    25.2060 
