~V
VERS. 2.00: Ver 2.00
~W
STRT.M 50.0000:
STOP.M 236.0000:
STEP.M 0.1250:
NULL. -999.2500:
UWI. F10180:
~C
DEPT.M :
SP.MV :
GR.API :
RML.OHMM :
RI. :
RXO.OHMM :
CALI.CM :
DEN.GM/CC :
~A
# ...
  196.2500   -12.7380    62.1700   154.4960   139.7590   172.3880    24.8890     2.2230 
  196.3750   -13.0820    61.9180   151.5060   134.3020   158.8130    24.8790     2.2090 
  196.5000   -13.5310    62.6450   150.2700   130.0500   153.1580    24.8440     2.2030 
  196.6250   -14.0240    62.7390   149.4610   127.6070   148.6640    24.8070     2.2010 
  196.7500   -14.4710    61.6060   148.1460   127.0610   142.4180    24.7780     2.1990 
  196.8750   -14.9120    61.2430   146.4600   128.0440   143.9720    24.8060     2.1970 
  197.0000   -15.3060    62.1560   145.2260   129.2660   149.5100    24.8270     2.1930 
  197.1250   -15.6050    64.3650   144.3720   129.6260   155.1450    24.8320     2.1880 
  197.2500   -15.8470    66.4720   142.9760   128.2220   156.6800    24.8100     2.1810 
  197.3750   -16.0780    64.7820   140.3990   124.4210   152.0690    24.7800     2.1750 
  197.5000   -16.2660    61.7010   136.6440   119.2940   144.2900    24.8360     2.1710 
  197.6250   -16.3540    61.2300   131.5920   114.2170   134.7860    25.0220     2.1700 
  197.7500   -16.4180    64.3120   125.9490   110.7970   121.6650    25.1900     2.1700 
  197.8750   -16.4980    66.6470   122.3700   111.0500   112.1520    25.2170     2.1690 
  198.0000   -16.4540    65.9040   122.8170   115.0320   115.1590    25.2030     2.1670 
  198.1250   -16.3500    63.0960   127.5090   122.0290   135.9140    25.2190     2.1670 
  198.2500   -16.2970    60.7970   135.4550   130.1130   156.7730    25.2340     2.1690 
  198.3750   -16.1840    61.8430   143.9340   135.8470   165.7810    25.2550     2.1740 
  198.5000   -15.9580    63.8860   149.0770   137.0470   170.5020    25.2890     2.1800 
  198.6250   -15.7910    64.4650   148.7650   133.2880   161.1160    25.3210     2.1840 
  198.7500   -15.6190    63.7270   143.3900   125.9330   142.0980    25.3270     2.1870 
  198.8750   -15.3480    64.6190   135.3520   117.4250   116.3770    25.3060     2.1900 
  199.0000   -15.1860    66.0570   127.7340   110.0530   108.4500    25.2940     2.1940 
  199.1250   -15.0780    65.3220   121.4730   104.6220   108.1540    25.2900     2.2010 
  199.2500   -14.9470    63.0720   116.3170   101.1030   109.3210    25.2870     2.2070 
  199.3750   -14.9510    61.9700   111.4720    99.1790   109.1400    25.2620     2.2100 
  199.5000   -15.0140    62.4450   106.4210    98.1150   108.4500    25.2160     2.2090 
  199.6250   -15.0180    63.7070   101.4930    97.7560   107.6760    25.1650     2.2040 
  199.7500   -15.0680    65.3690    97.4980    98.0120   106.7320    25.1270     2.1960 
  199.8750   -15.1810    67.2200    95.2240    98.1630   101.2550    25.0940     2.1870 
  200.0000   -15.2090    67.7080    93.4810    96.6070   100.7460    25.0160     2.1810 
  200.1250   -15.1920    66.2070    90.1050    91.7940   114.5590    24.8810     2.1820 
  200.2500   -15.1690    65.2410    83.1940    83.2580   122.5860    24.8060     2.1940 
  200.3750   -15.0750    65.9990    72.5830    72.2700    93.6990    24.7890     2.2170 
  200.5000   -14.9540    66.4360    61.5940    62.0660    62.9040    24.6820     2.2400 
  200.6250   -14.8940    66.3970    52.8640    54.8300    44.6890    24.5280     2.2550 
  200.7500   -14.8940    67.4950    47.8530    51.7160    39.3650    24.4530     2.2560 
  200.8750   -14.9090    69.9000    47.6110    53.5240    49.7930    24.5850     2.2440 
  201.0000   -14.9440    69.8590    51.1460    58.6410    70.5300    24.6990     2.2270 
  201.1250   -15.0650    66.2720    57.5040    65.4020    86.5140    24.7090     2.2120 
  201.2500   -15.1820    62.8880    64.8340    71.6670    88.5410    24.6430     2.2020 
  201.3750   -15.2170    64.6550    70.2750    75.1460    85.4950    24.5030     2.1980 
  201.5000   -15.3200    68.9990    72.7110    76.0420    80.9000    24.4020     2.1980 
  201.6250   -15.4220    71.0540    72.9020    75.6890    74.2070    24.4520     2.2000 
  201.7500   -15.4440    68.6560    72.7530    75.8880    70.9130    24.4420     2.2010 
  201.8750   -15.4790    65.7080    74.4720    78.4640    74.7280    24.3190     2.2000 
  202.0000   -15.4880    64.9000    78.7140    83.5270    82.2110    24.2320     2.1960 
  202.1250   -15.4260    65.6980    85.5660    90.6610    89.5580    24.0860     2.1880 
  202.2500   -15.4170    67.0130    94.6510    98.9580    93.1510    23.8490     2.1780 
  202.3750   -15.4540    68.5030   105.0300   107.1470    99.8740    23.7770     2.1660 
  202.5000   -15.4880    68.6940   114.8820   114.2100   114.8030    24.0650     2.1560 
  202.6250   -15.5970    65.8110   122.8770   119.6550   125.1260    24.3620     2.1520 
  202.7500   -15.7130    61.0200   128.2410   123.2680   123.8210    24.5390     2.1540 
  202.8750   -15.7680    58.5120   130.3330   124.5910   127.9960    24.6060     2.1600 
  203.0000   -15.9170    59.2750   129.8200   123.9240   137.9110    24.6480     2.1650 
  203.1250   -16.1270    61.0380   127.0490   121.5160   143.5370    24.6940     2.1700 
  203.2500   -16.2560    62.6470   122.6150   117.9690   140.7770    24.7550     2.1740 
  203.3750   -16.3770    63.6030   117.4900   114.2580   119.7460    24.7810     2.1790 
  203.5000   -16.5250    65.0750   112.9620   111.3420   104.1430    24.7980     2.1850 
  203.6250   -16.5870    67.1550   109.7390   109.5620   108.6450    24.7880     2.1890 
  203.7500   -16.6120    68.0560   107.8970   108.5120   119.2520    24.7300     2.1930 
  203.8750   -16.7110    67.2330   106.6180   106.7260   118.6480    24.6690     2.1960 
  204.0000   -16.7670    67.4190   104.1850   102.7530   116.4210    24.6380     2.2010 
  204.1250   -16.7310    68.8050    99.2760    95.9770   114.8780    24.6480     2.2090 
  204.2500   -16.7000    68.8600    91.5790    86.9710   105.7940    24.6420     2.2200 
  204.3750   -16.6780    67.1630    82.2010    77.5300    84.6600    24.6080     2.2380 
  204.5000   -16.5320    67.1750    73.6640    69.8080    66.4760    24.6260     2.2550 
  204.6250   -16.3600    67.9960    67.7340    65.0900    58.8210    24.6780     2.2620 
  204.7500   -16.2360    67.3140    65.4450    63.9750    56.8450    24.7200     2.2520 
  204.8750   -16.0150    66.1610    67.7170    67.0460    58.9020    24.7180     2.2270 
  205.0000   -15.7700    64.8310    73.5000    73.1430    69.6550    24.7600     2.2070 
  205.1250   -15.5800    63.3450    81.9280    81.3510    87.6170    24.8490     2.2040 
  205.2500   -15.3570    62.7060    91.1270    90.5270   101.0510    24.8580     2.2170 
  205.3750   -15.1080    64.1680    99.1400    99.4150   102.1270    24.7690     2.2310 
  205.5000   -14.9640    66.7790   106.2350   107.2190   107.7720    24.6510     2.2330 
  205.6250   -14.8350    67.7290   113.1730   113.5680   117.9410    24.5440     2.2240 
  205.7500   -14.7320    67.1040   119.7160   118.4020   124.1070    24.4650     2.2180 
  205.8750   -14.7270    66.1010   124.7840   122.0220   130.5390    24.4510     2.2290 
  206.0000   -14.7190    66.2950   129.2290   125.8590   128.8900    24.3930     2.2550 
  206.1250   -14.6900    67.0220   135.0600   131.7180   113.4810    24.2510     2.2850 
  206.2500   -14.7530    66.7350   144.9950   141.5220    97.0560    24.0790     2.3020 
  206.3750   -14.8200    65.5970   163.2060   156.5780   109.2870    23.8920     2.2930 
  206.5000   -14.7660    62.9040   188.0100   172.9750   129.6160    23.9140     2.2670 
  206.6250   -14.6970    59.3510   212.2330   184.5890   166.1050    24.1050     2.2390 
  206.7500   -14.6180    58.5850   223.8630   185.2640   235.7040    24.3530     2.2280 
  206.8750   -14.4760    62.9560   210.9190   171.3310   230.6190    24.5050     2.2380 
  207.0000   -14.3090    67.5930   182.6240   150.0270   168.6530    24.5800     2.2560 
  207.1250   -14.1730    68.5190   151.5270   127.7920   117.8680    24.6180     2.2730 
  207.2500   -13.9600    65.7880   126.1080   108.4560    97.8930    24.6690     2.2950 
  207.3750   -13.6580    62.6470   107.4510    92.7590    91.5430    24.7220     2.3360 
