~V
VERS. 2.00: Ver 2.00
~W
STRT.M 50.0000:
STOP.M 251.0000:
STEP.M 0.1250:
NULL. -999.2500:
UWI. F10193:
~C
DEPT.M :
DEN.GM/CC :
GR.API :
RML.OHMM :
RI. :
RXO.OHMM :
CALI.CM :
SP.MV :
~A
# ...
  185.0000     2.2590    63.8230    77.7100    57.1630    63.1450    25.2140    -9.7320 
  185.1250     2.2520    62.9260    83.9630    61.3400    62.1460    25.1270    -9.7930 
  185.2500     2.2410    62.1430    91.6140    66.4650    59.8330    25.0120    -9.8050 
  185.3750     2.2310    63.0710   101.4710    73.2000    58.7930    24.9460    -9.7810 
  185.5000     2.2270    65.5460   113.8250    81.8850    61.9080    24.9110    -9.7540 
  185.6250     2.2310    67.0090   128.0380    92.2180    69.8120    24.9010    -9.7740 
  185.7500     2.2350    66.4770   141.5100   102.3290    75.1350    24.8960    -9.8480 
  185.8750     2.2360    65.2220   151.5920   110.3030    73.0020    24.8940    -9.9620 
  186.0000     2.2340    64.6050   156.5550   114.8180    70.3930    24.8950   -10.0950 
  186.1250     2.2320    64.5390   156.2470   115.5940    77.9760    24.9030   -10.2300 
  186.2500     2.2290    63.5300   153.8460   114.7720    95.9080    24.9390   -10.3620 
  186.3750     2.2250    61.2390   151.3490   113.8040   113.5830    25.0280   -10.4850 
  186.5000     2.2170    60.3120   149.7450   113.5100   122.8910    25.1850   -10.5870 
  186.6250     2.2070    62.8250   149.0760   114.0550   129.0750    25.4200   -10.6430 
  186.7500     2.2010    64.7130   148.1520   114.5930   133.8460    25.6450   -10.6460 
  186.8750     2.2070    65.2070   145.3360   113.8790   135.4690    25.6480   -10.5950 
  187.0000     2.2270    66.9930   138.7740   110.3850   133.0220    25.5570   -10.4910 
  187.1250     2.2570    69.2900   126.4610   102.2510   128.6400    25.4940   -10.3340 
  187.2500     2.2850    69.6170   110.1400    90.4930   118.9020    25.5390   -10.1290 
  187.3750     2.3040    69.8330    92.3590    76.9350    98.0730    25.6720    -9.8880 
  187.5000     2.3150    71.4290    75.9370    63.8990    72.4740    25.9260    -9.6370 
  187.6250     2.3210    72.6600    63.4220    53.6340    56.7550    25.6700    -9.4380 
  187.7500     2.3270    73.7900    54.7800    46.3570    38.0080    25.5140    -9.3170 
  187.8750     2.3350    75.0720    49.6730    41.8750    29.4570    25.4490    -9.2630 
  188.0000     2.3420    73.8860    47.4760    39.7490    29.3180    25.5370    -9.2430 
  188.1250     2.3420    70.3280    47.7430    39.7240    31.8580    25.6630    -9.2250 
  188.2500     2.3360    68.5020    49.3830    40.9610    34.4900    25.7240    -9.2120 
  188.3750     2.3260    69.2260    51.7550    42.9380    38.9730    25.6240    -9.2310 
  188.5000     2.3190    70.5010    54.1140    45.0030    44.3810    25.5430    -9.2980 
  188.6250     2.3240    70.6060    55.4530    46.2430    48.4540    25.5310    -9.4020 
  188.7500     2.3370    71.2150    55.4860    46.3310    50.7630    25.5250    -9.5110 
  188.8750     2.3490    73.9410    54.5330    45.4780    50.8340    25.5280    -9.6310 
  189.0000     2.3520    77.1260    53.4940    44.3690    45.8790    25.5340    -9.7910 
  189.1250     2.3440    76.0470    53.9820    44.2080    38.8340    25.5410   -10.0380 
  189.2500     2.3320    71.9030    57.0390    45.8820    36.3370    25.5530   -10.3620 
  189.3750     2.3230    68.3270    63.2410    50.0080    41.3010    25.5600   -10.7340 
  189.5000     2.3150    66.5890    72.3990    56.6970    57.4640    25.5610   -11.1190 
  189.6250     2.3010    66.1270    83.2610    65.3370    69.8230    25.5600   -11.4970 
  189.7500     2.2710    66.3260    92.9270    73.6650    75.5660    25.5610   -11.8600 
  189.8750     2.2240    66.4630    99.0420    79.6450    81.7380    25.5620   -12.1980 
  190.0000     2.1710    66.7030   100.6470    82.1210    82.4520    25.5630   -12.4940 
  190.1250     2.1270    67.8230    98.4560    81.1800    72.0230    25.5590   -12.7280 
  190.2500     2.1040    66.7000    95.1980    78.9610    62.8100    25.5470   -12.9050 
  190.3750     2.0990    63.2460    92.1470    76.6600    63.8220    25.5260   -13.0270 
  190.5000     2.1040    61.8080    89.5700    74.7110    65.7220    25.4990   -13.1020 
  190.6250     2.1090    64.2230    86.7480    72.7030    65.0180    25.5000   -13.1460 
  190.7500     2.1170    65.5110    82.6970    69.8090    59.5460    25.5120   -13.1980 
  190.8750     2.1360    63.8810    77.1120    65.6480    53.5720    25.5240   -13.2810 
  191.0000     2.1660    63.3710    70.7990    60.7070    45.2490    25.5260   -13.3950 
  191.1250     2.2010    66.3870    65.8380    56.5270    39.9130    25.5160   -13.5130 
  191.2500     2.2250    69.0850    63.9710    54.5970    31.0760    25.5040   -13.6070 
  191.3750     2.2340    69.1490    66.4990    56.1260    29.1360    25.4970   -13.6750 
  191.5000     2.2320    66.6800    74.3000    62.1180    38.4200    25.4900   -13.7290 
  191.6250     2.2270    64.4510    88.6620    74.1580    58.0980    25.4700   -13.7830 
  191.7500     2.2230    62.8380   107.9800    91.2090    79.1080    25.4450   -13.8420 
  191.8750     2.2210    61.2670   130.3060   111.7850    94.8040    25.4210   -13.9050 
  192.0000     2.2180    61.0810   152.2980   132.9460   114.5590    25.4100   -13.9760 
  192.1250     2.2160    63.3790   168.6040   149.7290   145.9920    25.4130   -14.0710 
  192.2500     2.2180    65.0340   176.9080   159.3630   170.2850    25.4200   -14.1940 
  192.3750     2.2240    62.4050   176.8840   160.9960   187.8510    25.4170   -14.3370 
  192.5000     2.2310    57.2530   170.2280   155.8280   186.4040    25.4000   -14.4760 
  192.6250     2.2370    57.0670   159.9350   146.4360   149.4910    25.3690   -14.5880 
  192.7500     2.2390    61.6640   150.2250   137.0530   120.3040    25.3510   -14.6850 
  192.8750     2.2360    64.9960   143.2990   130.0170   117.4430    25.3810   -14.7930 
  193.0000     2.2330    63.8250   139.9940   126.3550   127.4670    25.4210   -14.9370 
  193.1250     2.2330    61.1020   140.4140   126.3590   132.9180    25.4630   -15.1200 
  193.2500     2.2370    61.3800   142.6570   128.3280   132.2550    25.4500   -15.3090 
  193.3750     2.2440    63.5550   145.0770   130.7590   135.3030    25.4270   -15.4790 
  193.5000     2.2520    64.1330   146.2350   132.2390   142.0340    25.3980   -15.6300 
  193.6250     2.2570    61.6200   145.2220   131.7270   140.3640    25.3910   -15.7770 
  193.7500     2.2580    59.4220   142.8490   129.7830   133.9730    25.4010   -15.9420 
  193.8750     2.2550    59.8380   140.0380   127.1700   126.0240    25.4090   -16.1240 
  194.0000     2.2490    61.2930   137.8390   124.8310   118.8940    25.4240   -16.3110 
  194.1250     2.2420    61.3190   137.7410   124.1590   114.5890    25.4540   -16.4860 
  194.2500     2.2350    60.5920   140.2820   125.8340   112.8140    25.4800   -16.6250 
  194.3750     2.2280    59.7810   145.6430   130.1890   114.1390    25.4840   -16.7150 
  194.5000     2.2210    58.7340   153.4450   137.0280   120.2970    25.4810   -16.7660 
  194.6250     2.2130    58.0070   162.7200   145.5860   142.2790    25.4850   -16.8020 
  194.7500     2.2080    58.7640   171.4780   153.9530   158.4100    25.4640   -16.8470 
  194.8750     2.2070    60.3170   178.0630   160.5540   163.8230    25.3770   -16.8900 
  195.0000     2.2100    60.8100   181.3220   164.2630   162.9450    25.2750   -16.9000 
  195.1250     2.2180    59.4660   180.5360   164.2900   152.7400    25.1890   -16.8220 
  195.2500     2.2270    58.1710   177.1590   161.8060   142.8950    25.1430   -16.6590 
  195.3750     2.2350    57.4780   172.2430   157.6640   134.8950    25.1240   -16.4510 
  195.5000     2.2420    55.8290   166.6350   152.5600   129.0490    25.1110   -16.2440 
  195.6250     2.2470    53.7980   160.9270   146.9830   125.0850    25.0660   -16.0710 
  195.7500     2.2520    54.4700   155.5000   141.4280   113.4460    25.0070   -15.9100 
  195.8750     2.2570    57.2790   150.5720   136.1860    96.3860    24.9660   -15.7110 
  196.0000     2.2610    58.1920   146.4260   131.5480    77.1730    24.9430   -15.4330 
  196.1250     2.2610    56.4200   143.8460   128.2080    64.6330    24.9410   -15.0550 
