~V
VERS. 2.00: Ver 2.00
~W
STRT.M 52.0000:
STOP.M 224.0000:
STEP.M 0.1250:
NULL. -999.2500:
UWI. F10155:
~C
DEPT.M :
SP.MV :
GR.API :
RML.OHMM :
RI. :
RXO.OHMM :
CALI.CM :
DEN.GM/CC :
~A
# ...
  142.0000    -8.6350    54.7610    17.2150    16.5660    17.7090    24.0140     2.5190 
  142.1250    -8.6220    56.5990    16.5020    16.0500    16.3020    24.0060     2.5310 
  142.2500    -8.6090    60.2570    15.7450    15.4390    14.5370    24.1160     2.5430 
  142.3750    -8.5530    61.4820    15.0520    14.8260    13.4230    24.2140     2.5510 
  142.5000    -8.4270    58.2210    14.5830    14.3670    12.6540    24.2910     2.5540 
  142.6250    -8.3190    54.8800    14.3740    14.1350    12.1270    24.2550     2.5550 
  142.7500    -8.2740    54.9650    14.3920    14.1260    12.0870    24.1700     2.5540 
  142.8750    -8.2760    58.3780    14.5240    14.2530    12.7000    24.1080     2.5480 
  143.0000    -8.3290    60.1730    14.5800    14.3330    13.4640    24.0800     2.5350 
  143.1250    -8.3910    59.2260    14.4400    14.2150    13.8450    23.9920     2.5180 
  143.2500    -8.4640    59.5070    14.1160    13.8750    13.2380    23.7860     2.5010 
  143.3750    -8.6120    63.0810    13.7710    13.4500    12.4940    23.5230     2.4850 
  143.5000    -8.9050    65.2670    13.8050    13.2760    11.7040    23.0740     2.4690 
  143.6250    -9.3040    64.4270    14.5550    13.6670    11.6480    22.3250     2.4490 
  143.7500    -9.7430    63.7360    16.5720    14.9310    13.6120    21.4450     2.4230 
  143.8750   -10.2200    66.2680    20.3380    17.3540    18.7210    20.8430     2.3890 
  144.0000   -10.7590    71.6030    25.8710    21.3190    24.3710    20.7370     2.3480 
  144.1250   -11.3080    74.5620    31.8940    26.3630    29.7770    20.9390     2.3050 
  144.2500   -11.8470    73.7280    37.4340    31.7370    33.6850    21.2700     2.2650 
  144.3750   -12.3630    72.2360    41.8540    36.3890    33.6310    21.6160     2.2360 
  144.5000   -12.8360    74.2010    44.6190    39.3170    29.5660    22.0220     2.2240 
  144.6250   -13.2890    77.5330    46.2090    40.9560    27.7500    22.3870     2.2230 
  144.7500   -13.7370    79.4520    47.2540    41.9590    29.8150    22.8780     2.2280 
  144.8750   -14.1290    79.7820    48.3020    42.8960    36.1690    23.6770     2.2330 
  145.0000   -14.4640    78.1750    49.6340    44.0820    44.4150    24.4440     2.2320 
  145.1250   -14.8280    75.8140    51.0960    45.4330    50.7300    24.8240     2.2270 
  145.2500   -15.1920    75.9090    52.4630    46.7510    52.0380    24.8950     2.2180 
  145.3750   -15.5070    78.1260    53.5750    47.8580    50.7550    24.8530     2.2050 
  145.5000   -15.7440    78.8700    54.4060    48.6960    50.1840    24.7520     2.1950 
  145.6250   -15.8790    78.1570    55.1900    49.4620    51.6620    24.6200     2.1900 
  145.7500   -15.9700    78.9420    56.1630    50.3700    52.1090    24.4650     2.1940 
  145.8750   -16.0540    80.6390    57.5470    51.6170    51.0310    24.2690     2.2040 
  146.0000   -16.1170    80.6960    59.6320    53.4740    49.1190    24.3410     2.2200 
  146.1250   -16.1560    78.8650    62.4620    56.0090    49.1460    24.5620     2.2350 
  146.2500   -16.1860    76.2700    66.1420    59.3410    55.5970    24.6830     2.2480 
  146.3750   -16.2450    74.2190    70.7730    63.5870    61.2650    24.6320     2.2560 
  146.5000   -16.3050    74.7770    76.5120    68.9970    63.4400    24.6260     2.2570 
  146.6250   -16.3900    75.1290    82.8570    75.1910    65.2880    24.7050     2.2530 
  146.7500   -16.5250    72.7860    89.0270    81.4890    69.2320    24.7490     2.2460 
  146.8750   -16.7070    70.4670    93.8710    86.8120    72.7220    24.6990     2.2380 
  147.0000   -16.8810    72.3820    95.7080    89.5020    86.1290    24.6610     2.2330 
  147.1250   -17.0330    76.5530    94.5020    89.2660   103.0290    24.6570     2.2360 
  147.2500   -17.1900    80.2300    90.8070    86.5060   100.4580    24.6860     2.2450 
  147.3750   -17.3200    81.7530    85.7080    82.2700    80.8900    24.7270     2.2610 
  147.5000   -17.4430    79.9380    80.3120    77.5990    67.0600    24.7450     2.2750 
  147.6250   -17.5470    77.2070    75.3160    73.1560    65.2710    24.7590     2.2830 
  147.7500   -17.5570    76.2980    70.9450    69.1990    64.6630    24.7730     2.2810 
  147.8750   -17.4520    76.7560    67.3280    65.9140    62.3220    24.7300     2.2750 
  148.0000   -17.3050    77.5760    64.8020    63.6170    59.4870    24.5700     2.2710 
  148.1250   -17.1250    77.7160    63.4330    62.4000    55.2260    24.3520     2.2710 
  148.2500   -16.9360    78.3020    63.3520    62.4530    57.4750    24.1190     2.2710 
  148.3750   -16.7590    79.9270    64.5290    63.7750    62.5390    23.9010     2.2650 
  148.5000   -16.6790    81.6300    66.8820    66.2740    61.5610    23.9180     2.2460 
  148.6250   -16.6840    82.5540    69.8850    69.4160    59.5600    24.0550     2.2250 
  148.7500   -16.7280    80.1620    73.2440    72.8950    62.9110    24.2800     2.2110 
  148.8750   -16.8320    75.2860    76.7540    76.4820    72.5490    24.4340     2.2120 
  149.0000   -17.0280    71.5770    80.2770    80.0490    76.3910    24.5360     2.2270 
  149.1250   -17.2970    71.4280    83.6750    83.4890    77.9300    24.5890     2.2440 
  149.2500   -17.5900    74.2270    86.7590    86.5730    83.2110    24.6050     2.2570 
  149.3750   -17.8540    75.4100    89.2030    89.0530    89.0690    24.5860     2.2620 
  149.5000   -18.0280    74.8460    90.7530    90.7700    92.9150    24.5630     2.2610 
  149.6250   -18.1960    75.1730    91.9020    92.0480    91.8610    24.5530     2.2600 
  149.7500   -18.4540    76.8860    93.0960    93.1990    91.0990    24.5820     2.2620 
  149.8750   -18.8100    78.3270    94.5560    94.5780    91.0150    24.6570     2.2710 
  150.0000   -19.2000    78.4540    96.4350    96.6560    88.2440    24.6950     2.2840 
  150.1250   -19.6200    77.0110    98.8710    99.5190    87.0000    24.6330     2.2920 
  150.2500   -20.1050    74.6730   101.9430   103.0670    86.9320    24.4960     2.2860 
  150.3750   -20.7080    72.3410   105.4710   106.9540    87.4360    24.3680     2.2600 
  150.5000   -21.4450    72.2340   108.9400   110.4220    88.4580    24.2630     2.2180 
  150.6250   -22.2370    73.9710   111.5630   112.5560    92.9810    24.0190     2.1770 
  150.7500   -23.0450    75.0440   112.5030   112.4310    92.0710    23.4610     2.1460 
  150.8750   -23.8390    75.9730   111.1340   109.5990    89.2860    22.5990     2.1280 
  151.0000   -24.6400    77.6110   107.2510   104.5800    80.3400    21.9030     2.1230 
  151.1250   -25.4970    78.5680   102.5550    99.7920    67.8080    21.4170     2.1270 
  151.2500   -26.3830    78.5940    99.0140    97.5240    56.2020    21.0570     2.1430 
  151.3750   -27.2800    79.2710    98.7870    99.9680    49.2650    20.7870     2.1710 
  151.5000   -28.1710    80.2700   104.9440   110.2170    53.1480    20.8130     2.2060 
  151.6250   -28.9580    78.0630   118.0300   128.0380    65.6650    21.0570     2.2340 
  151.7500   -29.6250    74.4310   138.2660   152.5340    84.5150    21.4960     2.2450 
  151.8750   -30.2130    73.2400   171.4780   180.6690   121.5480    22.0360     2.2400 
  152.0000   -30.6900    73.7950   199.1920   206.4500   169.5530    22.5530     2.2300 
  152.1250   -30.9940    73.6730   224.1390   225.6330   190.4440    22.8170     2.2280 
  152.2500   -31.1110    73.9520   243.9350   238.2030   130.3020    22.7690     2.2360 
  152.3750   -31.0900    76.1010   258.4120   247.0390    57.7530    22.3330     2.2470 
  152.5000   -30.9480    77.3040   268.5950   254.6130    32.5820    21.5000     2.2500 
  152.6250   -30.7510    77.1030   276.4280   260.8810    29.5280    21.1280     2.2460 
  152.7500   -30.4980    78.2900   281.7550   264.0430    35.6450    21.3200     2.2420 
  152.8750   -30.2070    80.1030   283.7910   262.7690    47.2330    21.8690     2.2500 
  153.0000   -29.8890    80.2040   282.0650   257.8080    70.7600    22.7110     2.2780 
  153.1250   -29.5440    79.5720   279.0750   253.6610   128.3630    23.5320     2.3130 
