~V
VERS. 2.00: Ver 2.00
~W
STRT.M 51.0000:
STOP.M 246.0000:
STEP.M 0.1250:
NULL. -999.2500:
UWI. F10182:
~C
DEPT.M :
SP.MV :
GR.API :
RML.OHMM :
RI. :
RXO.OHMM :
DEN.GM/CC :
CALI.CM :
~A
# ...
  197.2500   -15.0290    59.4920   146.9330   110.2370    77.2580     2.1820    25.0480 
  197.3750   -15.2480    58.8960   151.3500   114.3770    79.4180     2.1760    25.0500 
  197.5000   -15.4360    59.7510   152.2420   115.8580    78.6830     2.1640    25.0170 
  197.6250   -15.6250    61.9050   152.0450   116.2860    76.5810     2.1490    24.9920 
  197.7500   -15.8010    62.0430   152.9320   117.2290    77.7320     2.1450    24.9820 
  197.8750   -15.9730    59.7380   155.7030   119.4810    75.7440     2.1680    24.9560 
  198.0000   -16.1420    59.1590   160.0790   123.0120    71.9230     2.2120    24.8770 
  198.1250   -16.2690    61.2830   164.9290   127.1230    71.0750     2.2540    24.7040 
  198.2500   -16.4210    63.0510   168.3090   130.4960    76.3180     2.2640    24.4760 
  198.3750   -16.5370    63.3400   169.2370   132.2130    89.7690     2.2430    24.3030 
  198.5000   -16.6640    63.5090   167.7980   132.0340   102.1750     2.2110    24.2860 
  198.6250   -16.7870    63.7020   164.9870   130.4540    98.6940     2.1890    24.3960 
  198.7500   -16.9010    63.1720   162.3300   128.5460    92.6120     2.1880    24.5670 
  198.8750   -16.9960    63.7420   161.0690   127.5150    87.4240     2.1930    24.6280 
  199.0000   -17.0520    65.0540   161.9450   128.1710    80.4170     2.1930    24.5850 
  199.1250   -17.1400    63.0610   165.2760   130.9880    78.2910     2.1970    24.4900 
  199.2500   -17.1790    58.8280   170.9070   135.9810    77.4540     2.2210    24.4090 
  199.3750   -17.2180    56.8860   176.9740   141.5360    75.2140     2.2610    24.3730 
  199.5000   -17.2450    56.9460   181.3510   145.8800    73.4860     2.2980    24.3220 
  199.6250   -17.2350    55.6010   181.8070   147.2290    77.9720     2.3060    24.1580 
  199.7500   -17.2130    52.3870   176.1510   143.8430   103.1370     2.2770    24.1340 
  199.8750   -17.1640    52.3140   166.3330   137.0600   107.1730     2.2320    24.3150 
  200.0000   -17.1210    55.6360   154.8830   128.6720    88.4060     2.1940    24.5180 
  200.1250   -17.0710    59.5030   144.2330   120.5230    76.9480     2.1680    24.6360 
  200.2500   -17.0220    59.9520   136.4260   114.2600    75.7100     2.1560    24.6700 
  200.3750   -16.9770    59.0280   131.4730   110.1980    74.1950     2.1600    24.6890 
  200.5000   -16.9170    58.9580   128.7540   108.0900    71.5590     2.1870    24.6900 
  200.6250   -16.8920    58.4470   127.0540   107.0970    69.7170     2.2300    24.6300 
  200.7500   -16.8630    56.7800   124.8490   105.9880    70.3110     2.2620    24.5600 
  200.8750   -16.8670    55.1220   121.2600   103.8640    76.6250     2.2650    24.5200 
  201.0000   -16.8650    54.6730   116.0320   100.3980    85.2920     2.2430    24.4240 
  201.1250   -16.8270    55.9220   109.5170    95.7610    85.6550     2.2130    24.2950 
  201.2500   -16.8150    57.1920   102.7320    90.6460    75.0010     2.1940    24.3980 
  201.3750   -16.7720    57.0620    96.8440    86.0340    70.7840     2.1850    24.5240 
  201.5000   -16.7410    57.0370    92.4860    82.5020    69.1310     2.1770    24.5360 
  201.6250   -16.6730    59.6430    89.8280    80.2980    66.7380     2.1730    24.5030 
  201.7500   -16.6050    62.4960    88.6090    79.3620    65.2490     2.1780    24.4960 
  201.8750   -16.5470    62.2100    87.7110    78.8340    64.1530     2.1920    24.5310 
  202.0000   -16.4820    60.8050    86.3700    78.0380    66.6120     2.2110    24.6220 
  202.1250   -16.4720    61.1000    84.2130    76.5620    68.4490     2.2260    24.7080 
  202.2500   -16.4620    62.3910    81.3630    74.3520    68.6080     2.2310    24.7310 
  202.3750   -16.4620    61.9100    78.6250    72.0240    66.3030     2.2290    24.7370 
  202.5000   -16.4610    59.9730    76.7470    70.2260    62.8430     2.2240    24.7560 
  202.6250   -16.4740    58.5130    76.3270    69.5570    62.4760     2.2160    24.7680 
  202.7500   -16.5150    58.7070    77.9760    70.6840    61.7630     2.2040    24.7960 
  202.8750   -16.5420    58.5820    81.3050    73.3910    61.9870     2.1890    24.9040 
  203.0000   -16.5810    56.8120    85.8750    77.3620    65.3470     2.1720    25.0950 
  203.1250   -16.6110    55.9360    90.9900    82.0170    72.0610     2.1570    25.2510 
  203.2500   -16.6310    57.9040    95.6340    86.4890    74.8200     2.1460    25.3070 
  203.3750   -16.6980    59.3370    99.0400    90.0120    75.6660     2.1410    25.3080 
  203.5000   -16.7670    58.2540   100.7610    92.1270    74.3070     2.1420    25.2910 
  203.6250   -16.8550    56.4470   100.5000    92.5380    70.5570     2.1540    25.2560 
  203.7500   -16.9190    57.3910    97.4700    90.4920    68.6110     2.1820    25.2450 
  203.8750   -16.9780    60.2760    91.9970    86.1410    69.8730     2.2160    25.2500 
  204.0000   -17.0640    61.8420    84.9410    80.0800    73.5250     2.2430    25.2020 
  204.1250   -17.1050    62.4390    77.9330    73.6650    75.1640     2.2500    25.0630 
  204.2500   -17.1790    63.0660    73.3410    68.9730    67.0620     2.2320    24.8440 
  204.3750   -17.2440    62.3660    72.4070    67.3010    51.9600     2.2040    24.7490 
  204.5000   -17.2930    60.1540    75.8400    69.4490    46.1080     2.1750    24.7450 
  204.6250   -17.3770    58.8160    83.6180    75.5660    55.2350     2.1530    24.7600 
  204.7500   -17.4420    60.3190    95.1750    85.3370    63.1300     2.1400    24.7600 
  204.8750   -17.5300    62.2030   107.6640    96.2540    66.8340     2.1400    24.7640 
  205.0000   -17.6200    62.9900   118.4310   105.8940    65.0920     2.1520    24.7650 
  205.1250   -17.7210    62.4480   125.4890   112.3060    66.1820     2.1750    24.7600 
  205.2500   -17.8300    59.7570   128.3960   114.8090    69.4630     2.1970    24.7030 
  205.3750   -17.9340    58.5040   129.7640   115.6510    74.6560     2.2070    24.5550 
  205.5000   -18.0510    61.0480   131.2280   116.4180    81.8790     2.2010    24.3540 
  205.6250   -18.1730    64.9030   133.5130   117.9540    87.9510     2.1860    24.2720 
  205.7500   -18.2970    64.9270   136.5570   120.4130    85.7480     2.1710    24.3010 
  205.8750   -18.4130    61.6010   139.5510   123.0740    82.3340     2.1610    24.3100 
  206.0000   -18.5370    58.1320   141.8450   125.2610    80.9960     2.1560    24.3230 
  206.1250   -18.6620    56.3460   142.9930   126.4360    81.7160     2.1560    24.3720 
  206.2500   -18.7650    57.5190   142.6310   126.1590    79.7430     2.1600    24.3940 
  206.3750   -18.8500    59.7360   141.1140   124.7740    77.0880     2.1630    24.4020 
  206.5000   -18.9440    59.7020   138.7030   122.5790    74.4430     2.1630    24.3880 
  206.6250   -19.0070    56.6440   135.6770   119.8860    72.1310     2.1590    24.3630 
  206.7500   -19.0740    54.7940   132.3090   116.9840    69.7120     2.1560    24.3230 
  206.8750   -19.1400    56.0320   128.9450   114.1750    68.9260     2.1600    24.3050 
  207.0000   -19.1610    57.8790   125.7520   111.6220    68.7890     2.1680    24.3010 
  207.1250   -19.2380    59.5340   122.7820   109.3840    68.2670     2.1750    24.2990 
  207.2500   -19.3180    59.9740   120.0670   107.4490    67.6900     2.1740    24.2970 
  207.3750   -19.4120    58.4850   117.5060   105.6480    66.5220     2.1670    24.2940 
  207.5000   -19.5250    55.8480   114.9210   103.8290    65.4000     2.1600    24.2880 
  207.6250   -19.6080    53.9470   111.9870   101.7530    66.4010     2.1570    24.2610 
  207.7500   -19.7000    52.8920   108.0640    98.8980    67.0560     2.1590    24.2210 
  207.8750   -19.8110    52.5270   102.8110    94.8890    67.4620     2.1650    24.2190 
  208.0000   -19.9070    54.0050    96.1220    89.5090    65.0520     2.1740    24.2420 
  208.1250   -19.9350    56.7000    88.4130    82.9820    62.9180     2.1840    24.2780 
  208.2500   -19.9630    57.5800    80.6430    76.0410    61.6840     2.1910    24.2880 
  208.3750   -19.9690    57.4150    73.7900    69.6690    60.2050     2.1950    24.2920 
