~V
VERS. 2.00: Ver 2.00
~W
STRT.M 55.0000:
STOP.M 239.0000:
STEP.M 0.1250:
NULL. -999.2500:
UWI. F10186:
~C
DEPT.M :
GR.API :
RML.OHMM :
RI. :
RXO.OHMM :
CALI.CM :
DEN.GM/CC :
SP.MV :
~A
# ...
  122.5000    61.5800     8.3030     7.7240     8.8820    22.3550     2.2200   -12.6050 
  122.6250    57.0320     8.2930     7.7340     8.7720    22.3080     2.2200   -12.5760 
  122.7500    53.3860     8.2890     7.7390     8.8180    22.2520     2.2150   -12.4770 
  122.8750    51.3930     8.3810     7.7980     8.8910    22.2270     2.2090   -12.3040 
  123.0000    50.4240     8.6400     7.9730     8.9770    22.2160     2.2050   -12.0010 
  123.1250    51.8270     9.0350     8.2680     9.3150    22.2460     2.2090   -11.6020 
  123.2500    53.7760     9.3570     8.5390    10.1150    22.4050     2.2290   -11.1370 
  123.3750    55.2670     9.4070     8.6260    11.5380    22.7350     2.2680   -10.6120 
  123.5000    55.7170     9.0730     8.4120    13.9060    23.2030     2.3210   -10.1090 
  123.6250    57.6120     8.3830     7.8730    15.4690    23.5870     2.3630    -9.6910 
  123.7500    61.5130     7.6420     7.2410    12.2920    23.7460     2.3740    -9.3370 
  123.8750    63.6560     7.0950     6.7210     8.2860    23.5310     2.3550    -9.1020 
  124.0000    62.4630     6.8920     6.4590     6.9330    23.1170     2.3180    -9.0220 
  124.1250    60.3570     7.1040     6.5530     7.3730    22.7370     2.2820    -9.1150 
  124.2500    60.7860     7.5730     6.9100     7.9570    22.5310     2.2550    -9.3520 
  124.3750    62.4780     8.1790     7.4420     8.4520    22.4390     2.2370    -9.6710 
  124.5000    61.8200     8.7960     8.0430     8.9200    22.4420     2.2270    -9.9800 
  124.6250    58.2890     9.3040     8.5920     9.3500    22.5310     2.2250   -10.2610 
  124.7500    56.0190     9.6630     9.0190     9.6900    22.6640     2.2310   -10.5240 
  124.8750    58.5710     9.8600     9.2940    10.0250    22.7900     2.2430   -10.7270 
  125.0000    64.7210     9.8920     9.4010    10.4810    22.8650     2.2580   -10.8780 
  125.1250    67.6450     9.7400     9.3130    10.7810    22.9100     2.2690   -10.9800 
  125.2500    64.9120     9.4620     9.0790    10.8660    22.9460     2.2720   -10.9450 
  125.3750    59.5860     9.1140     8.7480    10.8190    22.9970     2.2680   -10.7770 
  125.5000    55.9220     8.7800     8.3950    10.7290    23.0400     2.2610   -10.5540 
  125.6250    54.1780     8.6150     8.1540    10.1760    23.0450     2.2540   -10.2720 
  125.7500    52.2340     8.7390     8.1370     9.7350    23.0040     2.2490    -9.8340 
  125.8750    51.9940     9.2750     8.4540     9.7440    22.9200     2.2500    -9.2450 
  126.0000    54.6000    10.3230     9.2020    10.2090    22.8120     2.2610    -8.5770 
  126.1250    55.6300    12.0110    10.5350    11.3240    22.7850     2.2940    -7.8140 
  126.2500    51.3330    14.1500    12.3500    13.3640    22.8990     2.3470    -6.9740 
  126.3750    44.9460    16.5040    14.5100    16.6050    23.1880     2.4140    -6.1260 
  126.5000    40.7980    18.7320    16.7560    20.7610    23.6080     2.4800    -5.3170 
  126.6250    40.1900    20.3380    18.6440    25.3100    23.9220     2.5240    -4.5160 
  126.7500    41.8520    21.1750    19.8730    28.1400    23.9970     2.5410    -3.7850 
  126.8750    44.2220    21.2690    20.2960    28.1800    23.9410     2.5390    -3.1690 
  127.0000    44.4250    20.7670    19.9670    25.5720    23.9790     2.5240    -2.6620 
  127.1250    43.9040    19.8940    19.0300    22.6840    24.1740     2.4970    -2.2920 
  127.2500    46.8300    18.9350    17.8580    20.7290    24.3390     2.4650    -2.0150 
  127.3750    51.8660    17.7790    16.7140    19.5130    24.4010     2.4310    -1.7990 
  127.5000    54.4000    16.9160    15.8550    17.8870    24.3960     2.4050    -1.6430 
  127.6250    52.2940    16.7850    15.5880    16.8970    24.3700     2.4010    -1.5480 
  127.7500    49.1880    17.3420    15.9230    16.5580    24.3530     2.4200    -1.4720 
  127.8750    46.3540    18.4590    16.8030    17.1420    24.3250     2.4570    -1.4000 
  128.0000    44.4150    19.8410    18.0340    19.9720    24.3050     2.5020    -1.3440 
  128.1250    44.0040    21.0030    19.2500    24.2350    24.3020     2.5370    -1.3060 
  128.2500    44.5860    21.5950    20.0740    24.9720    24.3170     2.5530    -1.2740 
  128.3750    44.5560    21.5050    20.3140    23.8910    24.3030     2.5530    -1.2560 
  128.5000    43.5030    20.8760    20.0030    22.9160    24.2710     2.5440    -1.2340 
  128.6250    44.5120    20.0460    19.3680    21.8280    24.2390     2.5320    -1.2370 
  128.7500    48.1780    19.3750    18.7640    20.0280    24.2540     2.5190    -1.2520 
  128.8750    51.5250    18.9840    18.3440    19.0280    24.2710     2.5010    -1.2590 
  129.0000    52.4440    18.8620    18.1390    19.3500    24.3190     2.4790    -1.2400 
  129.1250    52.3920    18.9670    18.1460    19.6090    24.3520     2.4610    -1.2200 
  129.2500    51.6590    19.1920    18.2810    19.7340    24.3640     2.4520    -1.2220 
  129.3750    48.2310    19.4640    18.4830    19.0930    24.3520     2.4550    -1.2230 
  129.5000    44.2620    19.7010    18.6770    18.0150    24.3400     2.4660    -1.1910 
  129.6250    44.0930    19.7880    18.7650    18.4770    24.3710     2.4810    -1.1470 
  129.7500    45.4410    19.7030    18.7130    19.8520    24.3870     2.4930    -1.1210 
  129.8750    44.6630    19.4850    18.5390    22.0380    24.3750     2.5020    -1.1140 
  130.0000    43.4030    19.2280    18.3110    24.4310    24.3520     2.5030    -1.1060 
  130.1250    45.3080    19.0700    18.1370    23.2960    24.3840     2.4970    -1.0800 
  130.2500    47.1010    19.0510    18.0680    21.7130    24.4000     2.4860    -1.0420 
  130.3750    46.0920    19.1220    18.0860    21.0050    24.3490     2.4790    -1.0220 
  130.5000    44.1560    19.1870    18.1220    20.7090    24.2360     2.4800    -1.0450 
  130.6250    45.1850    19.1800    18.1130    20.5960    24.1800     2.4890    -1.0630 
  130.7500    47.8770    19.2000    18.1110    20.3560    24.1080     2.4990    -1.0630 
  130.8750    49.2480    19.4300    18.2510    20.7640    24.0500     2.5070    -1.0860 
  131.0000    48.6800    20.0430    18.6820    20.8950    24.0840     2.5140    -1.1300 
  131.1250    47.6330    21.1400    19.5340    21.1750    24.1880     2.5280    -1.1750 
  131.2500    47.5530    22.4600    20.6480    23.4500    24.2510     2.5460    -1.2520 
  131.3750    48.3480    23.7080    21.8040    27.9900    24.2440     2.5630    -1.3210 
  131.5000    49.4460    24.6080    22.7570    31.3730    24.2480     2.5720    -1.3130 
  131.6250    49.5000    24.9650    23.2800    29.8910    24.2680     2.5680    -1.3180 
  131.7500    48.6830    24.9780    23.4700    26.7780    24.2520     2.5610    -1.4170 
  131.8750    46.8880    24.8550    23.4830    24.7810    24.2110     2.5580    -1.5030 
  132.0000    45.0250    24.7560    23.4830    24.0290    24.1650     2.5610    -1.5210 
  132.1250    44.6710    24.7270    23.5610    25.4340    24.1030     2.5670    -1.5550 
  132.2500    46.7310    24.6970    23.6790    27.3930    24.0590     2.5710    -1.6430 
  132.3750    49.6730    24.6550    23.7990    27.1100    24.0550     2.5720    -1.7450 
  132.5000    50.3550    24.6840    23.9420    25.6900    24.0440     2.5700    -1.8630 
  132.6250    49.1050    24.9210    24.1800    24.5910    24.0560     2.5650    -2.0410 
  132.7500    49.7840    25.2710    24.4610    24.9800    24.1220     2.5590    -2.2320 
  132.8750    52.2820    25.4250    24.5500    25.6730    24.1380     2.5520    -2.4370 
  133.0000    52.1700    24.8890    24.0470    26.9140    24.1000     2.5460    -2.6870 
  133.1250    48.1100    22.9940    22.3310    27.5560    24.0710     2.5380    -2.9930 
  133.2500    46.8140    19.9410    19.5290    26.6470    24.0560     2.5200    -3.3180 
  133.3750    51.1390    16.3170    16.1660    24.3830    24.0560     2.4850    -3.7080 
  133.5000    58.9820    12.9580    13.0260    20.0470    24.0710     2.4310    -4.1700 
  133.6250    64.5630    10.6940    10.8500    14.7940    23.8720     2.3650    -4.6310 
