~V
VERS. 2.00: Ver 2.00
~W
STRT.M 50.0000:
STOP.M 232.0000:
STEP.M 0.1250:
NULL. -999.2500:
UWI. F10160:
~C
DEPT.M :
SP.MV :
DEN.GM/CC :
GR.API :
RML.OHMM :
RI. :
RXO.OHMM :
CALI.CM :
~A
# ...
   83.7500   -27.6320     2.2970    77.3400     8.2880     6.4190     6.9350    25.3710 
   83.8750   -26.8440     2.3080    79.5670     7.7960     6.0300     6.5400    25.6210 
   84.0000   -26.2190     2.3130    77.1950     7.2690     5.6060     6.3060    25.8160 
   84.1250   -25.8270     2.3130    74.3210     6.6970     5.1750     6.1290    25.8820 
   84.2500   -25.6590     2.3110    73.7810     6.1810     4.8080     5.7500    25.8830 
   84.3750   -25.7000     2.3050    77.4420     5.9270     4.6170     5.3700    25.8810 
   84.5000   -25.9120     2.3010    84.2910     6.2190     4.7440     5.2490    25.8810 
   84.6250   -26.2810     2.3180    87.5250     7.6220     5.4840     5.8630    25.8380 
   84.7500   -26.7520     2.3740    83.2140    10.4280     7.0200     9.1170    25.7040 
   84.8750   -27.3210     2.4790    73.5770    14.8450     9.5680    19.4180    25.5000 
   85.0000   -28.0040     2.6160    63.4680    20.4630    13.0730    38.1660    25.3190 
   85.1250   -28.8200     2.7230    57.7570    25.1040    16.5050    51.8480    25.2500 
   85.2500   -29.7270     2.7490    57.1020    26.0690    18.0360    47.6630    25.2140 
   85.3750   -30.6790     2.6920    57.0300    23.0200    17.0230    36.6300    25.0760 
   85.5000   -31.6230     2.5850    55.3430    18.2850    14.5280    23.4990    24.8050 
   85.6250   -32.4850     2.4710    55.1540    14.5280    12.0950    14.8230    24.5510 
   85.7500   -33.2280     2.3810    56.3630    12.2760    10.3440    10.9260    24.4650 
   85.8750   -33.8200     2.3260    56.8670    11.1950     9.2570     9.6530    24.5110 
   86.0000   -34.2340     2.3030    56.8660    10.8540     8.6790     9.3050    24.5720 
   86.1250   -34.4710     2.2950    59.1370    10.9010     8.4700     9.2860    24.5870 
   86.2500   -34.6130     2.2840    61.4600    10.9740     8.3920     9.2320    24.5760 
   86.3750   -34.7090     2.2700    61.7250    10.9290     8.3300     8.7580    24.5560 
   86.5000   -34.7850     2.2580    61.0790    10.7560     8.2360     8.3750    24.5370 
   86.6250   -34.8350     2.2520    60.8180    10.5290     8.1190     8.3810    24.5300 
   86.7500   -34.8620     2.2490    61.1080    10.3370     8.0190     8.5950    24.5320 
   86.8750   -34.8800     2.2460    61.1970    10.2050     7.9510     8.7760    24.5360 
   87.0000   -34.8930     2.2450    60.4250    10.1180     7.9090     8.9060    24.5370 
   87.1250   -34.8770     2.2450    59.9360    10.0350     7.8700     9.0170    24.5340 
   87.2500   -34.8390     2.2450    60.6730     9.9270     7.8110     9.1940    24.5320 
   87.3750   -34.7870     2.2430    62.9260     9.7870     7.7220     9.3250    24.5340 
   87.5000   -34.7410     2.2400    65.8000     9.6210     7.6060     9.4200    24.5340 
   87.6250   -34.6950     2.2370    65.0730     9.4530     7.4720     9.2170    24.5140 
   87.7500   -34.6420     2.2350    61.6760     9.3170     7.3480     8.8510    24.4780 
   87.8750   -34.5670     2.2320    59.9370     9.2250     7.2460     8.5090    24.4460 
   88.0000   -34.4600     2.2280    62.5580     9.1550     7.1590     8.1900    24.4330 
   88.1250   -34.3410     2.2280    64.9220     9.0530     7.0520     8.1690    24.4300 
   88.2500   -34.2120     2.2350    63.8540     8.8800     6.8990     8.2640    24.4300 
   88.3750   -34.0810     2.2490    61.5810     8.6330     6.6920     8.1190    24.4710 
   88.5000   -33.9660     2.2620    60.8680     8.3490     6.4530     7.5160    24.6110 
   88.6250   -33.8810     2.2650    61.8670     8.1080     6.2320     6.9910    24.8560 
   88.7500   -33.8200     2.2590    63.8750     7.9790     6.0800     6.7830    24.9800 
   88.8750   -33.7830     2.2530    66.8640     8.0130     6.0360     6.9520    24.7880 
   89.0000   -33.7670     2.2550    70.4930     8.2450     6.1300     7.2680    24.3740 
   89.1250   -33.7480     2.2650    70.4960     8.7270     6.4020     7.6300    24.0920 
   89.2500   -33.7230     2.2700    67.3900     9.3820     6.8110     8.1540    24.0840 
   89.3750   -33.7020     2.2570    64.1190    10.1140     7.3050     9.0060    24.2520 
   89.5000   -33.6860     2.2230    62.3680    10.7880     7.8050    11.7020    24.4330 
   89.6250   -33.6840     2.1790    60.8630    11.2060     8.1880    17.4820    24.5160 
   89.7500   -33.7100     2.1430    59.2360    11.3060     8.3850    20.2140    24.4830 
   89.8750   -33.7620     2.1270    58.4390    11.1100     8.3780    15.0080    24.3730 
   90.0000   -33.8390     2.1310    58.1930    10.7400     8.2120    11.0830    24.2410 
   90.1250   -33.9370     2.1480    58.0310    10.3540     7.9690    10.0970    24.1390 
   90.2500   -34.0330     2.1640    57.9120    10.0550     7.7390     9.8300    24.0950 
   90.3750   -34.1100     2.1750    57.4330     9.8660     7.5620     9.3870    24.0910 
   90.5000   -34.1780     2.1810    57.8410     9.7650     7.4460     8.9960    24.0950 
   90.6250   -34.2450     2.1860    59.7920     9.7190     7.3850     8.9060    24.0940 
   90.7500   -34.3130     2.1900    61.8460     9.6880     7.3470     8.9070    24.0910 
   90.8750   -34.3790     2.1930    63.6240     9.6580     7.3150     8.8130    24.0880 
   91.0000   -34.4540     2.1930    64.6730     9.6130     7.2790     8.6910    24.0860 
   91.1250   -34.5370     2.1920    64.5110     9.5340     7.2350     8.6360    24.0910 
   91.2500   -34.6120     2.1900    63.9250     9.4370     7.1900     8.6700    24.1170 
   91.3750   -34.6630     2.1890    64.3130     9.3440     7.1520     8.7720    24.1670 
   91.5000   -34.6590     2.1900    66.1170     9.2840     7.1280     8.9290    24.2140 
   91.6250   -34.6070     2.1910    66.9380     9.2830     7.1310     8.9980    24.2320 
   91.7500   -34.5220     2.1960    64.9500     9.3320     7.1630     9.0530    24.2330 
   91.8750   -34.4030     2.2030    61.5190     9.4090     7.2140     9.2120    24.2360 
   92.0000   -34.2490     2.2120    59.4490     9.4750     7.2690     9.4090    24.2440 
   92.1250   -34.0660     2.2180    60.8940     9.4920     7.2990     9.5130    24.2610 
   92.2500   -33.8820     2.2180    62.6840     9.4520     7.2940     9.5340    24.2780 
   92.3750   -33.7040     2.2140    62.5990     9.3610     7.2550     9.2190    24.2710 
   92.5000   -33.5340     2.2110    60.9970     9.2460     7.1920     8.7760    24.2370 
   92.6250   -33.3530     2.2100    60.5140     9.1350     7.1180     8.6090    24.2010 
   92.7500   -33.1700     2.2070    62.4510     9.0380     7.0390     8.7570    24.1840 
   92.8750   -32.9940     2.2010    64.5090     8.9430     6.9530     8.9760    24.1840 
   93.0000   -32.8400     2.1940    63.8570     8.8290     6.8530     9.0250    24.1870 
   93.1250   -32.6940     2.1940    62.5600     8.6720     6.7290     8.7210    24.1880 
   93.2500   -32.5670     2.2030    63.6950     8.4830     6.5840     8.2020    24.1830 
   93.3750   -32.4710     2.2170    66.3900     8.2880     6.4300     7.9590    24.1920 
   93.5000   -32.4180     2.2290    68.3230     8.1290     6.2890     8.0020    24.2380 
   93.6250   -32.4150     2.2330    68.8620     8.0760     6.2050     7.9720    24.3330 
   93.7500   -32.4470     2.2350    69.0500     8.1670     6.2110     7.9550    24.4400 
   93.8750   -32.4970     2.2460    68.0590     8.4180     6.3290     8.1100    24.5360 
   94.0000   -32.5520     2.2720    64.0640     8.8090     6.5570     8.5450    24.6210 
   94.1250   -32.6160     2.3100    60.1560     9.2640     6.8620     8.8320    24.6840 
   94.2500   -32.6970     2.3410    59.0040     9.6420     7.1510     9.0930    24.6820 
   94.3750   -32.7950     2.3460    60.0010     9.8430     7.3500     9.3510    24.6100 
   94.5000   -32.9140     2.3210    61.7420     9.8320     7.4170     9.3690    24.5220 
   94.6250   -33.0610     2.2790    64.2670     9.6400     7.3460     9.1110    24.4900 
   94.7500   -33.2220     2.2420    64.1360     9.4050     7.2180     8.8010    24.5020 
   94.8750   -33.3780     2.2210    59.8980     9.2100     7.0900     8.5400    24.5240 
