~V
VERS. 2.00: Ver 2.00
~W
STRT.M 63.0000:
STOP.M 308.0000:
STEP.M 0.1250:
NULL. -999.2500:
UWI. F10102:
~C
DEPT.M :
DEN.GM/CC :
SP.MV :
GR.API :
RML.OHMM :
RI. :
RXO.OHMM :
CALI.CM :
~A
   63.0000     2.6260   124.2390    47.0770     0.1440     0.4540     0.1850    24.5190 
   63.1250     2.6720   122.2610    47.1510     0.1550     0.4570     0.0920    24.2260 
   63.2500     2.7110   120.1950    48.2250     0.1660     0.4580     0.0160    24.0440 
   63.3750     2.7260   117.8430    49.9520     0.1600     0.4500     0.2540    23.9750 
   63.5000     2.7130   115.2010    50.4520     0.1200     0.4240     0.8330    23.9700 
   63.6250     2.6770   112.1850    50.4040     0.0280     0.3740     1.1840    24.0090 
   63.7500     2.6390   108.9010    49.6580    -0.1130     0.3020     1.9120    24.1170 
   63.8750     2.6330   105.2810    48.5140    -0.2740     0.2210     0.5970    24.4000 
   64.0000     2.6640   101.0790    48.8650    -0.4090     0.1530     0.1650    24.7660 
   64.1250     2.7020    96.0480    51.0990    -0.4950     0.1070     0.0730    25.1110 
   64.2500     2.6850    90.0320    53.2010    -0.5250     0.0850     0.3000    25.4450 
   64.3750     2.5390    82.7580    54.2350    -0.4930     0.0950     0.6620    25.9230 
   64.5000     2.2850    74.5310    57.4500    -0.3970     0.1470     1.2620    26.9080 
   64.6250     1.9870    65.5700    63.3770    -0.2010     0.2740     2.2160    28.9800 
   64.7500     1.7330    56.1090    68.8510     0.1610     0.5420     3.9140    31.9510 
   64.8750     1.6320    46.4730    69.6590     0.8510     1.1330     5.4580    33.6340 
   65.0000     1.6970    37.0660    66.6310     1.9670     2.1950     6.7120    32.6900 
   65.1250     1.8960    28.2880    64.6430     3.5870     3.9100     8.2260    29.3890 
   65.2500     2.1510    20.4960    66.2380     5.5570     6.2900    12.7730    25.8750 
   65.3750     2.3510    14.1260    69.7590     7.2100     8.7340    27.9160    24.2520 
   65.5000     2.4370     9.0020    72.3020     7.8620    10.0740    31.5380    23.8470 
   65.6250     2.4190     5.0980    73.6710     7.3520     9.7970    19.2940    23.9450 
   65.7500     2.3510     2.3470    76.4120     6.1130     8.4040    11.6980    24.2190 
   65.8750     2.3020     0.5180    83.4010     4.8760     6.8250     9.1880    24.3010 
   66.0000     2.2900    -0.8860    91.9760     4.0660     5.6560     7.1820    24.0460 
   66.1250     2.2960    -2.0080    97.1940     3.7340     5.0250     5.7590    23.6440 
   66.2500     2.2960    -2.8550    95.0680     3.8110     4.8900     5.4720    23.3360 
   66.3750     2.2730    -3.6040    87.1170     4.2180     5.1740     6.1260    23.2920 
   66.5000     2.2360    -4.3940    81.1550     4.7580     5.6550     6.9880    23.6300 
   66.6250     2.1940    -5.2940    78.0860     5.2800     6.1780     7.7030    24.3600 
   66.7500     2.1550    -6.5540    74.8530     5.6470     6.5900     8.0540    25.0560 
   66.8750     2.1300    -8.1000    70.2190     5.7460     6.7440     8.2460    25.3150 
   67.0000     2.1220    -9.4820    67.5700     5.6490     6.6820     8.2300    24.9760 
   67.1250     2.1330   -10.6430    68.6110     5.4510     6.4810     7.8570    24.0490 
   67.2500     2.1570   -11.6030    70.9930     5.2420     6.2250     7.3290    23.0980 
   67.3750     2.1820   -12.3100    74.4790     5.0940     5.9900     6.8880    22.5630 
   67.5000     2.1950   -13.0150    78.4870     5.0190     5.8100     6.7180    22.3100 
   67.6250     2.1920   -13.7790    79.8040     5.0090     5.6970     6.9520    22.2200 
   67.7500     2.1750   -14.5130    78.9230     5.0480     5.6420     7.3770    22.4810 
   67.8750     2.1460   -15.0860    77.8320     5.1190     5.6350     7.8220    23.1640 
   68.0000     2.1170   -15.3730    76.5980     5.1950     5.6440     7.8790    23.7900 
   68.1250     2.1000   -15.2990    74.8510     5.2630     5.6490     7.6660    24.1210 
   68.2500     2.1040   -14.8580    75.3440     5.3190     5.6380     7.8000    24.1620 
   68.3750     2.1390   -14.0970    78.9010     5.3710     5.6150     7.8540    24.0520 
   68.5000     2.1870   -13.2920    80.9290     5.4380     5.5940     7.5740    24.0680 
   68.6250     2.2270   -12.7840    81.0600     5.5360     5.5930     6.7870    24.1950 
   68.7500     2.2410   -12.7870    82.3420     5.6750     5.6300     6.1600    24.2650 
   68.8750     2.2160   -13.2580    84.5390     5.8580     5.7190     6.6110    24.2010 
   69.0000     2.1730   -14.0780    83.4830     6.0540     5.8370     7.5930    24.0870 
   69.1250     2.1330   -15.2770    78.2310     6.2310     5.9560     8.2720    23.9590 
   69.2500     2.1120   -16.7870    72.1240     6.3560     6.0460     8.5130    23.7780 
   69.3750     2.1130   -18.3960    69.0260     6.4030     6.0730     8.4270    23.5540 
   69.5000     2.1250   -19.8570    69.6200     6.4010     6.0500     7.9370    23.4040 
   69.6250     2.1400   -20.9900    72.2730     6.3930     6.0050     7.2410    23.2320 
   69.7500     2.1540   -21.7190    75.2410     6.4240     5.9730     6.8670    22.9950 
   69.8750     2.1660   -22.4110    76.4560     6.5370     5.9920     6.8880    22.7450 
   70.0000     2.1780   -23.4020    75.9570     6.7210     6.0690     7.0830    22.5150 
   70.1250     2.1860   -24.6150    74.0140     6.9500     6.2000     7.4440    22.2530 
   70.2500     2.1880   -26.1020    70.2920     7.1850     6.3590     8.1550    22.0700 
   70.3750     2.1800   -27.9240    67.1190     7.3720     6.5010     9.2820    22.2200 
   70.5000     2.1650   -29.7020    65.6100     7.4860     6.5910    10.0220    22.7560 
   70.6250     2.1460   -31.3140    64.2200     7.5220     6.6130    10.1300    23.4820 
   70.7500     2.1300   -32.6550    62.2660     7.4910     6.5680    10.1220    24.0130 
   70.8750     2.1240   -33.4020    61.9760     7.4150     6.4660     9.8730    24.0840 
   71.0000     2.1270   -33.6970    64.1410     7.3390     6.3410     9.0470    23.8630 
   71.1250     2.1380   -33.6770    66.6500     7.2960     6.2230     8.0350    23.5760 
   71.2500     2.1520   -33.4190    67.7940     7.3110     6.1390     7.5360    23.3500 
   71.3750     2.1630   -33.1130    66.8160     7.4010     6.1150     7.4870    23.2500 
   71.5000     2.1660   -32.9260    65.4050     7.5370     6.1410     7.7160    23.2260 
   71.6250     2.1610   -32.8600    65.9140     7.6860     6.1970     8.5440    23.2780 
   71.7500     2.1490   -32.8460    68.2770     7.8110     6.2550     9.6260    23.3830 
   71.8750     2.1350   -32.9570    70.5280     7.8790     6.2820    10.0370    23.6350 
   72.0000     2.1260   -33.1020    71.9290     7.9030     6.2770    10.0430    23.9590 
   72.1250     2.1210   -33.2330    72.7070     7.9050     6.2480     9.8630    24.2230 
   72.2500     2.1210   -33.3210    72.6680     7.9090     6.2160     9.7310    24.3280 
   72.3750     2.1220   -33.1800    70.0400     7.9320     6.2030     9.9790    24.3430 
   72.5000     2.1200   -32.8740    65.8580     7.9640     6.2090    10.2770    24.3430 
   72.6250     2.1150   -32.4750    62.4370     7.9900     6.2190    10.1450    24.2870 
   72.7500     2.1110   -32.0320    62.1520     7.9960     6.2210     9.8710    24.1350 
   72.8750     2.1110   -31.4760    65.1040     7.9790     6.2030    10.0690    23.9100 
   73.0000     2.1190   -30.8060    66.7020     7.9570     6.1720    10.3310    23.7380 
   73.1250     2.1350   -30.0890    65.1340     7.9460     6.1370    10.3930    23.6250 
   73.2500     2.1550   -29.2830    62.5850     7.9540     6.1070    10.3270    23.5720 
   73.3750     2.1760   -28.5620    62.7370     7.9780     6.0860    10.2800    23.5540 
   73.5000     2.1940   -28.0010    65.2410     7.9980     6.0690    10.4630    23.5550 
   73.6250     2.2070   -27.5180    67.8360     8.0020     6.0510    10.4450    23.5550 
   73.7500     2.2180   -27.2300    69.4400     7.9920     6.0300    10.2310    23.5380 
   73.8750     2.2280   -27.2700    70.0910     7.9910     6.0140     9.9360    23.5390 
   74.0000     2.2360   -27.5690    70.5100     8.0310     6.0220     9.5590    23.5640 
   74.1250     2.2360   -28.1780    71.1580     8.1340     6.0730     9.3290    23.6350 
