~V
VERS. 2.00: Ver 2.00
~W
STRT.M 56.0000:
STOP.M 221.0000:
STEP.M 0.1250:
NULL. -999.2500:
UWI. F10169:
~C
DEPT.M :
GR.API :
RML.OHMM :
RI. :
RXO.OHMM :
CALI.CM :
SP.MV :
DEN.GM/CC :
~A
# ...
  179.7500    64.5380    38.9300    35.9140    24.0590    26.2600   -25.2410     2.3010 
  179.8750    63.2570    46.1290    41.7940    40.5660    26.7080   -25.2010     2.2810 
  180.0000    60.2320    56.6370    51.3950    64.1200    26.9790   -25.1800     2.2440 
  180.1250    56.8890    68.9150    63.6940    78.2060    27.0180   -25.1710     2.2110 
  180.2500    56.3840    79.5570    75.6210    77.9920    26.9820   -25.1970     2.1960 
  180.3750    56.9050    86.0400    84.0130    73.8750    26.9470   -25.2260     2.1950 
  180.5000    57.2910    88.0930    88.0480    70.9890    26.9340   -25.3010     2.1980 
  180.6250    58.0810    86.2070    87.9140    70.1730    26.9260   -25.4330     2.2010 
  180.7500    59.4380    78.9570    81.8500    70.5950    26.9050   -25.6450     2.2040 
  180.8750    59.2760    67.1470    70.4570    71.1100    26.8710   -25.8640     2.2110 
  181.0000    59.0530    53.5080    56.5540    67.8950    26.8230   -26.1280     2.2220 
  181.1250    63.2210    41.6520    44.0860    53.9930    26.6740   -26.4160     2.2360 
  181.2500    70.8440    34.6870    36.2670    31.1070    26.3060   -26.7780     2.2570 
  181.3750    74.2590    32.5080    32.9090    20.0420    25.9160   -27.2160     2.2800 
  181.5000    71.7740    34.9320    33.8010    22.1820    25.8330   -27.6810     2.2930 
  181.6250    65.8890    41.6850    38.8640    36.9570    25.9870   -28.1680     2.2810 
  181.7500    61.4590    52.9410    48.7940    58.3540    25.8530   -28.6560     2.2530 
  181.8750    60.6730    66.7410    62.0120    69.9260    25.6840   -29.1720     2.2330 
  182.0000    62.2330    83.0640    76.2140    68.7860    25.8740   -29.6830     2.2250 
  182.1250    62.3840    96.6400    88.9030    64.4670    26.3400   -30.1880     2.2230 
  182.2500    59.0900   108.2380    99.8230    67.1310    26.6860   -30.6210     2.2180 
  182.3750    57.4530   121.3300   111.5560    89.1740    26.7730   -30.9720     2.2070 
  182.5000    58.1850   137.1120   125.2740   112.4050    26.7050   -31.2550     2.1900 
  182.6250    58.1300   154.3530   140.0530   119.3680    26.5560   -31.4760     2.1760 
  182.7500    57.2050   169.1270   152.8090   121.9020    26.3850   -31.6330     2.1700 
  182.8750    56.6930   178.4200   161.2300   130.0740    26.2770   -31.7380     2.1670 
  183.0000    55.5050   181.6300   164.7760   138.5470    26.2740   -31.7610     2.1650 
  183.1250    53.0060   180.2820   164.5700   140.5260    26.2710   -31.7200     2.1610 
  183.2500    53.2760   176.1220   162.0920   135.3610    26.1690   -31.6190     2.1540 
  183.3750    57.1200   171.0360   158.9930   128.0280    25.9960   -31.4790     2.1450 
  183.5000    60.2490   165.9330   156.0680   117.9500    25.8040   -31.3060     2.1310 
  183.6250    60.9720   161.0800   153.5600   104.1570    25.6640   -31.0790     2.1120 
  183.7500    60.3770   155.2830   150.4480    92.8200    25.5440   -30.8140     2.1040 
  183.8750    59.0270   146.6060   144.8050    86.4890    25.4510   -30.5240     2.1170 
  184.0000    58.1310   133.8120   135.0450    81.1940    25.4110   -30.2570     2.1380 
  184.1250    60.2510   117.7640   121.2900    77.6480    25.4050   -29.9990     2.1440 
  184.2500    65.8430   102.0660   106.2810    67.8000    25.3920   -29.7650     2.1370 
  184.3750    68.5610    90.4170    94.1440    55.8970    25.3500   -29.5560     2.1410 
  184.5000    66.1240    84.6930    87.3900    46.9150    25.2670   -29.4020     2.1600 
  184.6250    62.4410    85.6240    87.3270    43.0260    25.1200   -29.3030     2.1830 
  184.7500    61.0050    94.5200    95.7020    46.8780    24.8490   -29.2660     2.1960 
  184.8750    59.9090   109.7890   110.7710    59.2790    24.5080   -29.2780     2.1920 
  185.0000    57.9030   129.5470   130.1850    69.6600    24.2430   -29.3320     2.1710 
  185.1250    57.6240   149.4730   149.3500    60.3100    24.1820   -29.4310     2.1460 
  185.2500    61.1520   162.0670   161.2680    41.3870    24.3170   -29.5900     2.1340 
  185.3750    63.5330   166.1170   164.9530    32.8170    24.4580   -29.7760     2.1390 
  185.5000    61.9850   165.7530   163.8800    34.1170    24.5340   -29.9670     2.1550 
  185.6250    59.0470   166.7970   163.4450    42.3950    24.7260   -30.1570     2.1730 
  185.7500    58.3940   174.1600   168.6530    56.0090    25.1670   -30.2890     2.1850 
  185.8750    58.1100   187.8820   179.7890    69.4020    25.7970   -30.3650     2.1790 
  186.0000    55.8360   207.2380   196.0420    88.6440    26.3200   -30.3540     2.1510 
  186.1250    53.0210   230.6260   215.8600   110.4040    26.4180   -30.2490     2.1120 
  186.2500    52.6020   255.3960   237.2620   112.3440    26.0990   -30.0080     2.0890 
  186.3750    53.0940   277.7690   257.6280   100.2130    25.7010   -29.7060     2.0930 
  186.5000    53.7660   294.0900   274.4080    81.6300    25.3190   -29.3070     2.1160 
  186.6250    55.7520   300.5900   284.4910    71.7720    24.9160   -28.8390     2.1390 
  186.7500    57.7480   292.9970   283.4640    82.4410    24.5650   -28.3340     2.1510 
  186.8750    57.6190   275.1070   272.8250   152.8790    24.4090   -27.8230     2.1510 
  187.0000    56.7950   251.1320   255.0910   205.6930    24.4680   -27.3440     2.1380 
  187.1250    58.1610   225.3490   233.6830   153.0510    24.6650   -26.8800     2.1110 
  187.2500    59.1900   200.7030   211.3760   119.2150    24.8000   -26.4250     2.0820 
  187.3750    58.1120   177.0970   188.9510   117.7780    24.7230   -25.9830     2.0640 
  187.5000    57.3660   153.4360   165.6120   120.5130    24.5810   -25.5450     2.0740 
  187.6250    59.7520   129.8080   141.3160   117.1610    24.5910   -25.1220     2.1250 
  187.7500    62.9720   109.0940   118.5890    93.3930    24.8250   -24.6960     2.2070 
  187.8750    62.9590    93.7470   100.4900    67.1570    25.1220   -24.2550     2.2650 
  188.0000    61.1140    85.2100    89.1350    41.4520    25.3200   -23.7550     2.2530 
  188.1250    59.9510    84.2030    85.8630    23.8610    25.3280   -23.2480     2.1950 
  188.2500    59.7540    93.0450    93.7540    19.1390    25.0980   -22.7420     2.1870 
  188.3750    57.7920   111.9530   112.9560    24.0950    24.7280   -22.2260     2.2530 
  188.5000    55.1900   142.7220   144.3700    32.9480    24.3730   -21.7100     2.3570 
  188.6250    54.3390   185.2190   185.9110    39.7310    24.0740   -21.1610     2.4410 
  188.7500    53.5280   228.5700   226.2800    40.7100    23.8560   -20.5780     2.4730 
  188.8750    50.7340   247.7490   246.6750    41.2310    23.7020   -19.9860     2.4890 
  189.0000    48.3000   230.7960   237.0060    43.1620    23.6320   -19.3940     2.4960 
  189.1250    48.9310   191.9360   204.1720    51.2850    23.7120   -18.8050     2.4820 
  189.2500    51.8130   153.6390   165.1350    72.7820    24.0830   -18.1980     2.4410 
  189.3750    53.2940   124.3760   132.2100    93.7760    24.5690   -17.5380     2.4000 
  189.5000    53.1170   102.2170   106.4810    94.5510    24.9950   -16.8650     2.3820 
  189.6250    53.5990    81.8980    83.7100    80.3730    25.2390   -16.2110     2.3930 
  189.7500    54.8660    59.4820    59.9170    75.3560    25.2850   -15.6220     2.4280 
  189.8750    53.5470    38.1640    38.1650    73.4440    25.2630   -15.0480     2.4760 
  190.0000    49.3810    22.0050    22.2620    56.4010    25.2490   -14.5110     2.5350 
  190.1250    47.5680    11.8960    12.5610    30.3840    25.2910   -13.9950     2.5900 
  190.2500    53.6290     7.3490     7.8130    15.1730    25.4710   -13.5820     2.5890 
  190.3750    60.4750     5.3850     5.4640     9.0700    25.6900   -13.2600     2.5200 
  190.5000    62.0000     4.9470     4.5390     6.7410    25.8490   -13.0480     2.4220 
  190.6250    57.1490     5.4340     4.5330     5.7830    25.8910   -12.9210     2.3500 
  190.7500    51.4470     6.5150     5.2630     5.5550    25.8480   -12.8650     2.3240 
  190.8750    48.7090     7.6880     6.3290     6.1300    25.7910   -12.8690     2.3210 
