~V
VERS. 2.00: Ver 2.00
~W
STRT.M 44.0000:
STOP.M 255.0000:
STEP.M 0.1250:
NULL. -999.2500:
UWI. F10191:
~C
DEPT.M :
DEN.GM/CC :
SP.MV :
GR.API :
RML.OHMM :
RI. :
RXO.OHMM :
CALI.CM :
~A
# ...
  145.2500     2.3620   -24.6400    93.6180     6.9660     4.9770     4.9410    24.8000 
  145.3750     2.3690   -24.9190    99.8870     7.0130     5.0110     4.9900    24.7670 
  145.5000     2.3670   -25.0850   106.8280     7.0700     5.0510     5.0860    24.8140 
  145.6250     2.3610   -25.1880   106.7310     7.1360     5.0920     5.1590    24.8480 
  145.7500     2.3570   -25.2070   100.1730     7.2030     5.1320     5.1580    24.8530 
  145.8750     2.3530   -25.1400    92.9150     7.2680     5.1690     5.1310    24.8350 
  146.0000     2.3480   -25.0060    88.5640     7.3270     5.2060     5.0440    24.8010 
  146.1250     2.3450   -24.8150    87.8000     7.3780     5.2390     5.0310    24.7810 
  146.2500     2.3470   -24.5910    87.8160     7.4240     5.2650     5.0700    24.7830 
  146.3750     2.3540   -24.3850    88.6330     7.4630     5.2770     5.1480    24.8160 
  146.5000     2.3630   -24.2130    88.2350     7.4850     5.2690     5.1940    24.8440 
  146.6250     2.3640   -24.1360    85.1740     7.4740     5.2360     5.1750    24.8540 
  146.7500     2.3550   -24.1640    83.5900     7.4320     5.1850     5.1220    24.8450 
  146.8750     2.3450   -24.2100    84.5310     7.3690     5.1300     5.0580    24.8220 
  147.0000     2.3360   -24.3100    86.8310     7.3110     5.0890     4.9810    24.7920 
  147.1250     2.3290   -24.5500    89.5550     7.2950     5.0840     4.9260    24.7460 
  147.2500     2.3210   -24.8200    92.5680     7.3330     5.1150     4.9000    24.6440 
  147.3750     2.3170   -25.0900    93.7390     7.4210     5.1760     4.9020    24.4800 
  147.5000     2.3210   -25.4210    91.8680     7.5360     5.2510     4.9780    24.2910 
  147.6250     2.3300   -25.6790    90.2370     7.6330     5.3170     5.0680    24.0260 
  147.7500     2.3350   -25.8760    90.2630     7.6850     5.3620     5.1160    23.7230 
  147.8750     2.3330   -26.1050    91.3490     7.6940     5.3820     5.0720    23.5020 
  148.0000     2.3290   -26.3240    93.5370     7.6810     5.3840     4.9500    23.4120 
  148.1250     2.3330   -26.4110    95.9420     7.6730     5.3770     4.8440    23.4100 
  148.2500     2.3430   -26.4530    95.5370     7.6740     5.3700     4.8910    23.4420 
  148.3750     2.3540   -26.4530    90.2660     7.6680     5.3570     5.0500    23.5130 
  148.5000     2.3590   -26.3490    85.7500     7.6300     5.3280     5.1690    23.6720 
  148.6250     2.3580   -26.2510    86.4470     7.5380     5.2660     4.9920    23.9860 
  148.7500     2.3600   -26.1260    87.2080     7.4090     5.1750     4.8170    24.3070 
  148.8750     2.3670   -25.9140    85.9550     7.2620     5.0610     4.7410    24.4680 
  149.0000     2.3710   -25.6960    85.4800     7.1150     4.9360     4.7350    24.4770 
  149.1250     2.3670   -25.4900    89.6010     6.9770     4.8090     4.6910    24.5020 
  149.2500     2.3570   -25.2530    94.2360     6.8380     4.6880     4.6410    24.6550 
  149.3750     2.3420   -25.0400    97.2930     6.6930     4.5790     4.5830    24.7930 
  149.5000     2.3200   -24.8290    98.8480     6.5560     4.4960     4.5230    24.8670 
  149.6250     2.2910   -24.5930    98.0990     6.4810     4.4690     4.4780    24.9080 
  149.7500     2.2640   -24.4140    97.2040     6.5280     4.5240     4.4760    24.9080 
  149.8750     2.2470   -24.2720    95.7540     6.7610     4.6990     4.5190    24.8820 
  150.0000     2.2420   -24.0910    93.0880     7.2010     5.0140     4.7240    24.8610 
  150.1250     2.2510   -23.9820    90.4080     7.7840     5.4490     5.3020    24.8550 
  150.2500     2.2690   -23.9140    88.7240     8.2870     5.8650     6.1740    24.8510 
  150.3750     2.2900   -23.8400    86.5590     8.4930     6.1120     7.0350    24.8430 
  150.5000     2.3030   -23.8650    84.5320     8.2640     6.0740     7.3700    24.8310 
  150.6250     2.2960   -23.9360    86.6440     7.6240     5.7220     6.2430    24.8580 
  150.7500     2.2770   -23.9990    90.7510     6.9110     5.2570     4.9430    24.9090 
  150.8750     2.2670   -24.1390    93.7410     6.3630     4.8360     4.3930    24.9710 
  151.0000     2.2780   -24.3960    94.6430     6.0920     4.5610     4.3260    24.9950 
  151.1250     2.3090   -24.6440    95.0850     6.1290     4.4930     4.4340    24.9080 
  151.2500     2.3400   -24.9540    96.5610     6.3240     4.5670     4.6280    24.8560 
  151.3750     2.3600   -25.3230    98.1840     6.5540     4.7140     4.8320    24.8670 
  151.5000     2.3670   -25.6530    97.3810     6.7150     4.8610     4.9670    24.8990 
  151.6250     2.3600   -26.0210    93.3600     6.7430     4.9520     4.9110    24.8980 
  151.7500     2.3420   -26.4130    90.3400     6.6720     4.9860     4.7840    24.9060 
  151.8750     2.3150   -26.7500    89.6630     6.5430     4.9760     4.7080    24.9190 
  152.0000     2.2870   -27.0510    90.3460     6.4080     4.9440     4.6700    24.9180 
  152.1250     2.2740   -27.3210    93.6460     6.3280     4.9160     4.6010    24.8960 
  152.2500     2.2770   -27.5180    97.9560     6.3190     4.9090     4.5100    24.8620 
  152.3750     2.2870   -27.6500    99.9290     6.3700     4.9260     4.4460    24.8340 
  152.5000     2.2930   -27.7280    98.3950     6.4580     4.9590     4.4360    24.8010 
  152.6250     2.2990   -27.7510    94.4770     6.5540     4.9940     4.3910    24.7850 
  152.7500     2.3070   -27.7250    91.2590     6.6320     5.0100     4.4070    24.7800 
  152.8750     2.3110   -27.6490    89.8650     6.6810     4.9930     4.4180    24.7800 
  153.0000     2.3110   -27.5390    90.7100     6.6870     4.9330     4.4480    24.7800 
  153.1250     2.3090   -27.4570    92.9890     6.6110     4.8170     4.5630    24.7800 
  153.2500     2.3100   -27.3740    95.9240     6.4500     4.6600     4.6310    24.7800 
  153.3750     2.3140   -27.3330    97.3850     6.2560     4.4990     4.5970    24.7750 
  153.5000     2.3250   -27.3860    94.0690     6.1650     4.4140     4.5640    24.7430 
  153.6250     2.3480   -27.4200    88.1880     6.4840     4.5840     4.6600    24.6550 
  153.7500     2.3820   -27.4690    84.4370     7.4440     5.1550     4.8790    24.5570 
  153.8750     2.4210   -27.6180    81.4160     9.2670     6.3040     5.8840    24.5020 
  154.0000     2.4580   -27.7950    74.8270    12.0670     8.1910     8.7160    24.4850 
  154.1250     2.4640   -27.9680    66.5850    15.7260    10.9280    14.9710    24.4490 
  154.2500     2.4260   -28.2070    62.2630    19.2080    13.8830    21.5940    24.2810 
  154.3750     2.3550   -28.4380    61.4340    21.2540    16.0970    22.2460    23.9530 
  154.5000     2.2880   -28.6070    62.2640    21.1410    16.7760    18.2600    23.6920 
  154.6250     2.2590   -28.8300    65.2260    19.3920    15.9400    15.4740    23.6080 
  154.7500     2.2550   -29.0650    70.0670    17.6200    14.7430    13.5610    23.6400 
  154.8750     2.2630   -29.2080    73.0220    16.4930    13.7810    12.4070    23.7380 
  155.0000     2.2700   -29.3150    72.8420    16.1000    13.2510    12.1410    23.9210 
  155.1250     2.2710   -29.4110    72.5470    16.2800    13.1490    12.4370    24.1480 
  155.2500     2.2640   -29.4070    71.8200    16.6490    13.2500    12.8850    24.2690 
  155.3750     2.2510   -29.3790    70.7440    17.0170    13.4240    12.4910    24.2560 
  155.5000     2.2360   -29.3520    72.7500    17.3270    13.6130    11.2130    24.1720 
  155.6250     2.2200   -29.1960    75.8310    17.6430    13.8390    10.3380    24.0660 
  155.7500     2.2060   -29.0040    73.9150    18.0050    14.1150    11.1120    24.0170 
  155.8750     2.1940   -28.8070    68.9360    18.3520    14.4040    12.6280    24.0930 
  156.0000     2.1850   -28.5640    67.8970    18.5590    14.6240    13.7280    24.2450 
  156.1250     2.1840   -28.3170    70.6340    18.4730    14.6690    14.3790    24.3450 
  156.2500     2.1870   -28.0760    70.9080    18.1650    14.5540    13.9330    24.3940 
  156.3750     2.1940   -27.7980    69.2520    17.7860    14.3590    13.4550    24.3940 
