~V
VERS. 2.00: Ver 2.00
~W
STRT.M 55.0000:
STOP.M 247.0000:
STEP.M 0.1250:
NULL. -999.2500:
UWI. F10183:
~C
DEPT.M :
SP.MV :
GR.API :
RML.OHMM :
RI. :
RXO.OHMM :
CALI.CM :
DEN.GM/CC :
~A
# ...
  235.0000    -5.5300    60.1240    12.3710    12.0430    13.7930    24.0220     2.4800 
  235.1250    -5.5160    58.8250    12.1420    11.8060    11.5040    23.9900     2.4880 
  235.2500    -5.5270    59.0940    11.9760    11.6250    10.2350    23.9780     2.4950 
  235.3750    -5.5600    60.6900    11.8530    11.4870     9.5890    23.9420     2.5020 
  235.5000    -5.5790    62.2540    11.7380    11.3650     9.2710    23.9060     2.5060 
  235.6250    -5.5880    62.8140    11.5990    11.2290     9.3260    23.9280     2.5050 
  235.7500    -5.5540    62.3140    11.4320    11.0740     9.4880    23.9980     2.4990 
  235.8750    -5.5070    61.4240    11.2620    10.9170     9.6550    24.0420     2.4880 
  236.0000    -5.4690    61.3850    11.1270    10.7920     9.7850    24.0370     2.4750 
  236.1250    -5.4350    63.1200    11.0820    10.7470     9.8560    24.0590     2.4650 
  236.2500    -5.4140    64.4640    11.1340    10.7920    10.2590    24.1350     2.4620 
  236.3750    -5.3970    64.4640    11.2740    10.9200    10.9230    24.1980     2.4660 
  236.5000    -5.3830    64.4640    11.4720    11.1080    11.8490    24.2070     2.4730 
  236.6250    -5.3590    64.4640    11.6870    11.3210    12.5900    24.2030     2.4800 
  236.7500    -5.3310    64.4640    11.8800    11.5180    12.8620    24.2370     2.4850 
  236.8750    -5.3180    64.4640    12.0310    11.6790    12.6080    24.2630     2.4890 
  237.0000    -5.3160    64.4640    12.1350    11.7930    12.3890    24.2510     2.4910 
  237.1250    -5.2870    64.4640    12.1960    11.8590    12.4580    24.2560     2.4920 
  237.2500    -5.2280    64.4640    12.2390    11.8970    12.4160    24.2800     2.4910 
  237.3750    -5.1540    64.4640    12.2850    11.9310    12.3930    24.2830     2.4890 
  237.5000    -5.0840    64.4640    12.3600    11.9860    12.6110    24.2450     2.4850 
  237.6250    -5.0720    64.4640    12.5000    12.0980    13.0590    24.2140     2.4860 
  237.7500    -5.1360    64.4640    12.7100    12.2770    13.6110    24.2250     2.4910 
  237.8750    -5.1860    64.4640    12.9870    12.5210    14.1610    24.2410     2.5020 
  238.0000    -5.2310    64.4640    13.3130    12.8160    14.4490    24.2140     2.5140 
  238.1250    -5.2220    64.4640    13.6620    13.1410    14.4900    24.1620     2.5200 
  238.2500    -5.1940    64.4640    14.0050    13.4660    14.3580    24.1650     2.5200 
  238.3750    -5.1850    64.4640    14.3280    13.7760    14.2640    24.2100     2.5170 
  238.5000    -5.1270    64.4640    14.6220    14.0640    14.4560    24.2210     2.5160 
  238.6250    -5.0140    64.4640    14.8750    14.3220    15.2670    24.1520     2.5200 
  238.7500    -4.8980    64.4640    15.0860    14.5490    16.3050    24.0960     2.5260 
  238.8750    -4.8100    64.4640    15.2530    14.7400    17.2740    24.0970     2.5320 
  239.0000    -4.6690    64.4640    15.3790    14.8880    18.0380    24.1320     2.5360 
  239.1250    -4.5290    64.4640    15.4640    14.9860    18.0820    24.1400     2.5390 
  239.2500    -4.4340    64.4640    15.5200    15.0460    17.7710    24.1090     2.5430 
  239.3750    -4.3620    64.4640    15.5520    15.0780    17.9690    24.0670     2.5490 
  239.5000    -4.3760    64.4640    15.5640    15.0920    18.3750    24.0640     2.5550 
  239.6250    -4.4530    64.4640    15.5620    15.0960    18.9020    24.1360     2.5540 
  239.7500    -4.4680    64.4640    15.5550    15.0970    19.2800    24.2570     2.5440 
  239.8750    -4.3780    64.4640    15.5460    15.0970    19.5820    24.3610     2.5250 
  240.0000    -4.3460    64.4640    15.5370    15.0970    19.5680    24.4140     2.5010 
  240.1250    -4.3380    64.4640    15.5300    15.0960    18.9480    24.4030     2.4810 
  240.2500    -4.3030    64.4640    15.5250    15.0960    17.4010    24.3570     2.4700 
  240.3750    -4.2860    64.4640    15.5220    15.0980    16.0260    24.3010     2.4700 
  240.5000    -4.2850    64.4640    15.5210    15.1010    15.1190    24.2630     2.4750 
  240.6250    -4.2470    64.4640    15.5210    15.1040    14.5120    24.2500     2.4800 
  240.7500    -4.1720    64.4640    15.5230    15.1060    14.0790    24.2320     2.4780 
  240.8750    -4.1840    64.4640    15.5260    15.1070    13.8090    24.2040     2.4730 
  241.0000    -4.2050    64.4640    15.5300    15.1080    13.9560    24.1820     2.4690 
  241.1250    -4.2680    64.4640    15.5350    15.1070    14.6430    24.1230     2.4700 
  241.2500    -4.3490    64.4640    15.5410    15.1070    15.2110    24.0280     2.4780 
  241.3750    -4.3660    64.4640    15.5480    15.1050    15.4850    23.8830     2.4890 
  241.5000    -4.3520    64.4640    15.5550    15.1020    15.4650    23.7040     2.4980 
  241.6250    -4.3700    64.4640    15.5600    15.0980    14.6710    23.5480     2.5020 
  241.7500    -4.4430    64.4640    15.5610    15.0940    13.6550    23.4510     2.5020 
  241.8750    -4.4980    64.4640    15.5590    15.0910    12.5150    23.3890     2.5010 
  242.0000    -4.5290    64.4640    15.5550    15.0890    11.5660    23.2660     2.4990 
  242.1250    -4.5970    64.4640    15.5510    15.0880    11.0130    23.0010     2.4980 
  242.2500    -4.6720    64.4640    15.5500    15.0870    10.5450    22.6540     2.4940 
  242.3750    -4.7790    64.4640    15.5500    15.0870    10.2400    22.1920     2.4840 
  242.5000    -4.8710    64.4640    15.5500    15.0870    10.1600    21.5980     2.4680 
  242.6250    -4.9700    64.4640    15.5500    15.0870    10.1310    20.8810     2.4490 
  242.7500    -5.0480    64.4640    15.5500    15.0870     9.9580    20.0640     2.4320 
  242.8750    -5.1120    64.4640    15.5500    15.0870     9.6350    19.1690     2.4200 
  243.0000    -5.1820    64.4640    15.5500    15.0870     9.1220    18.2120     2.4140 
  243.1250    -5.1820    64.4640    15.5500    15.0870     8.3550    17.2820     2.4120 
  243.2500    -5.1820    64.4640    15.5500    15.0870     7.5300    16.4160     2.4080 
  243.3750  -999.2500    64.4640    15.5500    15.0870     6.8170    15.6600     2.4030 
  243.5000  -999.2500    64.4640    15.5500    15.0870     6.3460    15.0040     2.3990 
  243.6250  -999.2500    64.4640    15.5500    15.0870     6.1110    14.4550     2.4010 
  243.7500  -999.2500    64.4640    15.5500    15.0870     6.0290    13.9920     2.4100 
  243.8750  -999.2500    64.4640    15.5500    15.0870     6.0650    13.6490     2.4230 
  244.0000  -999.2500    64.4640    15.5500    15.0870     6.0360    13.4030     2.4360 
  244.1250  -999.2500    64.4640    15.5500    15.0870     6.0650    13.2550     2.4450 
  244.2500  -999.2500    64.4640    15.5500    15.0870     6.0670    13.1550     2.4500 
  244.3750  -999.2500    64.4640    15.5500    15.0870     6.0730    13.1130     2.4510 
  244.5000  -999.2500    64.4640    15.5500    15.0870     6.0720    13.0960     2.4520 
  244.6250  -999.2500    64.4640    15.5500    15.0870     6.0720    13.1170     2.4520 
  244.7500  -999.2500    64.4640    15.5500    15.0870     6.0710    13.1350     2.4510 
  244.8750  -999.2500    64.4640    15.5500    15.0870     6.0700    13.1740     2.4490 
  245.0000  -999.2500    64.4640    15.5500    15.0870     6.0690    13.2030     2.4480 
  245.1250  -999.2500    64.4640    15.5500    15.0870     6.0680    13.2410     2.4460 
  245.2500  -999.2500    64.4640    15.5500    15.0870     6.0680    13.2670     2.4460 
  245.3750  -999.2500    64.4640    15.5500    15.0870     6.0670    13.3140     2.4450 
  245.5000  -999.2500    64.4640    15.5500    15.0870     6.0660    13.3600     2.4450 
  245.6250  -999.2500    64.4640    15.5500    15.0870     6.0660    13.3970     2.4450 
  245.7500  -999.2500    64.4640    15.5500    15.0870     6.0650    13.3980     2.4460 
  245.8750  -999.2500    64.4640    15.5500    15.0870     6.0640    13.3820     2.4460 
  246.0000  -999.2500    64.4640    15.5500    15.0870     6.0630    13.3280     2.4480 
  246.1250  -999.2500    64.4640    15.5500    15.0870     6.0620    13.2650     2.4490 
