~V
VERS. 2.00: Ver 2.00
~W
STRT.M 62.0000:
STOP.M 235.0000:
STEP.M 0.1250:
NULL. -999.2500:
UWI. F10157:
~C
DEPT.M :
SP.MV :
DEN.GM/CC :
GR.API :
RML.OHMM :
RI. :
RXO.OHMM :
CALI.CM :
~A
# ...
   84.5000   -16.8570     2.1960    58.5320    10.3710     8.6700    10.7720    24.9500 
   84.6250   -17.2390     2.2010    59.6190    10.6200     8.8890    10.8200    24.9170 
   84.7500   -17.4900     2.2120    62.7650    10.7760     9.0670    10.9070    24.8860 
   84.8750   -17.6020     2.2220    64.4670    10.8550     9.1860    11.0880    24.8600 
   85.0000   -17.5760     2.2300    63.1960    10.8760     9.2480    11.1530    24.8480 
   85.1250   -17.3960     2.2290    60.2160    10.8190     9.2340    11.0700    24.8780 
   85.2500   -17.1150     2.2230    58.6320    10.6640     9.1330    11.0080    24.9470 
   85.3750   -16.7690     2.2120    58.5940    10.4010     8.9390    10.8890    25.0430 
   85.5000   -16.3910     2.1950    59.0870    10.0510     8.6620    10.5540    25.1470 
   85.6250   -16.0690     2.1750    59.8720     9.6740     8.3430    10.1390    25.2290 
   85.7500   -15.8210     2.1550    60.7570     9.3550     8.0490     9.5410    25.2840 
   85.8750   -15.6670     2.1410    60.4310     9.1560     7.8350     9.0300    25.3170 
   86.0000   -15.6130     2.1360    58.9040     9.1080     7.7330     8.8190    25.3370 
   86.1250   -15.6110     2.1410    59.2270     9.2100     7.7640     8.8840    25.3410 
   86.2500   -15.6490     2.1490    63.0030     9.3780     7.8730     8.8290    25.3330 
   86.3750   -15.6930     2.1560    66.0360     9.5460     8.0100     8.5970    25.3290 
   86.5000   -15.7250     2.1610    64.4870     9.6580     8.1240     8.4210    25.3360 
   86.6250   -15.7770     2.1640    61.2190     9.6820     8.1720     8.4780    25.3580 
   86.7500   -15.8340     2.1630    60.9590     9.6530     8.1660     8.6130    25.3840 
   86.8750   -15.9200     2.1610    62.0100     9.6010     8.1270     8.7060    25.4040 
   87.0000   -16.0500     2.1590    61.6700     9.5480     8.0740     8.7830    25.4170 
   87.1250   -16.2120     2.1620    60.3180     9.4980     8.0250     8.9770    25.4390 
   87.2500   -16.4240     2.1680    59.2480     9.4510     7.9880     9.1530    25.4670 
   87.3750   -16.6610     2.1720    57.9850     9.4130     7.9620     9.1670    25.4910 
   87.5000   -16.9200     2.1710    57.5350     9.3950     7.9490     9.0660    25.5010 
   87.6250   -17.1820     2.1640    57.7720     9.4220     7.9520     8.9870    25.4940 
   87.7500   -17.4510     2.1560    57.5170     9.4910     7.9730     9.1560    25.4750 
   87.8750   -17.7150     2.1510    57.9070     9.5920     8.0100     9.6410    25.4490 
   88.0000   -17.9500     2.1510    59.1030     9.7070     8.0630    10.2210    25.4180 
   88.1250   -18.1260     2.1520    58.3520     9.8140     8.1330    10.4680    25.3770 
   88.2500   -18.2190     2.1500    55.9020     9.9010     8.2150    10.5120    25.3280 
   88.3750   -18.2300     2.1460    54.9780     9.9590     8.3020    10.6370    25.2750 
   88.5000   -18.1310     2.1430    56.0920     9.9820     8.3900    10.9080    25.2230 
   88.6250   -17.8900     2.1440    57.1880     9.9720     8.4740    11.2490    25.1780 
   88.7500   -17.5140     2.1500    57.7220     9.9540     8.5610    11.2700    25.1390 
   88.8750   -17.0060     2.1590    57.9660     9.9650     8.6620    11.1920    25.1090 
   89.0000   -16.3650     2.1690    58.9230    10.0450     8.7900    11.0550    25.0880 
   89.1250   -15.5580     2.1780    59.7040    10.2210     8.9490    11.0750    25.0780 
   89.2500   -14.5950     2.1860    59.2430    10.4380     9.1160    11.2490    25.0770 
   89.3750   -13.4670     2.1910    58.9080    10.6150     9.2460    11.2940    25.0870 
   89.5000   -12.1760     2.1950    60.9600    10.6350     9.2670    10.9550    25.1170 
   89.6250   -10.7310     2.2000    63.9890    10.3050     9.0260    10.3680    25.1670 
   89.7500    -9.1850     2.2110    65.6360     9.5880     8.4750     9.6920    25.2300 
   89.8750    -7.6260     2.2260    66.5530     8.5380     7.6410     9.0240    25.3000 
   90.0000    -6.1860     2.2370    68.4470     7.3640     6.6720     8.0560    25.3690 
   90.1250    -5.0320     2.2210    70.6560     6.4410     5.8460     6.5620    25.4290 
   90.2500    -4.2610     2.1770    72.1840     6.0280     5.3680     5.1000    25.4720 
   90.3750    -3.9290     2.1250    72.1460     6.2670     5.3610     4.8590    25.4940 
   90.5000    -4.0660     2.0970    68.6950     7.2020     5.8810     6.8410    25.4910 
   90.6250    -4.7120     2.1340    63.6800     8.7910     6.9680    12.6800    25.4680 
   90.7500    -5.6880     2.2190    61.6340    10.5010     8.3020    18.5440    25.4400 
   90.8750    -6.8550     2.3050    62.7540    11.7410     9.4630    16.0580    25.4130 
   91.0000    -8.0870     2.3390    65.2430    12.0920    10.0570    11.1600    25.3890 
   91.1250    -9.2490     2.3080    67.8160    11.6060     9.9580     9.7190    25.3650 
   91.2500   -10.2980     2.2610    69.1700    10.9830     9.6230     9.5780    25.3360 
   91.3750   -11.2080     2.2260    68.7400    10.6080     9.3610     9.5680    25.3010 
   91.5000   -11.9620     2.2110    68.7910    10.5790     9.3050     9.7890    25.2620 
   91.6250   -12.5510     2.2130    71.0340    10.7900     9.4310    10.5120    25.2220 
   91.7500   -13.0190     2.2180    70.0300    11.0110     9.5800    11.1250    25.1790 
   91.8750   -13.3810     2.2190    65.1730    11.1370     9.6650    11.0630    25.1360 
   92.0000   -13.6330     2.2110    61.7170    11.1360     9.6520    10.9210    25.1080 
   92.1250   -13.7620     2.1960    62.5210    11.0080     9.5390    11.1380    25.1080 
   92.2500   -13.7950     2.1840    63.5850    10.8200     9.3770    11.0260    25.1330 
   92.3750   -13.7440     2.1800    62.9040    10.6160     9.1980    10.4430    25.1770 
   92.5000   -13.6470     2.1830    61.5140    10.4250     9.0260     9.7780    25.2320 
   92.6250   -13.5340     2.1850    60.2060    10.2620     8.8710     9.3320    25.2910 
   92.7500   -13.4180     2.1820    59.6530    10.1290     8.7390     9.0680    25.3450 
   92.8750   -13.3060     2.1730    59.1300    10.0250     8.6350     8.9540    25.3890 
   93.0000   -13.2060     2.1630    57.3350     9.9450     8.5620     8.9470    25.4160 
   93.1250   -13.1110     2.1580    55.7800     9.8830     8.5220     8.9100    25.4260 
   93.2500   -13.0050     2.1580    55.5950     9.8370     8.5030     8.8820    25.4250 
   93.3750   -12.8830     2.1610    56.0880     9.8150     8.5020     9.0310    25.4160 
   93.5000   -12.7480     2.1650    56.2940     9.8260     8.5180     9.2990    25.4010 
   93.6250   -12.6070     2.1670    55.9620     9.8690     8.5510     9.2960    25.3840 
   93.7500   -12.4920     2.1660    56.0470     9.9280     8.5880     9.0790    25.3680 
   93.8750   -12.4000     2.1660    57.4150     9.9820     8.6210     8.9610    25.3540 
   94.0000   -12.3230     2.1690    60.8420    10.0070     8.6310     8.9880    25.3430 
   94.1250   -12.2500     2.1740    63.3410     9.9650     8.5880     9.1200    25.3380 
   94.2500   -12.1760     2.1790    62.2280     9.8460     8.4810     8.9860    25.3420 
   94.3750   -12.0940     2.1770    60.4370     9.6630     8.3170     8.8960    25.3570 
   94.5000   -11.9960     2.1710    61.8600     9.4620     8.1280     8.8890    25.3810 
   94.6250   -11.8930     2.1640    65.3410     9.3240     7.9740     8.7550    25.4080 
   94.7500   -11.7950     2.1630    65.7510     9.2950     7.8970     8.5320    25.4310 
   94.8750   -11.7290     2.1650    64.4690     9.3870     7.9140     9.0170    25.4460 
   95.0000   -11.7070     2.1680    64.9800     9.5690     8.0130    10.2130    25.4560 
   95.1250   -11.7310     2.1660    66.6600     9.7710     8.1560    11.1720    25.4570 
   95.2500   -11.7760     2.1620    67.5200     9.9250     8.2900    10.4220    25.4510 
   95.3750   -11.8270     2.1590    68.0670    10.0160     8.3940     9.9000    25.4390 
   95.5000   -11.8750     2.1600    68.0370    10.0760     8.4770     9.6910    25.4210 
   95.6250   -11.9250     2.1660    64.1290    10.1760     8.5790     9.5110    25.4000 
