~V
VERS. 2.00: Ver 2.00
~W
STRT.M 50.0000:
STOP.M 223.0000:
STEP.M 0.1250:
NULL. -999.2500:
UWI. F10135:
~C
DEPT.M :
SP.MV :
DEN.GM/CC :
GR.API :
RML.OHMM :
RI. :
RXO.OHMM :
CALI.CM :
~A
# ...
  207.5000    -7.8320     2.3420   106.1150     6.0860     5.7320     6.3780    24.1270 
  207.6250    -7.5860     2.3460   108.2250     5.7560     5.4100     5.8100    24.1320 
  207.7500    -7.2940     2.3540   107.5410     5.4740     5.1110     5.7910    24.1190 
  207.8750    -6.8690     2.3600   103.2570     5.2720     4.8710     5.5110    24.0440 
  208.0000    -6.3900     2.3620    97.5330     5.1570     4.7060     5.0360    24.0070 
  208.1250    -5.9070     2.3630    95.8520     5.1260     4.6260     5.0290    24.0020 
  208.2500    -5.4460     2.3670    99.4710     5.1310     4.5980     5.3660    24.0140 
  208.3750    -4.9210     2.3730   104.4370     5.1380     4.5970     5.7520    24.0890 
  208.5000    -4.3250     2.3770   106.6540     5.1250     4.5960     5.6480    24.1270 
  208.6250    -3.7270     2.3790   105.8800     5.0870     4.5770     5.2820    24.1330 
  208.7500    -3.1890     2.3800   103.0540     5.0410     4.5460     5.1060    24.1330 
  208.8750    -2.7710     2.3810   100.3780     5.0030     4.5090     5.1390    24.1330 
  209.0000    -2.4440     2.3820   101.5980     4.9780     4.4780     5.1510    24.1330 
  209.1250    -2.1660     2.3780   106.4000     4.9660     4.4550     5.1280    24.1330 
  209.2500    -1.8850     2.3700   109.7980     4.9620     4.4410     5.1070    24.1330 
  209.3750    -1.6590     2.3630   109.9930     4.9700     4.4370     5.1130    24.1280 
  209.5000    -1.5150     2.3610   108.3480     4.9980     4.4530     5.0990    24.1120 
  209.6250    -1.3730     2.3680   108.2680     5.0650     4.5030     5.2360    24.0180 
  209.7500    -1.2150     2.3760   108.9330     5.1640     4.5870     5.5840    24.0030 
  209.8750    -1.0620     2.3800   106.6450     5.2780     4.6950     5.8150    24.0050 
  210.0000    -0.9520     2.3790   101.6630     5.3800     4.8060     5.7590    24.0210 
  210.1250    -0.8710     2.3760   100.6230     5.4300     4.8830     5.7900    24.1160 
  210.2500    -0.7340     2.3790   104.7910     5.4150     4.9050     5.7920    24.1330 
  210.3750    -0.6250     2.3890   108.3780     5.3420     4.8700     5.9040    24.1510 
  210.5000    -0.4980     2.4030   108.1470     5.2340     4.7940     5.9750    24.2460 
  210.6250    -0.3250     2.4120   106.2620     5.1250     4.7000     5.5330    24.2620 
  210.7500    -0.1650     2.4140   104.8290     5.0420     4.6150     5.3010    24.2670 
  210.8750     0.0040     2.4110   104.7230     4.9940     4.5500     5.2530    24.2670 
  211.0000     0.1110     2.4050   104.9780     4.9780     4.5080     5.2570    24.2670 
  211.1250     0.1590     2.3990   106.2040     4.9900     4.4900     5.1970    24.2670 
  211.2500     0.1670     2.3940   107.1560     5.0190     4.4890     5.1250    24.2670 
  211.3750     0.1520     2.3910   106.1210     5.0560     4.5010     5.1210    24.2670 
  211.5000     0.1520     2.3920   103.1250     5.0910     4.5180     5.2240    24.2670 
  211.6250     0.0970     2.3970   101.3360     5.1200     4.5330     5.5110    24.2670 
  211.7500     0.0220     2.4020   103.0740     5.1570     4.5520     5.6390    24.2670 
  211.8750    -0.0530     2.4030   105.6300     5.2370     4.5980     5.6630    24.2670 
  212.0000    -0.0910     2.4010   105.6550     5.4040     4.7060     5.6360    24.2670 
  212.1250    -0.1380     2.4000   104.4530     5.6370     4.8690     5.6070    24.2670 
  212.2500    -0.1840     2.4020   102.7640     6.3510     5.4250     5.7800    24.2670 
  212.3750    -0.1930     2.4110   102.7640     6.8780     5.8880     6.3440    24.2670 
  212.5000    -0.1840     2.4240   102.7640     7.3580     6.3560     7.0770    24.2670 
  212.6250    -0.1700     2.4340   102.7640     7.7250     6.7610     7.6090    24.2670 
  212.7500    -0.1770     2.4360   102.7640     7.9570     7.0600     7.9620    24.2670 
  212.8750    -0.1460     2.4300   102.7640     8.0680     7.2290     8.5420    24.2670 
  213.0000    -0.0970     2.4190   102.7640     8.1270     7.3200     8.9230    24.2630 
  213.1250    -0.0160     2.4100   102.7640     8.1750     7.3680     8.7630    24.2490 
  213.2500     0.0810     2.4050   102.7640     8.2280     7.4020     8.3070    24.1480 
  213.3750     0.1010     2.4010   102.7640     8.2870     7.4290     7.5370    24.0940 
  213.5000     0.0730     2.3910   102.7640     8.3440     7.4480     7.1610    24.0110 
  213.6250     0.0760     2.3730   102.7640     8.3890     7.4530     7.0780    23.9840 
  213.7500     0.1130     2.3510   102.7640     8.4100     7.4360     7.2060    23.8880 
  213.8750     0.1260     2.3350   102.7640     8.3960     7.3920     7.3310    23.8720 
  214.0000     0.1170     2.3260   102.7640     8.3620     7.3340     6.9650    23.8670 
  214.1250     0.0900     2.3250   102.7640     8.3350     7.2820     6.7650    23.8670 
  214.2500     0.0720     2.3280   102.7640     8.3490     7.2630     6.6330    23.8670 
  214.3750     0.1360     2.3360   102.7640     8.4440     7.3130     6.6500    23.8670 
  214.5000     0.2740     2.3450   102.7640     8.6120     7.4360     7.2560    23.8670 
  214.6250     0.3930     2.3550   102.7640     8.8300     7.6230     8.1020    23.8670 
  214.7500     0.4760     2.3610   102.7640     9.0570     7.8440     8.9140    23.8670 
  214.8750     0.5250     2.3660   102.7640     9.2350     8.0490     9.0630    23.8770 
  215.0000     0.6050     2.3760   102.7640     9.3290     8.1900     8.4160    23.9330 
  215.1250     0.7440     2.3940   102.7640     9.3220     8.2380     8.1150    24.0020 
  215.2500     0.9110     2.4180   102.7640     9.2230     8.1870     8.6410    24.3280 
  215.3750     1.0460     2.4310   102.7640     9.0530     8.0480     8.5560    24.3280 
  215.5000     1.1070     2.4230   102.7640     8.8560     7.8670     7.4820    24.3280 
  215.6250     1.1230     2.3950   102.7640     8.6550     7.6710     6.2070    24.3280 
  215.7500     1.1380     2.3610   102.7640     8.4620     7.4790     5.5710    24.3280 
  215.8750     1.1810     2.3390   102.7640     8.2860     7.3070     5.8230    24.3280 
  216.0000     1.1940     2.3350   102.7640     8.1330     7.1630     6.1970    24.3280 
  216.1250     1.1790     2.3440   102.7640     8.0120     7.0550     6.4870    24.3280 
  216.2500     1.1150     2.3550   102.7640     7.9230     6.9830     6.4430    24.3320 
  216.3750     1.0670     2.3620   102.7640     7.8640     6.9470     6.4890    24.3600 
  216.5000     1.1010     2.3660   102.7640     7.8200     6.9320     6.3760    24.4220 
  216.6250     1.2450     2.3730   102.7640     7.7810     6.9270     6.4760    24.4970 
  216.7500     1.4460     2.3880   102.7640     7.7460     6.9290     6.6440    24.5930 
  216.8750     1.6390     2.4110   102.7640     7.7250     6.9440     6.6890    24.6750 
  217.0000     1.8160     2.4350   102.7640     7.7220     6.9720     7.1460    24.7300 
  217.1250     1.9480     2.4530   102.7640     7.7370     7.0090     7.6660    24.7480 
  217.2500     2.0770     2.4630   102.7640     7.7640     7.0470     8.0850    24.7500 
  217.3750     2.1210     2.4660   102.7640     7.7910     7.0750     8.1090    24.7500 
  217.5000     2.0620     2.4670   102.7640     7.8120     7.0900     8.4210    24.7360 
  217.6250     2.0440     2.4660   102.7640     7.8250     7.0950     8.8220    24.6890 
  217.7500     2.2430     2.4590   102.7640     7.8320     7.0960     9.6210    24.5910 
  217.8750     2.4670     2.4420   102.7640     7.8360     7.0960     9.8320    24.5070 
  218.0000     2.7140     2.4190   102.7640     7.8370     7.0960     9.6920    24.3910 
  218.1250     2.9920     2.3980   102.7640     7.8380     7.0960     8.8860    24.2650 
  218.2500     3.2880     2.3870   102.7640     7.8390     7.0960     8.7720    24.1940 
  218.3750     3.6390     2.3930   102.7640     7.8390     7.0960    10.3710    24.1810 
  218.5000     4.0490     2.4060   102.7640     7.8390     7.0960    11.8420    24.1810 
  218.6250     4.2020     2.4180   102.7640     7.8390     7.0960    12.2820    24.1810 
