~V
VERS. 2.00: Ver 2.00
~W
STRT.M 49.0000:
STOP.M 243.0000:
STEP.M 0.1250:
NULL. -999.2500:
UWI. F10196:
~C
DEPT.M :
SP.MV :
DEN.GM/CC :
GR.API :
RML.OHMM :
RI. :
RXO.OHMM :
CALI.CM :
~A
# ...
   94.0000   -26.8940     2.1940    73.3930    10.6810     9.1060    14.0740    22.9760 
   94.1250   -27.0230     2.1950    72.8400    10.6040     9.0200    13.6040    22.9380 
   94.2500   -27.0480     2.1900    73.8620    10.5940     8.9810    13.9820    22.8750 
   94.3750   -27.0100     2.1870    73.5850    10.6260     8.9850    15.0080    22.7930 
   94.5000   -26.9620     2.1830    69.3530    10.6700     9.0100    15.8140    22.7320 
   94.6250   -26.9360     2.1790    64.1960    10.7100     9.0310    15.8180    22.7220 
   94.7500   -26.8820     2.1800    61.5430    10.7580     9.0410    15.3650    22.8010 
   94.8750   -26.7250     2.1840    63.1890    10.8310     9.0510    14.7610    22.9660 
   95.0000   -26.5030     2.1810    68.3410    10.9260     9.0730    13.9360    23.1030 
   95.1250   -26.3300     2.1690    72.7200    11.0090     9.0990    12.9870    23.0270 
   95.2500   -26.2600     2.1550    70.9070    11.0230     9.1020    12.5660    22.7500 
   95.3750   -26.2560     2.1420    66.9650    10.9600     9.0630    12.5770    22.5720 
   95.5000   -26.3170     2.1250    65.6960    10.8510     8.9950    12.6650    22.4640 
   95.6250   -26.4690     2.1100    65.0840    10.7540     8.9270    12.7440    22.3340 
   95.7500   -26.7310     2.1040    62.6150    10.7410     8.9050    13.3410    22.1660 
   95.8750   -27.0170     2.1040    62.1170    10.8190     8.9430    14.2240    22.0630 
   96.0000   -27.2440     2.1070    65.4270    10.9730     9.0420    15.0670    22.0760 
   96.1250   -27.3830     2.1110    67.4120    11.1690     9.1870    15.4560    22.2920 
   96.2500   -27.4190     2.1170    64.1800    11.3490     9.3510    15.5220    22.6930 
   96.3750   -27.3360     2.1220    61.6540    11.4590     9.4920    15.7690    23.0260 
   96.5000   -27.1210     2.1260    63.1810    11.4650     9.5760    16.1080    23.1610 
   96.6250   -26.7650     2.1340    66.6780    11.3520     9.5770    16.2680    23.0670 
   96.7500   -26.2460     2.1440    68.3210    11.1230     9.4750    16.0070    22.8170 
   96.8750   -25.6350     2.1520    69.4750    10.8620     9.3170    15.6530    22.5770 
   97.0000   -24.9420     2.1560    70.9540    10.6490     9.1610    15.3490    22.4220 
   97.1250   -24.1330     2.1590    71.8390    10.5480     9.0630    15.3080    22.3560 
   97.2500   -23.2000     2.1670    72.0080    10.6110     9.0710    15.4680    22.3520 
   97.3750   -22.2000     2.1800    71.3970    10.8010     9.1730    15.7410    22.3610 
   97.5000   -21.1040     2.2000    70.2200    11.0540     9.3400    15.9250    22.4130 
   97.6250   -19.8770     2.2280    68.5210    11.2280     9.4860    15.6210    22.5320 
   97.7500   -18.5860     2.2590    69.7610    11.0500     9.4110    14.2990    22.7890 
   97.8750   -17.4100     2.2930    74.3650    10.4410     9.0090    13.2680    23.0790 
   98.0000   -16.4500     2.3300    80.6350     9.4880     8.3080    13.1440    23.3010 
   98.1250   -15.6880     2.3600    86.7640     8.4480     7.4710    13.2490    23.4180 
   98.2500   -15.1620     2.3580    92.2470     7.6930     6.7600     9.0870    23.4150 
   98.3750   -14.9160     2.3200    94.9310     7.3860     6.3380     7.7070    23.2800 
   98.5000   -14.9530     2.2680    92.0070     7.5500     6.2700     8.3420    22.9620 
   98.6250   -15.1860     2.2270    84.1630     8.1000     6.5600    10.5470    22.5790 
   98.7500   -15.5320     2.2100    78.1020     8.8680     7.1790    11.6960    22.3340 
   98.8750   -15.9090     2.2060    76.5460     9.5470     7.9050    12.1490    22.2190 
   99.0000   -16.2260     2.2090    77.8920     9.9130     8.5170    12.4930    22.1870 
   99.1250   -16.4240     2.2110    80.7990     9.8850     8.8370    12.6250    22.1980 
   99.2500   -16.4430     2.2120    81.7480     9.5380     8.7990    12.0170    22.2430 
   99.3750   -16.3070     2.2140    80.2850     9.1130     8.5800    11.1890    22.3100 
   99.5000   -16.0700     2.2180    76.0920     8.7310     8.3030    10.1830    22.3850 
   99.6250   -15.7940     2.2230    71.5300     8.4470     8.0460     8.7160    22.4640 
   99.7500   -15.4500     2.2280    72.4010     8.2520     7.8310     7.2930    22.4430 
   99.8750   -15.0150     2.2380    77.1260     8.0520     7.6010     7.0200    22.2700 
  100.0000   -14.5560     2.2510    82.6820     7.7670     7.2930     7.4690    22.0380 
  100.1250   -14.1750     2.2690    84.9450     7.3550     6.8710     7.7050    21.9080 
  100.2500   -13.9180     2.2920    85.0030     6.8420     6.3540     6.9250    21.9650 
  100.3750   -13.7680     2.3130    85.9470     6.3510     5.8460     5.9680    22.2270 
  100.5000   -13.7600     2.3260    86.2780     5.9950     5.4360     5.4900    22.6530 
  100.6250   -13.9780     2.3310    86.4430     5.8600     5.2000     5.3930    23.0330 
  100.7500   -14.5710     2.3240    89.0990     6.0390     5.2310     5.6300    23.1910 
  100.8750   -15.4810     2.3100    92.8340     6.4870     5.5060     6.2160    23.1980 
  101.0000   -16.5980     2.2900    93.6320     7.1640     6.0160     7.3710    23.1010 
  101.1250   -17.8760     2.2610    89.4710     7.9910     6.7170     9.2630    22.9600 
  101.2500   -19.3240     2.2260    80.3440     8.8230     7.5210    11.4010    22.9180 
  101.3750   -20.8110     2.1920    70.7670     9.5010     8.2600    12.0190    22.9350 
  101.5000   -22.2030     2.1670    64.6840     9.9350     8.8100    12.3210    22.9670 
  101.6250   -23.3560     2.1520    63.7640    10.1400     9.1240    12.8300    22.9930 
  101.7500   -24.1850     2.1440    65.2720    10.2280     9.2460    13.4660    23.0030 
  101.8750   -24.7920     2.1390    69.1180    10.3810     9.3390    13.6740    23.0040 
  102.0000   -25.2250     2.1340    74.4320    10.7080     9.5130    13.8370    23.0160 
  102.1250   -25.4660     2.1310    74.3420    11.2710     9.8430    14.7460    23.0630 
  102.2500   -25.5620     2.1290    66.1230    12.0900    10.3960    16.8590    23.1690 
  102.3750   -25.6360     2.1310    60.0630    13.0070    11.1060    18.2950    23.2210 
  102.5000   -25.7150     2.1530    58.8630    13.8350    11.8580    16.3390    23.1010 
  102.6250   -25.8670     2.2150    59.1670    14.3500    12.4690    14.6170    22.7570 
  102.7500   -26.1410     2.3200    58.5010    14.2800    12.6670    14.3560    22.5330 
  102.8750   -26.4890     2.3950    58.6250    13.7160    12.4270    14.6330    22.5690 
  103.0000   -26.8870     2.3640    58.9930    12.8520    11.8520    14.5640    22.7190 
  103.1250   -27.3060     2.2530    58.6480    11.9550    11.1410    14.7030    22.7960 
  103.2500   -27.6660     2.1610    60.2430    11.3060    10.5240    14.8030    22.8630 
  103.3750   -27.9430     2.1160    63.8830    10.9900    10.1240    14.8040    23.0520 
  103.5000   -28.1790     2.1020    67.7820    10.9850     9.9760    14.7940    23.3250 
  103.6250   -28.3480     2.1010    67.3290    11.1790    10.0380    14.7350    23.4900 
  103.7500   -28.3360     2.1050    63.2650    11.4030    10.2120    14.7940    23.4730 
  103.8750   -28.1670     2.1150    61.5150    11.5070    10.3520    15.0440    23.4140 
  104.0000   -27.9350     2.1270    61.9830    11.4360    10.3780    15.1790    23.4240 
  104.1250   -27.7120     2.1380    63.2640    11.2090    10.2620    15.0920    23.5110 
  104.2500   -27.4550     2.1410    63.5780    10.8960    10.0240    14.9540    23.6290 
  104.3750   -27.1160     2.1320    63.0520    10.5950     9.7480    14.8530    23.7750 
  104.5000   -26.7360     2.1160    60.7970    10.3520     9.4840    14.6180    23.9140 
  104.6250   -26.4100     2.1030    57.9450    10.1820     9.2640    14.2350    23.9390 
  104.7500   -26.1430     2.1030    58.1150    10.0930     9.1040    13.7390    23.7880 
  104.8750   -25.8570     2.1130    60.3670    10.0710     8.9970    13.3460    23.5540 
  105.0000   -25.5300     2.1220    64.0910    10.1200     8.9450    13.1530    23.3190 
  105.1250   -25.2000     2.1300    67.1470    10.2360     8.9520    13.0010    23.1190 
