~V
VERS. 2.00: Ver 2.00
~W
STRT.M 50.0000:
STOP.M 284.0000:
STEP.M 0.1250:
NULL. -999.2500:
UWI. F10107:
~C
DEPT.M :
DEN.GM/CC :
SP.MV :
GR.API :
RML.OHMM :
RI. :
RXO.OHMM :
CALI.CM :
~A
# ...
  128.7500     2.3050     0.3800    72.0240     7.3940     6.7610     6.9500    23.5100 
  128.8750     2.3570     0.4260    68.6080     8.4150     7.5840     8.5960    23.6400 
  129.0000     2.4070     0.4640    68.3950     9.2890     8.4280    10.9840    23.7030 
  129.1250     2.4290     0.5080    68.7200     9.4730     8.7980    14.1990    23.7190 
  129.2500     2.4170     0.5780    67.8200     8.9010     8.5100    17.2930    23.7330 
  129.3750     2.3780     0.6730    67.4570     7.7890     7.6680    14.5830    23.7780 
  129.5000     2.3330     0.7860    69.6710     6.5650     6.6180     8.0680    23.8370 
  129.6250     2.2990     0.8950    74.5130     5.6820     5.7680     5.8870    23.8440 
  129.7500     2.2780     0.9820    79.6090     5.2160     5.2450     5.3500    23.8400 
  129.8750     2.2680     1.0390    82.7770     5.0780     5.0130     5.4070    23.8360 
  130.0000     2.2640     1.0660    83.6860     5.1170     4.9670     5.4430    23.8240 
  130.1250     2.2650     1.0620    81.5550     5.1910     4.9970     5.4440    23.7880 
  130.2500     2.2690     1.0340    79.0310     5.2340     5.0220     5.4660    23.7450 
  130.3750     2.2750     0.9860    79.7140     5.2720     5.0510     5.4490    23.7220 
  130.5000     2.2800     0.9250    82.4980     5.3720     5.1290     5.2120    23.6850 
  130.6250     2.2800     0.8490    81.7440     5.6210     5.3310     5.1510    23.5570 
  130.7500     2.2730     0.7600    78.7260     6.0130     5.6570     5.4650    23.3370 
  130.8750     2.2600     0.6540    76.7690     6.5070     6.0790     6.0430    23.0060 
  131.0000     2.2420     0.5290    73.5380     7.0330     6.5410     6.5950    22.6180 
  131.1250     2.2240     0.3800    65.4490     7.4960     6.9590     6.6090    22.3260 
  131.2500     2.2050     0.2000    58.6750     7.8540     7.2860     6.4660    22.1600 
  131.3750     2.1880    -0.0020    56.9000     8.0980     7.5060     6.2470    22.1680 
  131.5000     2.1740    -0.2000    57.0530     8.2430     7.6270     6.3810    22.3670 
  131.6250     2.1670    -0.3630    56.3360     8.2970     7.6560     6.9740    22.6890 
  131.7500     2.1680    -0.4660    55.7620     8.2870     7.6220     7.5570    22.9310 
  131.8750     2.1780    -0.4870    55.6510     8.2320     7.5440     7.6910    22.9990 
  132.0000     2.1890    -0.4220    57.3000     8.1670     7.4520     7.3590    22.8970 
  132.1250     2.1930    -0.2570    60.3980     8.1520     7.3930     6.9280    22.7250 
  132.2500     2.1860    -0.0080    61.9240     8.2170     7.4010     6.7040    22.6550 
  132.3750     2.1710     0.3040    59.7550     8.3620     7.4820     6.7910    22.6400 
  132.5000     2.1520     0.6480    55.2720     8.5520     7.6170     7.0530    22.6360 
  132.6250     2.1350     0.9880    52.6900     8.7240     7.7650     7.2870    22.5990 
  132.7500     2.1230     1.2860    52.9770     8.8320     7.8800     7.2560    22.5160 
  132.8750     2.1150     1.5180    53.3890     8.8630     7.9390     6.9200    22.4120 
  133.0000     2.1130     1.6840    50.9420     8.8330     7.9450     6.5400    22.3590 
  133.1250     2.1150     1.7740    47.5910     8.7790     7.9170     6.2830    22.3780 
  133.2500     2.1190     1.8100    47.5230     8.7390     7.8870     6.1940    22.4460 
  133.3750     2.1240     1.8070    49.1280     8.7280     7.8730     6.2180    22.5130 
  133.5000     2.1280     1.7580    50.1340     8.7450     7.8780     6.3470    22.5110 
  133.6250     2.1310     1.6530    51.7820     8.7790     7.8990     6.5490    22.4270 
  133.7500     2.1340     1.5120    53.8220     8.8150     7.9240     6.6700    22.3620 
  133.8750     2.1370     1.3490    54.3180     8.8480     7.9460     6.6570    22.3870 
  134.0000     2.1410     1.1760    52.0400     8.8730     7.9650     6.5460    22.4760 
  134.1250     2.1470     1.0130    48.9980     8.8940     7.9780     6.5360    22.5010 
  134.2500     2.1530     0.8560    49.0030     8.9150     7.9910     6.6610    22.4970 
  134.3750     2.1580     0.6930    51.9810     8.9430     8.0060     6.8250    22.5080 
  134.5000     2.1610     0.5440    55.0660     8.9820     8.0280     6.9320    22.5370 
  134.6250     2.1610     0.4260    56.0320     9.0280     8.0530     6.9110    22.5590 
  134.7500     2.1590     0.3270    56.1900     9.0630     8.0700     6.9170    22.5830 
  134.8750     2.1560     0.2360    56.1820     9.0600     8.0610     6.9910    22.6020 
  135.0000     2.1560     0.1350    55.7830     9.0010     8.0110     7.0560    22.6100 
  135.1250     2.1570    -0.0120    56.5830     8.8860     7.9140     7.0170    22.6240 
  135.2500     2.1610    -0.1860    58.2900     8.7580     7.7980     6.9070    22.6690 
  135.3750     2.1640    -0.3640    61.2090     8.6620     7.6990     6.7830    22.7350 
  135.5000     2.1640    -0.5490    62.3840     8.6370     7.6490     6.6590    22.7740 
  135.6250     2.1630    -0.7300    58.2400     8.7120     7.6780     6.6730    22.7630 
  135.7500     2.1610    -0.9010    54.0120     8.8530     7.7690     6.8260    22.7490 
  135.8750     2.1600    -1.0730    53.3830     9.0240     7.8960     7.0330    22.7450 
  136.0000     2.1610    -1.2450    55.0670     9.1880     8.0290     7.1330    22.7440 
  136.1250     2.1630    -1.3940    55.5840     9.3110     8.1360     7.1380    22.7300 
  136.2500     2.1650    -1.5370    57.4280     9.3890     8.2060     7.1710    22.6820 
  136.3750     2.1680    -1.6970    59.6060     9.4240     8.2370     7.2190    22.6070 
  136.5000     2.1730    -1.8700    58.2630     9.4210     8.2340     7.2840    22.5560 
  136.6250     2.1790    -2.0490    56.3120     9.3810     8.2020     7.3510    22.5430 
  136.7500     2.1860    -2.2100    58.1450     9.3180     8.1510     7.3890    22.5450 
  136.8750     2.1890    -2.3270    61.6200     9.2430     8.0910     7.3610    22.5400 
  137.0000     2.1890    -2.3880    61.7240     9.1690     8.0300     7.2850    22.5300 
  137.1250     2.1820    -2.4100    59.3930     9.1100     7.9790     7.3310    22.5190 
  137.2500     2.1720    -2.4130    59.0330     9.0700     7.9410     7.3890    22.5450 
  137.3750     2.1630    -2.3990    59.2120     9.0480     7.9190     7.5080    22.5670 
  137.5000     2.1580    -2.3630    58.1840     9.0400     7.9120     7.5910    22.5560 
  137.6250     2.1550    -2.3080    57.6260     9.0370     7.9160     7.4280    22.5030 
  137.7500     2.1530    -2.2490    58.5780     9.0280     7.9210     7.2570    22.4330 
  137.8750     2.1500    -2.1990    58.9580     9.0020     7.9180     7.1570    22.3740 
  138.0000     2.1480    -2.1730    58.4160     8.9490     7.8960     7.1050    22.3470 
  138.1250     2.1470    -2.1710    61.4030     8.8640     7.8450     7.0660    22.3750 
  138.2500     2.1480    -2.1800    64.9510     8.7600     7.7720     7.0320    22.4510 
  138.3750     2.1510    -2.1800    65.9460     8.6490     7.6840     7.0140    22.5280 
  138.5000     2.1550    -2.1700    64.9560     8.5440     7.5940     6.9500    22.5700 
  138.6250     2.1560    -2.1540    64.5010     8.4490     7.5100     6.8700    22.5740 
  138.7500     2.1580    -2.1330    64.8220     8.3520     7.4290     6.8220    22.5590 
  138.8750     2.1600    -2.1160    64.1740     8.2310     7.3350     6.7740    22.5800 
  139.0000     2.1660    -2.1050    63.3560     8.0680     7.2110     6.7340    22.6680 
  139.1250     2.1770    -2.0880    63.9420     7.8530     7.0410     6.6760    22.7840 
  139.2500     2.1910    -2.0610    66.1840     7.6160     6.8430     6.6150    22.9170 
  139.3750     2.2050    -2.0440    69.8230     7.3930     6.6410     6.5970    23.0320 
  139.5000     2.2160    -2.0480    72.2590     7.2230     6.4700     6.6450    23.0740 
  139.6250     2.2210    -2.0860    73.3340     7.1480     6.3680     6.7110    23.0480 
  139.7500     2.2240    -2.1770    74.9210     7.1560     6.3360     6.7110    22.9780 
  139.8750     2.2230    -2.3150    75.6130     7.2250     6.3630     6.6690    22.8880 
