~V
VERS. 2.00: Ver 2.00
~W
STRT.M 55.0000:
STOP.M 248.0000:
STEP.M 0.1250:
NULL. -999.2500:
UWI. F10184:
~C
DEPT.M :
SP.MV :
GR.API :
RML.OHMM :
RI. :
RXO.OHMM :
CALI.CM :
DEN.GM/CC :
~A
# ...
  111.2500    -8.8510    66.1590     8.1800     6.6170     7.4730    22.4700     2.1520 
  111.3750    -8.9760    69.8320     8.1750     6.6140     7.4430    22.4890     2.1370 
  111.5000    -9.0550    72.3920     8.1380     6.5740     7.2520    22.5440     2.1230 
  111.6250    -9.0090    73.5220     8.1090     6.5250     7.1080    22.5680     2.1180 
  111.7500    -8.9640    74.3090     8.1010     6.4960     7.0210    22.5560     2.1250 
  111.8750    -8.9180    73.9960     8.1070     6.4950     6.9800    22.5060     2.1350 
  112.0000    -8.8050    71.8610     8.1280     6.5180     6.9810    22.4830     2.1420 
  112.1250    -8.7170    69.6420     8.1770     6.5550     7.0910    22.5140     2.1420 
  112.2500    -8.6710    69.1110     8.2580     6.5930     7.2540    22.5790     2.1390 
  112.3750    -8.5340    70.2980     8.3600     6.6340     7.3190    22.6240     2.1380 
  112.5000    -8.3410    71.9410     8.4560     6.6830     7.3330    22.6490     2.1440 
  112.6250    -8.2870    72.1980     8.5220     6.7500     7.3590    22.6600     2.1580 
  112.7500    -8.2680    71.5140     8.5680     6.8230     7.4200    22.6520     2.1740 
  112.8750    -8.1680    70.9170     8.6060     6.8870     7.5980    22.6320     2.1840 
  113.0000    -8.1460    69.1690     8.6300     6.9200     7.8990    22.6250     2.1880 
  113.1250    -8.1490    69.8160     8.6070     6.8990     8.1290    22.6370     2.1850 
  113.2500    -8.0610    73.0210     8.5260     6.8330     8.1440    22.6380     2.1770 
  113.3750    -8.0320    74.3070     8.4020     6.7390     7.9320    22.6280     2.1670 
  113.5000    -8.0850    71.4490     8.2640     6.6340     7.5690    22.6190     2.1570 
  113.6250    -8.0550    68.2280     8.1630     6.5450     7.2920    22.6120     2.1550 
  113.7500    -7.9790    68.5610     8.1240     6.4850     7.2860    22.6020     2.1590 
  113.8750    -7.9850    71.3370     8.1540     6.4620     7.4530    22.6140     2.1630 
  114.0000    -7.9760    73.3060     8.2370     6.4660     7.7430    22.6960     2.1640 
  114.1250    -7.9120    72.1030     8.3290     6.4740     8.1050    22.8600     2.1630 
  114.2500    -7.8660    68.5510     8.3640     6.4620     8.1810    22.9490     2.1650 
  114.3750    -7.8430    65.2360     8.3050     6.4250     7.9800    22.9210     2.1700 
  114.5000    -7.7620    62.4460     8.1610     6.3690     7.8090    22.8600     2.1730 
  114.6250    -7.6370    60.5220     7.9910     6.3170     7.6210    22.8500     2.1710 
  114.7500    -7.5120    61.8660     7.8690     6.2910     7.4330    22.8960     2.1650 
  114.8750    -7.2640    66.5080     7.8290     6.3040     7.3950    22.9690     2.1590 
  115.0000    -6.9630    70.0540     7.8690     6.3610     7.5140    23.0270     2.1540 
  115.1250    -6.5950    69.2420     7.9540     6.4570     7.5970    23.1120     2.1520 
  115.2500    -6.1540    68.6490     8.0060     6.5370     7.6870    23.2610     2.1520 
  115.3750    -5.6260    70.5920     7.9630     6.5360     7.7450    23.4120     2.1550 
  115.5000    -5.0100    72.7630     7.7740     6.4030     7.8480    23.4770     2.1610 
  115.6250    -4.2760    75.0520     7.4050     6.1080     7.8160    23.5650     2.1770 
  115.7500    -3.4960    80.0610     6.9370     5.7260     7.3380    23.7930     2.2040 
  115.8750    -2.6990    86.6830     6.4470     5.3210     6.4910    24.0710     2.2370 
  116.0000    -1.8970    91.4280     6.0030     4.9450     6.1190    24.1930     2.2620 
  116.1250    -1.2610    91.9140     5.6590     4.6320     6.0000    24.2630     2.2750 
  116.2500    -0.6980    90.7270     5.4040     4.3780     5.7160    24.3800     2.2790 
  116.3750    -0.1990    91.8230     5.2130     4.1780     5.4650    24.5120     2.2790 
  116.5000     0.1040    94.1660     5.0540     4.0240     5.1810    24.5660     2.2790 
  116.6250     0.1100    92.7930     4.9270     3.9160     5.1020    24.5340     2.2820 
  116.7500    -0.0090    90.5100     4.8630     3.8640     5.2710    24.5090     2.2870 
  116.8750    -0.3250    92.6070     4.9120     3.8950     5.2880    24.4770     2.2870 
  117.0000    -0.8360    96.5100     5.1180     4.0410     5.1380    24.3750     2.2790 
  117.1250    -1.3970    91.6320     5.5170     4.3380     5.8390    24.0060     2.2630 
  117.2500    -2.0840    81.0420     6.0320     4.7400     6.9400    23.4080     2.2370 
  117.3750    -2.8760    72.1020     6.5710     5.1880     7.3570    22.8720     2.2020 
  117.5000    -3.5760    66.8120     7.0270     5.6070     7.2280    22.6170     2.1690 
  117.6250    -4.1170    64.8130     7.2660     5.8920     7.1010    22.5750     2.1510 
  117.7500    -4.5990    65.6490     7.2880     6.0230     7.1040    22.5610     2.1490 
  117.8750    -4.8890    68.5940     7.1530     6.0240     6.9530    22.5580     2.1580 
  118.0000    -4.9930    70.1080     6.9800     5.9580     6.7660    22.5760     2.1700 
  118.1250    -5.0100    67.7910     6.9140     5.9050     6.6780    22.6080     2.1830 
  118.2500    -4.8770    64.8940     7.0050     5.9180     6.6970    22.6030     2.1900 
  118.3750    -4.6430    63.6050     7.2440     6.0110     6.8720    22.5780     2.1880 
  118.5000    -4.4130    64.2830     7.5690     6.1640     7.2450    22.5510     2.1810 
  118.6250    -4.1550    64.8750     7.8520     6.3060     7.4880    22.5480     2.1720 
  118.7500    -3.8880    66.2350     7.9540     6.3330     7.2600    22.5540     2.1670 
  118.8750    -3.6950    68.9670     7.7640     6.1630     6.7170    22.6030     2.1700 
  119.0000    -3.4310    72.4680     7.2430     5.7680     6.3500    22.7620     2.1830 
  119.1250    -3.0840    77.8830     6.4570     5.1940     5.9850    23.0860     2.2110 
  119.2500    -2.8330    85.1600     5.6790     4.6140     5.3270    23.4850     2.2480 
  119.3750    -2.6270    91.6780     5.1260     4.1690     4.7810    23.8220     2.2870 
  119.5000    -2.4730    92.8660     4.9390     3.9590     4.5360    23.9860     2.3160 
  119.6250    -2.5020    88.3090     5.2420     4.0900     4.8670    23.9180     2.3260 
  119.7500    -2.7140    82.6550     5.9200     4.5150     6.2440    23.7610     2.3150 
  119.8750    -3.0540    76.1420     6.8330     5.1690     9.0460    23.4860     2.2870 
  120.0000    -3.5590    68.8620     7.7460     5.9130    11.2680    23.1020     2.2490 
  120.1250    -4.2720    63.8950     8.3250     6.5150     9.4800    22.8190     2.2160 
  120.2500    -5.0330    62.6540     8.4990     6.8540     8.3720    22.7170     2.1960 
  120.3750    -5.7400    63.2170     8.3740     6.9420     8.1950    22.7010     2.1870 
  120.5000    -6.3670    63.8360     8.1490     6.8880     8.0450    22.7020     2.1840 
  120.6250    -6.9150    64.4310     8.0120     6.8230     7.8620    22.7000     2.1830 
  120.7500    -7.3100    64.2680     7.9960     6.8100     7.7120    22.6740     2.1830 
  120.8750    -7.5590    62.3730     8.0590     6.8370     7.7260    22.5960     2.1840 
  121.0000    -7.7650    60.7100     8.1400     6.8640     7.8370    22.5040     2.1840 
  121.1250    -7.8090    62.6840     8.1800     6.8530     7.8970    22.3770     2.1830 
  121.2500    -7.7340    65.7620     8.1570     6.7970     7.7330    22.2540     2.1780 
  121.3750    -7.6730    67.0840     8.0680     6.7090     7.4130    22.0770     2.1710 
  121.5000    -7.6670    66.6510     7.9380     6.6100     6.9960    21.8640     2.1640 
  121.6250    -7.5700    65.7970     7.8220     6.5270     6.6540    21.8070     2.1630 
  121.7500    -7.3930    65.3130     7.7640     6.4730     6.4470    21.8910     2.1690 
  121.8750    -7.2710    65.5180     7.7830     6.4510     6.4000    22.0590     2.1790 
  122.0000    -7.1180    67.2550     7.8740     6.4600     6.4500    22.1770     2.1900 
  122.1250    -6.9530    69.0240     8.0110     6.5100     6.5370    22.2540     2.1960 
  122.2500    -6.8740    68.6180     8.1440     6.5930     6.8140    22.3700     2.1970 
  122.3750    -6.8270    65.5760     8.2500     6.7030     7.1920    22.5580     2.1920 
