~V
VERS. 2.00: Ver 2.00
~W
STRT.M 58.0000:
STOP.M 213.0000:
STEP.M 0.1250:
NULL. -999.2500:
UWI. F10138:
~C
DEPT.M :
GR.API :
RML.OHMM :
RI. :
RXO.OHMM :
CALI.CM :
DEN.GM/CC :
SP.MV :
~A
# ...
  204.2500    59.8590     8.8700     8.0470    34.1000    23.3840     2.4700   -10.1870 
  204.3750    59.8590     8.8800     8.0430    46.0540    23.3200     2.5510   -10.1710 
  204.5000    59.8590     8.8890     8.0330    48.6090    23.3620     2.6030   -10.1330 
  204.6250    59.8590     8.8960     8.0250    40.4720    23.4590     2.6200   -10.0900 
  204.7500    59.8590     8.8980     8.0230    32.5640    23.5270     2.6080   -10.0650 
  204.8750    59.8590     8.8950     8.0260    26.5690    23.5900     2.5720   -10.0540 
  205.0000    59.8590     8.8900     8.0320    20.5270    23.5640     2.5210   -10.1310 
  205.1250    59.8590     8.8840     8.0350    15.5570    23.6330     2.4670   -10.2670 
  205.2500    59.8590     8.8810     8.0350    12.5230    24.1230     2.4170   -10.3950 
  205.3750    59.8590     8.8820     8.0320    10.8850    24.1120     2.3640   -10.5590 
  205.5000    59.8590     8.8860     8.0280    10.1310    24.0420     2.2910   -10.7380 
  205.6250    59.8590     8.8880     8.0230     9.3390    25.1080     2.1890   -10.9100 
  205.7500    59.8590     8.8900     8.0190     8.2240    27.3980     2.0850   -11.0880 
  205.8750    59.8590     8.8870     8.0180     6.9140    30.6570     2.0470   -11.2750 
  206.0000    59.8590     8.8750     8.0190     6.4580    30.9240     2.0010   -11.3280 
  206.1250    59.8590     8.8610     8.0230     7.7740    27.4240     2.0520   -11.3470 
  206.2500    59.8590     8.8540     8.0290     9.7440    25.2760     2.1200  -999.2500 
  206.3750    59.8590     8.8570     8.0340     9.8700    24.6870     2.1630  -999.2500 
  206.5000    59.8590     8.8710     8.0370     8.0820    25.3000     2.1610  -999.2500 
  206.6250    59.8590     8.8890     8.0360     6.9500    24.9180     2.1330  -999.2500 
  206.7500    59.8590     8.9030     8.0340     6.7690    24.4480     2.1160  -999.2500 
  206.8750    59.8590     8.9090     8.0310     6.9470    23.7290     2.1250  -999.2500 
  207.0000    59.8590     8.9090     8.0290     7.1420    23.1560     2.1540  -999.2500 
  207.1250    59.8590     8.9110     8.0270     7.1180    23.0860     2.1820  -999.2500 
  207.2500    59.8590     8.9160     8.0270     6.8070    22.9360     2.1890  -999.2500 
  207.3750    59.8590     8.9250     8.0270     6.4340    22.3310     2.1660  -999.2500 
  207.5000    59.8590     8.9350     8.0280     6.1340    21.4630     2.1170  -999.2500 
  207.6250    59.8590     8.9420     8.0300     6.1570    18.6650     2.0550  -999.2500 
  207.7500    59.8590     8.9440     8.0300     6.2620    17.4620     2.0000  -999.2500 
  207.8750    59.8590     8.9400     8.0300     6.3330    17.2400     1.9610  -999.2500 
  208.0000    59.8590     8.9290     8.0280     6.3480    17.2210     1.9390  -999.2500 
  208.1250    59.8590     8.9120     8.0280     6.3500    17.2210     1.9320  -999.2500 
  208.2500    59.8590     8.8970     8.0300     6.3510    17.2210     1.9320  -999.2500 
  208.3750    59.8590     8.8920     8.0310     6.3500    17.2210     1.9340  -999.2500 
  208.5000    59.8590     8.8920     8.0310     6.3490    17.2210     1.9350  -999.2500 
  208.6250    59.8590     8.8920     8.0310     6.3470    17.2210     1.9340  -999.2500 
  208.7500    59.8590     8.8920     8.0310     6.3450    17.2210     1.9320  -999.2500 
  208.8750    59.8590     8.8920     8.0310     6.3430    17.2210     1.9280  -999.2500 
  209.0000    59.8590     8.8920     8.0310     6.3440    17.2210     1.9250  -999.2500 
  209.1250    59.8590     8.8920     8.0310     6.3450    17.2210     1.9250  -999.2500 
  209.2500    59.8590     8.8920     8.0310     6.3450    17.2210     1.9260  -999.2500 
  209.3750    59.8590     8.8920     8.0310     6.3440    17.2210     1.9280  -999.2500 
  209.5000    59.8590     8.8920     8.0310     6.3450    17.2210     1.9300  -999.2500 
  209.6250    59.8590     8.8920     8.0310     6.3450    17.2210     1.9310  -999.2500 
  209.7500    59.8590     8.8920     8.0310     6.3440    17.2210  -999.2500  -999.2500 
  209.8750    59.8590     8.8920     8.0310     6.3430    17.2210  -999.2500  -999.2500 
  210.0000    59.8590     8.8920     8.0310     6.3440    17.2210  -999.2500  -999.2500 
  210.1250    59.8590     8.8920     8.0310     6.3430    17.2210  -999.2500  -999.2500 
  210.2500    59.8590     8.8920     8.0310     6.3420    17.2210  -999.2500  -999.2500 
  210.3750    59.8590     8.8920     8.0310     6.3420    17.2210  -999.2500  -999.2500 
  210.5000    59.8590     8.8920     8.0310     6.3430    17.2210  -999.2500  -999.2500 
  210.6250    59.8590     8.8920     8.0310     6.3440    17.2210  -999.2500  -999.2500 
  210.7500    59.8590     8.8920     8.0310     6.3440    17.2200  -999.2500  -999.2500 
  210.8750    59.8590     8.8920     8.0310     6.3430    17.2140  -999.2500  -999.2500 
  211.0000    59.8590     8.8920     8.0310     6.3420    17.1780  -999.2500  -999.2500 
  211.1250    59.8590     8.8920     8.0310     6.3410    17.1510  -999.2500  -999.2500 
  211.2500    59.8590     8.8920     8.0310     6.3390    17.1440  -999.2500  -999.2500 
  211.3750    59.8590     8.8920     8.0310     6.3390    17.1440  -999.2500  -999.2500 
  211.5000    59.8590     8.8920     8.0310     6.3390    17.1440  -999.2500  -999.2500 
  211.6250    59.8590     8.8920     8.0310     6.3400    17.1440  -999.2500  -999.2500 
  211.7500    59.8590     8.8920     8.0310     6.3390    17.1440  -999.2500  -999.2500 
  211.8750    59.8590     8.8920     8.0310     6.3400    17.1440  -999.2500  -999.2500 
  212.0000    59.8590     8.8920     8.0310     6.3400    17.1440  -999.2500  -999.2500 
  212.1250    59.8590     8.8920     8.0310     6.3390    17.1440  -999.2500  -999.2500 
  212.2500    59.8590     8.8920     8.0310     6.3380    17.1440  -999.2500  -999.2500 
  212.3750    59.8590     8.8920     8.0310     6.3390    17.1440  -999.2500  -999.2500 
  212.5000    59.8590     8.8920     8.0310     6.3400    17.1430  -999.2500  -999.2500 
  212.6250    59.8590     8.8920     8.0310     6.3380    17.1420  -999.2500  -999.2500 
  212.7500    59.8590     8.8920     8.0310     6.3340    17.1340  -999.2500  -999.2500 
  212.8750    59.8590     8.8920     8.0310     6.3320    17.1330  -999.2500  -999.2500 
  213.0000    59.8590     8.8920     8.0310     6.3330    17.1330  -999.2500  -999.2500 
