~V
VERS. 2.00: Ver 2.00
~W
STRT.M 49.0000:
STOP.M 290.0000:
STEP.M 0.1250:
NULL. -999.2500:
UWI. F10103:
~C
DEPT.M :
DEN.GM/CC :
SP.MV :
GR.API :
RML.OHMM :
RI. :
RXO.OHMM :
CALI.CM :
~A
# ...
  139.0000     2.4040    -6.2010    57.1080    22.5100    21.8400    23.7190    24.2970 
  139.1250     2.4230    -6.1950    59.0410    22.0220    21.4520    22.8620    24.2120 
  139.2500     2.4310    -6.1980    58.5720    21.5280    21.0140    23.4840    24.1250 
  139.3750     2.4250    -6.2000    55.4470    21.1810    20.6780    24.1480    24.1060 
  139.5000     2.4100    -6.1980    52.0680    21.0130    20.4870    24.5980    24.0980 
  139.6250     2.3950    -6.1870    49.1940    20.9520    20.4000    23.8690    24.0530 
  139.7500     2.3890    -6.1500    48.0680    20.8630    20.3100    23.4610    23.9730 
  139.8750     2.3910    -6.0720    49.4510    20.6610    20.1320    23.0230    23.9110 
  140.0000     2.3990    -5.9630    51.9160    20.3610    19.8590    21.5800    23.8990 
  140.1250     2.4080    -5.8150    54.5120    20.0550    19.5540    20.7630    23.9490 
  140.2500     2.4150    -5.6560    55.7390    19.8750    19.3320    20.2470    24.0430 
  140.3750     2.4200    -5.4910    55.9260    19.8520    19.2360    19.7960    24.1800 
  140.5000     2.4220    -5.3250    56.2010    19.9460    19.2460    19.7770    24.3310 
  140.6250     2.4220    -5.1830    56.4030    20.0770    19.2970    20.0020    24.4410 
  140.7500     2.4150    -5.0570    55.0580    20.1360    19.3000    20.2660    24.5380 
  140.8750     2.4010    -4.9420    51.8660    20.0750    19.2030    20.1910    24.6760 
  141.0000     2.3870    -4.8340    49.6600    19.9050    19.0110    19.6180    24.7920 
  141.1250     2.3780    -4.7280    51.3670    19.6930    18.7800    19.0120    24.8080 
  141.2500     2.3840    -4.6010    56.1480    19.5730    18.6280    18.7370    24.7270 
  141.3750     2.4040    -4.4500    59.1810    19.6680    18.6680    19.0390    24.5860 
  141.5000     2.4280    -4.2670    57.6500    20.0990    19.0030    19.2640    24.4020 
  141.6250     2.4490    -4.0280    52.5040    20.9690    19.7290    19.8920    24.1880 
  141.7500     2.4580    -3.7380    50.2320    22.3770    20.9620    21.3300    23.9650 
  141.8750     2.4580    -3.4230    52.2530    24.0840    22.5330    23.2740    23.8070 
  142.0000     2.4550    -3.0960    54.4100    25.7400    24.1710    25.2020    23.7190 
  142.1250     2.4570    -2.7860    52.2550    26.8750    25.4600    26.4120    23.6520 
  142.2500     2.4660    -2.5130    48.5520    26.8550    25.7690    26.9320    23.5990 
  142.3750     2.4800    -2.2940    49.5240    25.7040    24.9960    25.4550    23.6330 
  142.5000     2.4930    -2.1370    52.9060    23.7140    23.3260    21.1740    23.8200 
  142.6250     2.5030    -2.0700    52.9130    21.4400    21.2450    18.6980    24.1480 
  142.7500     2.5060    -2.1010    49.4600    19.5520    19.3730    17.3160    24.4740 
  142.8750     2.5020    -2.1900    47.9810    18.3300    18.0390    17.2510    24.7360 
  143.0000     2.4910    -2.3280    48.2220    17.7880    17.3130    17.7180    24.8740 
  143.1250     2.4760    -2.4930    47.1900    17.7650    17.1090    18.0060    24.9190 
  143.2500     2.4590    -2.6680    46.8740    18.0370    17.2850    18.3200    24.9160 
  143.3750     2.4400    -2.8400    48.5140    18.3330    17.5750    18.5650    24.8760 
  143.5000     2.4190    -3.0010    49.9490    18.5490    17.8530    18.9170    24.8130 
  143.6250     2.3970    -3.1270    50.6330    18.6830    18.0740    19.1460    24.7760 
  143.7500     2.3830    -3.2380    52.5630    18.8150    18.2710    19.1450    24.7060 
  143.8750     2.3870    -3.3510    54.0980    19.0360    18.5180    19.7120    24.6090 
  144.0000     2.4090    -3.4700    53.3530    19.3790    18.8480    22.2510    24.5420 
  144.1250     2.4410    -3.6120    51.0990    19.8030    19.2370    26.2210    24.5550 
  144.2500     2.4630    -3.7820    50.8450    20.1970    19.5960    28.6210    24.6480 
  144.3750     2.4640    -3.9810    53.1260    20.4620    19.8370    27.3730    24.7490 
  144.5000     2.4440    -4.2150    56.2740    20.5680    19.9250    25.8230    24.8020 
  144.6250     2.4140    -4.4700    58.0090    20.5530    19.8890    22.7980    24.7630 
  144.7500     2.3890    -4.7150    58.0560    20.4910    19.7950    20.9180    24.6230 
  144.8750     2.3720    -4.9340    57.6560    20.4470    19.7130    21.0600    24.4520 
  145.0000     2.3620    -5.1110    56.6040    20.4270    19.6600    22.8700    24.3340 
  145.1250     2.3550    -5.2360    54.2610    20.3970    19.6150    23.3930    24.3020 
  145.2500     2.3510    -5.2950    54.5510    20.3010    19.5300    21.4250    24.3470 
  145.3750     2.3520    -5.2930    58.3620    20.1350    19.3920    19.6990    24.4020 
  145.5000     2.3610    -5.2240    63.6350    19.9230    19.2110    19.1800    24.4270 
  145.6250     2.3780    -5.1120    66.3580    19.7030    19.0190    18.9600    24.4340 
  145.7500     2.3960    -4.9670    64.0750    19.5050    18.8420    17.9600    24.4470 
  145.8750     2.4110    -4.8100    60.9400    19.3080    18.6700    17.4270    24.4730 
  146.0000     2.4160    -4.6560    58.4680    19.0690    18.4710    17.6120    24.5170 
  146.1250     2.4120    -4.5250    56.4680    18.7600    18.2160    18.1520    24.5760 
  146.2500     2.4010    -4.4370    54.2540    18.4050    17.9110    18.0320    24.5810 
  146.3750     2.3900    -4.3810    53.5910    18.1020    17.6290    17.2520    24.5480 
  146.5000     2.3830    -4.3430    55.4750    17.9500    17.4480    16.7520    24.5040 
  146.6250     2.3820    -4.3060    58.0970    18.0180    17.4380    17.2060    24.4560 
  146.7500     2.3880    -4.2650    57.9310    18.3420    17.6500    17.8080    24.3680 
  146.8750     2.3980    -4.2150    56.0010    18.7830    17.9890    18.7460    24.1900 
  147.0000     2.4090    -4.1580    55.0600    19.1850    18.3250    19.8520    23.9590 
  147.1250     2.4200    -4.0880    55.4020    19.3780    18.5060    20.2850    23.7850 
  147.2500     2.4290    -4.0040    56.1390    19.2220    18.3790    20.4340    23.7200 
  147.3750     2.4370    -3.9050    56.8190    18.8670    18.0410    19.9140    23.7210 
  147.5000     2.4430    -3.8020    57.8900    18.5720    17.6990    18.7900    23.7580 
  147.6250     2.4480    -3.7120    56.9890    18.6770    17.6440    18.3300    23.8300 
  147.7500     2.4510    -3.6370    54.1330    19.6610    18.2980    20.0350    23.9430 
  147.8750     2.4550    -3.5810    54.0120    21.5610    19.7630    24.2440    24.0420 
  148.0000     2.4620    -3.5350    56.9300    24.2640    22.0390    30.3110    24.0850 
  148.1250     2.4740    -3.4840    60.8910    27.3930    24.8960    35.8750    24.0920 
  148.2500     2.4890    -3.4260    61.8430    30.1610    27.7300    39.4600    24.1280 
  148.3750     2.5030    -3.3590    58.6480    31.7680    29.7030    39.5260    24.2470 
  148.5000     2.5170    -3.2870    54.3710    31.6640    30.1470    37.7700    24.3600 
  148.6250     2.5270    -3.1960    53.5720    29.7450    28.7880    35.2380    24.3790 
  148.7500     2.5350    -3.1030    56.9230    26.3370    25.8060    30.6630    24.2470 
  148.8750     2.5390    -3.0120    59.7890    22.5720    22.3220    24.3480    23.9850 
  149.0000     2.5400    -2.9310    60.8180    19.1870    19.0810    18.9790    23.6590 
  149.1250     2.5370    -2.8620    61.6590    16.6110    16.5140    14.6640    23.4010 
  149.2500     2.5330    -2.8030    60.6130    15.0710    14.8530    13.0430    23.2680 
  149.3750     2.5290    -2.7730    56.4640    14.2420    13.8470    13.5720    23.2400 
  149.5000     2.5250    -2.7690    52.2470    13.8710    13.3150    14.2900    23.3270 
  149.6250     2.5160    -2.8090    49.9970    13.7090    13.0650    13.4360    23.5430 
  149.7500     2.4990    -2.8950    49.9030    13.5710    12.9400    12.7370    23.9160 
  149.8750     2.4730    -3.0200    50.4400    13.3800    12.8200    12.9210    24.3620 
  150.0000     2.4440    -3.1720    52.1740    13.1510    12.6780    13.2620    24.6940 
  150.1250     2.4190    -3.3330    53.5970    12.9260    12.5160    13.1800    24.8000 
