~V
VERS. 2.00: Ver 2.00
~W
STRT.M 52.0000:
STOP.M 322.0000:
STEP.M 0.1250:
NULL. -999.2500:
UWI. F10105:
~C
DEPT.M :
GR.API :
RML.OHMM :
RI. :
RXO.OHMM :
CALI.CM :
DEN.GM/CC :
SP.MV :
~A
# ...
   74.5000    72.4390    10.0460     8.6390     6.8600    23.6720     2.1390   -14.0920 
   74.6250    71.6470     9.5000     8.1670     6.7750    23.6640     2.1400   -14.6740 
   74.7500    71.9830     9.1330     7.7940     6.7240    23.6840     2.1440   -15.1300 
   74.8750    73.4870     8.9620     7.5570     6.6040    23.6950     2.1480   -15.4760 
   75.0000    74.8360     8.9510     7.4460     6.5330    23.6990     2.1550   -15.6330 
   75.1250    75.1370     9.0480     7.4360     6.5860    23.6930     2.1630   -15.6270 
   75.2500    75.4800     9.1610     7.4650     6.6830    23.6810     2.1700   -15.6200 
   75.3750    77.1270     9.2260     7.4880     6.6730    23.6740     2.1720   -15.6510 
   75.5000    79.1060     9.1970     7.4680     6.5530    23.6750     2.1710   -15.6200 
   75.6250    78.5340     9.0460     7.3680     6.4100    23.6870     2.1700   -15.5900 
   75.7500    78.2250     8.8310     7.2120     6.3480    23.6980     2.1730   -15.5710 
   75.8750    78.7590     8.6130     7.0390     6.1970    23.7240     2.1790   -15.4880 
   76.0000    77.6440     8.4490     6.8910     5.9040    23.7200     2.1820   -15.4050 
   76.1250    73.5910     8.3880     6.8070     5.7320    23.5820     2.1800   -15.4620 
   76.2500    69.7960     8.4110     6.7880     5.8100    23.3520     2.1740   -15.5990 
   76.3750    67.9330     8.4870     6.8220     5.9670    23.2680     2.1680   -15.7780 
   76.5000    67.9110     8.5790     6.8890     6.1920    23.3780     2.1660   -16.0270 
   76.6250    69.1550     8.6480     6.9560     6.3630    23.5160     2.1680   -16.2350 
   76.7500    69.5590     8.6830     6.9970     6.5080    23.6280     2.1700   -16.4310 
   76.8750    68.5080     8.6870     7.0030     6.5620    23.6830     2.1690   -16.7100 
   77.0000    67.6620     8.6660     6.9780     6.5280    23.6590     2.1620   -17.0380 
   77.1250    66.6870     8.6220     6.9270     6.5030    23.5880     2.1500   -17.2800 
   77.2500    65.5070     8.5600     6.8680     6.4840    23.5360     2.1370   -17.5040 
   77.3750    64.6150     8.4900     6.8150     6.4650    23.4890     2.1290   -17.6530 
   77.5000    65.5730     8.4290     6.7820     6.4160    23.4290     2.1290   -17.6610 
   77.6250    68.6630     8.4110     6.7860     6.3620    23.3570     2.1380   -17.6560 
   77.7500    70.7210     8.4480     6.8290     6.4030    23.3260     2.1500   -17.6550 
   77.8750    69.8520     8.5490     6.9090     6.5280    23.4180     2.1610   -17.6160 
   78.0000    67.9290     8.6980     7.0250     6.6800    23.6280     2.1700   -17.5250 
   78.1250    68.4380     8.8410     7.1580     6.7990    23.8150     2.1760   -17.3730 
   78.2500    70.0410     8.8900     7.2440     6.8730    23.8850     2.1770   -17.1150 
   78.3750    71.2680     8.7630     7.2080     6.9070    23.9020     2.1760   -16.7100 
   78.5000    72.4440     8.4280     7.0000     6.8870    23.9220     2.1730   -16.1570 
   78.6250    74.9950     7.9230     6.6170     6.6250    23.9870     2.1760   -15.3970 
   78.7500    78.5370     7.4240     6.1890     6.0610    24.0700     2.1900   -14.3630 
   78.8750    82.1780     7.0760     5.8360     5.4410    24.1240     2.2150   -13.1250 
   79.0000    82.4070     6.9730     5.6480     5.2600    24.1030     2.2450   -11.9830 
   79.1250    77.0740     7.1590     5.6940     5.4510    24.0760     2.2610   -11.1230 
   79.2500    72.5150     7.4900     5.9020     5.7790    24.1000     2.2550   -10.4210 
   79.3750    72.6330     7.8340     6.1870     6.2150    24.0870     2.2310    -9.8980 
   79.5000    75.8800     8.0690     6.4440     6.4140    24.0640     2.2030    -9.4990 
   79.6250    77.1560     8.0950     6.5640     6.1720    24.0600     2.1910    -9.0830 
   79.7500    77.0960     7.9580     6.5510     5.7870    24.0580     2.1970    -8.7960 
   79.8750    77.2580     7.7130     6.4310     5.6500    24.0360     2.2120    -8.5970 
   80.0000    78.9550     7.4250     6.2390     5.7980    23.9680     2.2230    -8.2480 
   80.1250    85.4740     7.1670     6.0220     5.9170    23.9120     2.2260    -7.6740 
   80.2500    93.6160     6.9990     5.8470     5.7820    23.9180     2.2310    -6.9590 
   80.3750    96.4700     6.9680     5.7640     5.4590    23.9770     2.2460    -6.2070 
   80.5000    91.4480     7.0970     5.8050     5.3950    24.0730     2.2730    -5.6770 
   80.6250    83.7400     7.3900     5.9980     6.1340    24.1710     2.2980    -5.6460 
   80.7500    78.2390     7.7490     6.2740     7.1620    24.1640     2.3080    -5.8830 
   80.8750    74.8990     8.0770     6.5600     7.2480    24.0300     2.2990    -6.2920 
   81.0000    73.9760     8.2840     6.7790     6.6650    24.0160     2.2760    -6.8480 
   81.1250    74.4340     8.2820     6.8490     6.0350    24.1260     2.2510    -7.4490 
   81.2500    74.3750     8.1040     6.7660     5.6270    24.3010     2.2320    -8.0870 
   81.3750    73.9320     7.8040     6.5560     5.9790    24.5030     2.2160    -8.6840 
   81.5000    75.6280     7.4560     6.2720     6.5390    24.6750     2.2020    -9.0860 
   81.6250    80.1260     7.1560     5.9830     6.5580    24.7490     2.1950    -9.0430 
   81.7500    84.9650     6.9670     5.7520     6.0770    24.7140     2.2010    -8.6880 
   81.8750    86.9940     6.9230     5.6270     5.7700    24.6800     2.2170    -8.3020 
   82.0000    83.9190     7.0230     5.6250     6.1630    24.6340     2.2350    -8.0010 
   82.1250    78.1290     7.2420     5.7450     6.6610    24.4730     2.2410    -7.8100 
   82.2500    75.0240     7.5020     5.9320     7.1340    24.1950     2.2340    -7.7670 
   82.3750    75.8250     7.7660     6.1490     7.3890    23.9900     2.2210    -7.8390 
   82.5000    78.7550     8.0310     6.3720     7.4120    23.8920     2.2100    -8.0260 
   82.6250    81.1800     8.3460     6.6180     7.4660    23.9130     2.2040    -8.5470 
   82.7500    81.8660     8.7480     6.9260     7.7690    23.9480     2.1970    -9.2770 
   82.8750    79.4190     9.2260     7.3170     8.0800    24.0000     2.1860    -9.9520 
   83.0000    73.7820     9.6930     7.7570     8.2580    24.0640     2.1720   -10.5100 
   83.1250    69.7650     9.9570     8.1110     8.0640    24.1630     2.1630   -10.8660 
   83.2500    69.5910     9.9110     8.2370     7.7050    24.2080     2.1650   -11.0370 
   83.3750    73.4230     9.5450     8.0690     7.4590    24.2110     2.1770   -11.1060 
   83.5000    79.4050     8.9700     7.6680     7.2790    24.3250     2.1950   -10.9970 
   83.6250    84.8340     8.3950     7.1930     6.6000    24.7350     2.2120   -10.6160 
   83.7500    86.3340     7.9920     6.8140     6.4550    25.2230     2.2190   -10.2700 
   83.8750    81.5900     7.8140     6.6040     6.6470    25.4570     2.2150   -10.1030 
   84.0000    75.2940     7.8140     6.5540     7.1550    25.4410     2.2020    -9.9670 
   84.1250    75.4760     7.8770     6.5990     7.5120    25.2740     2.1880    -9.8550 
   84.2500    79.9480     7.8750     6.6210     7.3390    25.1480     2.1800    -9.7460 
   84.3750    83.5030     7.7660     6.5620     6.9710    25.1340     2.1830    -9.6130 
   84.5000    84.5240     7.5790     6.4180     6.8190    25.1480     2.1970    -9.5110 
   84.6250    85.9500     7.3940     6.2400     6.4650    25.1250     2.2170    -9.5500 
   84.7500    88.1210     7.2750     6.0990     6.5200    25.0960     2.2360    -9.6500 
   84.8750    90.8320     7.2320     6.0230     6.7810    25.1230     2.2470    -9.6300 
   85.0000    93.6300     7.2460     6.0040     6.7430    25.3040     2.2430    -9.6410 
   85.1250    92.4040     7.3470     6.0320     6.9790    25.4570     2.2200    -9.9440 
   85.2500    85.9950     7.6340     6.1430     7.6530    25.5090     2.1830   -10.4020 
   85.3750    78.6650     8.2590     6.4580     8.1780    25.4650     2.1410   -10.9150 
   85.5000    75.3190     9.3290     7.1160     8.4290    25.4900     2.1090   -11.4900 
   85.6250    76.7640    10.8120     8.2380     8.9270    25.6070     2.1220   -11.9110 
