~V
VERS. 2.00: Ver 2.00
~W
STRT.M 50.0000:
STOP.M 268.0000:
STEP.M 0.1250:
NULL. -999.2500:
UWI. F10199:
~C
DEPT.M :
GR.API :
RML.OHMM :
RI. :
RXO.OHMM :
CALI.CM :
DEN.GM/CC :
SP.MV :
~A
# ...
  241.2500    69.6660    14.2660    12.1090    12.0610    24.1870     2.4780    -2.0810 
  241.3750    67.2570    14.7810    12.5340    12.5120    24.2900     2.4750    -2.1190 
  241.5000    67.2950    15.2430    12.9680    13.0010    24.3740     2.4740    -2.1610 
  241.6250    68.1190    15.5200    13.2880    13.6710    24.4160     2.4790    -2.1910 
  241.7500    66.9210    15.6300    13.4710    14.6020    24.4240     2.4860    -2.2090 
  241.8750    65.2750    15.6260    13.5430    15.7930    24.4210     2.4940    -2.2090 
  242.0000    65.9830    15.5660    13.5410    17.8090    24.4060     2.4960    -2.2090 
  242.1250    67.5690    15.4690    13.4810    19.5520    24.3680     2.4910    -2.1960 
  242.2500    67.0490    15.3210    13.3630    19.9840    24.3380     2.4800    -2.1640 
  242.3750    65.6820    15.0980    13.1730    19.1020    24.3040     2.4690    -2.1360 
  242.5000    64.2900    14.8040    12.9080    17.4410    24.2530     2.4600    -2.1180 
  242.6250    62.9740    14.4690    12.5910    15.7170    24.2110     2.4580    -2.1130 
  242.7500    60.6380    14.1440    12.2680    14.6080    24.1720     2.4590    -2.1030 
  242.8750    58.6860    13.8520    11.9660    14.0350    24.1350     2.4610    -2.0920 
  243.0000    59.8880    13.5990    11.7010    13.4010    24.1160     2.4620    -2.0810 
  243.1250    62.2020    13.3890    11.4860    12.7950    24.1090     2.4610    -2.0840 
  243.2500    63.3260    13.2220    11.3220    12.4550    24.0970     2.4580    -2.1180 
  243.3750    64.0070    13.1170    11.2180    12.1250    24.0920     2.4540    -2.1560 
  243.5000    63.1380    13.0900    11.1860    11.9480    24.0800     2.4510    -2.1730 
  243.6250    59.0710    13.1530    11.2340    12.1230    24.0410     2.4520    -2.2000 
  243.7500    55.6530    13.2650    11.3300    12.7250    24.0060     2.4590    -2.2250 
  243.8750    57.1540    13.3810    11.4390    13.3680    23.9710     2.4680    -2.2770 
  244.0000    62.6000    13.4460    11.5150    13.3720    23.9230     2.4780    -2.3380 
  244.1250    66.9630    13.3850    11.4930    13.1840    23.8880     2.4870    -2.4050 
  244.2500    69.6320    13.1850    11.3530    12.9860    23.8560     2.4940    -2.4540 
  244.3750    70.3940    12.8510    11.0900    12.3690    23.8190     2.5010    -2.4980 
  244.5000    68.5910    12.4220    10.7300    11.3430    23.8150     2.5070    -2.5450 
  244.6250    64.4860    11.9660    10.3220    10.6010    23.8600     2.5090    -2.5920 
  244.7500    60.3330    11.5650     9.9430    10.5450    23.9280     2.5030    -2.6670 
  244.8750    58.0770    11.2830     9.6510    10.7440    24.0130     2.4880    -2.7370 
  245.0000    57.6350    11.1560     9.4880    10.9410    24.0820     2.4660    -2.7950 
  245.1250    58.0270    11.2090     9.4900    10.9480    24.1040     2.4470    -2.8340 
  245.2500    58.6330    11.3620     9.6010    10.8220    24.1280     2.4370    -2.8690 
  245.3750    59.5720    11.5350     9.7610    11.4540    24.1570     2.4400    -2.8950 
  245.5000    60.7100    11.6420     9.8960    12.1350    24.1550     2.4520    -2.9170 
  245.6250    62.1600    11.6000     9.9230    12.3940    24.1390     2.4630    -2.9250 
  245.7500    62.5840    11.4350     9.8410    12.0450    24.1480     2.4680    -2.8990 
  245.8750    62.4040    11.2120     9.6860    11.3590    24.1610     2.4700    -2.8640 
  246.0000    61.4750    11.0140     9.5230    11.0540    24.1700     2.4730    -2.8440 
  246.1250    60.2560    10.9380     9.4300    11.5000    24.2170     2.4830    -2.8210 
  246.2500    60.0400    10.9920     9.4340    12.6620    24.2720     2.4930    -2.8050 
  246.3750    60.5710    11.1460     9.5240    14.0730    24.3140     2.4930    -2.8060 
  246.5000    61.6460    11.3350     9.6580    14.6130    24.3630     2.4770    -2.8020 
  246.6250    61.3290    11.4830     9.7800    13.6940    24.4280     2.4390    -2.7940 
  246.7500    61.2070    11.5650     9.8600    11.7320    24.4520     2.3910    -2.7860 
  246.8750    63.3010    11.6020     9.9070    10.5010    24.4330     2.3470    -2.7790 
  247.0000    64.4790    11.6440     9.9530    10.0730    24.3770     2.3210    -2.7650 
  247.1250    62.1220    11.7640    10.0560    10.0210    24.2610     2.3200    -2.7560 
  247.2500    59.7140    11.9800    10.2380    10.5040    24.1010     2.3370    -2.7440 
  247.3750    60.0890    12.2790    10.4950    11.1550    23.9660     2.3610    -2.7310 
  247.5000    60.9910    12.6200    10.8010    11.5140    23.8720     2.3870    -2.7400 
  247.6250    59.0330    12.9480    11.1130    12.1530    23.7670     2.4110    -2.7510 
  247.7500    57.4560    13.2250    11.3870    13.2180    23.6750     2.4340    -2.7770 
  247.8750    58.1620    13.4300    11.6020    14.6950    23.6500     2.4550    -2.8030 
  248.0000    60.4060    13.5640    11.7480    15.7890    23.6550     2.4740    -2.8260 
  248.1250    61.7580    13.6310    11.8280    16.3140    23.6610     2.4930    -2.8350 
  248.2500    60.3990    13.6610    11.8660    16.6350    23.7000     2.5120    -2.8020 
  248.3750    57.4590    13.6670    11.8780    16.3710    23.7750     2.5260    -2.7630 
  248.5000    54.5870    13.6640    11.8780    14.9200    23.8380     2.5270    -2.7590 
  248.6250    53.7280    13.6670    11.8860    13.0130    23.8720     2.5040    -2.7690 
  248.7500    55.4280    13.6850    11.9120    11.2680    23.9080     2.4660    -2.7440 
  248.8750    58.6820    13.7230    11.9650    10.4530    23.9280     2.4260    -2.6860 
  249.0000    60.6620    13.7860    12.0510    10.7720    23.8890     2.3980    -2.6490 
  249.1250    59.4180    13.8730    12.1700    12.0870    23.7920     2.3950    -2.6380 
  249.2500    57.7720    13.9750    12.3090    13.3950    23.6670     2.4110    -2.6120 
  249.3750    56.8570    14.0830    12.4580    14.0730    23.5350     2.4380    -2.5860 
  249.5000    55.9090    14.1870    12.6030    14.4850    23.4290     2.4670    -2.5700 
  249.6250    55.6200    14.2660    12.7190    14.6710    23.4060     2.4880    -2.5480 
  249.7500    56.4680    14.3040    12.7910    14.6460    23.4450     2.5000    -2.5480 
  249.8750    56.8430    14.2850    12.8030    14.5030    23.4750     2.5060    -2.5850 
  250.0000    56.2220    14.2090    12.7540    13.8920    23.4680     2.5090    -2.6000 
  250.1250    55.4940    14.0900    12.6560    12.8970    23.4670     2.5120    -2.5700 
  250.2500    56.0470    13.9740    12.5520    12.0890    23.4960     2.5170    -2.6000 
  250.3750    57.8590    13.9050    12.4830    11.7400    23.5140     2.5210    -2.6630 
  250.5000    58.9820    13.9260    12.4880    11.7840    23.4840     2.5240    -2.6670 
  250.6250    57.6580    14.0880    12.6190    12.1630    23.4050     2.5240    -2.6810 
  250.7500    55.0410    14.3740    12.8640    12.8060    23.3400     2.5230    -2.7160 
  250.8750    53.3880    14.7540    13.2010    13.7190    23.3050     2.5220    -2.7280 
  251.0000    53.3620    15.1690    13.5800    15.1420    23.2660     2.5220    -2.7470 
  251.1250    54.3200    15.5240    13.9250    17.3140    23.2060     2.5210    -2.8210 
  251.2500    55.6700    15.7550    14.1710    19.3790    23.1430     2.5180    -2.8690 
  251.3750    57.2450    15.8380    14.2910    21.0100    23.1190     2.5130    -2.8930 
  251.5000    59.1210    15.7980    14.2970    21.5230    23.1250     2.5090    -2.9480 
  251.6250    60.7360    15.7070    14.2370    19.2870    23.1100     2.5080    -2.9590 
  251.7500    60.5910    15.6620    14.2000    16.3800    23.0720     2.5100    -2.9600 
  251.8750    60.1530    15.7190    14.2390    15.2260    23.0470     2.5170    -2.9850 
  252.0000    62.1870    15.8920    14.3750    15.5730    23.0560     2.5270    -3.0090 
  252.1250    65.5880    16.1500    14.6010    16.9330    23.0720     2.5380    -3.0410 
  252.2500    66.8780    16.4120    14.8560    18.7470    23.0570     2.5450    -3.0760 
  252.3750    65.1190    16.6260    15.0950    21.4210    23.0230     2.5450    -3.1070 
