~V
VERS. 2.00: Ver 2.00
~W
STRT.M 63.0000:
STOP.M 308.0000:
STEP.M 0.1250:
NULL. -999.2500:
UWI. F10102:
~C
DEPT.M :
DEN.GM/CC :
SP.MV :
GR.API :
RML.OHMM :
RI. :
RXO.OHMM :
CALI.CM :
~A
# ...
  186.7500     2.2610   -12.7310    80.7280    23.7540    21.5750    17.0110    24.4750 
  186.8750     2.2590   -12.8760    82.4240    23.7090    21.6210    17.5730    24.5900 
  187.0000     2.2590   -13.0790    87.2030    23.6330    21.5720    18.3660    24.6820 
  187.1250     2.2590   -13.2460    89.8790    23.6130    21.5270    18.6070    24.7690 
  187.2500     2.2590   -13.5630    87.7860    23.7050    21.5740    18.8060    24.8290 
  187.3750     2.2610   -13.9720    84.9710    23.9430    21.8050    18.9320    24.8420 
  187.5000     2.2650   -14.2630    84.9060    24.2470    22.1750    19.0550    24.8330 
  187.6250     2.2680   -14.5590    86.2890    24.4970    22.5610    19.3860    24.8080 
  187.7500     2.2690   -14.8950    87.0220    24.5600    22.7740    20.2970    24.7840 
  187.8750     2.2660   -15.0690    87.7060    24.3320    22.6090    20.8950    24.7440 
  188.0000     2.2610   -15.1450    87.8870    23.9550    22.1810    20.2980    24.6580 
  188.1250     2.2580   -15.2290    86.9980    23.6430    21.7340    18.4440    24.4950 
  188.2500     2.2590   -15.2650    85.4450    23.6250    21.5460    16.5020    24.2290 
  188.3750     2.2670   -15.3170    85.7880    24.1150    21.8540    15.8620    23.9480 
  188.5000     2.2800   -15.4220    87.4730    25.0180    22.5660    17.6430    23.6710 
  188.6250     2.2970   -15.5130    88.2330    26.2170    23.5660    21.4910    23.3090 
  188.7500     2.3150   -15.6100    86.6180    27.6150    24.7460    23.6300    22.8730 
  188.8750     2.3290   -15.7590    84.5670    29.2790    26.1250    23.1480    22.9600 
  189.0000     2.3340   -16.0140    82.5320    31.3720    27.8630    21.2540    23.5950 
  189.1250     2.3310   -16.3370    78.2730    34.1300    30.2530    24.2910    24.3200 
  189.2500     2.3250   -16.6890    73.1200    37.6790    33.5260    33.6820    24.7390 
  189.3750     2.3210   -17.0820    72.3460    41.9620    37.7750    40.2940    24.8250 
  189.5000     2.3200   -17.5610    74.7490    46.4050    42.4170    41.2050    24.8310 
  189.6250     2.3210   -18.0500    76.3710    50.4600    46.8160    42.4730    24.8530 
  189.7500     2.3220   -18.5130    75.5770    53.6470    50.3460    44.4250    24.9280 
  189.8750     2.3170   -19.0310    74.9480    55.4860    52.3640    46.0320    24.9580 
  190.0000     2.3050   -19.4500    75.9080    56.2310    53.0730    46.5460    24.9350 
  190.1250     2.2890   -19.8230    76.9260    56.2460    52.7960    45.9070    24.8630 
  190.2500     2.2710   -20.1960    76.5080    56.1560    52.1830    45.9810    24.7730 
  190.3750     2.2560   -20.3630    75.3450    57.0230    52.4080    43.5610    24.6640 
  190.5000     2.2470   -20.4520    74.0460    59.5910    54.4190    42.9640    24.6590 
  190.6250     2.2430   -20.6250    72.2160    64.2950    58.8620    46.6800    24.7330 
  190.7500     2.2420   -20.7820    69.9130    71.0230    65.8280    54.8720    24.8410 
  190.8750     2.2420   -20.9330    69.8380    78.9470    74.6230    62.9130    24.9030 
  191.0000     2.2420   -21.1890    70.2210    86.1930    82.9560    70.7700    24.9160 
  191.1250     2.2450   -21.4260    69.0820    91.2580    88.7990    74.6430    24.9150 
  191.2500     2.2510   -21.6020    69.1980    93.3730    91.0530    72.9990    24.9150 
  191.3750     2.2590   -21.8820    73.0930    92.6690    89.9150    66.1360    24.9050 
  191.5000     2.2660   -22.1320    75.6690    91.1070    87.7950    62.1180    24.8780 
  191.6250     2.2690   -22.3350    73.2320    90.1840    86.3650    59.4000    24.8320 
  191.7500     2.2680   -22.6250    68.4030    91.0270    86.7440    58.3500    24.7730 
  191.8750     2.2640   -22.9040    67.2640    94.7420    89.9810    57.7490    24.7370 
  192.0000     2.2590   -23.1310    67.9680   101.1280    95.9150    57.8920    24.7550 
  192.1250     2.2550   -23.2970    67.5710   109.9750   104.3800    66.1250    24.8380 
  192.2500     2.2510   -23.5130    65.4420   120.7370   114.7400    81.4820    24.9330 
  192.3750     2.2450   -23.7950    64.0280   132.7910   126.1520    88.9330    24.9540 
  192.5000     2.2370   -24.0580    64.1350   145.4090   137.9100    92.8070    24.9260 
  192.6250     2.2300   -24.3270    63.9170   158.6670   150.2200   100.1450    24.9070 
  192.7500     2.2250   -24.6290    63.0840   173.0810   163.7650   104.8450    24.9080 
  192.8750     2.2250   -24.9010    62.1030   189.4820   179.6820   108.8540    24.9150 
  193.0000     2.2260   -25.1560    62.2380   207.1930   197.3980   128.6590    24.9080 
  193.1250     2.2240   -25.5350    64.0710   224.5760   215.1310   142.8460    24.8610 
  193.2500     2.2170   -25.8920    65.6960   239.1390   230.2340   142.6480    24.7360 
  193.3750     2.2040   -26.0770    63.7470   247.1800   239.2110   129.8460    24.5970 
  193.5000     2.1930   -26.3180    59.3540   248.0190   241.4500   110.5590    24.5460 
  193.6250     2.1880   -26.5210    56.3470   241.7510   236.8420    94.2640    24.4730 
  193.7500     2.1920   -26.5640    57.1320   229.8010   226.4920    85.9560    24.2770 
  193.8750     2.2060   -26.6810    60.3280   214.5030   212.3790    79.6820    24.0250 
  194.0000     2.2220   -26.8910    62.4600   199.4580   198.0310    70.7210    23.8700 
  194.1250     2.2350   -27.0680    63.4320   186.9370   185.8750    58.7720    23.8640 
  194.2500     2.2390   -27.3160    64.4510   178.3870   177.5810    54.3270    23.9350 
  194.3750     2.2330   -27.6480    63.9750   175.0930   174.5290    66.6780    24.0530 
  194.5000     2.2220   -27.8930    61.0480   176.0060   175.6070    84.8100    24.2830 
  194.6250     2.2110   -28.2400    57.9470   180.5320   180.1120   102.2460    24.6000 
  194.7500     2.2050   -28.6480    55.9500   188.1060   187.3790   112.8000    24.8190 
  194.8750     2.2040   -28.9130    55.4020   198.7720   197.5340   116.6730    24.8340 
  195.0000     2.2020   -29.1780    55.6690   211.8310   210.2620   121.9870    24.7550 
  195.1250     2.1950   -29.4150    55.7260   226.8270   225.3430   130.2320    24.6810 
  195.2500     2.1830   -29.5790    55.2460   242.7630   241.6860   139.0600    24.6150 
  195.3750     2.1720   -29.8280    56.3470   257.7730   256.9020   142.3260    24.4870 
  195.5000     2.1680   -30.0600    57.9180   270.3630   269.0340   133.8410    24.3030 
  195.6250     2.1750   -30.2400    57.9090   279.8980   277.4280   112.4820    24.1130 
  195.7500     2.1900   -30.4420    57.5910   286.5620   282.6890    88.0580    23.9160 
  195.8750     2.2080   -30.5680    58.7980   290.4930   285.6430    74.3230    23.7480 
  196.0000     2.2210   -30.5770    57.8270   291.9080   286.7610    73.9880    23.6980 
  196.1250     2.2240   -30.6330    54.1410   289.6690   284.8450    85.0910    23.8730 
  196.2500     2.2170   -30.5840    51.8770   282.2900   278.0190    98.7460    24.3260 
  196.3750     2.2050   -30.3200    54.2650   268.2660   263.9170   112.8130    24.7930 
  196.5000     2.1970   -30.2350    57.0040   250.3720   245.0950   123.8800    25.0020 
  196.6250     2.1990   -30.0580    57.6950   232.1520   225.5460   134.5610    25.0490 
  196.7500     2.2070   -29.7760    58.0190   217.6820   209.8790   131.7760    25.0510 
  196.8750     2.2090   -29.8100    59.9210   211.8260   203.2530   110.9030    25.0510 
  197.0000     2.2000   -29.8990    59.7960   215.2370   206.1760   104.4380    25.0530 
  197.1250     2.1840   -29.7810    55.9790   228.2020   218.7880   113.2700    25.0760 
  197.2500     2.1720   -29.7820    51.5700   250.0730   240.3190   136.7300    25.1410 
  197.3750     2.1740   -30.0070    51.7440   280.0170   269.7400   151.3780    25.2510 
  197.5000     2.1870   -30.0840    54.1090   313.3470   302.1640   137.6650    25.3100 
  197.6250     2.2040   -30.2170    54.3650   345.2090   332.7680   117.9850    25.3450 
  197.7500     2.2180   -30.3430    53.7190   368.8480   355.4490   127.0040    25.3580 
  197.8750     2.2230   -30.1400    54.6200   372.6010   359.6820   169.7970    25.3680 
