~V
VERS. 2.00: Ver 2.00
~W
STRT.M 64.0000:
STOP.M 215.0000:
STEP.M 0.1250:
NULL. -999.2500:
UWI. F10146:
~C
DEPT.M :
DEN.GM/CC :
GR.API :
RML.OHMM :
RI. :
RXO.OHMM :
CALI.CM :
SP.MV :
~A
# ...
  154.0000     2.2070    81.5650    13.1760    11.9030    11.7880    27.2330   -15.1430 
  154.1250     2.2300    79.1570    13.4570    12.0880    12.9660    27.3160   -15.4930 
  154.2500     2.2460    74.4240    13.8580    12.4470    13.5160    27.3780   -15.9230 
  154.3750     2.2520    70.6870    14.1300    12.7710    13.1420    27.4570   -16.3480 
  154.5000     2.2500    70.4810    14.0930    12.8710    12.5900    27.5210   -16.7760 
  154.6250     2.2470    72.7290    13.6980    12.6450    11.9580    27.5410   -17.1780 
  154.7500     2.2460    74.0060    13.1910    12.2610    11.2970    27.5830   -17.5710 
  154.8750     2.2480    74.0520    12.7790    11.8830    10.8280    27.6260   -17.8910 
  155.0000     2.2510    74.4280    12.5730    11.6210    10.5810    27.6930   -18.1520 
  155.1250     2.2510    74.5990    12.5810    11.5300    10.7730    27.7900   -18.2830 
  155.2500     2.2490    73.7530    12.6480    11.5350    10.9490    27.8970   -18.3920 
  155.3750     2.2460    74.8860    12.6550    11.5580    11.0700    27.9980   -18.5100 
  155.5000     2.2440    78.8190    12.5470    11.5320    11.1870    28.1310   -18.6560 
  155.6250     2.2450    82.9220    12.3740    11.4470    11.2350    28.3340   -18.8080 
  155.7500     2.2500    83.5900    12.3060    11.4090    10.9200    28.4630   -18.9780 
  155.8750     2.2550    80.8190    12.5090    11.5500    10.4470    28.6160   -19.1850 
  156.0000     2.2560    76.9300    13.1070    11.9970    10.7010    28.8180   -19.4280 
  156.1250     2.2490    73.8800    14.2300    12.9030    12.2290    29.0540   -19.7450 
  156.2500     2.2370    73.8170    15.7240    14.1860    14.2100    29.3420   -20.0550 
  156.3750     2.2230    75.1790    17.3690    15.7020    16.3550    29.6710   -20.4120 
  156.5000     2.2100    74.6030    18.8210    17.1650    17.9170    29.9880   -20.7860 
  156.6250     2.2030    71.7540    19.5760    18.0860    18.9530    30.2700   -21.2250 
  156.7500     2.2000    68.9140    19.5570    18.2830    20.5060    30.4950   -21.6760 
  156.8750     2.2000    68.5720    18.9470    17.8480    21.4120    30.7010   -22.1640 
  157.0000     2.2030    71.5690    18.1470    17.1070    19.7150    30.8420   -22.6570 
  157.1250     2.2080    75.2700    17.7130    16.5130    16.2810    30.9970   -23.1770 
  157.2500     2.2140    75.8530    18.0050    16.4000    15.0970    31.1990   -23.7540 
  157.3750     2.2190    71.2570    19.3500    17.0390    16.3340    31.5250   -24.3410 
  157.5000     2.2240    66.9420    22.1270    18.7280    19.2650    31.9890   -24.9740 
  157.6250     2.2260    67.7300    27.2200    22.1830    22.5350    32.3830   -25.6260 
  157.7500     2.2240    68.6730    35.0320    27.8990    25.7230    32.7090   -26.3270 
  157.8750     2.2180    65.9710    49.8980    36.8080    33.6020    33.0730   -27.0330 
  158.0000     2.2060    60.3800    67.2570    49.6240    54.1270    33.4560   -27.7840 
  158.1250     2.1890    57.8210    86.5180    65.9850    86.8290    33.7950   -28.5090 
  158.2500     2.1720    58.8100   102.9990    81.4230   102.7260    34.0900   -29.2080 
  158.3750     2.1590    60.0120   110.1350    90.5750    93.9380    34.3670   -29.8990 
  158.5000     2.1530    59.5780   105.1550    90.1780    82.4760    34.7650   -30.5340 
  158.6250     2.1560    59.1010    92.1070    81.5760    74.6040    35.2590   -31.1390 
  158.7500     2.1670    61.7010    79.1950    71.4250    63.3730    35.7810   -31.6890 
  158.8750     2.1830    65.3900    69.2290    62.8320    51.8100    36.0850   -32.2400 
  159.0000     2.2030    67.3260    62.6450    56.7740    45.0150    36.3180   -32.7350 
  159.1250     2.2200    67.0260    59.5590    53.6190    42.4290    36.5620   -33.2330 
  159.2500     2.2320    65.9000    59.0140    52.6700    40.7570    36.7440   -33.7190 
  159.3750     2.2360    63.8820    60.6860    53.7050    41.1080    36.9060   -34.2000 
  159.5000     2.2320    59.8040    64.2590    56.4810    45.8860    37.1490   -34.7090 
  159.6250     2.2210    56.0480    69.6530    60.8980    54.3160    37.4280   -35.2060 
  159.7500     2.2100    55.6910    76.5030    66.4990    56.0690    37.6900   -35.7240 
  159.8750     2.2000    57.4100    85.0420    73.3690    53.6700    37.8890   -36.1960 
  160.0000     2.1910    57.4060    95.5880    81.7230    55.8820    38.3060   -36.6530 
  160.1250     2.1830    54.1530   108.2090    91.6110    59.4970    38.8880   -37.0810 
  160.2500     2.1740    53.8810   121.0230   101.5920    67.5450    39.3230   -37.4910 
  160.3750     2.1640    56.9020   131.3120   109.6340    78.4900    39.6440   -37.9010 
  160.5000     2.1550    59.8530   136.3150   113.7020    88.3270    39.8570   -38.2800 
  160.6250     2.1480    59.6910   134.7090   112.5350    89.5910    39.8580   -38.6550 
  160.7500     2.1430    58.6860   130.6030   108.8470    77.6300    39.7810   -38.9560 
  160.8750     2.1410    59.2500   127.7380   105.4410    66.6510    39.6620   -39.2210 
  161.0000     2.1400    61.0700   128.6600   104.6330    58.7500    39.6460   -39.3880 
  161.1250     2.1380    61.0150   134.8200   108.0070    58.1900    39.8600   -39.4760 
  161.2500     2.1340    57.3800   144.2210   114.1870    62.0080    40.1100   -39.4570 
  161.3750     2.1270    53.1160   154.5250   121.4170    67.9050    40.1470   -39.2870 
  161.5000     2.1190    51.6500   163.1120   127.7260    69.8860    40.1250   -38.9640 
  161.6250     2.1140    52.6600   168.0300   131.5560    71.5590    40.0360   -38.4540 
  161.7500     2.1100    53.7960   171.1930   133.9780    69.7290    39.7600   -37.8240 
  161.8750     2.1060    54.7400   175.3130   136.9030    64.3260    39.5690   -37.0580 
  162.0000     2.0990    55.8020   182.2480   141.9430    60.5610    39.5800   -36.2390 
  162.1250     2.0880    56.2980   191.6300   149.2720    54.3170    39.5370   -35.2850 
  162.2500     2.0760    56.7490   199.4980   156.2070    50.0210    39.3000   -34.2970 
  162.3750     2.0670    59.0540   201.6620   159.7150    45.2490    38.9220   -33.2950 
  162.5000     2.0650    61.1180   195.9780   157.7220    41.5340    38.5760   -32.3240 
  162.6250     2.0690    59.0300   184.2790   150.4130    43.4010    38.3790   -31.4360 
  162.7500     2.0730    55.2550   172.6420   142.0140    51.1500    38.1800   -30.6470 
  162.8750     2.0760    52.7660   164.0250   135.2100    58.0860    38.0290   -29.9580 
  163.0000     2.0770    54.4190   158.9930   130.9950    57.4300    37.8400   -29.3360 
  163.1250     2.0800    57.2780   156.9180   129.2490    51.3190    37.5730   -28.8910 
  163.2500     2.0860    58.0590   155.8040   128.5020    45.1220    37.1630   -28.5200 
  163.3750     2.0960    56.9010   154.4600   127.7410    42.9740    36.6980   -28.2490 
  163.5000     2.1080    55.3260   152.3670   126.3710    43.7120    36.2560   -28.0270 
  163.6250     2.1160    57.0390   149.9690   124.5240    44.2100    35.8490   -27.8390 
  163.7500     2.1200    60.9330   148.4470   123.1710    47.3830    35.3360   -27.6380 
  163.8750     2.1180    63.9960   148.6860   123.1880    52.8400    34.9560   -27.4470 
  164.0000     2.1130    61.5000   151.0560   125.1170    53.2220    34.5450   -27.2610 
  164.1250     2.1110    55.1820   155.4980   129.2920    49.7200    34.2710   -26.9510 
  164.2500     2.1150    52.6190   160.6940   134.8770    49.8130    33.8440   -26.6430 
  164.3750     2.1240    54.3870   165.3780   141.0450    52.8840    33.4280   -26.2950 
  164.5000     2.1380    57.0520   168.2380   146.7530    57.3190    33.0270   -25.9220 
  164.6250     2.1530    57.3360   167.7940   150.6040    63.7210    32.5490   -25.5010 
  164.7500     2.1670    56.1340   164.1530   152.0950    63.7620    32.0380   -25.0960 
  164.8750     2.1740    54.8280   156.6010   150.4400    59.1140    31.6420   -24.6910 
  165.0000     2.1720    54.9730   148.5800   143.5860    58.5090    31.3550   -24.2890 
  165.1250     2.1580    57.4030   131.9150   126.3600    62.9490    30.5920   -23.9910 
