~V
VERS. 2.00: Ver 2.00
~W
STRT.M 57.0000:
STOP.M 247.0000:
STEP.M 0.1250:
NULL. -999.2500:
UWI. F10194:
~C
DEPT.M :
SP.MV :
DEN.GM/CC :
GR.API :
RML.OHMM :
RI. :
RXO.OHMM :
CALI.CM :
~A
# ...
   79.5000   -12.1350     2.2200   106.7670     5.2860     3.7300     5.0520    26.9990 
   79.6250   -11.5790     2.2400   104.9930     6.1980     4.2410     6.2010    26.8120 
   79.7500   -11.5450     2.2710    98.7060     7.3450     4.9740     8.4670    26.6070 
   79.8750   -11.9940     2.3150    89.5080     8.4600     5.8020    11.4670    26.4080 
   80.0000   -12.8330     2.3540    81.1250     9.2300     6.5110    14.0550    26.2390 
   80.1250   -13.9600     2.3550    75.9330     9.4500     6.9010    14.4520    26.1370 
   80.2500   -15.3550     2.3040    73.9590     9.1330     6.8970    12.0360    26.1000 
   80.3750   -17.0300     2.2190    73.7810     8.5350     6.5920     9.2210    26.0940 
   80.5000   -18.9230     2.1470    73.8980     8.0130     6.2260     8.0620    26.0940 
   80.6250   -20.9560     2.1130    73.6270     7.7690     5.9880     8.4500    26.0940 
   80.7500   -23.0800     2.1190    72.7920     7.7940     5.9280     9.6030    26.0940 
   80.8750   -25.2160     2.1530    70.7080     7.9660     6.0010    10.7980    26.0940 
   81.0000   -27.2640     2.1810    67.4440     8.1240     6.1080    11.2680    26.0940 
   81.1250   -29.1390     2.1780    64.6120     8.1660     6.1630    10.6670    26.0940 
   81.2500   -30.8060     2.1510    64.1230     8.0600     6.1360     9.8690    26.0990 
   81.3750   -32.2360     2.1290    66.6930     7.8530     6.0410     9.5730    26.1420 
   81.5000   -33.4300     2.1200    70.1140     7.6250     5.9230     9.5840    26.2580 
   81.6250   -34.4090     2.1120    72.1390     7.4180     5.8280     9.6460    26.4110 
   81.7500   -35.1770     2.1000    72.0680     7.3320     5.7760     9.7460    26.5200 
   81.8750   -35.6630     2.0890    69.6590     7.3650     5.7680     9.9410    26.5710 
   82.0000   -35.8350     2.0810    65.7870     7.4190     5.7830    10.2400    26.6130 
   82.1250   -35.7260     2.0760    62.2880     7.4440     5.7950    10.5270    26.6760 
   82.2500   -35.3590     2.0710    60.5850     7.4300     5.7920    10.6820    26.7680 
   82.3750   -34.7180     2.0670    60.2690     7.3810     5.7670    10.7040    26.8810 
   82.5000   -33.7660     2.0650    60.0790     7.3090     5.7190    10.5740    26.9610 
   82.6250   -32.4690     2.0650    60.1460     7.2160     5.6440    10.2920    26.9660 
   82.7500   -30.8150     2.0670    61.5660     7.0800     5.5300     9.8150    26.9400 
   82.8750   -28.8550     2.0760    65.0340     6.8750     5.3570     9.1810    26.9680 
   83.0000   -26.7850     2.0980    69.5020     6.6010     5.1250     8.4820    27.0720 
   83.1250   -24.7710     2.1300    72.9120     6.2900     4.8530     7.6560    27.2390 
   83.2500   -22.8870     2.1590    75.2170     5.9980     4.5790     6.8480    27.4250 
   83.3750   -21.2310     2.1710    78.4610     5.8030     4.3620     6.2880    27.6230 
   83.5000   -19.9370     2.1670    82.1330     5.7560     4.2470     5.9680    27.8230 
   83.6250   -19.1010     2.1530    83.8060     5.8630     4.2510     5.9340    27.9510 
   83.7500   -18.7540     2.1330    83.1940     6.0950     4.3680     6.2650    27.9150 
   83.8750   -18.8960     2.1150    82.3770     6.3790     4.5650     6.9590    27.7650 
   84.0000   -19.3860     2.1030    81.0580     6.6170     4.7750     7.6850    27.7150 
   84.1250   -20.0540     2.0950    77.6570     6.7410     4.9420     8.1120    27.8310 
   84.2500   -20.8010     2.0830    73.3590     6.7510     5.0400     8.2630    28.0360 
   84.3750   -21.5650     2.0630    71.1390     6.7180     5.0840     8.0490    28.2980 
   84.5000   -22.3190     2.0420    71.3130     6.7440     5.1320     7.5420    28.6390 
   84.6250   -23.0180     2.0270    71.8490     6.8890     5.2300     7.1890    28.9040 
   84.7500   -23.6160     2.0090    71.2760     7.1350     5.3900     7.3150    28.7440 
   84.8750   -24.1070     1.9790    69.6980     7.3980     5.5780     7.9160    28.0000 
   85.0000   -24.4990     1.9440    67.9120     7.5790     5.7290     8.5000    27.1310 
   85.1250   -24.7930     1.9260    66.8010     7.6210     5.7910     8.7420    26.5850 
   85.2500   -24.9830     1.9290    66.8150     7.5220     5.7430     8.7130    26.3650 
   85.3750   -24.9940     1.9460    67.2030     7.3270     5.5990     8.5660    26.3360 
   85.5000   -24.7380     1.9640    66.7810     7.1090     5.4100     8.3260    26.3890 
   85.6250   -24.2210     1.9810    66.0810     6.9210     5.2250     7.9720    26.4660 
   85.7500   -23.5700     1.9930    66.3590     6.7760     5.0690     7.4990    26.6110 
   85.8750   -22.9370     1.9960    67.2470     6.6620     4.9520     7.0220    26.8640 
   86.0000   -22.3990     1.9950    67.7910     6.5660     4.8700     6.7440    27.1200 
   86.1250   -22.0280     2.0000    68.0800     6.4850     4.8190     6.7910    27.2680 
   86.2500   -21.9110     2.0120    68.3930     6.4350     4.8010     7.0080    27.3300 
   86.3750   -22.1420     2.0210    67.9950     6.4420     4.8250     7.2100    27.3510 
   86.5000   -22.7260     2.0190    66.8310     6.5110     4.8890     7.3830    27.3410 
   86.6250   -23.6080     2.0060    66.5720     6.6250     4.9850     7.6030    27.3100 
   86.7500   -24.6610     1.9890    68.2100     6.7610     5.0990     7.8930    27.2660 
   86.8750   -25.7080     1.9710    70.3880     6.8840     5.2140     8.2090    27.2200 
   87.0000   -26.6570     1.9570    71.5880     6.9720     5.3100     8.4500    27.1700 
   87.1250   -27.4870     1.9490    71.9320     7.0220     5.3750     8.5640    27.1290 
   87.2500   -28.1830     1.9460    71.8920     7.0450     5.4070     8.5780    27.1190 
   87.3750   -28.7170     1.9460    71.3270     7.0590     5.4140     8.5640    27.1430 
   87.5000   -29.0660     1.9460    70.0940     7.0750     5.4130     8.5940    27.1750 
   87.6250   -29.2350     1.9440    68.5440     7.0880     5.4130     8.6880    27.2040 
   87.7500   -29.2580     1.9360    67.3320     7.0900     5.4140     8.8130    27.2330 
   87.8750   -29.1670     1.9230    67.0540     7.0740     5.4050     8.8390    27.2850 
   88.0000   -29.0280     1.9060    66.7900     7.0450     5.3780     8.6620    27.3750 
   88.1250   -28.8780     1.8850    65.0200     7.0210     5.3360     8.3310    27.4770 
   88.2500   -28.7280     1.8600    62.2080     7.0260     5.2990     8.0510    27.5510 
   88.3750   -28.6040     1.8330    60.3380     7.1090     5.3060     8.1640    27.5890 
   88.5000   -28.5480     1.8080    59.6080     7.2960     5.3850     8.6430    27.6100 
   88.6250   -28.5670     1.7880    58.9150     7.5700     5.5380     9.2460    27.6080 
   88.7500   -28.6290     1.7810    58.4250     7.8770     5.7390     9.8580    27.5310 
   88.8750   -28.6940     1.8030    59.4680     8.1230     5.9320    10.3110    27.2890 
   89.0000   -28.7580     1.8670    61.6150     8.2380     6.0580    10.4700    26.8850 
   89.1250   -28.8400     1.9610    63.4150     8.2180     6.0910    10.3710    26.4470 
   89.2500   -28.9080     2.0400    64.4760     8.1310     6.0470    10.1940    26.1460 
   89.3750   -28.8770     2.0540    65.4410     8.1270     6.0010    10.0780    26.0210 
   89.5000   -28.7070     2.0200    66.8520     8.3730     6.0690    10.0770    25.9870 
   89.6250   -28.3800     1.9860    68.5420     8.9960     6.3630    10.2270    25.9790 
   89.7500   -27.9160     1.9750    69.1950    10.0580     6.9690    10.5880    25.9880 
   89.8750   -27.3910     2.0040    67.1850    11.5160     7.9210    11.4360    25.9920 
   90.0000   -26.8540     2.0790    63.7970    13.0790     9.0750    13.0540    25.9950 
   90.1250   -26.3380     2.1870    61.7660    14.3080    10.1480    15.4110    26.0240 
   90.2500   -25.9080     2.2760    61.5260    14.7820    10.8210    18.0310    26.0700 
   90.3750   -25.6420     2.2890    62.3260    14.1730    10.7720    19.4520    26.0460 
   90.5000   -25.5340     2.2450    64.2530    12.7110    10.0360    18.4940    25.8930 
   90.6250   -25.5780     2.2030    67.3910    10.9670     8.9330    15.5980    25.6340 
