~V
VERS. 2.00: Ver 2.00
~W
STRT.M 57.0000:
STOP.M 281.0000:
STEP.M 0.1250:
NULL. -999.2500:
UWI. F10139:
~C
DEPT.M :
SP.MV :
GR.API :
RML.OHMM :
RI. :
RXO.OHMM :
CALI.CM :
DEN.GM/CC :
~A
   57.0000    30.2790    65.1910     2.2010     0.7270     7.5340    24.2270     2.5820 
   57.1250    22.2340    71.9840     3.7760     1.4850     8.7770    24.0880     2.4560 
   57.2500    14.0340    72.3270     5.3910     2.6050     9.1510    24.0150     2.3480 
   57.3750     5.7890    67.6310     6.3710     3.8670     9.6610    23.9380     2.2690 
   57.5000    -2.0730    63.9670     6.5270     4.9420    10.2600    23.8550     2.2110 
   57.6250    -8.6040    65.8370     6.3690     5.6400    10.4250    23.7530     2.1720 
   57.7500   -13.4470    69.1840     6.3720     6.1050    10.1810    23.6620     2.1450 
   57.8750   -16.7280    69.0080     6.5270     6.4190    10.1370    23.6010     2.1320 
   58.0000   -18.9150    65.0240     6.6890     6.6160    10.1540    23.6260     2.1310 
   58.1250   -20.4030    60.9700     6.7860     6.7220     9.8590    23.7220     2.1400 
   58.2500   -21.5850    58.4750     6.8930     6.8120     9.4450    23.9300     2.1510 
   58.3750   -22.5830    57.2650     7.0850     6.9290     9.7280    24.2320     2.1590 
   58.5000   -23.4700    56.5670     7.3690     7.0740    10.1700    24.5160     2.1610 
   58.6250   -24.2480    57.0220     7.6500     7.1890    10.3650    24.5850     2.1580 
   58.7500   -24.3800    59.4790     7.7840     7.2000    10.3140    24.5500     2.1580 
   58.8750   -23.5080    63.8510     7.6930     7.0560    10.3750    24.5310     2.1690 
   59.0000   -21.8810    71.3820     7.3790     6.7600     9.8060    24.5360     2.1950 
   59.1250   -19.7650    80.9750     6.9270     6.3680     8.2970    24.5210     2.2340 
   59.2500   -17.3330    89.4580     6.5060     5.9950     6.7810    24.4710     2.2750 
   59.3750   -14.7180    94.7440     6.2230     5.7160     6.3170    24.4110     2.3100 
   59.5000   -12.0660    96.1550     6.1270     5.5730     6.2640    24.3580     2.3320 
   59.6250    -9.5680    95.4130     6.2210     5.5920     6.3760    24.3570     2.3370 
   59.7500    -7.7490    94.4140     6.4210     5.7150     6.5200    24.4030     2.3330 
   59.8750    -6.9430    94.3590     6.6740     5.9010     6.9070    24.4390     2.3250 
   60.0000    -6.9310    94.9930     6.9560     6.1150     7.4020    24.4320     2.3150 
   60.1250    -7.2840    93.5130     7.2530     6.3280     7.2600    24.4090     2.3030 
   60.2500    -7.8110    89.7430     7.5080     6.5090     7.2180    24.3800     2.2870 
   60.3750    -8.4270    86.1180     7.6560     6.6270     7.7760    24.3670     2.2660 
   60.5000    -9.0600    86.4400     7.6790     6.6630     8.5860    24.4380     2.2410 
   60.6250    -9.8330    90.4140     7.6340     6.6300     8.0840    24.6420     2.2130 
   60.7500   -10.8700    92.5210     7.6380     6.5990     7.6440    24.8150     2.1860 
   60.8750   -12.3310    89.1510     7.7430     6.6180     7.4960    24.7880     2.1640 
   61.0000   -14.0900    81.3990     7.9250     6.7040     7.9200    24.5560     2.1490 
   61.1250   -15.9270    74.7760     8.0980     6.8490     9.0200    24.2800     2.1400 
   61.2500   -17.6890    73.0050     8.2120     7.0090     9.5550    24.1830     2.1360 
   61.3750   -19.2920    73.4700     8.2770     7.1600     9.8840    24.3030     2.1370 
   61.5000   -19.6010    72.9250     8.3340     7.2930    10.2420    24.5100     2.1430 
   61.6250   -20.9250    72.3040     8.4490     7.4340    10.6380    24.5900     2.1440 
   61.7500   -21.9410    74.4960     8.6510     7.6110    10.9600    24.6170     2.1260 
   61.8750   -22.4120    77.9580     8.9080     7.8130    11.2690    24.6190     2.0820 
   62.0000   -22.1380    79.2230     9.1430     7.9860    11.9970    24.5120     2.0250 
   62.1250   -20.9770    78.2940     9.2220     8.0170    13.2230    24.0720     1.9930 
   62.2500   -19.3270    79.8920     9.0730     7.8620    12.2980    23.7710     2.0100 
   62.3750   -17.5390    84.5630     8.7110     7.5350     9.2350    23.7180     2.0690 
   62.5000   -15.8560    89.0710     8.2590     7.1200     7.4960    23.8990     2.1370 
   62.6250   -14.3600    90.0540     7.8880     6.7290     7.3270    24.2200     2.1690 
   62.7500   -12.9360    90.1400     7.6350     6.4110     7.6960    24.5040     2.1590 
   62.8750   -11.6410    92.2310     7.4360     6.1630     7.8340    24.6520     2.1260 
   63.0000   -10.5300    93.8250     7.1930     5.9510     7.6050    24.7380     2.1010 
   63.1250    -9.7820    94.8870     6.8620     5.7530     7.0870    24.8770     2.1060 
   63.2500    -9.4000    96.3600     6.6190     5.6300     6.6720    25.0050     2.1320 
   63.3750    -9.2000    97.2620     6.7070     5.7060     6.6350    25.0910     2.1640 
   63.5000    -9.0670    94.6300     7.2870     6.0960     6.8080    25.1250     2.1950 
   63.6250    -8.9980    88.0700     8.4010     6.8990     7.3150    25.1310     2.2340 
   63.7500    -8.9880    82.8380     9.6760     7.9320     9.2160    25.1220     2.2880 
   63.8750    -9.1010    79.4660    10.6450     8.8660    13.8840    25.0820     2.3460 
   64.0000    -9.3960    78.3330    10.8580     9.2680    16.9970    24.9940     2.3850 
   64.1250    -9.8940    80.8090    10.1530     8.8710    11.7380    24.9500     2.3840 
   64.2500   -10.4150    83.9480     9.1420     8.1130     8.6020    24.9350     2.3500 
   64.3750   -11.0390    85.7120     8.2840     7.3620     7.4070    24.9290     2.3020 
   64.5000   -11.8350    84.6130     7.8010     6.8220     7.3530    24.8870     2.2570 
   64.6250   -12.6940    81.7450     7.7160     6.5790     7.9130    24.7600     2.2260 
   64.7500   -13.5490    80.1140     7.7930     6.5220     8.5340    24.5820     2.2100 
   64.8750   -14.3110    81.5860     7.9050     6.5680     8.4280    24.4330     2.2080 
   65.0000   -14.8870    84.7700     8.0320     6.6780     7.8730    24.3730     2.2130 
   65.1250   -15.4440    84.1040     8.2680     6.8840     7.2300    24.3570     2.2090 
   65.2500   -16.1660    81.7270     8.6470     7.1980     7.5630    24.3080     2.1870 
   65.3750   -16.9130    80.7390     9.1230     7.6000     9.0010    24.1850     2.1520 
   65.5000   -17.5180    80.6380     9.5850     8.0250     9.7310    24.0740     2.1180 
   65.6250   -18.0220    79.3190     9.9030     8.3660     9.4460    24.0360     2.1030 
   65.7500   -18.5520    76.2640    10.0510     8.5670     9.6010    24.0460     2.1030 
   65.8750   -19.1620    72.0900    10.0680     8.6190    10.8560    24.1060     2.1130 
   66.0000   -19.8510    68.1670    10.0260     8.5620    10.7810    24.2290     2.1240 
   66.1250   -20.4310    67.0810     9.9840     8.4510     9.7690    24.3250     2.1370 
   66.2500   -20.7800    69.0470     9.9350     8.3190     9.1750    24.4010     2.1510 
   66.3750   -20.9520    72.0730     9.8140     8.1450     9.0770    24.4520     2.1660 
   66.5000   -21.0900    74.5110     9.5450     7.8860     9.1240    24.4490     2.1750 
   66.6250   -21.2420    74.7380     9.0760     7.5180     9.1870    24.4540     2.1720 
   66.7500   -21.3010    73.3810     8.6430     7.1880     9.1250    24.5110     2.1580 
   66.8750   -21.2470    72.7560     8.6690     7.1420     9.0210    24.5170     2.1400 
   67.0000   -21.0900    74.2960     9.6690     7.6770     8.9950    24.4290     2.1370 
   67.1250   -20.9110    75.4720    12.3860     9.3180     9.4340    24.2440     2.1860 
   67.2500   -20.8200    72.7260    16.6750    12.1920    12.4450    24.1730     2.2930 
   67.3750   -20.8880    66.0930    21.7470    16.0590    23.4760    24.2440     2.4340 
   67.5000   -21.0510    60.0960    25.5270    19.5510    47.9080    24.4280     2.5590 
   67.6250   -21.3490    59.8910    24.8070    19.8530    63.3800    24.5890     2.5990 
   67.7500   -21.8550    63.4450    20.7000    17.2750    45.6720    24.7140     2.5480 
   67.8750   -22.5780    65.4480    15.8750    13.7780    24.9380    24.8310     2.4360 
   68.0000   -23.4700    63.6060    12.2390    10.8700    14.4640    24.8790     2.3130 
   68.1250   -24.3380    62.4690    10.4590     9.1500    11.7620    24.7730     2.2240 
