~V
VERS. 2.00: Ver 2.00
~W
STRT.M 49.0000:
STOP.M 251.0000:
STEP.M 0.1250:
NULL. -999.2500:
UWI. F10165:
~C
DEPT.M :
GR.API :
RML.OHMM :
RI. :
RXO.OHMM :
CALI.CM :
SP.MV :
DEN.GM/CC :
~A
# ...
  240.2500    65.6060     7.0610     6.0570     6.6290    24.6550   -16.9540     2.3080 
  240.3750    64.5700     7.0870     6.1100     6.7270    24.6550   -16.9180     2.3280 
  240.5000    64.2180     7.0710     6.1230     6.3460    24.6550   -16.8820     2.3310 
  240.6250    64.2180     7.0200     6.0940     5.8340    24.6550   -16.8800     2.3270 
  240.7500    64.2180     6.9540     6.0430     5.7580    24.6550   -16.8990     2.3270 
  240.8750    64.2180     6.8950     5.9870     5.8440    24.6500   -16.9350     2.3330 
  241.0000    64.2180     6.8650     5.9470     5.7560    24.6320   -16.9970     2.3410 
  241.1250    64.2180     6.9010     5.9500     5.4200    24.5740   -17.0670     2.3460 
  241.2500    64.2180     7.0020     6.0010     5.4100    24.5290   -17.1050     2.3480 
  241.3750    64.2180     7.1490     6.0890     5.5570    24.5540   -17.1200     2.3510 
  241.5000    64.2180     7.3030     6.1860     5.7500    24.6160   -17.1280     2.3560 
  241.6250    64.2180     7.4020     6.2550     5.8280    24.6510   -17.1520     2.3550 
  241.7500    64.2180     7.4190     6.2820     5.7670    24.6550   -17.1980     2.3450 
  241.8750    64.2180     7.3650     6.2720     5.5000    24.6550   -17.2470     2.3230 
  242.0000    64.2180     7.2910     6.2530     5.1750    24.6540   -17.2710     2.2950 
  242.1250    64.2180     7.2630     6.2610     5.0910    24.6500   -17.2520     2.2760 
  242.2500    64.2180     7.3010     6.3080     5.2020    24.6470   -17.2180     2.2810 
  242.3750    64.2180     7.3860     6.3860     5.4690    24.6500   -17.1810     2.3080 
  242.5000    64.2180     7.4840     6.4800     5.9060    24.6580   -17.1500     2.3370 
  242.6250    64.2180     7.5800     6.5770     6.2450    24.6780   -17.1160     2.3460 
  242.7500    64.2180     7.6860     6.6740     6.4840    24.7100   -17.0870     2.3390 
  242.8750    64.2180     7.8190     6.7790     6.8260    24.7470   -17.0620     2.3280 
  243.0000    64.2180     7.9770     6.8940     7.4150    24.7990   -17.0540     2.3200 
  243.1250    64.2180     8.1340     7.0150     8.2520    24.8380   -17.0670     2.3200 
  243.2500    64.2180     8.2700     7.1310     9.1600    24.8360   -17.1080     2.3220 
  243.3750    64.2180     8.3910     7.2410    10.0820    24.8140   -17.1590     2.3190 
  243.5000    64.2180     8.5160     7.3460    10.1790    24.8010   -17.1950     2.3140 
  243.6250    64.2180     8.6500     7.4490     9.8610    24.7970   -17.2220     2.3240 
  243.7500    64.2180     8.7640     7.5370    10.8490    24.7840   -17.2410     2.3490 
  243.8750    64.2180     8.8330     7.5950    11.4950    24.7610   -17.2550     2.3650 
  244.0000    64.2180     8.8520     7.6150    10.5810    24.7650   -17.2530     2.3550 
  244.1250    64.2180     8.8410     7.6040    10.1610    24.8030   -17.2600     2.3410 
  244.2500    64.2180     8.8370     7.5910    12.1460    24.8120   -17.2760     2.3490 
  244.3750    64.2180     8.8460     7.5890    15.4500    24.7820   -17.2900     2.3690 
  244.5000    64.2180     8.8610     7.6020    14.0410    24.7320   -17.3020     2.3760 
  244.6250    64.2180     8.8680     7.6210    11.6090    24.6750   -17.2940     2.3530 
  244.7500    64.2180     8.8640     7.6330    10.1230    24.5830   -17.2730     2.3260 
  244.8750    64.2180     8.8480     7.6360     9.0750    24.4980   -17.2510     2.3180 
  245.0000    64.2180     8.8260     7.6320     7.8380    24.4880   -17.2420     2.3350 
  245.1250    64.2180     8.8110     7.6290     7.7380    24.5760   -17.2360     2.3680 
  245.2500    64.2180     8.8090     7.6370     9.3580    24.6010   -17.2290     2.4000 
  245.3750    64.2180     8.8330     7.6510    12.2060    24.5550   -17.2480     2.4230 
  245.5000    64.2180     8.8630     7.6660    14.0450    24.6010   -17.2740     2.4380 
  245.6250    64.2180     8.8890     7.6770    13.6370    24.6750   -17.3010     2.4440 
  245.7500    64.2180     8.9040     7.6830    13.1080    24.7240   -17.3360     2.4460 
  245.8750    64.2180     8.9100     7.6880    13.5860    24.7520   -17.3590     2.4450 
  246.0000    64.2180     8.9080     7.6940    14.1990    24.7750   -17.3810     2.4350 
  246.1250    64.2180     8.9020     7.7000    13.7550    24.7630   -17.4210     2.4090 
  246.2500    64.2180     8.8910     7.7050    12.9120    24.7100   -17.4390     2.3800 
  246.3750    64.2180     8.8910     7.7050    12.4100    24.6810   -17.4330     2.3640 
  246.5000    64.2180     8.8910     7.7050    13.5010    24.6900   -17.4470     2.3740 
  246.6250    64.2180     8.8910     7.7050    15.3970    24.7250   -17.4640     2.4060 
  246.7500    64.2180     8.8910     7.7050    14.9600    24.7680   -17.4830     2.4290 
  246.8750    64.2180     8.8910     7.7050    12.0850    24.8210   -17.5110     2.4280 
  247.0000    64.2180     8.8910     7.7050    10.4580    24.8160   -17.5320     2.4120 
  247.1250    64.2180     8.8910     7.7050    10.1410    24.7690   -17.5430     2.3990 
  247.2500    64.2180     8.8910     7.7050    10.7090    24.7270   -17.5580     2.3950 
  247.3750    64.2180     8.8910     7.7050    12.1540    24.6950   -17.5880     2.3950 
  247.5000    64.2180     8.8910     7.7050    12.9060    24.6640   -17.6150     2.3980 
  247.6250    64.2180     8.8910     7.7050    12.2380    24.6480   -17.6350     2.3970 
  247.7500    64.2180     8.8910     7.7050    11.4740    24.6440   -17.6570     2.3890 
  247.8750    64.2180     8.8910     7.7050    10.7360    24.6690   -17.6600     2.3720 
  248.0000    64.2180     8.8910     7.7050    10.3620    24.7340   -17.6690     2.3470 
  248.1250    64.2180     8.8910     7.7050     9.7670    24.8080   -17.6860     2.3110 
  248.2500    64.2180     8.8910     7.7050     9.2780    24.8040   -17.7050     2.2580 
  248.3750    64.2180     8.8910     7.7050     8.4800    24.6530   -17.7590     2.1750 
  248.5000    64.2180     8.8910     7.7050     7.4530    24.0420   -17.8120     2.0430 
  248.6250    64.2180     8.8910     7.7050     6.0110    22.4900   -17.8650     1.8440 
  248.7500    64.2180     8.8910     7.7050     4.6670    19.9670   -17.9150     1.6600 
  248.8750    64.2180     8.8910     7.7050     4.1870    18.7580   -17.9530     1.5470 
  249.0000    64.2180     8.8910     7.7050     4.0800    18.3990   -17.9710     1.5000 
  249.1250    64.2180     8.8910     7.7050     4.0810    18.3950   -17.9560     1.4970 
  249.2500    64.2180     8.8910     7.7050     4.0800    18.3950   -17.9070     1.5000 
  249.3750    64.2180     8.8910     7.7050     4.0790    18.3950   -17.8070     1.5020 
  249.5000    64.2180     8.8910     7.7050     4.0790    18.3950   -17.6900     1.5050 
  249.6250    64.2180     8.8910     7.7050     4.0790    18.3950   -17.5780     1.5100 
  249.7500    64.2180     8.8910     7.7050     4.0790    18.3950   -17.4550     1.5160 
  249.8750    64.2180     8.8910     7.7050     4.0780    18.3950   -17.3400     1.5210 
  250.0000    64.2180     8.8910     7.7050     4.0780    18.3950   -17.2710  -999.2500 
  250.1250    64.2180     8.8910     7.7050     4.0780    18.3950   -17.2530  -999.2500 
  250.2500    64.2180     8.8910     7.7050     4.0790    18.3950   -17.2530  -999.2500 
  250.3750    64.2180     8.8910     7.7050     4.0790    18.3950  -999.2500  -999.2500 
  250.5000    64.2180     8.8910     7.7050     4.0790    18.3950  -999.2500  -999.2500 
  250.6250    64.2180     8.8910     7.7050     4.0780    18.3920  -999.2500  -999.2500 
  250.7500    64.2180     8.8910     7.7050     4.0780    18.3870  -999.2500  -999.2500 
  250.8750    64.2180     8.8910     7.7050     4.0770    18.3850  -999.2500  -999.2500 
  251.0000    64.2180     8.8910     7.7050     4.0770    18.3840  -999.2500  -999.2500 
