~V
VERS. 2.00: Ver 2.00
~W
STRT.M 55.0000:
STOP.M 248.0000:
STEP.M 0.1250:
NULL. -999.2500:
UWI. F10184:
~C
DEPT.M :
SP.MV :
GR.API :
RML.OHMM :
RI. :
RXO.OHMM :
CALI.CM :
DEN.GM/CC :
~A
# ...
  190.0000    -6.9980    54.9430    11.7630    10.2080    11.3870    24.4410     2.3940 
  190.1250    -7.0600    51.0200    12.6410    11.0540    12.9520    24.4420     2.4330 
  190.2500    -7.1290    47.9050    13.1290    11.5950    15.5720    24.4540     2.4530 
  190.3750    -7.1790    47.1970    13.1120    11.6970    16.1970    24.4890     2.4620 
  190.5000    -7.1320    47.6710    12.6310    11.3520    12.6430    24.5240     2.4610 
  190.6250    -7.1050    48.5790    11.8370    10.6450    11.4810    24.5340     2.4420 
  190.7500    -7.0800    49.8000    10.9850     9.8120    13.0670    24.5170     2.4110 
  190.8750    -7.0060    50.9740    10.1960     8.9920    13.1820    24.5350     2.3790 
  191.0000    -6.9800    51.4830     9.5430     8.2940    10.5030    24.5900     2.3520 
  191.1250    -6.9370    53.0480     9.0980     7.8190     8.8210    24.6620     2.3270 
  191.2500    -6.8550    57.9190     8.8420     7.5450     7.8570    24.6810     2.3050 
  191.3750    -6.8870    65.1610     8.7660     7.4500     7.5630    24.5610     2.2980 
  191.5000    -7.0100    73.3260     8.8330     7.4910     8.1940    24.3850     2.3170 
  191.6250    -7.0640    81.2070     8.9750     7.6160     9.7870    24.3660     2.3530 
  191.7500    -7.1940    87.1920     9.0960     7.7410    10.9360    24.4190     2.3830 
  191.8750    -7.4100    89.9980     9.1510     7.8190    10.3770    24.4380     2.3980 
  192.0000    -7.5900    90.5660     9.1350     7.8280     9.4150    24.4170     2.4080 
  192.1250    -7.9030    92.0040     9.0510     7.7610     8.9760    24.4370     2.4230 
  192.2500    -8.3110    93.1800     8.9250     7.6460     8.9870    24.4520     2.4360 
  192.3750    -8.6630    93.4420     8.7610     7.5000     8.9470    24.4510     2.4420 
  192.5000    -9.0680    95.1410     8.5720     7.3330     8.7480    24.4380     2.4430 
  192.6250    -9.6140    99.0270     8.3920     7.1610     8.3850    24.4240     2.4420 
  192.7500   -10.1660    99.9580     8.2600     7.0110     8.0890    24.4480     2.4400 
  192.8750   -10.7740    97.7150     8.2070     6.9130     8.1390    24.5070     2.4350 
  193.0000   -11.4420    95.2480     8.2450     6.8930     8.6830    24.6110     2.4310 
  193.1250   -12.0620    94.3020     8.4010     6.9870     9.0200    24.6890     2.4310 
  193.2500   -12.7000    91.7600     8.6720     7.1850     9.1470    24.6870     2.4300 
  193.3750   -13.3470    87.5480     9.0600     7.4770     9.2700    24.6640     2.4220 
  193.5000   -13.8290    84.3990     9.5490     7.8380     9.5980    24.6370     2.4080 
  193.6250   -14.1780    81.3650    10.0850     8.2340    10.6720    24.6110     2.3980 
  193.7500   -14.4300    79.8210    10.5590     8.5990    12.0360    24.5800     2.4000 
  193.8750   -14.4160    80.8600    10.8660     8.8600    12.4350    24.5650     2.4130 
  194.0000   -14.2560    83.7510    10.9330     8.9530    11.2460    24.5830     2.4260 
  194.1250   -13.9790    87.6250    10.7050     8.8090    10.8230    24.5780     2.4330 
  194.2500   -13.4390    91.6280    10.2570     8.4730    10.6760    24.5500     2.4340 
  194.3750   -12.7430    95.3170     9.6650     7.9940    10.3530    24.5370     2.4310 
  194.5000   -12.0650    95.3870     9.0490     7.4650    10.0230    24.5460     2.4260 
  194.6250   -11.3020    91.1970     8.5890     7.0280     9.7300    24.5880     2.4180 
  194.7500   -10.5150    86.3780     8.4080     6.7860     9.1140    24.5980     2.4120 
  194.8750    -9.8790    83.5040     8.6000     6.8180     8.5860    24.5850     2.4070 
  195.0000    -9.2700    81.5990     9.2020     7.1730     8.9440    24.5750     2.4080 
  195.1250    -8.7070    80.0780    10.1980     7.8950    10.4870    24.5410     2.4180 
  195.2500    -8.2810    81.3860    11.3250     8.8210    11.6250    24.4550     2.4310 
  195.3750    -7.8690    85.4500    12.2880     9.7410    12.5260    24.3500     2.4460 
  195.5000    -7.4510    89.0320    12.7570    10.3660    12.4320    24.2700     2.4630 
  195.6250    -7.1130    88.3460    12.3710    10.3190    11.8470    24.2590     2.4860 
  195.7500    -6.7340    86.6970    11.3210     9.6610    11.1170    24.2780     2.5090 
  195.8750    -6.2640    86.9890     9.9040     8.5950     9.7020    24.2930     2.5230 
  196.0000    -5.7850    87.4420     8.4640     7.4080     8.3190    24.3000     2.5160 
  196.1250    -5.1870    83.4950     7.3090     6.3770     6.7950    24.3290     2.4840 
  196.2500    -4.5830    74.2230     6.4970     5.6050     6.0450    24.3770     2.4470 
  196.3750    -4.1120    63.1490     6.0100     5.1120     5.7220    24.4170     2.4180 
  196.5000    -3.6370    54.2030     5.7780     4.8610     5.5750    24.3940     2.3970 
  196.6250    -3.1660    51.3600     5.7310     4.8060     5.3960    24.3030     2.3780 
  196.7500    -2.8500    55.5000     5.7570     4.8440     5.3530    24.2640     2.3630 
  196.8750    -2.5840    64.6120     5.8090     4.9280     5.4090    24.3250     2.3590 
  197.0000    -2.4040    74.4040     5.8660     5.0330     5.5330    24.3290     2.3650 
  197.1250    -2.4440    80.9710     5.9190     5.1470     5.8120    24.1980     2.3770 
  197.2500    -2.4870    84.2460     5.9630     5.2640     6.1980    24.0990     2.3910 
  197.3750    -2.5340    85.1270     5.9850     5.3720     6.5420    24.0070     2.4080 
  197.5000    -2.7280    84.5730     5.9840     5.4570     6.6430    23.8790     2.4250 
  197.6250    -2.9680    85.1980     5.9740     5.5090     6.6230    23.8610     2.4350 
  197.7500    -3.1710    86.4590     5.9750     5.5270     6.5650    24.0050     2.4380 
  197.8750    -3.4700    87.1040     5.9740     5.5000     6.4080    24.1830     2.4320 
  198.0000    -3.7350    85.8270     5.9420     5.4150     6.2120    24.3640     2.4160 
  198.1250    -3.9110    82.0640     5.8390     5.2710     6.2230    24.4370     2.3940 
  198.2500    -4.1410    80.2780     5.6850     5.1070     6.3230    24.4520     2.3720 
  198.3750    -4.3080    81.9650     5.5430     4.9720     6.0180    24.4140     2.3570 
  198.5000    -4.3460    86.4640     5.4970     4.9080     5.7750    24.3510     2.3550 
  198.6250    -4.4300    91.0450     5.6350     4.9660     5.9340    24.3870     2.3710 
  198.7500    -4.5050    93.1420     5.9150     5.1280     6.4110    24.4820     2.3940 
  198.8750    -4.5520    93.3310     6.2530     5.3640     7.2030    24.5390     2.4140 
  199.0000    -4.6700    91.6290     6.5400     5.6180     7.8730    24.5610     2.4280 
  199.1250    -4.7860    89.7910     6.7170     5.8350     7.9870    24.5770     2.4330 
  199.2500    -4.9320    89.7640     6.8960     6.0510     8.0420    24.5680     2.4300 
  199.3750    -5.1890    91.1060     7.2570     6.3680     8.1830    24.5550     2.4190 
  199.5000    -5.4880    91.9100     7.9970     6.9290     8.5860    24.5630     2.4040 
  199.6250    -5.7580    88.2870     9.4470     8.0050    10.8020    24.5740     2.3870 
  199.7500    -6.1160    82.2700    11.7020     9.7420    15.2600    24.5450     2.3670 
  199.8750    -6.4610    77.7140    14.8870    10.8850    20.6250    24.5280     2.3470 
  200.0000    -6.7450    75.1500    19.0870    13.5770    26.6120    24.5570     2.3280 
  200.1250    -7.1590    72.6100    24.5870    17.8430    36.2440    24.5650     2.3080 
  200.2500    -7.5540    69.8630    31.3460    23.1980    47.3750    24.5470     2.2840 
  200.3750    -7.8810    68.1190    39.5600    29.7260    50.5580    24.5340     2.2540 
  200.5000    -8.2900    66.5400    49.4960    37.5970    49.2570    24.5300     2.2260 
  200.6250    -8.7210    65.7490    61.5590    47.1930    60.5060    24.4850     2.2040 
  200.7500    -9.0650    67.5540    74.8200    57.8180    71.2560    24.4830     2.1840 
  200.8750    -9.4490    69.7950    87.7390    68.2560    77.2390    24.5120     2.1700 
  201.0000    -9.8340    68.9970    98.1790    76.8690    79.6660    24.5480     2.1650 
  201.1250   -10.1300    66.0430   103.5590    81.7290    84.7740    24.5770     2.1730 
