~V
VERS. 2.00: Ver 2.00
~W
STRT.M 60.0000:
STOP.M 220.0000:
STEP.M 0.1250:
NULL. -999.2500:
UWI. F10154:
~C
DEPT.M :
GR.API :
RML.OHMM :
RI. :
RXO.OHMM :
CALI.CM :
DEN.GM/CC :
SP.MV :
~A
# ...
  195.0000    63.8750   242.6770   231.3770   227.8500    23.9220     2.1890   -22.3360 
  195.1250    62.8180   239.9080   228.5140   205.9100    23.9410     2.1830   -22.4080 
  195.2500    60.8290   237.0880   225.5590   203.7700    24.0270     2.1780   -22.4600 
  195.3750    61.6970   235.7740   224.2990   203.2570    24.2130     2.1810   -22.4680 
  195.5000    64.1230   237.0770   226.1080   202.3110    24.5360     2.1940   -22.4140 
  195.6250    63.1850   241.2940   231.6280   220.2360    24.8450     2.2070   -22.2560 
  195.7500    61.2540   246.1570   238.6230   258.7940    24.8790     2.2080   -22.0880 
  195.8750    61.4260   248.5720   244.0840   276.2260    24.8220     2.1930   -21.8560 
  196.0000    62.7360   244.6980   244.0110   266.2380    24.8150     2.1690   -21.4940 
  196.1250    60.9160   229.7800   232.5110   259.3380    24.8360     2.1480   -21.1360 
  196.2500    58.9000   206.0340   210.4460   250.2920    24.7930     2.1430   -20.8010 
  196.3750    60.4070   177.8440   181.9850   210.5060    24.6400     2.1560   -20.4130 
  196.5000    62.9950   151.0150   153.5970   164.7170    24.3890     2.1850   -19.9920 
  196.6250    64.0690   131.7750   132.2300    94.9740    24.0860     2.2170   -19.5700 
  196.7500    64.8980   121.5770   119.9950    64.2740    23.8930     2.2400   -19.2440 
  196.8750    67.0190   121.1860   118.0640    73.4300    23.9000     2.2450   -19.0790 
  197.0000    67.1870   131.0400   127.0350   130.8840    24.1080     2.2320   -19.0770 
  197.1250    65.2680   152.7040   148.6290   265.9690    24.4810     2.2060   -19.1490 
  197.2500    64.6990   181.2920   178.5120   403.6690    24.8400     2.1910   -19.1850 
  197.3750    64.4290   208.8780   209.3150   525.4320    25.0160     2.2100   -19.2900 
  197.5000    64.3600   225.0170   228.7910   432.1740    24.9360     2.2710   -19.5080 
  197.6250    66.2730   220.8990   224.4040   243.3220    24.5900     2.3460   -19.7520 
  197.7500    70.8640   204.6610   205.6510   194.1810    24.2240     2.3800   -19.9590 
  197.8750    73.1470   185.3670   184.4600   164.5640    23.9940     2.3520   -20.1810 
  198.0000    70.4340   167.5410   167.1930   118.5690    23.9110     2.2870   -20.3770 
  198.1250    66.6860   147.6470   150.2270   112.4270    24.1240     2.2520   -20.5630 
  198.2500    63.7510   121.3450   124.9390   173.2260    24.3700     2.2800   -20.8010 
  198.3750    60.8340    89.9080    90.5200   285.7360    24.2770     2.3530   -20.9420 
  198.5000    58.1590    59.2730    56.2340   187.9750    23.9690     2.4210   -21.0040 
  198.6250    57.6870    36.6550    32.9790    60.2780    23.7230     2.4350   -21.0680 
  198.7500    57.3110    22.0280    19.4890    20.7140    23.6240     2.4060   -21.0850 
  198.8750    54.0740    13.4710    12.4320     9.6620    23.6400     2.3600   -21.1520 
  199.0000    49.9270     8.9450     8.9370     6.5950    23.5880     2.3220   -21.3760 
  199.1250    50.1750     7.2280     7.4770     5.9940    23.5140     2.3040   -21.7170 
  199.2500    53.5120     6.7850     6.9700     6.0680    23.3510     2.2980   -22.1110 
  199.3750    55.0080     7.0130     7.1130     6.4510    23.3700     2.3000   -22.6020 
  199.5000    52.0960     7.6400     7.7040     6.9610    23.6260     2.3070   -23.1520 
  199.6250    47.1720     8.4300     8.5530     7.3030    23.9750     2.3170   -23.7390 
  199.7500    43.6610     9.0960     9.3470     7.9270    24.4410     2.3280   -24.2660 
  199.8750    42.9170     9.4510     9.8320     9.1460    24.8540     2.3400   -24.6320 
  200.0000    45.1880     9.4330     9.8700    10.1550    25.1020     2.3480   -24.8110 
  200.1250    48.7550     9.1310     9.5140     9.7350    25.1630     2.3450   -24.7770 
  200.2500    50.6010     8.8410     9.1100     8.3280    25.1700     2.3310   -24.6610 
  200.3750    50.8930     8.7540     8.8770     7.2590    25.1480     2.3090   -24.5160 
  200.5000    50.1140     8.9290     8.9070     7.0350    25.1110     2.2870   -24.2950 
  200.6250    48.4930     9.2650     9.1550     8.4340    25.0900     2.2800   -23.9830 
  200.7500    48.1240     9.5090     9.3760    10.0280    25.0810     2.2900   -23.6620 
  200.8750    49.9120     9.4890     9.3570    10.7130    24.9710     2.3120   -23.3110 
  201.0000    52.3780     9.1510     8.9990     9.8350    24.8150     2.3320   -22.9630 
  201.1250    55.1420     8.5650     8.3600     7.9800    24.7770     2.3400   -22.6690 
  201.2500    58.2450     7.9520     7.6850     7.1310    24.7930     2.3370   -22.3070 
  201.3750    59.7610     7.4400     7.1080     6.9650    24.8280     2.3310   -21.8560 
  201.5000    58.2630     7.0850     6.6860     6.9940    24.8290     2.3330   -21.3760 
  201.6250    57.7700     6.9060     6.4400     6.7780    24.7770     2.3500   -20.8990 
  201.7500    60.0760     6.8550     6.3220     6.3880    24.6730     2.3760   -20.4780 
  201.8750    61.8430     6.9260     6.3180     6.2600    24.5930     2.3990   -20.1700 
  202.0000    60.5450     7.1160     6.4250     6.6180    24.6150     2.4050   -19.9200 
  202.1250    58.0090     7.4170     6.6560     7.7660    24.7430     2.3860   -19.6730 
  202.2500    57.5960     7.7460     6.9490     8.8040    24.7950     2.3620   -19.4690 
  202.3750    58.6780     8.0220     7.2290     9.1260    24.8110     2.3490   -19.3190 
  202.5000    60.0570     8.1750     7.4090     8.9030    24.8280     2.3580   -19.2600 
  202.6250    60.9220     8.1690     7.4280     9.1370    24.8420     2.3800   -19.2880 
  202.7500    62.0980     8.0920     7.3560     8.7920    24.8480     2.3990   -19.3380 
  202.8750    63.5260     8.0370     7.2910     8.0870    24.8610     2.4080   -19.4040 
  203.0000    63.4560     8.0760     7.3150     7.2780    24.8910     2.4110   -19.4500 
  203.1250    61.0190     8.2400     7.4740     7.7520    24.8590     2.4180   -19.4720 
  203.2500    58.9580     8.4330     7.6900     9.2080    24.8120     2.4290   -19.5410 
  203.3750    59.1150     8.5520     7.8590    10.4260    24.7880     2.4370   -19.6100 
  203.5000    60.3510     8.5210     7.8860     9.7790    24.7900     2.4340   -19.6320 
  203.6250    61.4990     8.3220     7.7250     8.6660    24.8100     2.4200   -19.6780 
  203.7500    62.3950     8.0670     7.4810     8.1750    24.8400     2.4000   -19.6810 
  203.8750    64.2720     7.8460     7.2400     7.6770    24.8700     2.3810   -19.6160 
  204.0000    69.9970     7.7050     7.0560     7.4800    24.9040     2.3680   -19.5210 
  204.1250    80.4410     7.6530     6.9500     8.1280    24.8650     2.3700   -19.3400 
  204.2500    90.6470     7.6460     6.8890     8.4020    24.8270     2.3910   -19.0740 
  204.3750    96.7110     7.6660     6.8600     7.7610    24.7950     2.4280   -18.8080 
  204.5000    98.4950     7.7060     6.8570     6.9770    24.7620     2.4670   -18.5290 
  204.6250    97.2140     7.7560     6.8700     7.1260    24.7110     2.4860   -18.1550 
  204.7500    95.7470     7.7990     6.8750     7.7730    24.6650     2.4820   -17.8040 
  204.8750    97.0290     7.8510     6.8770     8.2650    24.6750     2.4650   -17.4670 
  205.0000    98.1620     7.9720     6.9270     8.4800    24.6930     2.4590   -17.1250 
  205.1250    94.0700     8.3060     7.1420     8.1480    24.7130     2.4880   -16.8650 
  205.2500    88.2780     8.9300     7.5950     8.6300    24.6890     2.5370   -16.6450 
  205.3750    83.1110     9.8620     8.3260    10.9980    24.6290     2.5800   -16.4190 
  205.5000    76.6360    11.0060     9.2880    14.4280    24.6090     2.5920   -16.1840 
  205.6250    68.7940    12.0850    10.2740    15.3400    24.5650     2.5630   -16.0000 
  205.7500    65.8480    12.7900    10.9670    14.3270    24.5500     2.5160   -15.8120 
  205.8750    68.9960    12.9620    11.1780    12.7810    24.5490     2.4750   -15.5950 
  206.0000    73.6220    12.6400    10.9380    11.5520    24.5830     2.4520   -15.3810 
  206.1250    75.4800    12.0320    10.4490    11.1120    24.6040     2.4480   -15.1340 
