~V
VERS. 2.00: Ver 2.00
~W
STRT.M 55.0000:
STOP.M 239.0000:
STEP.M 0.1250:
NULL. -999.2500:
UWI. F10186:
~C
DEPT.M :
GR.API :
RML.OHMM :
RI. :
RXO.OHMM :
CALI.CM :
DEN.GM/CC :
SP.MV :
~A
# ...
  223.7500    65.5020    11.5690    10.1600    13.8670    23.8800     2.4120    -6.3090 
  223.8750    64.8780    10.6070     9.3050    11.3860    23.8800     2.3880    -6.1930 
  224.0000    61.9300    10.0110     8.6980     9.7870    23.8800     2.3770    -6.0740 
  224.1250    58.5250    10.0200     8.5410     9.5770    23.8800     2.3900    -5.9980 
  224.2500    57.0710    10.4620     8.7460    10.3050    23.8800     2.4200    -5.9400 
  224.3750    57.6820    11.1070     9.1740    11.5070    23.8740     2.4580    -5.8590 
  224.5000    60.5110    11.6810     9.6290    12.8050    23.8590     2.4970    -5.7930 
  224.6250    63.3700    11.8820     9.8660    14.4530    23.8270     2.5250    -5.6850 
  224.7500    63.3630    11.6690     9.7980    14.6420    23.8020     2.5390    -5.5370 
  224.8750    61.3840    11.1420     9.4590    13.1940    23.7710     2.5370    -5.4030 
  225.0000    60.3550    10.4810     8.9810    11.2200    23.7510     2.5210    -5.2870 
  225.1250    59.6670     9.8680     8.5430    10.7670    23.7440     2.5000    -5.1680 
  225.2500    57.3900     9.4140     8.2390    10.7260    23.7440     2.4800    -5.0550 
  225.3750    56.2210     9.1030     8.0810    10.4240    23.7440     2.4640    -4.9510 
  225.5000    58.1060     8.8220     8.0340     9.8080    23.7440     2.4530    -4.8960 
  225.6250    60.0630     8.7780     8.0390     9.3740    23.7440     2.4430    -4.8700 
  225.7500    60.0400     8.8460     8.0400     9.0860    23.7440     2.4340    -4.8660 
  225.8750    59.1810     8.8710     8.0150     8.7500    23.7440     2.4270    -4.8430 
  226.0000    58.0240     8.8550     7.9660     8.5700    23.7440     2.4220    -4.8050 
  226.1250    56.4210     8.8100     7.9000     8.1440    23.7440     2.4220    -4.7790 
  226.2500    56.4650     8.7630     7.8380     7.8160    23.7440     2.4260    -4.7620 
  226.3750    57.7660     8.7340     7.7960     7.6190    23.7390     2.4330    -4.7860 
  226.5000    58.4120     8.7430     7.7930     7.6780    23.7180     2.4410    -4.7920 
  226.6250    58.0920     8.8120     7.8530     8.8100    23.6610     2.4470    -4.8000 
  226.7500    58.0580     8.9350     7.9710    10.8450    23.6130     2.4490    -4.8050 
  226.8750    58.3010     9.1010     8.1350    13.1800    23.6150     2.4510    -4.8370 
  227.0000    58.1490     9.2910     8.3240    16.9600    23.6520     2.4530    -4.9210 
  227.1250    57.2340     9.4710     8.5020    19.6930    23.6720     2.4510    -4.9790 
  227.2500    55.7710     9.6070     8.6350    17.4870    23.6770     2.4420    -5.0150 
  227.3750    54.7190     9.6720     8.7010    12.4900    23.6770     2.4260    -5.0520 
  227.5000    55.1470     9.6490     8.6810    10.5570    23.6760     2.4090    -5.1160 
  227.6250    56.5960     9.5170     8.5550    10.1490    23.6730     2.4010    -5.1630 
  227.7500    58.1890     9.3130     8.3510    10.1500    23.6710     2.4000    -5.2140 
  227.8750    59.6450     9.0720     8.0980    10.0940    23.6730     2.4020    -5.2460 
  228.0000    60.0030     8.8400     7.8350     9.6790    23.6760     2.4010    -5.2690 
  228.1250    59.1260     8.6710     7.6200     8.9370    23.6770     2.3950    -5.3230 
  228.2500    58.3420     8.5870     7.4850     8.3100    23.6770     2.3870    -5.3750 
  228.3750    58.4970     8.5890     7.4410     7.7780    23.6770     2.3820    -5.3860 
  228.5000    57.8520     8.6590     7.4820     7.5810    23.6770     2.3800    -5.3910 
  228.6250    55.7060     8.7710     7.5880     7.8340    23.6770     2.3820    -5.4380 
  228.7500    55.0730     8.8910     7.7180     8.2850    23.6770     2.3840    -5.4580 
  228.8750    55.3720     9.0050     7.8530     8.6360    23.6770     2.3860    -5.4870 
  229.0000    55.3720     9.1090     7.9810     8.9130    23.6770     2.3880    -5.5000 
  229.1250    55.3720     9.2120     8.1040     9.1430    23.6770     2.3900    -5.4930 
  229.2500    55.3720     9.3230     8.2300     9.3130    23.6770     2.3950    -5.5310 
  229.3750    55.3720     9.4440     8.3630     9.2620    23.6770     2.4030    -5.6060 
  229.5000    55.3720     9.5690     8.5010     8.7820    23.6770     2.4110    -5.6590 
  229.6250    55.3720     9.6790     8.6260     8.6140    23.6770     2.4170    -5.6870 
  229.7500    55.3720     9.7610     8.7240     8.9160    23.6770     2.4170    -5.7350 
  229.8750    55.3720     9.8090     8.7890     9.5270    23.6770     2.4140    -5.7840 
  230.0000    55.3720     9.8250     8.8200     9.8350    23.6770     2.4090    -5.8360 
  230.1250    55.3720     9.8110     8.8210     9.6970    23.6770     2.4080    -5.9310 
  230.2500    55.3720     9.7750     8.8000     9.4300    23.6770     2.4100    -5.9920 
  230.3750    55.3720     9.7130     8.7550     9.1490    23.6760     2.4150    -6.0350 
  230.5000    55.3720     9.6190     8.6820     8.6600    23.6740     2.4190    -6.0740 
  230.6250    55.3720     9.4930     8.5740     7.8920    23.6700     2.4210    -6.1350 
  230.7500    55.3720     9.3490     8.4420     7.4140    23.6700     2.4220    -6.2210 
  230.8750    55.3720     9.2010     8.3010     7.1820    23.6790     2.4250    -6.2790 
  231.0000    55.3720     9.0760     8.1760     7.2280    23.7040     2.4260    -6.3310 
  231.1250    55.3720     9.0140     8.1070     7.5120    23.7490     2.4210    -6.4100 
  231.2500    55.3720     9.0390     8.1190     8.0060    23.7860     2.4070    -6.5350 
  231.3750    55.3720     9.1700     8.2310     8.3600    23.7990     2.3880    -6.6600 
  231.5000    55.3720     9.4170     8.4530     8.3880    23.7850     2.3720    -6.7820 
  231.6250    55.3720     9.7810     8.7900     8.4040    23.7410     2.3680    -6.8600 
  231.7500    55.3720    10.2050     9.1930     8.6750    23.6910     2.3760    -6.9160 
  231.8750    55.3720    10.6420     9.6230     9.2030    23.6700     2.3920    -6.9870 
  232.0000    55.3720    11.0390    10.0340     9.3770    23.6670     2.4100    -7.0450 
  232.1250    55.3720    11.3370    10.3680     9.7840    23.6670     2.4270    -7.0720 
  232.2500    55.3720    11.5310    10.6090    10.6760    23.6670     2.4410    -7.0480 
  232.3750    55.3720    11.6320    10.7600    11.8030    23.6670     2.4510    -7.0050 
  232.5000    55.3720    11.6670    10.8370    12.0120    23.6670     2.4550    -6.9900 
  232.6250    55.3720    11.6630    10.8620    11.8340    23.6670     2.4530    -7.0110 
  232.7500    55.3720    11.6520    10.8670    11.6210    23.6670     2.4490    -7.0320 
  232.8750    55.3720    11.6440    10.8670    11.5590    23.6670     2.4440    -7.0540 
  233.0000    55.3720    11.6390    10.8660    11.5540    23.6670     2.4410    -7.0870 
  233.1250    55.3720    11.6390    10.8670    11.6370    23.6670     2.4390    -7.1260 
  233.2500    55.3720    11.6400    10.8690    11.7380    23.6670     2.4380    -7.1910 
  233.3750    55.3720    11.6430    10.8710    12.0180    23.6670     2.4400    -7.2930 
  233.5000    55.3720    11.6440    10.8730    12.4750    23.6670     2.4430    -7.3320 
  233.6250    55.3720    11.6440    10.8740    12.6450    23.6670     2.4500    -7.3790 
  233.7500    55.3720    11.6440    10.8760    12.8880    23.6670     2.4600    -7.4690 
  233.8750    55.3720    11.6450    10.8780    13.1080    23.6670     2.4700    -7.5820 
  234.0000    55.3720    11.6470    10.8790    13.2310    23.6670     2.4780    -7.6670 
  234.1250    55.3720    11.6480    10.8810    13.2080    23.6670     2.4790    -7.7420 
  234.2500    55.3720    11.6480    10.8820    13.0350    23.6670     2.4710    -7.8140 
  234.3750    55.3720    11.6450    10.8820    12.8440    23.6620     2.4590    -7.8580 
  234.5000    55.3720    11.6400    10.8820    12.6030    23.6400     2.4490    -7.9600 
  234.6250    55.3720    11.6330    10.8810    12.7860    23.5890     2.4440    -8.0580 
  234.7500    55.3720    11.6270    10.8810    13.5350    23.5460     2.4450    -8.1010 
  234.8750    55.3720    11.6250    10.8810    14.5520    23.5200     2.4470    -8.1200 
