~V
VERS. 2.00: Ver 2.00
~W
STRT.M 50.0000:
STOP.M 236.0000:
STEP.M 0.1250:
NULL. -999.2500:
UWI. F10144:
~C
DEPT.M :
DEN.GM/CC :
GR.API :
RML.OHMM :
RI. :
RXO.OHMM :
CALI.CM :
SP.MV :
~A
# ...
  207.5000     2.3230    75.6960     7.4150     6.5950     8.5540    24.6180   -18.1900 
  207.6250     2.3000    71.6790     6.7010     5.9970     6.3010    24.7000   -18.0180 
  207.7500     2.2780    70.4510     6.1230     5.4880     4.8210    24.7560   -17.8380 
  207.8750     2.2690    72.0750     5.7400     5.1290     4.6240    24.7700   -17.6560 
  208.0000     2.2790    72.2940     5.5790     4.9460     4.8230    24.7680   -17.4770 
  208.1250     2.3040    69.9690     5.6480     4.9500     4.7680    24.7700   -17.3170 
  208.2500     2.3260    69.1170     5.8500     5.0670     4.7930    24.7730   -17.1870 
  208.3750     2.3360    71.2270     6.1210     5.2500     5.0340    24.7760   -17.0900 
  208.5000     2.3350    74.2510     6.4020     5.4560     5.3600    24.7620   -17.0250 
  208.6250     2.3300    73.7570     6.6340     5.6370     6.6590    24.7090   -17.0050 
  208.7500     2.3280    72.0300     6.7830     5.7620     7.9880    24.6460   -17.0070 
  208.8750     2.3290    72.2660     6.8320     5.8150     7.1840    24.6120   -17.0220 
  209.0000     2.3260    73.1140     6.7850     5.7960     5.9120    24.6100   -17.0360 
  209.1250     2.3160    69.7560     6.6720     5.7210     5.3210    24.5880   -17.0230 
  209.2500     2.2980    64.8600     6.5750     5.6410     5.1820    24.5340   -16.9750 
  209.3750     2.2750    63.1290     6.5590     5.5960     5.6980    24.4780   -16.8970 
  209.5000     2.2540    63.5560     6.6540     5.6140     7.4200    24.4510   -16.7950 
  209.6250     2.2480    62.1220     6.8450     5.7010     9.0550    24.5130   -16.6950 
  209.7500     2.2690    61.8350     7.0520     5.8150     7.6500    24.6470   -16.6240 
  209.8750     2.3090    62.7600     7.2110     5.9210     6.2080    24.7800   -16.6000 
  210.0000     2.3530    62.1520     7.2810     5.9890     6.1480    24.8420   -16.6160 
  210.1250     2.3850    58.9860     7.2480     5.9960     6.7100    24.8370   -16.6630 
  210.2500     2.3940    55.5430     7.1590     5.9580     7.1100    24.8330   -16.7150 
  210.3750     2.3830    53.4200     7.0390     5.8850     6.8670    24.8340   -16.7620 
  210.5000     2.3580    51.6110     6.9020     5.7930     5.9870    24.8350   -16.8130 
  210.6250     2.3260    50.0490     6.7710     5.6980     5.2760    24.8350   -16.8720 
  210.7500     2.2980    50.5650     6.6640     5.6170     4.9100    24.8340   -16.9380 
  210.8750     2.2860    53.1120     6.5850     5.5570     4.8430    24.8340   -17.0030 
  211.0000     2.2890    55.7520     6.5300     5.5150     4.9750    24.8390   -17.0600 
  211.1250     2.2920    54.9220     6.4810     5.4830     5.2850    24.8240   -17.0950 
  211.2500     2.2760    53.3620     6.4240     5.4450     5.4450    24.8530   -17.0940 
  211.3750     2.2450    52.6090     6.3610     5.3990     5.3890    25.0940   -17.0400 
  211.5000     2.2120    52.5470     6.3050     5.3510     5.0700    25.5300   -16.9290 
  211.6250     2.1900    54.0130     6.2730     5.3180     4.7310    25.7820   -16.7690 
  211.7500     2.1840    55.8690     6.2790     5.3140     4.5410    25.5950   -16.5960 
  211.8750     2.1880    55.0460     6.3400     5.3520     4.4680    25.1140   -16.4300 
  212.0000     2.1920    52.4080     6.4750     5.4450     4.3820    24.6770   -16.2860 
  212.1250     2.2000    51.6310     6.6990     5.6010     4.0500    24.4910   -16.1850 
  212.2500     2.2250    52.6980     6.9740     5.7970     3.9920    24.4580   -16.1320 
  212.3750     2.2710    52.9560     7.2590     6.0070     4.3710    24.4680   -16.1300 
  212.5000     2.3330    52.5190     7.5110     6.2030     5.0210    24.4670   -16.1690 
  212.6250     2.3920    52.2350     7.7020     6.3570     5.5340    24.4680   -16.2310 
  212.7500     2.4250    51.4980     7.8590     6.4770     5.6010    24.4690   -16.2980 
  212.8750     2.4260    50.7880     8.0120     6.5770     5.7020    24.4700   -16.3700 
  213.0000     2.3980    50.2850     8.1860     6.6790     6.5230    24.4690   -16.4450 
  213.1250     2.3580    51.3000     8.3770     6.7960     7.9180    24.4710   -16.5260 
  213.2500     2.3250    55.3570     8.5480     6.9170     8.3070    24.4660   -16.6110 
  213.3750     2.3150    61.5000     8.6650     7.0230     7.3790    24.4140   -16.7070 
  213.5000     2.3310    66.2740     8.7150     7.0980     6.2000    24.3480   -16.8160 
  213.6250     2.3630    66.6880     8.6980     7.1290     5.9730    24.3920   -16.9300 
  213.7500     2.3940    66.5710     8.6550     7.1360     6.5570    24.5310   -17.0440 
  213.8750     2.4110    66.8820     8.6240     7.1380     7.2200    24.6510   -17.1530 
  214.0000     2.4130    66.9190     8.6330     7.1580     7.4900    24.6810   -17.2630 
  214.1250     2.4040    67.3350     8.7030     7.2170     7.3440    24.6730   -17.3920 
  214.2500     2.3900    68.6990     8.8170     7.3120     7.4320    24.6770   -17.5340 
  214.3750     2.3790    68.7180     8.9500     7.4280     8.6140    24.6820   -17.6610 
  214.5000     2.3800    65.0890     9.0670     7.5420     9.8870    24.6810   -17.7450 
  214.6250     2.3930    62.2930     9.1310     7.6200    10.2080    24.6790   -17.7650 
  214.7500     2.4040    63.2600     9.1360     7.6500     8.6270    24.6790   -17.7270 
  214.8750     2.3950    65.7810     9.0970     7.6400     7.6290    24.6820   -17.6540 
  215.0000     2.3670    66.0720     9.0460     7.6150     7.8680    24.6750   -17.5660 
  215.1250     2.3310    65.8470     9.0480     7.6210     9.9030    24.6510   -17.4710 
  215.2500     2.3060    67.0450     9.1380     7.6850    10.5750    24.6260   -17.3850 
  215.3750     2.2990    67.9260     9.3130     7.8070    10.2630    24.6120   -17.3110 
  215.5000     2.3070    68.0090     9.5260     7.9550    10.4250    24.6050   -17.2370 
  215.6250     2.3140    65.5960     9.6810     8.0700    11.4900    24.5840   -17.1480 
  215.7500     2.3120    63.2910     9.7220     8.1170    11.5860    24.5560   -17.0540 
  215.8750     2.3110    65.3410     9.6600     8.1020    10.6340    24.5360   -16.9770 
  216.0000     2.3220    71.8990     9.5790     8.0720     9.4810    24.5470   -16.9340 
  216.1250     2.3460    77.0070     9.6250     8.1170     8.1660    24.6090   -16.9410 
  216.2500     2.3700    75.1010     9.8570     8.2810     7.7990    24.6900   -16.9940 
  216.3750     2.3770    71.6070    10.2490     8.5590     8.7010    24.7430   -17.0890 
  216.5000     2.3650    71.6190    10.7000     8.8930    11.8130    24.7320   -17.2220 
  216.6250     2.3420    73.8880    11.0190     9.1660    19.2740    24.6730   -17.3590 
  216.7500     2.3230    73.8280    11.0910     9.2830    26.6480    24.6400   -17.4810 
  216.8750     2.3150    71.1020    10.8990     9.2140    24.0450    24.6650   -17.5730 
  217.0000     2.3130    69.3220    10.5330     8.9990    14.3690    24.7220   -17.6550 
  217.1250     2.3170    70.0680    10.1420     8.7180     8.6670    24.7540   -17.7570 
  217.2500     2.3270    69.8380     9.8450     8.4570     6.7250    24.7580   -17.8710 
  217.3750     2.3410    68.0040     9.6670     8.2560     6.8670    24.7540   -17.9690 
  217.5000     2.3560    66.8470     9.5790     8.1220     8.0780    24.7530   -18.0240 
  217.6250     2.3680    68.0990     9.5340     8.0560     9.6710    24.7500   -18.0360 
  217.7500     2.3720    69.1680     9.4900     8.0300    11.0930    24.7480   -18.0040 
  217.8750     2.3680    67.7460     9.4440     8.0230    11.3350    24.7500   -17.9320 
  218.0000     2.3500    64.5720     9.3870     8.0100    11.1330    24.7420   -17.8050 
  218.1250     2.3130    63.3560     9.2930     7.9560    13.4690    24.6870   -17.5870 
  218.2500     2.2600    65.5860     9.1400     7.8570    16.2390    24.6050   -17.3180 
  218.3750     2.2140    69.0820     8.9250     7.7160    15.4690    24.5910   -17.0350 
  218.5000     2.1910    71.0220     8.6840     7.5560    11.8000    24.7100   -16.7580 
  218.6250     2.2020    71.3630     8.5080     7.4320     9.9570    24.9160   -16.5010 
