~V
VERS. 2.00: Ver 2.00
~W
STRT.M 50.0000:
STOP.M 246.0000:
STEP.M 0.1250:
NULL. -999.2500:
UWI. F10164:
~C
DEPT.M :
GR.API :
RML.OHMM :
RI. :
RXO.OHMM :
CALI.CM :
SP.MV :
DEN.GM/CC :
~A
# ...
  218.7500   108.9550     6.0880     5.3440     5.2480    22.7930   -12.1980     2.3970 
  218.8750   118.8060     6.4530     5.6900     6.1480    23.1190   -12.3970     2.3820 
  219.0000   127.0950     6.8730     6.0880     6.9520    23.2010   -12.5850     2.3620 
  219.1250   128.0310     7.2360     6.4320     6.7850    23.4500   -12.6860     2.3500 
  219.2500   121.7200     7.4610     6.6450     6.5300    23.6480   -12.6610     2.3490 
  219.3750   111.4180     7.5170     6.6980     6.6420    23.7360   -12.5360     2.3570 
  219.5000   103.5640     7.4280     6.6140     7.0290    23.7640   -12.3650     2.3700 
  219.6250   102.5630     7.2480     6.4430     7.1980    23.7930   -12.2190     2.3830 
  219.7500   103.5570     7.0580     6.2630     7.0750    23.8060   -12.0630     2.3940 
  219.8750   103.8810     6.8990     6.1130     6.9590    23.8200   -11.9030     2.4030 
  220.0000   102.6440     6.7970     6.0160     7.0770    23.8530   -11.7430     2.4080 
  220.1250   103.6270     6.7690     5.9890     7.2830    23.9270   -11.6410     2.4080 
  220.2500   108.5430     6.7910     6.0100     7.3640    23.9740   -11.6120     2.4070 
  220.3750   114.3050     6.8460     6.0620     7.3430    23.9960   -11.6380     2.4070 
  220.5000   116.3850     6.9530     6.1640     7.3270    23.9870   -11.6820     2.4110 
  220.6250   117.1580     7.2380     6.4340     7.3620    23.8970   -11.7310     2.4180 
  220.7500   126.3440     7.7620     6.9300     7.4090    23.7410   -11.7980     2.4260 
  220.8750   146.1000     8.4540     7.5870     7.4040    23.5160   -11.8600     2.4360 
  221.0000   170.1550     9.0880     8.1880     7.3650    23.2960   -11.9260     2.4450 
  221.1250   181.1450     9.3160     8.4040     7.4830    23.2850   -11.9400     2.4520 
  221.2500   170.6530     9.0860     8.1860     7.7320    23.4460   -11.9020     2.4550 
  221.3750   147.2960     8.5300     7.6590     7.8930    23.5110   -11.8270     2.4530 
  221.5000   128.3520     7.8960     7.0580     7.8230    23.1010   -11.7670     2.4460 
  221.6250   125.6070     7.4220     6.6080     7.4730    21.7300   -11.7170     2.4380 
  221.7500   129.2120     7.1200     6.3220     7.0000    20.2590   -11.6700     2.4330 
  221.8750   132.2020     6.9360     6.1480     6.7000    19.7740   -11.6180     2.4300 
  222.0000   133.5010     6.8480     6.0640     6.8090    20.6960   -11.5660     2.4240 
  222.1250   133.9880     6.9290     6.1410     7.1090    22.2170   -11.5260     2.4130 
  222.2500   133.2930     7.2140     6.4110     7.2270    23.6760   -11.4740     2.4030 
  222.3750   129.0530     7.7000     6.8720     7.4170    24.6340   -11.3810     2.4020 
  222.5000   123.4480     8.3010     7.4420     7.9450    25.1350   -11.2000     2.4150 
  222.6250   119.5700     8.7820     7.8980     8.9400    25.2820   -10.9070     2.4350 
  222.7500   117.0130     8.9150     8.0220    10.5260    25.3590   -10.5160     2.4450 
  222.8750   115.3800     8.5950     7.7140    11.8680    25.4160   -10.0480     2.4380 
  223.0000   115.7600     7.8510     7.0450    10.9780    25.4380    -9.5030     2.4170 
  223.1250   117.5220     6.8810     6.2240     8.1880    25.4300    -8.8820     2.3980 
  223.2500   116.3570     6.0450     5.5050     6.1060    25.4410    -8.2520     2.3900 
  223.3750   113.9760     5.5290     4.9950     5.2140    25.4260    -7.6630     2.3940 
  223.5000   112.2320     5.3270     4.7030     5.0380    25.4530    -7.1410     2.4000 
  223.6250   108.4310     5.3030     4.5960     5.1780    25.4750    -6.7440     2.4000 
  223.7500   102.6170     5.3070     4.5600     5.2630    25.4940    -6.4570     2.3950 
  223.8750    98.5590     5.2890     4.5330     5.0340    25.4770    -6.3080     2.3870 
  224.0000    97.4940     5.2360     4.4870     4.5900    25.4820    -6.2500     2.3820 
  224.1250    96.3510     5.1760     4.4290     4.3040    25.4880    -6.2730     2.3810 
  224.2500    95.7820     5.1520     4.3910     4.2270    25.4510    -6.3530     2.3820 
  224.3750    96.8450     5.1870     4.3940     4.2320    25.3540    -6.4850     2.3870 
  224.5000    97.1120     5.2770     4.4460     4.2370    25.2600    -6.6400     2.3980 
  224.6250    94.2930     5.4080     4.5370     4.1990    25.3180    -6.7520     2.4200 
  224.7500    92.3040     5.5470     4.6390     4.2890    25.3520    -6.8200     2.4480 
  224.8750    93.6180     5.6740     4.7320     4.5620    25.3530    -6.8020     2.4710 
  225.0000    96.9450     5.7730     4.8010     4.7720    25.3240    -6.7440     2.4760 
  225.1250    98.0460     5.8230     4.8320     4.5940    25.1210    -6.6630     2.4540 
  225.2500    93.2610     5.8280     4.8280     4.3180    24.5960    -6.5730     2.4140 
  225.3750    86.2760     5.7910     4.7940     4.1810    24.4530    -6.4510     2.3630 
  225.5000    81.0350     5.7220     4.7340     4.0830    24.4070    -6.3110     2.3060 
  225.6250    76.5420     5.6370     4.6530     3.8910    24.4000    -6.1720     2.2510 
  225.7500    72.5410     5.5530     4.5620     3.7780    24.3970    -6.0330     2.2110 
  225.8750    72.7180     5.4810     4.4700     3.8150    24.3820    -5.9220     2.1960 
  226.0000    77.9080     5.4240     4.3870     3.9230    24.2880    -5.8410     2.2110 
  226.1250    80.2590     5.3910     4.3240     4.0450    24.2720    -5.8010     2.2470 
  226.2500    76.7490     5.3800     4.2840     4.1620    24.2670    -5.7640     2.2810 
  226.3750    73.1510     5.3960     4.2740     4.2140    24.2720    -5.7280     2.3060 
  226.5000    72.2880     5.4420     4.2950     4.1700    24.2880    -5.6940     2.3220 
  226.6250    73.3710     5.5220     4.3530     4.1290    24.4000    -5.6530     2.3340 
  226.7500    73.9230     5.6210     4.4320     4.1880    24.7920    -5.6270     2.3420 
  226.8750    72.0270     5.7250     4.5150     4.4220    25.2270    -5.5780     2.3450 
  227.0000    67.7610     5.8120     4.5840     5.0350    25.3200    -5.4990     2.3430 
  227.1250    64.1570     5.8520     4.6130     6.1470    25.3650    -5.3100     2.3450 
  227.2500    64.4150     5.8430     4.5990     7.0070    25.3680    -5.0900     2.3560 
  227.3750    68.1730     5.7870     4.5430     6.8140    25.2920    -4.8520     2.3750 
  227.5000    72.5820     5.7000     4.4590     5.8300    25.2270    -4.6140     2.3960 
  227.6250    74.4260     5.6040     4.3620     5.0440    25.3180    -4.3790     2.4090 
  227.7500    74.3110     5.5270     4.2750     4.7270    25.4190    -4.1290     2.4120 
  227.8750    74.8720     5.4890     4.2190     4.6430    25.4770    -3.8920     2.4080 
  228.0000    76.9660     5.5110     4.2100     4.5700    25.4890    -3.6440     2.3980 
  228.1250    76.8670     5.6190     4.2740     4.4570    25.4790    -3.4560     2.3870 
  228.2500    73.9730     5.8000     4.4060     4.3680    25.4810    -3.2860     2.3810 
  228.3750    70.8880     6.0370     4.5980     4.3530    25.4870    -3.1310     2.3840 
  228.5000    69.4270     6.2950     4.8280     4.4530    25.4930    -2.9780     2.3960 
  228.6250    69.5210     6.5150     5.0530     4.8590    25.4980    -2.8260     2.4110 
  228.7500    69.4580     6.6550     5.2300     5.9210    25.5010    -2.6700     2.4170 
  228.8750    69.3390     6.6910     5.3300     7.4590    25.5070    -2.5010     2.4050 
  229.0000    69.6540     6.6280     5.3420     8.1150    25.5350    -2.3250     2.3760 
  229.1250    71.0640     6.4830     5.2680     6.7770    25.6000    -2.1560     2.3410 
  229.2500    73.5110     6.3090     5.1490     5.2910    25.6410    -1.9680     2.3170 
  229.3750    75.7320     6.1330     5.0130     4.7990    25.5860    -1.7580     2.3120 
  229.5000    76.6400     5.9790     4.8840     5.0380    25.4910    -1.5560     2.3250 
  229.6250    76.1730     5.8660     4.7820     5.1640    25.3910    -1.4220     2.3470 
  229.7500    75.9140     5.7980     4.7150     4.9480    25.2670    -1.3090     2.3620 
  229.8750    76.9750     5.7780     4.6840     4.6850    25.1250    -1.2600     2.3670 
