~V
VERS. 2.00: Ver 2.00
~W
STRT.M 40.0000:
STOP.M 206.0000:
STEP.M 0.1250:
NULL. -999.2500:
UWI. F10149:
~C
DEPT.M :
SP.MV :
DEN.GM/CC :
GR.API :
RML.OHMM :
RI. :
RXO.OHMM :
CALI.CM :
~A
# ...
  130.0000   -13.0070     2.4500    63.0320    17.0530    15.0700    16.6970    24.7340 
  130.1250   -13.1680     2.4160    67.4260    17.2250    14.7750    17.2580    24.7090 
  130.2500   -13.3480     2.3790    68.4610    17.7840    14.8390    17.7360    24.6220 
  130.3750   -13.5380     2.3410    67.6980    18.6320    15.2260    17.2760    24.5350 
  130.5000   -13.6780     2.3130    68.5110    19.6330    15.8490    16.9810    24.5220 
  130.6250   -13.7920     2.3070    71.8840    20.7090    16.6340    18.2050    24.5470 
  130.7500   -13.8920     2.3190    72.8260    21.8310    17.5090    19.8120    24.5700 
  130.8750   -13.9400     2.3410    70.4730    23.0420    18.4820    20.1490    24.6100 
  131.0000   -13.9590     2.3570    69.1190    24.4230    19.5900    21.3520    24.7040 
  131.1250   -13.9820     2.3570    69.5260    26.0900    20.9330    25.0390    24.8330 
  131.2500   -13.9460     2.3440    68.8320    27.9470    22.5030    28.5480    24.9520 
  131.3750   -13.8560     2.3330    67.6510    29.7230    24.1500    30.1750    25.0230 
  131.5000   -13.7330     2.3360    67.3930    30.8170    25.3950    32.8950    25.0230 
  131.6250   -13.5910     2.3610    68.7440    30.0880    25.1960    35.7340    24.9650 
  131.7500   -13.4520     2.3950    71.1650    27.4380    23.2920    37.3580    24.9360 
  131.8750   -13.3000     2.4190    73.4540    23.4710    20.1200    35.4020    24.9380 
  132.0000   -13.1900     2.4150    73.0800    19.2580    16.6090    26.3470    24.9620 
  132.1250   -13.0660     2.3760    73.7000    15.8680    13.6970    15.9640    24.9570 
  132.2500   -12.9550     2.3260    79.0670    13.5290    11.5910    12.1400    24.8800 
  132.3750   -12.8980     2.2840    84.6840    12.1400    10.2070    11.6750    24.7530 
  132.5000   -12.9090     2.2600    85.2930    11.4590     9.3810    11.9940    24.6610 
  132.6250   -12.9350     2.2560    80.8360    11.2560     9.0130    12.4120    24.6270 
  132.7500   -13.0000     2.2570    75.6700    11.2260     8.9170    11.8180    24.5970 
  132.8750   -13.1120     2.2570    72.6290    11.2590     9.0250    10.8690    24.5550 
  133.0000   -13.1960     2.2560    71.6010    11.3450     9.3020    10.7270    24.5320 
  133.1250   -13.2840     2.2600    71.1840    11.5320     9.7110    12.5920    24.5930 
  133.2500   -13.3910     2.2730    68.5750    11.7920    10.1370    14.7550    24.6560 
  133.3750   -13.4660     2.2930    65.1810    12.0400    10.4890    15.3770    24.6610 
  133.5000   -13.4770     2.3170    62.6860    12.1990    10.7010    14.4810    24.6340 
  133.6250   -13.4960     2.3360    61.1870    12.2450    10.7510    14.1450    24.6210 
  133.7500   -13.4310     2.3390    60.5360    12.2380    10.7230    14.0530    24.6100 
  133.8750   -13.2960     2.3220    61.3010    12.1710    10.6440    13.7580    24.6070 
  134.0000   -13.1470     2.2890    63.4620    11.9420    10.4670    13.7070    24.6070 
  134.1250   -12.9360     2.2540    65.3550    11.3490    10.0560    13.3510    24.6090 
  134.2500   -12.7070     2.2320    66.1450    10.3870     9.3860    13.1310    24.6130 
  134.3750   -12.4970     2.2290    68.6630     9.1780     8.4860    12.1970    24.6100 
  134.5000   -12.3110     2.2420    74.3790     7.9620     7.4710     9.9340    24.6130 
  134.6250   -12.1020     2.2630    80.3200     7.0450     6.5370     8.0220    24.6360 
  134.7500   -11.9350     2.2770    81.8200     6.5200     5.8140     7.0510    24.6790 
  134.8750   -11.8190     2.2810    79.5010     6.3600     5.3480     6.0430    24.7250 
  135.0000   -11.7370     2.2750    76.1630     6.4320     5.1170     5.7870    24.7510 
  135.1250   -11.7100     2.2670    73.1490     6.5190     5.0680     6.9760    24.7310 
  135.2500   -11.7030     2.2670    72.6700     6.4680     5.0740     8.6990    24.7070 
  135.3750   -11.7390     2.2740    75.1330     6.3130     5.0870     8.9980    24.6950 
  135.5000   -11.8290     2.2840    77.8540     6.2220     5.1230     7.7680    24.6970 
  135.6250   -11.9350     2.2910    76.5310     6.4260     5.2720     6.2560    24.6890 
  135.7500   -12.0540     2.2890    73.7090     6.9250     5.5880     6.7190    24.6650 
  135.8750   -12.1870     2.2810    73.6230     7.6400     6.0880     8.5530    24.6300 
  136.0000   -12.3290     2.2710    76.1460     8.4320     6.7210    10.0680    24.6070 
  136.1250   -12.5210     2.2640    77.4210     9.1640     7.3580    10.0980    24.6000 
  136.2500   -12.7140     2.2600    75.6940     9.7970     7.8730     9.9410    24.6020 
  136.3750   -12.8510     2.2580    74.6660    10.3250     8.2340    10.2320    24.6070 
  136.5000   -12.9210     2.2540    77.0560    10.7230     8.4760    10.6570    24.6200 
  136.6250   -12.9910     2.2470    79.4520    10.8760     8.6070    10.6990    24.6300 
  136.7500   -13.0190     2.2390    77.3060    10.7260     8.5770    10.9180    24.6350 
  136.8750   -13.0320     2.2310    74.4140    10.2390     8.3080    11.0940    24.6280 
  137.0000   -13.0550     2.2260    76.4910     9.4720     7.8040    10.7300    24.6060 
  137.1250   -13.0420     2.2260    81.4590     8.5800     7.1760     9.4670    24.5640 
  137.2500   -12.9970     2.2320    84.0340     7.7860     6.6090     8.0270    24.5350 
  137.3750   -12.9810     2.2400    84.8430     7.2320     6.1960     7.1270    24.5250 
  137.5000   -12.9940     2.2480    87.8770     7.0160     5.9800     7.3360    24.5240 
  137.6250   -12.9990     2.2550    92.3280     7.2130     6.0010     8.2170    24.5180 
  137.7500   -13.0650     2.2600    92.8370     7.6810     6.2090     8.6890    24.5060 
  137.8750   -13.1350     2.2630    89.1820     8.3250     6.5880     8.3100    24.4920 
  138.0000   -13.1900     2.2630    85.3200     9.0880     7.1210     8.5760    24.4820 
  138.1250   -13.2160     2.2590    82.5210     9.9630     7.8150     9.9430    24.4740 
  138.2500   -13.2600     2.2500    77.8060    10.8920     8.6010    12.1350    24.4730 
  138.3750   -13.3130     2.2380    72.0960    11.7930     9.3930    13.9910    24.4980 
  138.5000   -13.3850     2.2270    69.6720    12.5870    10.0650    15.3360    24.5380 
  138.6250   -13.4900     2.2210    70.0670    13.2220    10.4780    16.4460    24.5590 
  138.7500   -13.5920     2.2220    68.8110    13.7110    10.6710    17.0120    24.5720 
  138.8750   -13.7040     2.2260    67.3110    14.0480    10.7250    16.3260    24.5930 
  139.0000   -13.7880     2.2300    69.6580    14.2390    10.7380    15.2200    24.6210 
  139.1250   -13.9190     2.2310    72.3940    14.3070    10.8030    14.9960    24.6550 
  139.2500   -14.0780     2.2290    69.2550    14.3710    10.9540    15.1790    24.6680 
  139.3750   -14.2040     2.2240    63.0640    14.5200    11.2050    15.2310    24.6670 
  139.5000   -14.3250     2.2190    60.9860    14.7810    11.5450    15.5760    24.6570 
  139.6250   -14.4070     2.2190    64.2560    15.1080    11.9200    15.8640    24.6450 
  139.7500   -14.4500     2.2220    65.8690    15.3880    12.2400    16.2600    24.6270 
  139.8750   -14.4840     2.2290    64.2930    15.5690    12.4510    16.3340    24.5960 
  140.0000   -14.5260     2.2380    63.0520    15.6300    12.5360    15.9620    24.5650 
  140.1250   -14.5490     2.2470    65.8580    15.5630    12.4820    15.5710    24.5660 
  140.2500   -14.5420     2.2550    68.0580    15.4380    12.3470    15.6440    24.6120 
  140.3750   -14.5160     2.2600    65.8470    15.3210    12.1830    15.8040    24.6950 
  140.5000   -14.4470     2.2570    62.7680    15.2710    12.0570    15.8390    24.8210 
  140.6250   -14.3660     2.2430    64.1600    15.4130    12.0760    15.5960    24.9620 
  140.7500   -14.3010     2.2210    65.7790    15.8320    12.2930    15.9330    25.0320 
  140.8750   -14.2530     2.1990    63.8760    16.5830    12.7370    17.1060    25.0450 
  141.0000   -14.2270     2.1820    58.9470    17.6150    13.3790    18.0970    25.0580 
  141.1250   -14.1860     2.1770    55.4380    18.7330    14.1300    18.6720    25.0150 
