~V
VERS. 2.00: Ver 2.00
~W
STRT.M 52.0000:
STOP.M 216.0000:
STEP.M 0.1250:
NULL. -999.2500:
UWI. F10126:
~C
DEPT.M :
DEN.GM/CC :
GR.API :
RML.OHMM :
RI. :
RXO.OHMM :
CALI.CM :
SP.MV :
~A
# ...
  130.7500     2.5250    68.5180    20.6100    18.6600    18.3980    25.0950    -1.4950 
  130.8750     2.5080    71.4900    20.6040    18.7390    18.7980    25.2100    -1.5240 
  131.0000     2.5000    71.5280    20.4720    18.6530    17.6420    25.2540    -1.5140 
  131.1250     2.5030    69.9050    20.3490    18.5430    16.6830    25.2340    -1.4740 
  131.2500     2.5110    70.6770    20.3400    18.5490    16.5710    25.2040    -1.4400 
  131.3750     2.5200    72.5740    20.4360    18.6960    17.1930    25.2030    -1.4300 
  131.5000     2.5270    74.8530    20.5080    18.8770    17.5780    25.2290    -1.4430 
  131.6250     2.5310    76.9620    20.3020    18.8120    18.0630    25.2430    -1.4690 
  131.7500     2.5320    78.2130    19.7030    18.3220    18.0540    25.2400    -1.5040 
  131.8750     2.5320    79.5220    18.7330    17.4060    17.1320    25.1820    -1.5450 
  132.0000     2.5360    81.6800    17.5630    16.2610    14.9390    25.0050    -1.5660 
  132.1250     2.5470    83.2430    16.5080    15.2210    12.3220    24.7170    -1.5480 
  132.2500     2.5630    83.1810    15.8180    14.5280    11.0080    24.4500    -1.4750 
  132.3750     2.5780    82.5570    15.6140    14.3010    11.0310    24.2560    -1.3780 
  132.5000     2.5830    83.2830    15.8700    14.5580    11.5440    24.0880    -1.2550 
  132.6250     2.5760    84.3710    16.4180    15.2200    12.5480    24.0600    -1.0860 
  132.7500     2.5620    85.1690    16.8980    15.9180    13.8080    24.1660    -0.9290 
  132.8750     2.5470    86.8150    17.0470    16.2970    15.4460    24.5090    -0.8060 
  133.0000     2.5350    87.6900    16.7380    16.1250    16.6640    24.9970    -0.6860 
  133.1250     2.5300    85.7180    16.0130    15.4140    14.9580    25.2050    -0.5520 
  133.2500     2.5290    82.3280    15.2340    14.5930    12.9520    25.2550    -0.4470 
  133.3750     2.5300    78.5490    14.7230    13.9910    11.5200    25.2310    -0.3800 
  133.5000     2.5320    74.6390    14.7050    13.8270    11.4690    25.1960    -0.3560 
  133.6250     2.5340    70.3570    15.2790    14.2650    13.7750    25.1930    -0.3630 
  133.7500     2.5310    68.8020    16.1480    15.1140    15.8210    25.2430    -0.3660 
  133.8750     2.5240    70.7120    17.0150    16.1250    16.3020    25.1700    -0.4030 
  134.0000     2.5110    73.9410    17.6010    16.9530    16.8130    24.9030    -0.5240 
  134.1250     2.4950    75.4310    17.6310    17.1720    16.9390    24.4900    -0.7570 
  134.2500     2.4820    75.2620    17.1890    16.7920    16.0730    24.2610    -1.0640 
  134.3750     2.4790    75.3340    16.4590    16.0190    14.3420    24.2430    -1.3960 
  134.5000     2.4870    75.5130    15.7200    15.1710    13.5110    24.4770    -1.7280 
  134.6250     2.5030    76.0680    15.3410    14.6230    12.4630    24.8410    -2.0850 
  134.7500     2.5150    79.2930    15.4750    14.5610    11.8920    24.9690    -2.4360 
  134.8750     2.5170    84.4370    16.1480    15.0620    12.4410    24.7650    -2.7340 
  135.0000     2.5070    86.9320    17.2420    16.0670    14.2510    24.4150    -2.9830 
  135.1250     2.4910    83.4260    18.5210    17.3910    17.0310    24.3000    -3.1820 
  135.2500     2.4770    80.2390    19.6870    18.6640    19.6380    24.5360    -3.3260 
  135.3750     2.4680    81.2230    20.6130    19.6670    20.2710    25.0950    -3.4600 
  135.5000     2.4610    84.9840    21.3280    20.3690    18.7230    25.5510    -3.6170 
  135.6250     2.4530    85.9560    22.0260    20.9680    18.8620    25.7200    -3.8170 
  135.7500     2.4430    85.9180    22.9410    21.7670    20.4000    25.7700    -4.0600 
  135.8750     2.4350    88.0710    24.1960    22.9220    22.8880    25.8240    -4.3460 
  136.0000     2.4300    91.2440    25.7900    24.4440    25.5450    25.9120    -4.6650 
  136.1250     2.4270    92.8210    27.6360    26.2320    25.9270    26.0080    -5.0600 
  136.2500     2.4240    93.2620    29.5100    28.0460    26.5150    26.0870    -5.5190 
  136.3750     2.4190    94.0470    31.2370    29.7300    26.1120    26.1330    -5.9730 
  136.5000     2.4140    94.1280    32.6490    31.1560    26.8680    26.1650    -6.4050 
  136.6250     2.4100    92.7510    33.5250    32.0880    29.6030    26.2380    -6.8420 
  136.7500     2.4030    91.6020    33.9230    32.4820    32.1150    26.3810    -7.3270 
  136.8750     2.3920    89.2370    34.0770    32.4560    33.0930    26.4890    -7.8610 
  137.0000     2.3730    84.5280    34.5780    32.4280    34.9210    26.4840    -8.4500 
  137.1250     2.3470    77.9090    36.6380    33.2540    37.5950    26.4520    -9.0840 
  137.2500     2.3210    74.1230    40.8770    35.6230    43.9210    26.4620    -9.7470 
  137.3750     2.2980    73.7600    47.5510    40.2270    48.0740    26.4900   -10.4730 
  137.5000     2.2810    74.5260    56.4540    47.5320    62.8070    26.2900   -11.2510 
  137.6250     2.2700    73.9460    66.9730    57.5780    79.9270    25.7290   -12.0290 
  137.7500     2.2610    71.5620    77.3320    68.2460    87.3510    25.0480   -12.7680 
  137.8750     2.2520    69.3660    85.8560    77.1430    87.6010    24.5530   -13.4590 
  138.0000     2.2440    69.1430    91.3410    82.4220    92.4940    24.2920   -14.0590 
  138.1250     2.2360    70.8780    93.3200    83.5640    90.9270    24.2190   -14.5390 
  138.2500     2.2280    71.5860    93.6120    82.9580    90.1870    24.2140   -14.9420 
  138.3750     2.2190    71.1460    93.7750    82.3460    83.1400    24.3940   -15.2620 
  138.5000     2.2090    71.8290    95.1460    82.9320    79.7830    25.0230   -15.5020 
  138.6250     2.2020    72.3940    99.0610    85.9180    84.9850    26.1740   -15.6410 
  138.7500     2.1990    70.5830   105.5440    91.4730    88.9780    26.9550   -15.6960 
  138.8750     2.1990    68.0640   114.2960    99.5930    96.6370    27.2350   -15.6830 
  139.0000     2.2000    67.3530   124.2430   109.5880   107.5790    27.2540   -15.6180 
  139.1250     2.1920    68.2880   132.9570   119.4820   121.2470    27.2060   -15.5000 
  139.2500     2.1720    68.6380   137.9640   126.3510   135.1570    27.1450   -15.3630 
  139.3750     2.1460    66.8290   137.6550   127.8560   140.8590    27.0700   -15.2350 
  139.5000     2.1240    63.1850   131.8890   123.3030   135.1570    27.0390   -15.1070 
  139.6250     2.1260    61.9970   121.7950   113.7720   111.0470    27.0180   -14.9810 
  139.7500     2.1520    65.8170   110.6570   103.0130    86.5310    26.8380   -14.8740 
  139.8750     2.1880    70.6510   100.5130    93.2790    61.3220    26.4620   -14.7920 
  140.0000     2.2150    72.0430    92.5730    85.8120    42.4940    25.9930   -14.7510 
  140.1250     2.2170    72.2960    87.6220    81.3180    38.5560    25.6740   -14.7140 
  140.2500     2.2020    73.6230    84.9400    79.0310    45.7110    25.7520   -14.6440 
  140.3750     2.1830    74.1190    84.0360    78.4950    63.3310    26.1190   -14.5260 
  140.5000     2.1700    73.8100    84.4050    79.2070    84.6140    26.4760   -14.3890 
  140.6250     2.1680    75.3430    85.7000    80.7640   101.5580    26.6040   -14.2060 
  140.7500     2.1740    76.0690    87.5070    82.7910    93.6540    26.6190   -13.9420 
  140.8750     2.1890    73.8540    89.8630    85.2520    79.1680    26.5740   -13.5870 
  141.0000     2.2080    71.2170    92.9420    88.0470    78.6870    26.4730   -13.1600 
  141.1250     2.2200    72.1460    96.5720    90.8830    79.8440    26.3510   -12.7550 
  141.2500     2.2210    73.7010    99.5670    93.3010    87.8820    26.3240   -12.3900 
  141.3750     2.2140    72.4120   100.6320    94.6460    86.3520    26.3220   -12.0340 
  141.5000     2.2120    70.4750    98.9510    94.0570    70.5200    26.2550   -11.6780 
  141.6250     2.2250    71.8290    94.1460    90.5300    61.3490    26.0700   -11.4050 
  141.7500     2.2480    73.9750    87.4710    84.8820    61.0640    25.7410   -11.2380 
  141.8750     2.2720    74.4940    79.9400    78.1430    58.2450    25.2910   -11.1690 
