~V
VERS. 2.00: Ver 2.00
~W
STRT.M 40.0000:
STOP.M 206.0000:
STEP.M 0.1250:
NULL. -999.2500:
UWI. F10149:
~C
DEPT.M :
SP.MV :
DEN.GM/CC :
GR.API :
RML.OHMM :
RI. :
RXO.OHMM :
CALI.CM :
~A
# ...
  186.2500    -8.7100     2.3880    64.8620     7.8400     6.2620     8.6110    24.4960 
  186.3750    -8.6780     2.3660    65.7590     7.8850     6.3140     8.6410    24.5110 
  186.5000    -8.7040     2.3330    66.7750     7.9360     6.3420     8.5680    24.5300 
  186.6250    -8.7330     2.3060    70.1030     8.0270     6.3610     9.5020    24.5410 
  186.7500    -8.6700     2.2920    74.0620     8.1060     6.3620    10.4950    24.5330 
  186.8750    -8.5850     2.2900    73.5800     8.1130     6.3230     9.6420    24.4880 
  187.0000    -8.5200     2.2920    67.6910     8.0210     6.2400     7.8420    24.4190 
  187.1250    -8.4060     2.2910    63.3750     7.8640     6.1410     6.5900    24.3630 
  187.2500    -8.2950     2.2890    62.5870     7.7500     6.0760     6.6450    24.3650 
  187.3750    -8.1790     2.2960    60.8110     7.7500     6.0830     7.4520    24.3610 
  187.5000    -8.0260     2.3140    56.7150     7.8680     6.1700     8.5550    24.3200 
  187.6250    -7.8800     2.3390    54.4790     8.0470     6.3180     8.1310    24.2750 
  187.7500    -7.8030     2.3540    55.7620     8.1950     6.4670     8.1020    24.2560 
  187.8750    -7.7410     2.3550    58.2580     8.2700     6.5770     8.0720    24.2130 
  188.0000    -7.6840     2.3430    59.8320     8.2780     6.6300     7.5800    24.1560 
  188.1250    -7.6480     2.3290    60.8780     8.2750     6.6390     7.0630    24.1440 
  188.2500    -7.5960     2.3240    61.7670     8.3180     6.6500     7.1550    24.2420 
  188.3750    -7.5670     2.3310    61.5330     8.4460     6.7070     7.7980    24.4100 
  188.5000    -7.5440     2.3480    60.3430     8.7110     6.8540     8.6270    24.5540 
  188.6250    -7.5440     2.3680    61.9500     9.1970     7.1440     9.0920    24.5970 
  188.7500    -7.5330     2.3800    67.1360     9.8230     7.5360     9.6600    24.5160 
  188.8750    -7.5100     2.3850    71.5770    10.4430     7.9590    10.2460    24.4070 
  189.0000    -7.4830     2.3880    71.5910    10.8380     8.3020    11.1070    24.3700 
  189.1250    -7.4770     2.3980    66.2140    10.7270     8.3920    12.2940    24.3820 
  189.2500    -7.5150     2.4150    61.2740    10.1930     8.2050    12.6950    24.3880 
  189.3750    -7.5160     2.4290    60.3590     9.4650     7.8190    10.9820    24.4100 
  189.5000    -7.5180     2.4310    60.3170     8.8280     7.3890     9.3830    24.4690 
  189.6250    -7.5200     2.4130    57.4150     8.5260     7.1020     8.5640    24.5400 
  189.7500    -7.5490     2.3860    55.7620     8.5460     7.0280     8.6430    24.5730 
  189.8750    -7.6050     2.3560    58.9680     8.8190     7.1660     9.3500    24.5650 
  190.0000    -7.6800     2.3300    64.7740     9.2010     7.4450    10.4280    24.5520 
  190.1250    -7.7640     2.3170    68.9460     9.4590     7.7320    10.9300    24.5340 
  190.2500    -7.8220     2.3170    70.5400     9.3860     7.9010    10.1950    24.4800 
  190.3750    -7.8640     2.3280    67.8900     8.9280     7.9090     9.1580    24.4360 
  190.5000    -7.8930     2.3430    62.9160     8.2710     7.7870     8.9650    24.4520 
  190.6250    -7.8800     2.3550    60.5220     7.8070     7.6080     8.8930    24.4700 
  190.7500    -7.7970     2.3620    60.6110     7.7390     7.4500     9.2670    24.4680 
  190.8750    -7.7030     2.3700    61.7620     8.0450     7.3480     9.5050    24.4720 
  191.0000    -7.6400     2.3840    62.4440     8.5560     7.3250     9.3850    24.4860 
  191.1250    -7.5620     2.4030    63.6600     9.0810     7.4140     9.5630    24.4910 
  191.2500    -7.4810     2.4470    66.0720     9.5490     7.6010     9.9550    24.5010 
  191.3750    -7.4520     2.4530    69.2620     9.9850     7.8590    10.5340    24.5010 
  191.5000    -7.4230     2.4310    71.5590    10.3540     8.1320    11.4840    24.4670 
  191.6250    -7.3970     2.3830    71.8750    10.4680     8.3320    11.7560    24.3470 
  191.7500    -7.4400     2.3250    71.8460    10.3040     8.4230    10.8530    24.1880 
  191.8750    -7.4830     2.2810    72.6280     9.9810     8.4190     9.7040    24.1280 
  192.0000    -7.4840     2.2630    75.1920     9.6800     8.3650    10.0250    24.2290 
  192.1250    -7.5010     2.2740    77.1020     9.5490     8.3070    11.4560    24.3900 
  192.2500    -7.4920     2.3040    72.8320     9.4340     8.1300    11.1530    24.5110 
  192.3750    -7.4580     2.3360    68.6710     9.2460     7.9250     9.9180    24.5270 
  192.5000    -7.4570     2.3590    67.7190     8.9220     7.6520     9.1300    24.4880 
  192.6250    -7.4710     2.3720    68.6690     8.5630     7.3630     9.2540    24.4550 
  192.7500    -7.4630     2.3770    67.2030     8.3100     7.1320     9.4030    24.4230 
  192.8750    -7.4710     2.3730    62.4160     8.2840     7.0450     8.8950    24.4370 
  193.0000    -7.4870     2.3640    60.2790     8.4360     7.0980     8.6160    24.4830 
  193.1250    -7.4770     2.3530    64.0870     8.6780     7.2580     8.8850    24.5240 
  193.2500    -7.4980     2.3430    69.3460     8.9000     7.4570     9.3810    24.5420 
  193.3750    -7.5350     2.3350    69.6160     9.0080     7.6160     9.6290    24.5580 
  193.5000    -7.5530     2.3320    67.3320     9.0570     7.7150     9.4970    24.5660 
  193.6250    -7.5560     2.3340    63.8830     9.1580     7.7860     9.1170    24.5580 
  193.7500    -7.5640     2.3430    59.6000     9.4130     7.8920     9.1110    24.5220 
  193.8750    -7.5650     2.3580    56.6280     9.8570     8.1080     9.4560    24.4950 
  194.0000    -7.5670     2.3750    55.2660    10.3340     8.4120    10.0430    24.4300 
  194.1250    -7.5680     2.3910    56.1640    10.6540     8.7260    12.1930    24.3290 
  194.2500    -7.5470     2.4000    59.3980    10.6500     8.9230    14.8710    24.3150 
  194.3750    -7.4860     2.3940    64.2010    10.2290     8.8400    14.1220    24.3170 
  194.5000    -7.3930     2.3750    68.1520     9.5930     8.4990    10.3650    24.3200 
  194.6250    -7.3300     2.3490    69.8140     8.9200     7.9940     8.8510    24.3570 
  194.7500    -7.3010     2.3270    69.3110     8.3410     7.4580     8.5620    24.4130 
  194.8750    -7.2690     2.3210    66.4280     7.9340     7.0250     8.5220    24.4360 
  195.0000    -7.2140     2.3300    64.3360     7.6740     6.7240     8.4400    24.4410 
  195.1250    -7.1590     2.3440    63.8640     7.5510     6.5530     8.2250    24.4310 
  195.2500    -7.1260     2.3520    62.6790     7.5550     6.4970     8.0080    24.4030 
  195.3750    -7.1170     2.3420    61.1870     7.6720     6.5540     7.8580    24.3650 
  195.5000    -7.1580     2.3200    61.5480     7.8160     6.6740     8.2910    24.3700 
  195.6250    -7.2200     2.2950    64.3330     7.9010     6.7950     8.8910    24.3820 
  195.7500    -7.2480     2.2800    65.0320     7.8440     6.8390     9.2490    24.3710 
  195.8750    -7.2630     2.2870    65.0320     7.5810     6.7200     8.9790    24.3460 
  196.0000    -7.2650     2.3090    65.0320     7.2350     6.4840     8.2620    24.3070 
  196.1250    -7.2510     2.3350    65.0320     6.9540     6.2330     6.8940    24.2870 
  196.2500    -7.2720     2.3480    65.0320     6.8670     6.0790     6.2670    24.2810 
  196.3750    -7.3240     2.3350    65.0320     7.0650     6.1320     6.6740    24.2760 
  196.5000    -7.3620     2.3090    65.0320     7.4610     6.3730     7.9380    24.3100 
  196.6250    -7.3850     2.2880    65.0320     7.9530     6.7460    10.0390    24.3310 
  196.7500    -7.3910     2.2900    65.0320     8.4090     7.1440    12.0830    24.3230 
  196.8750    -7.3940     2.3210    65.0320     8.6780     7.4110    10.4780    24.3230 
  197.0000    -7.3930     2.3620    65.0320     8.7400     7.4950     9.8680    24.3550 
  197.1250    -7.3550     2.3930    65.0320     8.6250     7.4170     9.4800    24.3910 
  197.2500    -7.2770     2.4010    65.0320     8.4190     7.2480     8.9820    24.3330 
  197.3750    -7.1620     2.3870    65.0320     8.2440     7.0820     8.5520    24.2230 
