~V
VERS. 2.00: Ver 2.00
~W
STRT.M 62.0000:
STOP.M 235.0000:
STEP.M 0.1250:
NULL. -999.2500:
UWI. F10157:
~C
DEPT.M :
SP.MV :
DEN.GM/CC :
GR.API :
RML.OHMM :
RI. :
RXO.OHMM :
CALI.CM :
~A
# ...
  163.2500    -6.4630     1.9690    60.9030   147.1020   136.5440   116.6550    25.3640 
  163.3750    -6.4210     2.0640    59.0200   148.2180   135.5750   113.3660    25.3560 
  163.5000    -6.4230     2.1510    57.3430   136.4480   121.8540   122.5130    25.3430 
  163.6250    -6.4510     2.1920    56.0480   107.7620    94.0240   125.3250    25.3220 
  163.7500    -6.5080     2.1990    57.9210    75.1080    64.4920    77.9440    25.3020 
  163.8750    -6.5770     2.1910    64.5770    48.7850    41.4660    31.5740    25.2850 
  164.0000    -6.6660     2.1830    72.7530    32.2050    27.1720    11.4790    25.2750 
  164.1250    -6.7620     2.1800    76.6950    24.7590    21.0040     8.0280    25.2730 
  164.2500    -6.8670     2.1780    76.3160    22.5750    19.8070     8.0790    25.2770 
  164.3750    -6.9710     2.1710    74.3940    24.9180    23.1170    10.8880    25.2840 
  164.5000    -7.0710     2.1580    72.4440    32.6060    31.5230    19.7630    25.2940 
  164.6250    -7.1750     2.1470    69.7530    48.8940    47.1990    51.4650    25.2990 
  164.7500    -7.2800     2.1410    66.7390    73.6180    69.2920    82.4780    25.2940 
  164.8750    -7.3880     2.1390    65.5330   103.8640    95.3600    88.4830    25.2860 
  165.0000    -7.4810     2.1390    66.3200   132.2390   120.1260    98.8410    25.2720 
  165.1250    -7.5620     2.1420    64.1920   147.8410   139.0130   128.1580    25.2490 
  165.2500    -7.6170     2.1520    59.4470   151.4250   153.6990   158.0380    25.2230 
  165.3750    -7.6850     2.1640    56.6750   157.4620   156.2030   162.2990    25.2040 
  165.5000    -7.7500     2.1670    57.2860   161.0310   155.4800   146.2050    25.1960 
  165.6250    -7.8470     2.1420    58.7880   163.2210   152.8710   139.4220    25.2020 
  165.7500    -7.9560     2.0920    59.7580   165.8720   150.6860   141.1570    25.2160 
  165.8750    -8.0920     2.0290    59.7750   170.0880   150.4540   170.4650    25.2320 
  166.0000    -8.2360     1.9710    58.5590   176.1650   152.8280   160.3420    25.2510 
  166.1250    -8.3740     1.9410    58.0160   184.4020   158.4580   126.8420    25.2360 
  166.2500    -8.4720     1.9430    57.8720   194.8310   167.1800   111.3810    25.1620 
  166.3750    -8.5020     1.9750    57.7020   208.1010   179.4780   109.6530    25.0320 
  166.5000    -8.4540     2.0260    57.9060   224.6620   195.7430   116.3050    24.8660 
  166.6250    -8.2850     2.0740    59.0620   243.4360   215.3600   135.4540    24.6890 
  166.7500    -8.0390     2.1040    59.9670   258.5950   233.0420   155.4730    24.5190 
  166.8750    -7.7220     2.1220    60.1100   261.7950   240.9470   183.2350    24.3720 
  167.0000    -7.3910     2.1400    60.2910   246.6500   232.0360   207.5240    24.2610 
  167.1250    -7.0470     2.1770    61.3350   214.1700   204.5980   334.7500    24.2120 
  167.2500    -6.7410     2.2270    62.7440   179.0780   171.5680   342.9180    24.2260 
  167.3750    -6.4690     2.2610    65.2660   151.2080   143.0850   197.7810    24.2930 
  167.5000    -6.2640     2.2480    66.7130   135.8890   125.6480   101.1460    24.4110 
  167.6250    -6.1110     2.1830    64.1910   137.9340   125.1960    91.6580    24.5720 
  167.7500    -6.0180     2.1020    59.9800   156.1150   141.3720   132.9850    24.7550 
  167.8750    -5.9530     2.0310    56.2690   191.5490   175.6280   238.4970    24.9420 
  168.0000    -5.8910     1.9900    53.2260   244.0290   227.7590   375.8510    25.1140 
  168.1250    -5.8070     1.9890    52.1220   307.3960   291.9780   403.6990    25.2440 
  168.2500    -5.6980     2.0090    52.6830   360.8400   348.5150   353.0110    25.3270 
  168.3750    -5.5500     2.0330    53.2900   385.8530   378.9980   267.9310    25.3650 
  168.5000    -5.3550     2.0510    53.8350   376.6970   374.7610   170.8990    25.3700 
  168.6250    -5.1470     2.0700    57.4080   338.9430   337.3040    88.6880    25.3710 
  168.7500    -4.9370     2.0980    62.0070   291.7120   286.7000    40.1790    25.3710 
  168.8750    -4.7430     2.1320    63.8470   247.2300   237.3600    24.3770    25.3720 
  169.0000    -4.5500     2.1620    63.5660   213.9770   199.6630    20.2640    25.3730 
  169.1250    -4.3800     2.1730    64.9170   198.9540   181.8110    20.0410    25.3700 
  169.2500    -4.1840     2.1720    66.0810   201.4270   183.2380    19.8470    25.3650 
  169.3750    -3.9670     2.1690    64.2610   223.1070   206.6550    22.5750    25.3570 
  169.5000    -3.7200     2.1680    60.4100   266.1290   256.2420    36.6410    25.3470 
  169.6250    -3.4740     2.1610    57.2250   350.9150   325.2570   169.2300    25.3370 
  169.7500    -3.2230     2.1460    54.8850   465.0790   406.4990   983.7860    25.3270 
  169.8750    -3.0170     2.1260    52.9260   586.4720   484.2340  1235.2800    25.3190 
  170.0000    -2.8430     2.1130    51.7010   680.0570   532.7870  1415.7720    25.3120 
  170.1250    -2.7410     2.1170    52.4930   686.7150   513.2340   986.1010    25.3080 
  170.2500    -2.6640     2.1300    52.9310   585.4760   419.4940   585.5900    25.3070 
  170.3750    -2.6180     2.1340    53.1080   403.6670   280.9750   427.2780    25.3030 
  170.5000    -2.5810     2.1200    54.0530   224.1240   155.7050   322.5530    25.2960 
  170.6250    -2.5670     2.0990    57.6520   115.0450    81.7700   182.2090    25.2860 
  170.7500    -2.5760     2.0920    62.4650    58.3620    42.7540    56.6760    25.2700 
  170.8750    -2.6090     2.1120    67.4970    32.3190    24.3560    15.9980    25.2320 
  171.0000    -2.6800     2.1530    73.8600    22.0390    17.0750     5.7740    25.1610 
  171.1250    -2.7650     2.1960    79.8940    20.5710    16.7390     5.1160    25.0560 
  171.2500    -2.8640     2.2180    81.2540    24.2160    20.8850     8.6370    24.9270 
  171.3750    -2.9590     2.2140    77.5470    33.7320    29.8840    13.8250    24.7840 
  171.5000    -3.0410     2.1960    72.5920    50.7600    44.4310    14.9290    24.6350 
  171.6250    -3.0590     2.1750    70.9300    77.5330    65.6050    11.9070    24.4910 
  171.7500    -3.0480     2.1550    70.0100   110.7580    91.3020    10.0200    24.3650 
  171.8750    -2.9900     2.1390    66.9240   147.6250   120.0690     9.9370    24.2690 
  172.0000    -2.9120     2.1290    62.3590   186.5060   150.9000    10.8240    24.2050 
  172.1250    -2.8090     2.1210    58.2420   222.9090   180.5200    11.6390    24.1580 
  172.2500    -2.7140     2.1130    55.8670   244.9890   200.1450    12.3280    24.1270 
  172.3750    -2.6210     2.1080    55.5900   241.4610   201.0140    13.6590    24.1270 
  172.5000    -2.5310     2.1110    58.1000   214.9320   184.8020    15.9520    24.1600 
  172.6250    -2.4630     2.1240    61.9960   182.6850   164.8380    20.3530    24.2260 
  172.7500    -2.4110     2.1370    63.7710   160.1170   152.8390    28.0670    24.3140 
  172.8750    -2.4040     2.1410    63.5400   151.7780   152.4570    41.7150    24.4160 
  173.0000    -2.4340     2.1310    62.9220   159.8840   165.6340    73.0090    24.5230 
  173.1250    -2.5270     2.1170    62.2590   192.0470   198.4440   179.4710    24.6250 
  173.2500    -2.6360     2.1090    60.9450   249.6670   252.3040   510.2740    24.7090 
  173.3750    -2.7480     2.1100    59.6630   333.5460   328.9480   662.2070    24.7670 
  173.5000    -2.8240     2.1160    59.3830   434.5510   421.7930   425.3310    24.8040 
  173.6250    -2.8790     2.1210    57.8720   522.3930   503.6560   361.6490    24.8280 
  173.7500    -2.8700     2.1230    55.2840   570.9490   549.2810   391.8260    24.8480 
  173.8750    -2.8160     2.1250    53.9950   581.7530   560.7020   475.0470    24.8650 
  174.0000    -2.7050     2.1290    55.1270   574.6650   556.5670   514.9820    24.8890 
  174.1250    -2.5920     2.1370    56.1320   566.1860   550.1530   456.3180    24.9190 
  174.2500    -2.4590     2.1460    57.0720   558.8280   542.7280   321.0020    24.9520 
  174.3750    -2.3210     2.1550    58.7730   549.8040   531.9750   220.3550    24.9840 
