~V
VERS. 2.00: Ver 2.00
~W
STRT.M 52.0000:
STOP.M 326.0000:
STEP.M 0.1250:
NULL. -999.2500:
UWI. F10108:
~C
DEPT.M :
DEN.GM/CC :
SP.MV :
GR.API :
RML.OHMM :
RI. :
RXO.OHMM :
CALI.CM :
~A
# ...
  310.7500     2.4290    -4.8840    49.9390     7.2060     6.8540     7.7350    24.4750 
  310.8750     2.4260    -4.6740    46.0060     6.6710     6.4520     7.3970    24.4930 
  311.0000     2.4190    -4.4950    42.7450     6.1200     5.9690     6.1580    24.4810 
  311.1250     2.4110    -4.3710    44.0760     5.7120     5.5450     5.0400    24.3970 
  311.2500     2.4030    -4.2620    47.5080     5.4620     5.2300     4.6980    24.2640 
  311.3750     2.3960    -4.1900    48.9180     5.3200     5.0040     4.6600    24.1670 
  311.5000     2.3920    -4.1310    46.8090     5.2070     4.8140     4.5670    24.1620 
  311.6250     2.3880    -4.0670    43.7460     5.0430     4.6010     4.6040    24.2500 
  311.7500     2.3840    -4.0180    42.0210     4.8140     4.3450     4.7260    24.3240 
  311.8750     2.3800    -3.9920    40.8340     4.5460     4.0650     4.5350    24.3300 
  312.0000     2.3750    -3.9890    38.7470     4.3020     3.8150     3.8880    24.2620 
  312.1250     2.3670    -4.0140    35.9500     4.1900     3.6880     3.4980    24.2000 
  312.2500     2.3540    -4.0810    33.5700     4.2840     3.7460     3.4300    24.2180 
  312.3750     2.3380    -4.1900    33.5120     4.6510     4.0480     3.6660    24.2880 
  312.5000     2.3240    -4.3320    37.6090     5.3220     4.6260     4.3410    24.3220 
  312.6250     2.3200    -4.4890    46.0310     6.2630     5.4800     5.7620    24.2690 
  312.7500     2.3280    -4.6560    55.0520     7.2290     6.4150     7.8100    24.1730 
  312.8750     2.3450    -4.8220    61.4770     7.9600     7.2020    10.1270    24.1080 
  313.0000     2.3640    -4.9620    63.6590     8.2180     7.6010    12.1990    24.1020 
  313.1250     2.3800    -5.0440    63.6580     7.8270     7.3850    12.7110    24.1190 
  313.2500     2.3880    -5.0900    64.3150     7.0550     6.7510    10.5590    24.0790 
  313.3750     2.3900    -5.0830    64.7510     6.1910     5.9570     7.2580    23.9570 
  313.5000     2.3880    -5.0540    63.7800     5.4880     5.2480     4.8680    23.7920 
  313.6250     2.3830    -5.0260    62.2310     5.1130     4.8000     4.1740    23.6620 
  313.7500     2.3800    -4.9650    61.9590     4.9920     4.5810     3.9740    23.6070 
  313.8750     2.3760    -4.9340    62.8170     5.0350     4.5350     3.8880    23.5970 
  314.0000     2.3710    -4.9420    64.2160     5.1410     4.5770     3.8400    23.5740 
  314.1250     2.3660    -5.0020    65.0960     5.2040     4.6110     3.9670    23.5150 
  314.2500     2.3620    -5.0840    65.3740     5.1710     4.5740     4.1070    23.4950 
  314.3750     2.3610    -5.1910    65.5700     5.0470     4.4550     3.9770    23.5550 
  314.5000     2.3620    -5.3390    64.8280     4.8750     4.2850     3.7100    23.6710 
  314.6250     2.3630    -5.5730    63.5950     4.7370     4.1320     3.5820    23.8000 
  314.7500     2.3600    -5.9050    64.2360     4.7000     4.0610     3.6330    23.8920 
  314.8750     2.3550    -6.2900    66.3560     4.8090     4.1150     3.8610    23.9490 
  315.0000     2.3460    -6.7210    67.8150     5.0950     4.3240     4.3080    24.0190 
  315.1250     2.3370    -7.2260    67.1360     5.6110     4.7420     5.3580    24.1630 
  315.2500     2.3300    -7.8050    65.9340     6.3380     5.3580     6.8160    24.3170 
  315.3750     2.3240    -8.4510    65.1720     7.2770     6.1810     8.3640    24.4340 
  315.5000     2.3180    -9.1150    65.8800     8.4050     7.2020     9.9270    24.4610 
  315.6250     2.3100    -9.7130    68.5630     9.6640     8.3920    11.4670    24.4060 
  315.7500     2.2990   -10.2270    70.2300    10.8910     9.6060    12.9280    24.3460 
  315.8750     2.2890   -10.6750    70.4290    11.9020    10.6710    13.7290    24.3430 
  316.0000     2.2860   -11.0410    70.4290    12.4920    11.3840    14.1570    24.3800 
  316.1250     2.2940   -11.2590    70.4290    12.3990    11.4610    14.7280    24.3660 
  316.2500     2.3090   -11.3290    70.4290    11.7100    10.9430    15.2400    24.2780 
  316.3750     2.3220   -11.2740    70.4290    10.5890     9.9560    14.6080    24.1810 
  316.5000     2.3260   -11.1250    70.4290     9.2960     8.7410    12.8560    24.1430 
  316.6250     2.3170   -10.9200    70.4290     8.1510     7.5950     9.9180    24.2040 
  316.7500     2.3030   -10.7090    70.4290     7.3160     6.6980     7.8540    24.2550 
  316.8750     2.2910   -10.5070    70.4290     6.8240     6.1050     6.6890    24.2430 
  317.0000     2.2840   -10.3780    70.4290     6.6260     5.7980     6.0420    24.1960 
  317.1250     2.2850   -10.3750    70.4290     6.6630     5.7510     6.1230    24.1860 
  317.2500     2.2910   -10.4720    70.4290     6.8250     5.8630     6.4820    24.2370 
  317.3750     2.2990   -10.6380    70.4290     7.0850     6.0990     6.6260    24.2830 
  317.5000     2.3070   -10.8610    70.4290     7.4420     6.4450     6.5220    24.2700 
  317.6250     2.3160   -11.1740    70.4290     7.9240     6.9140     6.9040    24.2380 
  317.7500     2.3240   -11.5270    70.4290     8.4960     7.4680     7.9180    24.2490 
  317.8750     2.3330   -11.8540    70.4290     9.1080     8.0630     9.1800    24.3030 
  318.0000     2.3410   -12.0960    70.4290     9.6890     8.6310     9.7050    24.3360 
  318.1250     2.3470   -12.2130    70.4290    10.1190     9.0610     9.5690    24.3100 
  318.2500     2.3490   -12.2560    70.4290    10.3220     9.2820     9.1970    24.2930 
  318.3750     2.3470   -12.2380    70.4290    10.2310     9.2350     9.0730    24.3180 
  318.5000     2.3430   -12.1580    70.4290     9.8220     8.9030     9.1140    24.3440 
  318.6250     2.3400   -11.9490    70.4290     9.1090     8.2970     9.5230    24.3050 
  318.7500     2.3410   -11.6210    70.4290     8.2850     7.5870     8.9290    24.2650 
  318.8750     2.3430   -11.2440    70.4290     7.5180     6.9180     7.3280    24.2870 
  319.0000     2.3450   -10.8880    70.4290     6.9360     6.4020     5.6840    24.3630 
  319.1250     2.3430   -10.5950    70.4290     6.6190     6.1090     5.7900    24.4130 
  319.2500     2.3380   -10.3290    70.4290     6.4780     5.9670     6.9010    24.3980 
  319.3750     2.3330   -10.0840    70.4290     6.4360     5.9170     8.2530    24.3650 
  319.5000     2.3300    -9.8230    70.4290     6.4310     5.9060     8.8350    24.3620 
  319.6250     2.3310    -9.6030    70.4290     6.4310     5.9050     7.6760    24.4150 
  319.7500     2.3360    -9.4310    70.4290     6.4280     5.9050     6.3880    24.4470 
  319.8750     2.3430    -9.3070    70.4290     6.4240     5.9050     5.6480    24.4210 
  320.0000     2.3540    -9.1700    70.4290     6.4200     5.9060     5.3370    24.3390 
  320.1250     2.3670    -9.0010    70.4290     6.4170     5.9070     5.0410    24.2070 
  320.2500     2.3800    -8.8650    70.4290     6.4150     5.9080     4.8010    24.0900 
  320.3750     2.3830    -8.7540    70.4290     6.4140     5.9080     4.5340    24.0330 
  320.5000     2.3690    -8.6830    70.4290     6.4120     5.9080     4.2500    24.0370 
  320.6250     2.3370    -8.6200    70.4290     6.4120     5.9060     4.0280    24.0820 
  320.7500     2.3020    -8.5920    70.4290     6.4150     5.9040     4.0260    24.1370 
  320.8750     2.2780    -8.6040    70.4290     6.4210     5.9030     4.3140    24.1920 
  321.0000     2.2700    -8.6560    70.4290     6.4270     5.9010     5.0420    24.2330 
  321.1250     2.2750    -8.7140    70.4290     6.4310     5.9000     6.3010    24.2570 
  321.2500     2.2830    -8.7560    70.4290     6.4300     5.8990     7.4670    24.2940 
  321.3750     2.2880    -8.8160    70.4290     6.4260     5.8980     7.2540    24.3660 
  321.5000     2.2950    -8.8770    70.4290     6.4200     5.8990     6.2070    24.4740 
  321.6250     2.3080    -8.9410    70.4290     6.4130     5.9000     6.2050    24.6220 
  321.7500     2.3270    -9.0080    70.4290     6.4090     5.9010     8.0420    24.7840 
  321.8750     2.3450    -9.0670    70.4290     6.4070     5.9020    11.3340    24.9190 
