~V
VERS. 2.00: Ver 2.00
~W
STRT.M 60.0000:
STOP.M 245.0000:
STEP.M 0.1250:
NULL. -999.2500:
UWI. F10162:
~C
DEPT.M :
SP.MV :
DEN.GM/CC :
GR.API :
RML.OHMM :
RI. :
RXO.OHMM :
CALI.CM :
~A
# ...
   71.2500   -18.5470     2.4570    86.9800     9.9330     8.3760    13.8900    24.0240 
   71.3750   -17.2760     2.4030    88.7090     8.3090     7.0050     7.5590    23.8220 
   71.5000   -16.2220     2.3540    88.1120     7.1610     5.9410     6.1310    23.6570 
   71.6250   -15.4750     2.3180    89.8930     6.6510     5.3610     6.5730    23.6270 
   71.7500   -14.7950     2.2860    90.9590     6.5060     5.1100     6.8080    23.8110 
   71.8750   -14.1340     2.2560    88.1620     6.5130     5.0490     6.7270    24.2370 
   72.0000   -13.6200     2.2350    84.2770     6.5090     5.0380     6.4190    24.7550 
   72.1250   -13.2200     2.2310    85.4880     6.4030     4.9700     6.0560    25.0150 
   72.2500   -12.8320     2.2390    89.6560     6.2370     4.8490     5.8350    25.0830 
   72.3750   -12.5590     2.2530    92.4270     6.0800     4.7160     5.7240    25.0920 
   72.5000   -12.4560     2.2640    91.8270     6.0070     4.6160     5.7420    25.1220 
   72.6250   -12.5360     2.2670    87.8090     6.1070     4.6090     5.7760    25.1600 
   72.7500   -12.8320     2.2620    83.7320     6.3940     4.7260     5.8520    25.1220 
   72.8750   -13.4420     2.2470    81.1160     6.8670     4.9950     6.2220    24.9110 
   73.0000   -14.3120     2.2220    78.8820     7.4810     5.4120     6.8620    24.6390 
   73.1250   -15.3090     2.1920    77.0750     8.1170     5.9240     8.5320    24.5180 
   73.2500   -16.3550     2.1670    76.9430     8.6110     6.3940    12.8770    24.5520 
   73.3750   -17.4660     2.1550    78.1210     8.8390     6.6990    19.8880    24.5080 
   73.5000   -18.5230     2.1580    79.0480     8.7630     6.7620    19.5260    24.2340 
   73.6250   -19.3950     2.1680    79.0860     8.4290     6.5760    12.3070    23.9720 
   73.7500   -20.1600     2.1740    79.1570     8.0370     6.2900     8.9660    23.8780 
   73.8750   -20.7700     2.1750    78.3780     7.7150     6.0070     8.1010    23.9270 
   74.0000   -21.1250     2.1730    76.4940     7.5270     5.7970     8.0200    23.9970 
   74.1250   -21.3110     2.1710    75.5890     7.4820     5.6980     8.0330    23.9840 
   74.2500   -21.5140     2.1730    76.2630     7.5020     5.6710     8.0490    24.0040 
   74.3750   -21.6370     2.1770    77.1730     7.5290     5.6740     8.0840    24.1460 
   74.5000   -21.5770     2.1830    77.7860     7.5240     5.6690     8.0990    24.3140 
   74.6250   -21.4370     2.1860    78.6030     7.4590     5.6240     7.9850    24.4210 
   74.7500   -21.2310     2.1870    78.0860     7.3540     5.5450     7.7820    24.5240 
   74.8750   -20.9050     2.1830    76.3240     7.2370     5.4520     7.5300    24.6810 
   75.0000   -20.5390     2.1760    75.4960     7.1410     5.3720     7.3120    24.7980 
   75.1250   -20.2350     2.1690    78.0420     7.0960     5.3380     7.2500    24.8180 
   75.2500   -19.9140     2.1620    80.1390     7.0950     5.3500     7.3270    24.7820 
   75.3750   -19.5130     2.1580    79.0430     7.1230     5.3980     7.4630    24.7590 
   75.5000   -19.1290     2.1570    76.6470     7.1750     5.4750     7.5360    24.7470 
   75.6250   -18.7810     2.1620    76.7100     7.2690     5.5840     7.5760    24.7070 
   75.7500   -18.3870     2.1700    77.8210     7.4060     5.7230     7.5370    24.6370 
   75.8750   -17.9580     2.1790    76.2910     7.5650     5.8820     7.5910    24.5740 
   76.0000   -17.5120     2.1880    72.1420     7.6840     6.0260     7.7470    24.5720 
   76.1250   -16.9780     2.2010    69.8430     7.6470     6.0640     7.8310    24.6470 
   76.2500   -16.3280     2.2200    72.0550     7.4120     5.9420     7.6780    24.7490 
   76.3750   -15.5730     2.2390    76.8500     6.9930     5.6510     7.0820    24.8960 
   76.5000   -14.7850     2.2490    83.5300     6.4620     5.2400     6.1060    25.1500 
   76.6250   -13.9900     2.2400    93.4540     5.9410     4.7960     5.3170    25.4690 
   76.7500   -13.2540     2.2250   102.9550     5.5430     4.4120     4.8340    25.6820 
   76.8750   -12.6940     2.2190   107.4480     5.3420     4.1470     4.6520    25.5910 
   77.0000   -12.3230     2.2380   106.3800     5.3840     4.0470     4.6500    25.3050 
   77.1250   -12.0890     2.2900   104.0530     5.7230     4.1740     4.7010    24.8400 
   77.2500   -12.0570     2.3520   102.7200     6.2770     4.4980     5.2200    24.5500 
   77.3750   -12.4100     2.3970    98.4600     6.9600     4.9880     6.6930    24.3930 
   77.5000   -13.0750     2.4040    89.9010     7.6440     5.5660     9.3300    24.2770 
   77.6250   -13.8800     2.3630    79.4510     8.1430     6.0830    10.5670    24.2340 
   77.7500   -14.8210     2.2970    72.3900     8.3940     6.4210     9.3720    24.3380 
   77.8750   -15.7880     2.2290    70.2350     8.4240     6.5540     8.5320    24.5640 
   78.0000   -16.5880     2.1750    69.5430     8.3390     6.5400     8.3670    24.8830 
   78.1250   -17.2760     2.1480    65.9620     8.2730     6.4850     8.3720    25.2410 
   78.2500   -17.9410     2.1420    61.5060     8.2920     6.4710     8.2440    25.3710 
   78.3750   -18.4720     2.1510    59.8070     8.3820     6.5020     8.0910    25.2300 
   78.5000   -18.7960     2.1680    61.5310     8.4970     6.5460     7.9790    24.8830 
   78.6250   -19.0690     2.1830    64.9120     8.6000     6.5760     8.1170    24.5960 
   78.7500   -19.2950     2.1890    66.8110     8.6980     6.6060     8.3010    24.3930 
   78.8750   -19.4170     2.1860    66.8600     8.8160     6.6580     8.4250    24.3560 
   79.0000   -19.5480     2.1770    65.3350     8.9770     6.7510     8.4960    24.4980 
   79.1250   -19.7690     2.1650    65.7440     9.1820     6.8840     8.6120    24.6520 
   79.2500   -20.0700     2.1540    68.2000     9.3770     7.0230     8.7590    24.7860 
   79.3750   -20.4510     2.1450    70.6560     9.5000     7.1270     8.7930    24.8820 
   79.5000   -20.9780     2.1370    71.5190     9.4980     7.1590     8.6640    24.9140 
   79.6250   -21.6300     2.1340    69.1400     9.3420     7.0970     8.7750    24.8230 
   79.7500   -22.2520     2.1340    66.0280     9.1090     6.9770     9.1110    24.5930 
   79.8750   -22.8840     2.1360    63.9220     8.8730     6.8380     9.4690    24.3520 
   80.0000   -23.6130     2.1360    63.0950     8.6960     6.7150     9.6070    24.2380 
   80.1250   -24.3760     2.1310    64.3960     8.6100     6.6370     9.7010    24.2510 
   80.2500   -24.9870     2.1220    67.0230     8.5790     6.5950     9.9060    24.3110 
   80.3750   -25.3830     2.1120    69.7300     8.5730     6.5710     9.7220    24.3650 
   80.5000   -25.6090     2.1070    70.2680     8.5630     6.5510     9.3060    24.3660 
   80.6250   -25.6140     2.1090    67.8870     8.5220     6.5210     9.0340    24.2760 
   80.7500   -25.4820     2.1140    65.0700     8.4370     6.4710     8.9160    24.1290 
   80.8750   -25.3360     2.1200    62.9060     8.2990     6.3960     8.8010    24.0460 
   81.0000   -25.1430     2.1240    62.3910     8.1130     6.2890     8.7080    24.0530 
   81.1250   -24.7470     2.1250    61.6190     7.9160     6.1460     8.7670    24.1400 
   81.2500   -24.1980     2.1260    59.3470     7.8050     6.0010     8.7690    24.2480 
   81.3750   -23.6000     2.1280    55.8190     7.9090     5.9340     8.7320    24.3520 
   81.5000   -22.9410     2.1380    52.0720     8.3560     6.0660     8.7660    24.4350 
   81.6250   -22.1560     2.1770    51.1760     9.2340     6.5400     9.2330    24.5160 
   81.7500   -21.3480     2.2460    54.3780    10.2960     7.2700    11.2130    24.6760 
   81.8750   -20.4400     2.3260    60.4680    11.1790     8.0550    17.5980    24.9320 
   82.0000   -19.3750     2.3870    66.4950    11.4700     8.5380    30.7290    25.1840 
   82.1250   -18.3170     2.3930    71.7180    10.8270     8.2730    27.0550    25.2970 
   82.2500   -17.4360     2.3600    77.1790     9.6330     7.4610    12.3810    25.2960 
   82.3750   -16.8040     2.3200    81.3130     8.3820     6.4990     6.8560    25.2880 
