~V
VERS. 2.00: Ver 2.00
~W
STRT.M 60.0000:
STOP.M 245.0000:
STEP.M 0.1250:
NULL. -999.2500:
UWI. F10162:
~C
DEPT.M :
SP.MV :
DEN.GM/CC :
GR.API :
RML.OHMM :
RI. :
RXO.OHMM :
CALI.CM :
~A
# ...
   93.7500   -12.5690     2.1600    84.3490     8.1140     6.4290     8.2630    24.5910 
   93.8750   -13.0570     2.1790    84.8260     8.3710     6.6710     8.4570    24.6770 
   94.0000   -13.4610     2.2030    84.4890     8.6310     6.9090     8.6550    24.8010 
   94.1250   -13.7780     2.2240    81.9550     8.8580     7.1320     9.0330    24.9140 
   94.2500   -13.9930     2.2360    77.9340     9.0150     7.3180     9.3800    24.9990 
   94.3750   -14.0780     2.2400    75.8320     9.0490     7.4160     9.5490    24.9940 
   94.5000   -14.0990     2.2300    77.7680     8.9140     7.3670     9.7460    24.9720 
   94.6250   -14.0180     2.2010    82.6300     8.5960     7.1230    10.5040    25.0510 
   94.7500   -13.8230     2.1640    83.3150     8.2280     6.7810    10.5140    25.2590 
   94.8750   -13.5990     2.1320    79.0180     7.9650     6.4590     8.4260    25.5380 
   95.0000   -13.3080     2.1230    74.4680     7.9520     6.2860     6.8800    25.6330 
   95.1250   -12.9420     2.1510    75.0700     8.3200     6.4070     8.0600    25.4000 
   95.2500   -12.6660     2.2030    80.0440     8.9630     6.8000    10.0490    25.1550 
   95.3750   -12.5640     2.2610    85.4290     9.7270     7.3990    10.7210    24.9960 
   95.5000   -12.5630     2.3050    90.3070    10.4080     8.0730    10.3860    24.8580 
   95.6250   -12.5880     2.3190    93.3560    10.7520     8.5910    10.0840    24.6430 
   95.7500   -12.6860     2.3100    93.4860    10.7270     8.8180    10.1140    24.3970 
   95.8750   -12.8790     2.2850    90.3880    10.3970     8.7470    10.1620    24.2030 
   96.0000   -13.1210     2.2560    84.9640     9.9010     8.4660    10.0460    24.0780 
   96.1250   -13.4320     2.2300    78.5700     9.4040     8.0980     9.8760    23.9860 
   96.2500   -13.7530     2.2110    72.2430     9.0140     7.7640     9.7830    23.8940 
   96.3750   -14.0350     2.2020    68.4350     8.7680     7.5150     9.5610    23.7800 
   96.5000   -14.1860     2.2030    67.8940     8.6590     7.3570     9.1750    23.6760 
   96.6250   -14.2160     2.2100    68.6650     8.6560     7.2750     9.0810    23.7370 
   96.7500   -14.2790     2.2170    67.4630     8.6850     7.2260     9.2750    23.9190 
   96.8750   -14.3170     2.2190    64.1770     8.7010     7.1860     9.4220    24.1410 
   97.0000   -14.2790     2.2170    62.9930     8.6760     7.1400     9.2160    24.2870 
   97.1250   -14.2160     2.2110    68.2130     8.6010     7.0790     8.9580    24.3350 
   97.2500   -14.0930     2.2060    73.9710     8.5010     7.0090     8.9050    24.3160 
   97.3750   -13.8550     2.2030    73.7210     8.3980     6.9400     8.8690    24.2810 
   97.5000   -13.6270     2.2020    69.2220     8.3130     6.8840     8.8830    24.2900 
   97.6250   -13.5510     2.2050    68.8530     8.2730     6.8630     8.9520    24.3930 
   97.7500   -13.4740     2.2130    71.9300     8.2820     6.8800     8.9660    24.4450 
   97.8750   -13.3380     2.2260    74.0890     8.3440     6.9380     8.9500    24.4590 
   98.0000   -13.1880     2.2430    73.7070     8.4490     7.0340     9.0270    24.4620 
   98.1250   -13.0480     2.2560    72.5440     8.5860     7.1570     9.2990    24.4700 
   98.2500   -12.9220     2.2630    69.8680     8.7390     7.2830    10.0930    24.5160 
   98.3750   -12.8350     2.2620    68.7510     8.9110     7.4070    11.4960    24.6400 
   98.5000   -12.8350     2.2520    72.2060     9.1170     7.5460    12.9340    24.7930 
   98.6250   -12.8900     2.2360    76.4920     9.3840     7.7340    12.1530    24.9280 
   98.7500   -12.9320     2.2170    77.3740     9.6990     7.9800    11.4700    25.0170 
   98.8750   -13.0080     2.1990    76.1920    10.0190     8.2630    11.3490    25.0710 
   99.0000   -13.1750     2.1850    74.4460    10.2700     8.5210    11.6230    25.0630 
   99.1250   -13.3660     2.1800    71.5000    10.3200     8.6380    11.6540    24.9520 
   99.2500   -13.5670     2.1810    70.2690    10.1350     8.5700    11.0690    24.7530 
   99.3750   -13.8130     2.1870    73.3960     9.7460     8.3310    10.3130    24.4890 
   99.5000   -14.1260     2.1950    75.8990     9.2520     7.9950     9.9870    24.2300 
   99.6250   -14.4340     2.2030    72.8250     8.8050     7.6720    10.0280    24.0140 
   99.7500   -14.7150     2.2100    69.8300     8.4980     7.4290    10.0570    23.8810 
   99.8750   -15.0360     2.2170    69.6990     8.3460     7.2800    10.1170    23.7440 
  100.0000   -15.3570     2.2280    72.3210     8.3070     7.2040    10.1320    23.6050 
  100.1250   -15.6630     2.2420    73.4740     8.3180     7.1740    10.0400    23.4360 
  100.2500   -16.0290     2.2570    70.6620     8.3240     7.1630     9.9410    23.3150 
  100.3750   -16.4640     2.2650    66.0550     8.3200     7.1640     9.9320    23.3210 
  100.5000   -16.8270     2.2630    64.0740     8.3210     7.1740     9.9790    23.4340 
  100.6250   -17.1480     2.2460    66.5360     8.3380     7.1830     9.9530    23.6520 
  100.7500   -17.5690     2.2190    68.4510     8.3620     7.1840     9.9780    23.9150 
  100.8750   -17.9450     2.1920    68.6710     8.3780     7.1790    10.2290    24.1050 
  101.0000   -18.2310     2.1740    67.5460     8.3800     7.1760    10.7340    24.1560 
  101.1250   -18.5300     2.1710    65.5870     8.3770     7.1900    10.4430    24.1470 
  101.2500   -18.8060     2.1820    64.9600     8.3830     7.2200    10.1970    24.1360 
  101.3750   -19.0020     2.2000    68.9340     8.3990     7.2620    10.1510    24.1210 
  101.5000   -19.1620     2.2170    74.6640     8.4150     7.3060    10.2060    24.0970 
  101.6250   -19.3530     2.2290    74.9420     8.4120     7.3340    10.3010    24.0870 
  101.7500   -19.4750     2.2370    70.5050     8.3890     7.3340    10.3710    24.0910 
  101.8750   -19.5410     2.2440    65.9630     8.3590     7.3050    10.3800    24.0990 
  102.0000   -19.6480     2.2550    65.0060     8.3380     7.2630    10.3860    24.0770 
  102.1250   -19.7710     2.2650    64.8940     8.3380     7.2330    10.3700    24.0450 
  102.2500   -19.8770     2.2700    63.4250     8.3440     7.2270    10.3390    24.0490 
  102.3750   -19.9490     2.2630    63.5770     8.3320     7.2340    10.3820    24.1130 
  102.5000   -20.0000     2.2450    65.9860     8.2750     7.2250    10.4090    24.2240 
  102.6250   -20.0190     2.2240    66.6430     8.1570     7.1560    10.3640    24.3700 
  102.7500   -20.0100     2.2090    64.0140     8.0010     7.0260    10.0860    24.4810 
  102.8750   -20.0020     2.2030    61.0210     7.8370     6.8500     9.7000    24.4250 
  103.0000   -19.9610     2.2030    59.0080     7.7010     6.6660     9.2260    24.2400 
  103.1250   -19.8570     2.2030    58.9220     7.6380     6.5350     9.1250    24.1770 
  103.2500   -19.6780     2.2020    63.2770     7.6580     6.4900     9.1630    24.4010 
  103.3750   -19.4080     2.2010    70.4040     7.7590     6.5360     9.3630    24.7670 
  103.5000   -19.0560     2.2020    75.3190     7.9240     6.6490     9.5480    25.0380 
  103.6250   -18.6820     2.2020    75.7770     8.1130     6.7800     9.8930    25.1960 
  103.7500   -18.2910     2.1940    75.7620     8.2780     6.8810     9.9690    25.4170 
  103.8750   -17.8500     2.1710    76.0950     8.4040     6.9540     9.9790    25.6930 
  104.0000   -17.3930     2.1360    76.4370     8.5230     7.0380     9.9800    25.9240 
  104.1250   -16.9350     2.1160    76.3950     8.7570     7.2280     9.8960    25.9690 
  104.2500   -16.4940     2.1430    75.8660     9.2070     7.5890     9.7800    25.8050 
  104.3750   -16.1430     2.2270    74.4860     9.9050     8.1620     9.7660    25.3830 
  104.5000   -15.9290     2.3520    72.1820    10.7550     8.9110    10.0910    24.8160 
  104.6250   -15.8190     2.4630    71.4330    11.4610     9.6470    10.4340    24.6190 
  104.7500   -15.8120     2.5160    71.4400    11.7350    10.0790    10.8480    24.6830 
  104.8750   -15.9260     2.5000    71.5480    11.4450    10.0060    11.4160    24.7640 
