~V
VERS. 2.00: Ver 2.00
~W
STRT.M 62.0000:
STOP.M 275.0000:
STEP.M 0.1250:
NULL. -999.2500:
UWI. F10141:
~C
DEPT.M :
GR.API :
RML.OHMM :
RI. :
RXO.OHMM :
CALI.CM :
DEN.GM/CC :
SP.MV :
~A
# ...
  242.0000    76.9510    35.6630    37.5240    33.7860    24.8770     2.2830    -8.6900 
  242.1250    78.4180    36.7310    38.5430    35.1090    24.8630     2.2750    -8.8220 
  242.2500    78.4440    38.3390    40.1570    37.7140    24.8560     2.2760    -8.9640 
  242.3750    77.1150    40.0270    41.9180    42.4840    24.8440     2.2880    -9.1380 
  242.5000    74.7800    41.4480    43.4390    43.0700    24.8230     2.3110    -9.3220 
  242.6250    71.3870    42.6090    44.6180    43.7220    24.8230     2.3340    -9.5220 
  242.7500    68.3220    44.1480    45.9910    43.3800    24.7910     2.3420    -9.7540 
  242.8750    68.3510    46.9020    48.3300    40.7510    24.6430     2.3330    -9.9800 
  243.0000    70.2010    51.6790    52.4420    39.2220    24.3740     2.3100   -10.1640 
  243.1250    69.5760    59.2620    59.2030    45.3470    24.3020     2.2830   -10.3350 
  243.2500    67.9100    68.4620    67.6510    64.5890    24.4390     2.2630   -10.5190 
  243.3750    68.7390    77.1880    75.9020    87.6840    24.6920     2.2530   -10.7080 
  243.5000    72.9250    82.6020    81.3100   107.7700    24.8520     2.2530   -10.9220 
  243.6250    76.0560    82.0530    81.2540   103.1390    24.8910     2.2640   -11.1070 
  243.7500    74.2730    77.8820    77.5650    80.1130    24.8550     2.2820   -11.1930 
  243.8750    69.7300    73.2860    73.0230    61.3610    24.7860     2.3050   -11.2520 
  244.0000    67.0490    71.0590    70.2910    56.1840    24.7520     2.3270   -11.3720 
  244.1250    67.5050    73.3410    71.5980    65.5120    24.7840     2.3340   -11.5100 
  244.2500    67.3210    79.5260    76.6370    73.9370    24.8380     2.3240   -11.6280 
  244.3750    67.2350    88.6340    84.6350    89.5420    24.8160     2.3010   -11.6880 
  244.5000    68.7410    98.6820    93.8270   115.0060    24.7050     2.2750   -11.6950 
  244.6250    68.8120   106.2600   101.0990   127.1230    24.6930     2.2560   -11.7050 
  244.7500    66.4030   109.7660   104.7780   128.1890    24.7200     2.2430   -11.7370 
  244.8750    64.2140   109.9880   105.3390   124.3330    24.7230     2.2350   -11.7890 
  245.0000    64.2810   109.5250   104.9340   110.0900    24.7240     2.2260   -11.8070 
  245.1250    65.1470   112.1440   106.9370    94.8080    24.7280     2.2190   -11.7610 
  245.2500    65.4300   119.7090   113.3660    94.2470    24.7300     2.2130   -11.6730 
  245.3750    65.5800   132.4380   124.7040   128.3010    24.7300     2.2080   -11.5960 
  245.5000    64.7010   147.8750   138.9490   177.2580    24.7300     2.2040   -11.5050 
  245.6250    61.8330   158.2010   149.5750   200.1570    24.7300     2.2020   -11.4140 
  245.7500    59.0390   156.1460   150.0890   196.3070    24.7300     2.2050   -11.3260 
  245.8750    57.4210   140.9070   138.7940   184.6530    24.7300     2.2130   -11.1800 
  246.0000    58.1760   118.8910   120.0410   155.9770    24.7240     2.2240   -10.9930 
  246.1250    61.8920    98.5480   101.1050   105.4680    24.6910     2.2310   -10.7450 
  246.2500    66.0330    83.2810    86.3020    70.8050    24.6250     2.2320   -10.4870 
  246.3750    67.5750    73.0990    76.2450    61.2870    24.5380     2.2250   -10.2030 
  246.5000    66.5150    67.1570    70.3270    59.4230    24.4470     2.2150    -9.9050 
  246.6250    65.1420    65.0310    68.2190    57.1940    24.3830     2.2080    -9.5980 
  246.7500    65.3390    65.3160    68.5780    55.6020    24.4100     2.2080    -9.3010 
  246.8750    66.0910    67.2960    70.6980    57.9300    24.4770     2.2150    -9.0470 
  247.0000    67.4960    70.2710    73.8560    64.3370    24.5130     2.2270    -8.8590 
  247.1250    70.0370    73.2670    77.0800    70.8430    24.4720     2.2470    -8.7710 
  247.2500    71.8760    74.9480    79.0190    75.0970    24.3840     2.2730    -8.7180 
  247.3750    71.4500    74.4110    78.6820    74.8390    24.3440     2.3050    -8.6820 
  247.5000    69.7520    71.9060    76.1640    75.8150    24.4130     2.3340    -8.6970 
  247.6250    70.6970    69.2080    73.0540    80.6040    24.5690     2.3480    -8.7220 
  247.7500    71.9620    68.4680    71.5470    72.5600    24.6620     2.3420    -8.6970 
  247.8750    70.2350    70.9250    72.9780    59.6850    24.6680     2.3180    -8.6620 
  248.0000    67.2350    76.8860    77.8130    79.0490    24.5890     2.2840    -8.6060 
  248.1250    65.9680    85.5990    85.4880   113.1310    24.5430     2.2530    -8.5110 
  248.2500    65.2770    94.0420    93.1850   145.7010    24.5310     2.2330    -8.3960 
  248.3750    63.6870    99.5040    98.4390   129.1110    24.5340     2.2230    -8.3010 
  248.5000    62.9360   100.5960    99.9120    94.3910    24.5190     2.2180    -8.2130 
  248.6250    66.1830    98.2680    98.1660    80.2660    24.4420     2.2150    -8.1890 
  248.7500    71.0240    95.9800    96.1920    73.6120    24.2930     2.2080    -8.2660 
  248.8750    72.5410    95.2710    95.5490    73.0710    24.1440     2.2020    -8.3690 
  249.0000    68.4800    95.6960    96.0790    80.8200    24.0620     2.2000    -8.4520 
  249.1250    61.8620    94.9970    95.8670    91.2510    24.0900     2.2100    -8.5060 
  249.2500    60.0080    91.5730    93.2750    97.9500    24.2590     2.2320    -8.5110 
  249.3750    63.9740    85.3970    88.0080    95.9900    24.4490     2.2590    -8.4540 
  249.5000    69.3210    77.7060    80.9730    83.9270    24.5470     2.2840    -8.3180 
  249.6250    71.3300    70.3510    73.8110    68.9360    24.5340     2.3040    -8.0500 
  249.7500    70.7730    64.4870    67.8460    56.9290    24.4850     2.3230    -7.6550 
  249.8750    70.7790    60.4880    63.5900    48.6610    24.4100     2.3510    -7.2130 
  250.0000    72.4300    58.2800    61.0700    47.4920    24.3590     2.3900    -6.8090 
  250.1250    73.5050    57.4000    59.9110    51.5170    24.4400     2.4320    -6.4510 
  250.2500    74.0830    56.3160    58.6230    61.7350    24.5270     2.4600    -6.1500 
  250.3750    75.4560    53.6630    55.8160    71.7530    24.5890     2.4610    -5.8850 
  250.5000    75.5140    48.9330    50.9270    61.1630    24.6160     2.4290    -5.6720 
  250.6250    72.3920    43.1700    44.9310    38.8320    24.5770     2.3690    -5.4860 
  250.7500    69.3800    38.5820    39.9610    22.5980    24.5020     2.3040    -5.3140 
  250.8750    69.1420    36.6860    37.4490    17.8340    24.4410     2.2510    -5.1950 
  251.0000    68.2040    38.4690    38.3860    18.7860    24.3430     2.2220    -5.0830 
  251.1250    63.2530    45.2910    44.2610    36.0790    24.2580     2.2240    -5.0000 
  251.2500    59.2000    56.5890    54.5930    63.7180    24.2320     2.2410    -4.9490 
  251.3750    58.1560    71.5020    68.3220    83.0150    24.2000     2.2620    -4.9140 
  251.5000    59.5880    87.3360    82.5420    86.8640    24.1690     2.2800    -4.8300 
  251.6250    61.6540    98.3510    91.9130    87.8680    24.1580     2.2940    -4.6930 
  251.7500    62.4560   101.8610    94.4410    85.1120    24.1640     2.3100    -4.5600 
  251.8750    62.4940    99.0550    91.2370    81.5920    24.2140     2.3380    -4.3840 
  252.0000    62.5120    93.2850    85.1670    77.7550    24.2690     2.3860    -4.1770 
  252.1250    62.3270    87.9750    79.3350    73.4430    24.2860     2.4570    -3.9050 
  252.2500    62.4090    85.3170    75.8590    64.1130    24.2580     2.5360    -3.5310 
  252.3750    63.7660    86.6100    75.9680    55.6070    24.1960     2.6080    -3.0840 
  252.5000    64.9610    92.6010    80.3650    59.2370    24.1630     2.6650    -2.6190 
  252.6250    62.4280   103.7170    89.4030    86.5880    24.1910     2.7010    -2.2100 
  252.7500    59.8700   116.2690    99.8820   112.4210    24.2250     2.7200    -1.8050 
  252.8750    59.2980   123.2730   106.4500   115.3090    24.2280     2.7190    -1.3730 
  253.0000    57.8570   115.3470   101.7840   108.2880    24.2200     2.6920    -0.9480 
  253.1250    53.0550    89.2730    80.9940   102.9490    24.1790     2.6330    -0.5430 
