~V
VERS. 2.00: Ver 2.00
~W
STRT.M 49.0000:
STOP.M 223.0000:
STEP.M 0.1250:
NULL. -999.2500:
UWI. F10156:
~C
DEPT.M :
SP.MV :
GR.API :
RML.OHMM :
RI. :
RXO.OHMM :
CALI.CM :
DEN.GM/CC :
~A
# ...
  116.5000   -11.4380    72.6290     8.6170     7.7610     8.9940    23.2940     2.2710 
  116.6250   -11.3460    73.7940     7.5480     6.8180     8.4370    23.3110     2.2500 
  116.7500   -11.2700    71.2700     7.2410     6.3810     8.2200    23.2290     2.2440 
  116.8750   -11.2030    67.3010     7.2950     6.2490     8.1210    23.0530     2.2420 
  117.0000   -11.1220    63.9040     7.5180     6.3180     8.2640    22.8960     2.2420 
  117.1250   -10.9920    64.2510     7.7940     6.4990     8.4620    22.8850     2.2420 
  117.2500   -10.9070    68.4410     8.0820     6.7330     8.6180    23.0260     2.2400 
  117.3750   -10.8400    71.7310     8.3700     6.9700     8.8370    23.1710     2.2350 
  117.5000   -10.7820    71.6280     8.6070     7.1650     9.0480    23.2110     2.2320 
  117.6250   -10.6990    69.1640     8.7040     7.2600     9.0780    23.1890     2.2340 
  117.7500   -10.5440    69.8340     8.5320     7.1640     8.9710    23.1340     2.2440 
  117.8750   -10.4130    72.8940     8.1330     6.8980     9.0190    23.1310     2.2590 
  118.0000   -10.2910    73.8230     7.6130     6.5230     8.8280    23.1740     2.2790 
  118.1250   -10.1990    72.2200     7.1380     6.1440     7.7730    23.2300     2.2950 
  118.2500   -10.1300    71.0800     6.9100     5.8960     6.5380    23.2310     2.2990 
  118.3750   -10.0370    71.7190     6.9660     5.8230     6.4740    23.1810     2.2890 
  118.5000    -9.9580    71.5430     7.2730     5.9280     6.8630    23.1280     2.2690 
  118.6250    -9.8880    68.6120     7.7440     6.1740     7.2610    23.0840     2.2480 
  118.7500    -9.8690    65.5230     8.2400     6.5020     7.4790    22.9990     2.2360 
  118.8750    -9.8270    64.7200     8.6030     6.8010     7.5800    22.8590     2.2320 
  119.0000    -9.7700    67.5720     8.7230     6.9830     7.7070    22.7470     2.2390 
  119.1250    -9.6980    71.1620     8.5640     6.9890     7.8830    22.7750     2.2530 
  119.2500    -9.5640    71.3750     8.1610     6.8050     7.8610    23.0120     2.2680 
  119.3750    -9.4540    71.0530     7.7200     6.5540     7.3660    23.2730     2.2790 
  119.5000    -9.3490    72.3270     7.4040     6.3400     6.5210    23.4070     2.2840 
  119.6250    -9.2350    74.8680     7.3090     6.2370     6.1730    23.3820     2.2830 
  119.7500    -9.1540    75.2700     7.4330     6.2640     6.4910    23.2680     2.2750 
  119.8750    -9.0850    72.8990     7.5940     6.3260     6.9530    23.2200     2.2670 
  120.0000    -9.0260    70.1580     7.6270     6.3220     7.0710    23.2890     2.2600 
  120.1250    -8.9600    70.1860     7.4210     6.1750     6.8270    23.4650     2.2600 
  120.2500    -8.9050    75.9550     6.9640     5.8600     6.3190    23.7010     2.2710 
  120.3750    -8.8710    83.8710     6.4420     5.4820     5.7250    23.9750     2.2920 
  120.5000    -8.8380    88.7890     5.9890     5.1290     5.4460    24.1930     2.3150 
  120.6250    -8.8260    89.4840     5.6720     4.8490     5.3770    24.2670     2.3330 
  120.7500    -8.7980    90.0340     5.5160     4.6770     5.6060    24.1300     2.3430 
  120.8750    -8.7740    92.1520     5.5000     4.6080     5.9500    23.9680     2.3460 
  121.0000    -8.8090    93.7490     5.6690     4.6660     6.1750    23.9620     2.3430 
  121.1250    -8.8680    91.4190     6.1030     4.8930     6.1880    24.0500     2.3390 
  121.2500    -8.9550    85.4790     6.9020     5.3580     6.6340    23.9650     2.3310 
  121.3750    -9.0510    77.7180     7.9460     6.0160     8.4120    23.6880     2.3190 
  121.5000    -9.1430    69.9850     9.0370     6.7780    11.3490    23.4400     2.3100 
  121.6250    -9.2470    64.0870     9.8890     7.4740    12.6700    23.4140     2.3030 
  121.7500    -9.3190    61.1030    10.1380     7.8450    11.5530    23.4490     2.2870 
  121.8750    -9.3630    60.3330     9.8620     7.8640    10.3470    23.4660     2.2610 
  122.0000    -9.3610    61.3450     9.3400     7.6620     9.9800    23.4370     2.2350 
  122.1250    -9.3080    63.0730     8.9510     7.4560     9.9450    23.3490     2.2230 
  122.2500    -9.2210    62.9510     9.0570     7.4720     9.9760    23.2200     2.2260 
  122.3750    -9.0670    62.6960     9.5790     7.7240    10.2550    23.1550     2.2310 
  122.5000    -8.8810    65.3160    10.2280     8.0990    10.7160    23.1760     2.2320 
  122.6250    -8.6730    68.2290    10.5570     8.3500    11.2300    23.2650     2.2290 
  122.7500    -8.4240    70.6130    10.0360     8.1110    10.9560    23.4020     2.2290 
  122.8750    -8.1790    75.9290     8.8160     7.3970     9.7580    23.4780     2.2420 
  123.0000    -7.9280    85.4070     7.3200     6.4440     8.0020    23.5710     2.2710 
  123.1250    -7.7390    92.6880     6.0460     5.5590     5.9800    23.8190     2.3060 
  123.2500    -7.5610    91.4870     5.4200     5.0100     5.0330    24.0920     2.3250 
  123.3750    -7.4340    89.5890     5.3750     4.7990     4.9100    24.1680     2.3220 
  123.5000    -7.3580    90.2040     5.7480     4.8700     5.3570    24.0770     2.3050 
  123.6250    -7.2880    90.7570     6.2920     5.1090     6.1130    23.8800     2.2860 
  123.7500    -7.2710    86.8910     6.6640     5.3360     6.7550    23.6500     2.2770 
  123.8750    -7.2450    83.0670     6.6710     5.3980     6.7210    23.5490     2.2780 
  124.0000    -7.2280    85.1170     6.3060     5.2480     6.0670    23.6390     2.2870 
  124.1250    -7.2270    91.0490     5.7200     4.9480     5.2410    23.8830     2.2990 
  124.2500    -7.2170    91.6730     5.1930     4.6410     5.0070    24.0980     2.3130 
  124.3750    -7.2050    86.9040     4.9690     4.4800     5.3530    24.1810     2.3290 
  124.5000    -7.1930    84.0670     5.1960     4.5590     5.6410    24.1830     2.3440 
  124.6250    -7.1780    86.2500     5.9330     4.9330     5.8450    24.0910     2.3590 
  124.7500    -7.2050    85.9350     7.1670     5.6430     7.2220    23.9050     2.3700 
  124.8750    -7.2540    79.9460     8.5350     6.5130    10.1860    23.7820     2.3730 
  125.0000    -7.3070    71.8670     9.6190     7.2960    12.2590    23.7450     2.3590 
  125.1250    -7.3300    66.7010    10.0180     7.6900    11.8430    23.7290     2.3240 
  125.2500    -7.3330    67.7170     9.4630     7.4370     9.7560    23.7760     2.2840 
  125.3750    -7.3270    72.6590     8.3600     6.7680     8.1560    23.9320     2.2620 
  125.5000    -7.2710    79.6190     7.0930     5.9410     6.7850    24.0860     2.2660 
  125.6250    -7.2390    86.3340     5.9710     5.1760     6.2140    24.1680     2.2900 
  125.7500    -7.1870    91.4670     5.2950     4.6710     6.4790    24.0910     2.3190 
  125.8750    -7.1290    93.4670     5.2280     4.5080     7.2320    23.8160     2.3490 
  126.0000    -7.0980    91.6830     6.0090     4.7960     7.0360    23.5940     2.3890 
  126.1250    -7.0560    86.5160     7.8590     5.6690     7.1910    23.7270     2.4400 
  126.2500    -7.0650    78.8040    11.0240     7.4020    10.8420    23.9740     2.4980 
  126.3750    -7.0740    71.9620    14.8800     9.8630    21.0050    24.1240     2.5440 
  126.5000    -7.1010    67.0970    18.2840    12.5340    31.2400    24.1430     2.5570 
  126.6250    -7.1350    64.3330    19.6090    14.2280    30.1660    24.0610     2.5180 
  126.7500    -7.1330    63.3320    17.5970    13.5910    20.9030    23.8950     2.4350 
  126.8750    -7.1440    66.6290    14.0460    11.5820    16.7130    23.8210     2.3570 
  127.0000    -7.1000    74.0120    10.6100     9.3560    15.6790    23.8760     2.3120 
  127.1250    -7.0560    82.0690     8.0960     7.5400    15.0700    24.0190     2.3010 
  127.2500    -7.0250    89.7050     6.6710     6.3380    11.5750    24.1880     2.3100 
  127.3750    -6.9700    97.9900     5.9090     5.5690     7.5950    24.3090     2.3220 
  127.5000    -6.9290   103.1610     5.6040     5.1440     5.5930    24.4280     2.3330 
  127.6250    -6.8730   101.1250     5.6080     4.9920     5.0900    24.5010     2.3410 
