~V
VERS. 2.00: Ver 2.00
~W
STRT.M 55.0000:
STOP.M 228.0000:
STEP.M 0.1250:
NULL. -999.2500:
UWI. F10142:
~C
DEPT.M :
DEN.GM/CC :
GR.API :
RML.OHMM :
RI. :
RXO.OHMM :
CALI.CM :
SP.MV :
~A
# ...
  178.7500     2.1720    64.4850   245.8080   236.2470   235.0530    25.4150   -16.2810 
  178.8750     2.1620    64.6340   244.0540   233.6290   234.3550    25.3970   -16.3280 
  179.0000     2.1560    61.6720   240.9010   230.2510   244.7900    25.2960   -16.3630 
  179.1250     2.1590    57.9570   235.2710   225.1730   256.5770    25.1500   -16.3910 
  179.2500     2.1680    57.6640   227.5570   218.4930   249.4280    25.0310   -16.4430 
  179.3750     2.1800    59.0960   218.6630   210.8860   236.1090    24.9890   -16.4990 
  179.5000     2.1900    58.3060   209.9960   203.5740   230.3970    24.9910   -16.5400 
  179.6250     2.1990    57.0220   203.4030   198.3310   215.0870    24.9880   -16.5820 
  179.7500     2.2070    58.6780   199.4740   195.7800   221.1420    24.9890   -16.6350 
  179.8750     2.2140    61.1290   198.1360   195.9060   217.7460    24.9960   -16.6790 
  180.0000     2.2190    60.4650   198.5870   197.9500   209.9300    24.9920   -16.7110 
  180.1250     2.2150    58.4010   199.3650   200.4500   211.8640    25.0200   -16.7300 
  180.2500     2.2030    58.2450   198.8450   201.6320   211.3950    25.1600   -16.7140 
  180.3750     2.1880    59.5840   196.0890   200.3470   202.9570    25.3970   -16.6490 
  180.5000     2.1780    60.7870   190.8410   196.1100   193.4150    25.5310   -16.5400 
  180.6250     2.1790    62.0060   183.3220   188.9440   177.5130    25.5680   -16.3820 
  180.7500     2.1900    62.5630   174.9490   180.4730   164.7560    25.5990   -16.1410 
  180.8750     2.2050    62.6420   166.8580   172.0150   151.9870    25.6250   -15.8310 
  181.0000     2.2220    63.5960   160.1170   164.7430   143.7840    25.6350   -15.4480 
  181.1250     2.2350    65.2680   156.1290   160.0000   143.8190    25.6370   -14.9600 
  181.2500     2.2450    65.0820   155.4190   158.2680   150.2190    25.6300   -14.4440 
  181.3750     2.2480    64.1280   158.9480   160.5120   157.0310    25.6300   -13.9420 
  181.5000     2.2440    64.0120   168.0320   168.1170   165.7240    25.6450   -13.4520 
  181.6250     2.2310    62.1100   186.0390   184.4460   172.4900    25.6740   -13.0160 
  181.7500     2.2130    57.7770   214.2020   210.4400   215.5410    25.6860   -12.6620 
  181.8750     2.1940    53.4510   254.0150   246.8090   332.3320    25.6960   -12.3860 
  182.0000     2.1800    51.7800   303.9340   291.2190   459.2410    25.6990   -12.1890 
  182.1250     2.1750    51.9180   355.3150   335.3430   450.6790    25.6920   -12.1080 
  182.2500     2.1760    52.5710   394.2210   367.8440   396.8030    25.6840   -12.0760 
  182.3750     2.1780    54.2830   412.1920   382.0590   365.7940    25.6870   -12.0530 
  182.5000     2.1790    56.4120   410.0730   378.6810   335.9840    25.6850   -12.0300 
  182.6250     2.1770    57.1940   396.2120   364.3550   313.0150    25.6870   -12.0060 
  182.7500     2.1760    55.7440   382.0430   349.2970   310.4360    25.6940   -11.9630 
  182.8750     2.1780    54.0730   370.6800   337.0780   334.5170    25.6930   -11.8790 
  183.0000     2.1830    53.9740   361.1940   327.7760   325.0960    25.6840   -11.7680 
  183.1250     2.1900    54.6270   351.1210   319.9530   274.6800    25.6830   -11.6450 
  183.2500     2.1950    54.2560   339.3980   312.0670   248.8230    25.6780   -11.5200 
  183.3750     2.1920    52.8290   326.7290   303.8680   269.9520    25.6490   -11.3860 
  183.5000     2.1790    52.3260   314.8750   295.8350   291.1190    25.6280   -11.2490 
  183.6250     2.1550    53.3720   306.5020   289.1580   283.5300    25.6270   -11.1100 
  183.7500     2.1270    54.0960   302.4650   284.6260   261.3290    25.6290   -10.9650 
  183.8750     2.1070    54.4940   302.9710   282.8290   268.0070    25.6230   -10.8200 
  184.0000     2.1130    55.0640   307.5010   284.0070   303.7100    25.6090   -10.6570 
  184.1250     2.1680    55.4550   315.3290   288.3830   330.4850    25.5600   -10.4540 
  184.2500     2.2620    53.9230   324.5710   294.8110   352.7970    25.4510   -10.2290 
  184.3750     2.3760    50.3990   334.2830   302.5150   388.8820    25.3060   -10.0010 
  184.5000     2.4840    47.7370   344.3140   311.0750   422.4910    25.2050    -9.7530 
  184.6250     2.5650    48.1770   356.4400   321.7040   398.6470    25.1700    -9.4710 
  184.7500     2.6200    49.9980   373.7250   336.8960   394.5560    25.1880    -9.1890 
  184.8750     2.6610    50.8860   400.1220   360.1040   482.7190    25.1910    -8.8970 
  185.0000     2.6970    51.1000   439.1260   394.2190   655.5870    25.1300    -8.6060 
  185.1250     2.7280    53.1910   490.2970   440.0280   816.9330    25.0460    -8.3400 
  185.2500     2.7500    57.4400   529.2570   483.6510  1297.8510    25.0190    -8.0750 
  185.3750     2.7600    60.7330   516.8810   499.3720  1691.2460    25.0460    -7.7910 
  185.5000     2.7530    59.5670   428.6840   459.1310  1274.8040    25.0700    -7.5320 
  185.6250     2.7290    55.1510   287.2710   352.2080   901.0070    25.0850    -7.3040 
  185.7500     2.6930    54.0710   162.3000   227.1170   530.1220    25.0580    -7.0560 
  185.8750     2.6460    58.0280    82.9420   124.1590   170.1300    24.9590    -6.8480 
  186.0000     2.5920    66.4210    42.7860    60.1230    41.5360    24.8820    -6.6830 
  186.1250     2.5370    79.8070    25.5720    31.3010    14.9290    24.9520    -6.5310 
  186.2500     2.4940    93.7740    16.6610    17.9210     9.4690    25.1470    -6.4300 
  186.3750     2.4710   100.5120    11.9130    11.9510     8.7610    25.2400    -6.3800 
  186.5000     2.4680    98.5850     9.4310     9.3840     9.3620    25.2340    -6.3420 
  186.6250     2.4750    93.8080     8.6090     8.5460    10.2390    25.2180    -6.3190 
  186.7500     2.4750    89.3490     8.6430     8.4000    10.8170    25.2250    -6.3230 
  186.8750     2.4650    84.6700     8.9770     8.5870    10.5400    25.2520    -6.3000 
  187.0000     2.4480    77.5210     9.2270     8.8550     9.5590    25.2760    -6.2680 
  187.1250     2.4290    67.3430     9.2820     9.0150     8.9530    25.2740    -6.2290 
  187.2500     2.4090    58.5430     9.1810     9.0220     9.0490    25.2720    -6.1340 
  187.3750     2.3840    55.7230     8.9640     8.8820     9.5490    25.2870    -6.0070 
  187.5000     2.3540    57.8620     8.6550     8.6200     9.0680    25.3050    -5.8650 
  187.6250     2.3250    57.7610     8.2580     8.2530     8.1790    25.3490    -5.6670 
  187.7500     2.3040    56.0070     7.8250     7.8320     6.4310    25.3750    -5.4410 
  187.8750     2.2920    57.3120     7.4120     7.3950     6.0240    25.3850    -5.2340 
  188.0000     2.2880    61.3920     7.0790     6.9900     5.8700    25.3910    -5.0230 
  188.1250     2.2940    65.0880     6.8930     6.6830     5.6400    25.4140    -4.8080 
  188.2500     2.3150    69.2210     6.8570     6.5050     5.3680    25.4180    -4.6330 
  188.3750     2.3560    74.7190     6.9600     6.4700     5.2730    25.3390    -4.4850 
  188.5000     2.4130    78.9950     7.1650     6.5650     5.4050    25.2370    -4.3580 
  188.6250     2.4700    79.4930     7.3990     6.7380     5.6590    25.2080    -4.3040 
  188.7500     2.5020    79.5440     7.5600     6.8870     5.7340    25.2230    -4.2790 
  188.8750     2.4980    79.6160     7.5770     6.9320     5.6800    25.2480    -4.2480 
  189.0000     2.4590    78.4810     7.4240     6.8320     5.3110    25.2700    -4.2300 
  189.1250     2.4020    75.4750     7.1270     6.5910     5.0010    25.2950    -4.2240 
  189.2500     2.3580    69.7260     6.8000     6.3020     4.8760    25.2780    -4.2270 
  189.3750     2.3420    62.1770     6.5220     6.0330     4.8840    25.1740    -4.2390 
  189.5000     2.3560    55.7140     6.3410     5.8260     5.0550    25.0630    -4.2540 
  189.6250     2.3910    52.9270     6.2790     5.7040     4.9600    24.9460    -4.2820 
  189.7500     2.4210    51.9530     6.2990     5.6450     4.8580    24.7990    -4.3330 
  189.8750     2.4370    53.1680     6.3830     5.6360     4.7590    24.6180    -4.3950 
