~V
VERS. 2.00: Ver 2.00
~W
STRT.M 63.0000:
STOP.M 308.0000:
STEP.M 0.1250:
NULL. -999.2500:
UWI. F10102:
~C
DEPT.M :
DEN.GM/CC :
SP.MV :
GR.API :
RML.OHMM :
RI. :
RXO.OHMM :
CALI.CM :
~A
# ...
  141.7500     2.4140    -8.5150    74.6600    10.0650     8.4670     8.8130    23.9600 
  141.8750     2.3960    -9.1710    76.1470     9.2140     7.7490     7.0360    23.9550 
  142.0000     2.3650    -9.8370    77.9910     8.6330     7.1910     7.0280    23.9360 
  142.1250     2.3290   -10.4240    78.8880     8.4940     6.9660     8.0550    23.8550 
  142.2500     2.2960   -11.0420    76.7840     8.7920     7.1160     9.4590    23.7820 
  142.3750     2.2770   -11.6720    73.6350     9.4250     7.6270    10.3850    23.7850 
  142.5000     2.2730   -12.1120    72.9980    10.1280     8.3010    10.6700    23.8570 
  142.6250     2.2790   -12.4170    74.1330    10.6930     8.9630    10.1980    23.9760 
  142.7500     2.2890   -12.5340    74.9980    10.9470     9.4290    10.1800    24.0900 
  142.8750     2.2940   -12.2410    74.7150    10.7260     9.4830    10.4410    24.1580 
  143.0000     2.2960   -11.6460    74.9290    10.1480     9.1340    10.0010    24.1780 
  143.1250     2.2980   -10.8390    75.9090     9.3940     8.4890     8.5550    24.2200 
  143.2500     2.3050    -9.9940    75.6830     8.7280     7.7740     7.1330    24.3210 
  143.3750     2.3260    -9.2640    72.7380     8.5110     7.3140     6.4280    24.4230 
  143.5000     2.3650    -8.6260    70.3110     8.8510     7.2920     6.4610    24.4690 
  143.6250     2.4180    -8.0520    71.2860     9.7000     7.7790     6.8900    24.4310 
  143.7500     2.4740    -7.5340    73.6080    10.7690     8.6890     8.7740    24.3680 
  143.8750     2.5070    -7.0470    73.5300    11.4290     9.6010    12.7220    24.3410 
  144.0000     2.5050    -6.6130    73.7230    11.2450     9.8490    16.4780    24.3370 
  144.1250     2.4720    -6.2240    76.2850    10.2140     9.1470    14.1570    24.3490 
  144.2500     2.4260    -5.7780    79.4060     8.7910     7.8600     8.9450    24.4090 
  144.3750     2.3970    -5.4380    80.1130     7.7800     6.7390     5.8230    24.5050 
  144.5000     2.4010    -5.2660    79.9650     7.6710     6.2240     5.1520    24.4790 
  144.6250     2.4410    -5.0700    79.4590     8.6780     6.5000     6.4200    24.2450 
  144.7500     2.5080    -4.8780    77.4210    10.8560     7.7280     9.7630    24.0630 
  144.8750     2.5790    -4.8420    73.6480    14.2500    10.2840    16.6290    24.0940 
  145.0000     2.6320    -4.8710    69.3140    18.2220    13.9390    23.5730    24.2330 
  145.1250     2.6530    -5.0580    65.7760    22.0430    18.1170    24.9690    24.3450 
  145.2500     2.6470    -5.5120    63.9610    24.9540    21.7950    21.1100    24.3800 
  145.3750     2.6290    -6.0090    65.8990    26.3260    23.9250    20.3780    24.3520 
  145.5000     2.6130    -6.4890    69.6330    26.5860    24.7920    22.3970    24.3280 
  145.6250     2.6030    -7.1000    71.8100    26.1730    24.8390    25.8030    24.2540 
  145.7500     2.5950    -7.7810    70.1770    25.4420    24.4110    27.1890    24.0770 
  145.8750     2.5860    -8.4700    67.8800    24.5810    23.6420    26.3190    23.9290 
  146.0000     2.5760    -9.1620    69.0380    23.7420    22.7250    23.0680    23.8850 
  146.1250     2.5660    -9.6500    72.1050    23.0510    21.8410    19.9480    23.9170 
  146.2500     2.5580    -9.9020    73.4730    22.6100    21.1700    18.8280    23.9830 
  146.3750     2.5510    -9.9680    71.1210    22.4800    20.8340    19.1470    24.0120 
  146.5000     2.5440    -9.9290    67.5620    22.5400    20.7390    18.6220    24.0270 
  146.6250     2.5380    -9.7340    66.2820    22.6900    20.8080    17.7930    24.0680 
  146.7500     2.5330    -9.3040    68.0770    22.8550    20.9690    18.0650    24.2100 
  146.8750     2.5320    -8.6840    70.7390    22.9900    21.1550    18.8020    24.4750 
  147.0000     2.5330    -8.0030    70.1820    23.0950    21.3210    18.4880    24.7050 
  147.1250     2.5410    -7.3860    67.1140    23.1850    21.4690    19.0750    24.8050 
  147.2500     2.5600    -6.8260    64.1300    23.2870    21.6040    20.1320    24.8300 
  147.3750     2.5910    -6.3620    62.2610    23.4770    21.7540    19.2830    24.7990 
  147.5000     2.6200    -5.8360    62.4570    23.8400    22.0100    20.3140    24.7410 
  147.6250     2.6320    -5.2920    65.5820    24.4570    22.4910    21.4750    24.6910 
  147.7500     2.6220    -5.0010    69.2260    25.3390    23.2660    23.4420    24.6740 
  147.8750     2.5990    -4.8390    68.2780    26.3500    24.3190    22.9750    24.6910 
  148.0000     2.5870    -4.6620    64.6280    27.1220    25.3260    23.0930    24.7260 
  148.1250     2.5930    -4.5720    63.2970    27.2760    25.8440    24.0120    24.7060 
  148.2500     2.6110    -4.5380    63.3070    26.5750    25.4750    27.2180    24.6460 
  148.3750     2.6240    -4.4710    60.0550    25.0480    24.0980    27.8410    24.6160 
  148.5000     2.6250    -4.5350    56.2360    23.3540    22.3970    27.4530    24.6080 
  148.6250     2.6210    -4.6740    55.4980    22.0580    20.9640    22.2460    24.6080 
  148.7500     2.6220    -4.6740    56.5110    21.5490    20.2310    18.3750    24.6080 
  148.8750     2.6350    -4.6050    56.5350    22.0240    20.5110    18.1510    24.6010 
  149.0000     2.6530    -4.6000    57.8730    23.0180    21.4850    19.8800    24.5800 
  149.1250     2.6680    -4.5770    60.7210    24.0380    22.7320    23.7130    24.5530 
  149.2500     2.6750    -4.6000    63.3050    24.5960    23.6970    28.5280    24.5440 
  149.3750     2.6720    -4.6910    64.6680    24.2560    23.7590    27.9570    24.5670 
  149.5000     2.6600    -4.7850    65.1480    23.2190    22.9740    26.2500    24.5690 
  149.6250     2.6410    -4.9300    63.6990    21.7940    21.6480    22.6570    24.4890 
  149.7500     2.6150    -5.1550    61.2450    20.3230    20.1730    20.1130    24.4050 
  149.8750     2.5830    -5.4830    61.2640    19.1190    18.8760    16.4030    24.4670 
  150.0000     2.5540    -5.8270    63.2690    18.2930    17.8760    14.9780    24.5140 
  150.1250     2.5330    -6.1700    65.1500    17.9450    17.2490    14.5000    24.3860 
  150.2500     2.5260    -6.4860    68.3320    18.1970    17.0970    15.1020    24.1680 
  150.3750     2.5370    -6.6940    72.2050    19.3200    17.6960    16.2530    24.0240 
  150.5000     2.5620    -6.7790    74.2030    21.2270    19.0980    17.9130    23.9300 
  150.6250     2.5940    -6.8180    75.5170    23.7260    21.3040    21.8370    23.8510 
  150.7500     2.6270    -6.8750    77.8520    26.3340    24.0160    27.7110    23.8100 
  150.8750     2.6470    -6.9230    78.6650    28.1260    26.3700    32.1230    23.8710 
  151.0000     2.6490    -6.9830    76.8170    28.5500    27.4520    32.2670    23.9860 
  151.1250     2.6330    -7.1580    75.8470    27.5510    26.9230    27.3210    24.1060 
  151.2500     2.6040    -7.3560    76.9810    25.6310    25.2110    22.4470    24.2150 
  151.3750     2.5700    -7.5810    77.0000    23.6620    23.2500    21.0500    24.2840 
  151.5000     2.5440    -7.9350    76.6680    22.3010    21.8080    20.2550    24.2910 
  151.6250     2.5330    -8.2940    77.7730    21.6890    21.0870    19.5840    24.2240 
  151.7500     2.5380    -8.5700    78.6000    21.6600    20.9940    19.4290    24.2020 
  151.8750     2.5490    -8.8640    76.9230    21.8910    21.2830    22.4590    24.2040 
  152.0000     2.5560    -9.1770    73.6890    22.0160    21.5630    24.7590    24.2180 
  152.1250     2.5540    -9.4390    70.7680    21.8920    21.6300    22.7850    24.2610 
  152.2500     2.5470    -9.7100    70.2740    21.5230    21.4260    19.5010    24.3700 
  152.3750     2.5390    -9.9060    73.9700    21.0140    20.9930    18.5100    24.4800 
  152.5000     2.5360    -9.9760    79.9260    20.5230    20.4930    19.3060    24.4860 
  152.6250     2.5340   -10.0360    83.4080    20.1280    20.0260    19.5640    24.4020 
  152.7500     2.5330   -10.0680    81.0850    19.8510    19.6600    18.9090    24.4250 
  152.8750     2.5320    -9.9930    76.3550    19.6820    19.4280    18.4000    24.6040 
