~V
VERS. 2.00: Ver 2.00
~W
STRT.M 54.0000:
STOP.M 236.0000:
STEP.M 0.1250:
NULL. -999.2500:
UWI. F10195:
~C
DEPT.M :
GR.API :
RML.OHMM :
RI. :
RXO.OHMM :
CALI.CM :
SP.MV :
DEN.GM/CC :
~A
# ...
  211.5000    74.9310    20.7380    17.6890    18.6880    23.8050   -17.3360     2.2690 
  211.6250    73.4220    20.5420    17.6830    18.0070    23.7870   -17.1950     2.2670 
  211.7500    70.6830    20.2030    17.5160    17.7590    23.7670   -17.0150     2.2670 
  211.8750    68.0070    19.8090    17.2750    17.9800    23.7580   -16.8660     2.2670 
  212.0000    69.0760    19.4740    17.0700    17.7760    23.7600   -16.7570     2.2670 
  212.1250    74.3960    19.3270    17.0130    17.0390    23.7710   -16.6460     2.2680 
  212.2500    79.3320    19.5250    17.2360    16.5960    23.7960   -16.5250     2.2680 
  212.3750    79.1650    20.0270    17.7130    17.2560    23.8240   -16.4230     2.2660 
  212.5000    74.5760    20.7350    18.3790    19.2330    23.8690   -16.3670     2.2630 
  212.6250    68.7630    21.4810    19.1080    21.9780    23.9040   -16.3530     2.2600 
  212.7500    63.8840    22.0620    19.7320    22.2110    23.9140   -16.3850     2.2600 
  212.8750    61.9150    22.4170    20.1780    21.3820    23.8980   -16.4630     2.2620 
  213.0000    64.5400    22.5590    20.4420    20.6920    23.8900   -16.5590     2.2650 
  213.1250    68.6100    22.5350    20.5440    20.9790    23.8900   -16.6640     2.2680 
  213.2500    69.8610    22.3620    20.4820    22.0390    23.8820   -16.7950     2.2700 
  213.3750    68.3540    22.0960    20.3190    22.6210    23.8460   -16.9850     2.2690 
  213.5000    68.2610    21.8190    20.1330    21.5750    23.7810   -17.2200     2.2650 
  213.6250    70.4260    21.6690    20.0330    19.9210    23.7200   -17.4580     2.2570 
  213.7500    69.9750    21.8200    20.1450    19.3600    23.6810   -17.6150     2.2500 
  213.8750    67.8670    22.2210    20.4410    20.6020    23.7160   -17.6800     2.2440 
  214.0000    67.9400    22.7290    20.8360    22.4980    23.8070   -17.7230     2.2370 
  214.1250    71.6310    23.1230    21.1860    22.8270    23.8980   -17.7870     2.2290 
  214.2500    74.5550    23.1130    21.2810    21.8970    23.9800   -17.8100     2.2240 
  214.3750    72.8980    22.6780    21.0630    21.0160    24.0400   -17.7380     2.2260 
  214.5000    70.7800    21.9360    20.5810    20.3250    23.9830   -17.5840     2.2340 
  214.6250    71.9450    21.1070    19.9810    19.2460    23.7570   -17.3840     2.2410 
  214.7500    74.9340    20.4750    19.4900    17.6890    23.3560   -17.1860     2.2430 
  214.8750    74.9230    20.2380    19.2890    16.8500    22.9990   -17.0300     2.2510 
  215.0000    72.0800    20.5350    19.5090    16.9670    22.7790   -16.8930     2.2650 
  215.1250    70.3770    21.3970    20.2090    17.4630    22.7240   -16.7440     2.2680 
  215.2500    70.4110    22.7360    21.3800    19.2410    23.0570   -16.5990     2.2480 
  215.3750    69.9630    24.0980    22.6880    22.8670    23.6540   -16.4570     2.2230 
  215.5000    68.1630    25.0030    23.7210    27.4850    24.1210   -16.3420     2.2090 
  215.6250    65.9620    25.0510    24.0560    30.0680    24.4870   -16.3160     2.2060 
  215.7500    65.1210    24.1170    23.4490    27.7560    24.7110   -16.3850     2.2030 
  215.8750    65.0490    22.8980    22.4430    24.5990    24.7370   -16.4630     2.2070 
  216.0000    65.7320    22.0680    21.6200    21.2750    24.6250   -16.5820     2.2200 
  216.1250    66.5260    22.1980    21.4970    19.5000    24.5220   -16.7130     2.2350 
  216.2500    67.4530    23.8680    22.6480    20.3040    24.4490   -16.9140     2.2380 
  216.3750    67.0480    26.8280    25.0240    23.4670    24.3890   -17.1920     2.2300 
  216.5000    65.1760    30.6270    28.4030    28.9540    24.3840   -17.4880     2.2180 
  216.6250    63.0810    34.4190    32.1550    36.3750    24.4120   -17.7810     2.2100 
  216.7500    61.3550    36.7890    35.0110    43.2620    24.4800   -18.0180     2.2090 
  216.8750    60.8400    37.2240    36.1770    42.7510    24.5440   -18.2820     2.2140 
  217.0000    62.4300    36.1040    35.7260    35.7980    24.5930   -18.5180     2.2230 
  217.1250    65.0400    34.4800    34.4910    30.8860    24.5290   -18.7640     2.2310 
  217.2500    66.2990    33.5840    33.6080    30.8420    24.2630   -18.9930     2.2330 
  217.3750    66.7860    33.9450    33.7490    31.6360    24.0540   -19.2340     2.2260 
  217.5000    68.9850    35.8840    35.2900    33.7320    24.2010   -19.4750     2.2120 
  217.6250    71.4950    39.7400    38.5800    39.4160    24.4040   -19.7040     2.1980 
  217.7500    69.8710    46.3990    44.5720    47.6410    24.4540   -19.9540     2.1960 
  217.8750    65.4490    55.6400    53.3240    55.5650    24.3980   -20.1010     2.2120 
  218.0000    61.9000    66.0610    63.9060    61.9500    24.2660   -20.1830     2.2480 
  218.1250    60.4390    73.0180    72.3250    74.7380    24.0390   -20.2160     2.3100 
  218.2500    60.5120    67.2890    69.2020   115.4990    23.7510   -20.1290     2.4120 
  218.3750    63.8150    51.3800    54.7630   153.3200    23.5680   -19.9480     2.5320 
  218.5000    72.2250    33.9600    37.1130   105.8910    23.4950   -19.7210     2.6090 
  218.6250    80.1970    20.9420    23.2940    48.4670    23.6120   -19.4540     2.5880 
  218.7500    78.5580    13.6890    15.4320    23.5890    23.8730   -19.0960     2.4940 
  218.8750    69.1780     9.7610    11.0280    14.4220    24.0510   -18.7760     2.4080 
  219.0000    57.9120     7.8650     8.6920     9.1970    24.2710   -18.4830     2.3510 
  219.1250    49.9700     7.1140     7.5650     7.4810    24.7660   -18.1900     2.3170 
  219.2500    47.3680     6.9230     7.1830     7.2300    25.1120   -17.9720     2.3000 
  219.3750    47.8710     6.8050     7.0430     7.2100    25.2910   -17.7840     2.2930 
  219.5000    49.0220     6.6170     6.9230     6.8410    25.8530   -17.6470     2.2860 
  219.6250    49.9210     6.3560     6.7320     6.3200    26.4830   -17.5430     2.2710 
  219.7500    51.2080     6.1000     6.5010     5.8950    26.2390   -17.5750     2.2500 
  219.8750    51.5200     5.9290     6.3240     5.7040    25.4240   -17.6710     2.2400 
  220.0000    49.4290     5.8980     6.2710     5.7960    24.6820   -17.7900     2.2480 
  220.1250    45.3670     6.0510     6.3810     6.1200    24.2670   -18.0010     2.2730 
  220.2500    42.6080     6.4150     6.6700     6.4550    24.1850   -18.3000     2.3030 
  220.3750    42.6860     6.8850     7.0520     6.7570    23.9240   -18.6420     2.3290 
  220.5000    44.1340     7.3320     7.4290     7.1000    23.6790   -18.9560     2.3470 
  220.6250    44.7800     7.6070     7.6760     7.6380    23.5430   -19.1610     2.3530 
  220.7500    44.8230     7.5580     7.6300     7.7230    23.5230   -19.2000     2.3440 
  220.8750    45.2280     7.2500     7.3160     7.2460    23.6500   -19.1360     2.3230 
  221.0000    45.5950     6.7910     6.8230     6.5860    23.9290   -19.0450     2.2940 
  221.1250    46.4370     6.3150     6.2810     5.8910    24.0470   -18.9160     2.2570 
  221.2500    48.8460     5.9570     5.8330     5.5480    23.8490   -18.7380     2.2190 
  221.3750    50.8230     5.7740     5.5470     5.5720    23.8270   -18.5470     2.1940 
  221.5000    52.2040     5.8080     5.4500     5.8090    24.0710   -18.4110     2.1870 
  221.6250    54.2900     6.0710     5.5430     6.0350    24.1740   -18.4280     2.1990 
  221.7500    58.3630     6.5470     5.8270     6.4300    23.9160   -18.6300     2.2370 
  221.8750    64.7270     7.0940     6.2200     7.1420    23.5210   -18.9500     2.2980 
  222.0000    72.7530     7.5910     6.6370     7.8130    23.2270   -19.2570     2.3680 
  222.1250    80.7990     7.9500     6.9860     8.0700    23.0270   -19.5210     2.4200 
  222.2500    85.7140     8.1360     7.1790     7.8700    22.7820   -19.8010     2.4380 
  222.3750    89.6120     8.2320     7.2470     7.5860    22.4670   -20.1220     2.4420 
  222.5000    93.8790     8.2900     7.2460     7.5020    22.2800   -20.4610     2.4430 
  222.6250    98.2920     8.3160     7.2340     7.6040    22.2640   -20.7540     2.4420 
