~V
VERS. 2.00: Ver 2.00
~W
STRT.M 50.0000:
STOP.M 224.0000:
STEP.M 0.1250:
NULL. -999.2500:
UWI. F10153:
~C
DEPT.M :
GR.API :
RML.OHMM :
RI. :
RXO.OHMM :
CALI.CM :
SP.MV :
DEN.GM/CC :
~A
# ...
  106.2500    72.1930    11.3220     8.8340    11.1980    23.9290   -17.6390     2.1800 
  106.3750    71.1780    11.5390     8.9870    11.7390    23.9890   -16.7780     2.1840 
  106.5000    72.7340    11.0900     8.6980    11.9970    23.9760   -15.7680     2.2100 
  106.6250    75.3050    10.0190     7.9470    11.5230    23.8990   -14.7570     2.2420 
  106.7500    78.3350     8.6810     6.9670     9.6150    23.8700   -13.8630     2.2670 
  106.8750    81.9210     7.5270     6.0570     6.9040    24.0000   -13.2280     2.2780 
  107.0000    84.4730     6.8180     5.4180     5.4670    24.1720   -12.8600     2.2800 
  107.1250    84.3730     6.5800     5.1060     5.5220    24.2530   -12.7740     2.2790 
  107.2500    82.7000     6.6780     5.0560     6.1250    24.2530   -12.9620     2.2760 
  107.3750    81.8420     7.0650     5.2720     6.2860    24.2200   -13.5330     2.2710 
  107.5000    81.3920     7.6080     5.6560     5.9350    24.1820   -14.4110     2.2620 
  107.6250    79.8080     8.2170     6.1170     6.0250    24.1530   -15.4130     2.2530 
  107.7500    77.4300     8.8230     6.5840     6.9990    24.1360   -16.3800     2.2440 
  107.8750    75.2710     9.2850     6.9450     8.3260    24.1340   -17.2060     2.2370 
  108.0000    74.1450     9.4680     7.1120     8.8680    24.1280   -17.9610     2.2330 
  108.1250    75.9590     9.3350     7.0600     8.5500    24.1160   -18.7220     2.2310 
  108.2500    80.7950     9.0190     6.8760     7.9690    24.1080   -19.4780     2.2290 
  108.3750    84.9600     8.7520     6.6970     7.4380    24.1140   -20.1290     2.2250 
  108.5000    83.7610     8.7740     6.6770     7.4110    24.1390   -20.6420     2.2160 
  108.6250    78.8980     9.1930     6.9070     8.2710    24.1970   -21.0520     2.2020 
  108.7500    75.0860     9.9270     7.3610     9.6030    24.2880   -21.4100     2.1890 
  108.8750    74.1520    10.8700     8.0150    11.0960    24.3860   -21.7200     2.1840 
  109.0000    73.4430    11.7690     8.7100    12.7510    24.4470   -21.9540     2.1850 
  109.1250    72.4240    12.3810     9.2490    15.5290    24.4650   -22.0820     2.1910 
  109.2500    72.0650    12.6430     9.5510    18.4250    24.4660   -22.1250     2.1950 
  109.3750    72.6110    12.4490     9.4980    17.9330    24.4650   -22.0930     2.1960 
  109.5000    73.4650    11.9560     9.1820    14.5130    24.4650   -22.0170     2.1940 
  109.6250    75.9950    11.3510     8.7360    11.4700    24.4650   -21.9490     2.1920 
  109.7500    79.2930    10.7550     8.2610     9.9080    24.4650   -21.9280     2.1920 
  109.8750    79.6360    10.2650     7.8390     9.5710    24.4860   -21.9910     2.1960 
  110.0000    77.6210     9.8990     7.5030     9.3790    24.5470   -22.1230     2.2020 
  110.1250    76.0520     9.6560     7.2650     9.0170    24.6360   -22.2960     2.2070 
  110.2500    75.5090     9.5300     7.1190     8.6860    24.7150   -22.5040     2.2080 
  110.3750    75.4050     9.5860     7.1110     8.5780    24.7470   -22.7820     2.2070 
  110.5000    75.1310     9.8240     7.2440     8.7830    24.7510   -23.1320     2.2050 
  110.6250    73.7260    10.1850     7.4860     9.3580    24.7490   -23.4900     2.2020 
  110.7500    70.8090    10.5760     7.7780    10.1360    24.7490   -23.7790     2.1970 
  110.8750    68.2110    10.8550     8.0290    10.7770    24.7480   -23.9210     2.1840 
  111.0000    66.8410    10.9550     8.1710    10.9240    24.7500   -23.9330     2.1700 
  111.1250    65.3290    10.8930     8.1930    10.6810    24.7560   -23.8430     2.1610 
  111.2500    63.8730    10.7550     8.1420    10.4290    24.7620   -23.6550     2.1610 
  111.3750    66.0230    10.6320     8.0700    10.2740    24.7640   -23.3140     2.1690 
  111.5000    71.7480    10.5790     8.0260    10.0920    24.7710   -22.8310     2.1810 
  111.6250    75.7340    10.5930     8.0250     9.8830    24.7830   -22.2510     2.1890 
  111.7500    75.2270    10.6360     8.0520     9.7050    24.7940   -21.6300     2.1910 
  111.8750    71.9790    10.6700     8.0840     9.7660    24.7970   -20.9950     2.1940 
  112.0000    70.5950    10.6640     8.0960    10.0210    24.7960   -20.3440     2.1980 
  112.1250    71.3740    10.5930     8.0670    10.2200    24.7950   -19.6730     2.2010 
  112.2500    72.4900    10.4510     7.9920    10.2520    24.7950   -18.9970     2.2000 
  112.3750    73.6020    10.2260     7.8650     9.9320    24.8180   -18.3190     2.1910 
  112.5000    75.1020     9.9490     7.7050     9.4160    24.8760   -17.6200     2.1780 
  112.6250    76.8960     9.6650     7.5430     8.9740    24.8950   -16.9090     2.1710 
  112.7500    78.8960     9.4100     7.4010     8.7450    24.7880   -16.2150     2.1740 
  112.8750    80.0160     9.2500     7.3280     8.8300    24.4840   -15.5860     2.1900 
  113.0000    79.7610     9.2190     7.3510     8.7890    24.1230   -15.0330     2.2130 
  113.1250    78.6580     9.3450     7.4890     8.4090    23.8660   -14.5170     2.2380 
  113.2500    77.3200     9.6090     7.7240     8.3790    23.7500   -13.9970     2.2620 
  113.3750    77.2890     9.9790     8.0250     8.9580    23.8190   -13.4840     2.2830 
  113.5000    78.3150    10.2990     8.2820     9.5660    23.9920   -13.0420     2.3040 
  113.6250    78.3780    10.3650     8.3420     9.7510    24.1270   -12.7170     2.3250 
  113.7500    77.3050    10.0980     8.1430     9.4260    24.1630   -12.4870     2.3420 
  113.8750    78.7080     9.4080     7.6100     8.3690    24.0890   -12.3490     2.3510 
  114.0000    84.3990     8.5190     6.9080     7.0410    23.9770   -12.3100     2.3460 
  114.1250    90.1180     7.7290     6.2540     6.0940    23.8880   -12.4310     2.3270 
  114.2500    92.4270     7.1810     5.7570     5.6480    23.8440   -12.7100     2.2990 
  114.3750    89.9010     7.0500     5.5600     5.8380    23.8590   -13.1590     2.2720 
  114.5000    84.9970     7.2850     5.6520     6.5820    23.8960   -13.7140     2.2520 
  114.6250    80.9480     7.7680     5.9770     7.3290    23.9270   -14.3170     2.2390 
  114.7500    79.0290     8.3720     6.4440     7.7380    23.9440   -14.9280     2.2300 
  114.8750    79.4260     8.9930     6.9740     8.1460    23.9420   -15.4850     2.2200 
  115.0000    79.3390     9.5380     7.4670     8.6140    23.9280   -15.9290     2.2110 
  115.1250    77.8630     9.9470     7.8460     8.9740    23.9130   -16.2060     2.2080 
  115.2500    76.9420    10.2050     8.0960     9.3030    23.9130   -16.3420     2.2150 
  115.3750    78.2960    10.2160     8.1460     9.5760    23.9370   -16.3680     2.2310 
  115.5000    80.3550     9.9810     8.0030     9.5080    23.9620   -16.3400     2.2480 
  115.6250    81.4520     9.5780     7.7210     9.1080    23.9720   -16.2860     2.2590 
  115.7500    82.1320     9.1290     7.3910     8.5390    23.9760   -16.2340     2.2630 
  115.8750    82.9750     8.8000     7.1250     7.9430    23.9880   -16.2260     2.2630 
  116.0000    83.2170     8.6890     6.9990     7.5830    23.9920   -16.2790     2.2620 
  116.1250    81.7880     8.8210     7.0480     7.6660    23.9620   -16.3960     2.2590 
  116.2500    78.4510     9.1270     7.2330     8.1080    23.8980   -16.5470     2.2520 
  116.3750    74.6090     9.5480     7.5240     8.8410    23.8130   -16.6590     2.2410 
  116.5000    73.2150     9.9740     7.8290     9.6420    23.7380   -16.6590     2.2330 
  116.6250    75.0130    10.3180     8.0640    10.0710    23.6840   -16.5250     2.2270 
  116.7500    77.6040    10.5560     8.1980    10.0530    23.6330   -16.2840     2.2230 
  116.8750    77.3400    10.6310     8.1790     9.7920    23.5660   -15.9080     2.2180 
  117.0000    74.6010    10.5260     8.0170     9.6050    23.4830   -15.4020     2.2090 
  117.1250    72.6570    10.2320     7.7330     9.5300    23.4070   -14.7770     2.1940 
  117.2500    72.8480     9.8100     7.3850     9.5020    23.3540   -14.0660     2.1790 
  117.3750    75.1960     9.4350     7.1030     9.5390    23.3440   -13.2850     2.1800 
