~V
VERS. 2.00: Ver 2.00
~W
STRT.M 50.0000:
STOP.M 236.0000:
STEP.M 0.1250:
NULL. -999.2500:
UWI. F10144:
~C
DEPT.M :
DEN.GM/CC :
GR.API :
RML.OHMM :
RI. :
RXO.OHMM :
CALI.CM :
SP.MV :
~A
# ...
  162.5000     2.2070    64.1410    72.7950    64.3190    71.0240    25.4690   -32.2320 
  162.6250     2.2110    65.8030    68.9940    61.7840    64.2450    25.4690   -32.0930 
  162.7500     2.2260    67.6670    68.6540    61.0690    72.2270    25.4690   -31.9610 
  162.8750     2.2400    67.3730    71.4660    62.1630    86.4960    25.4690   -31.8210 
  163.0000     2.2460    66.1670    76.3550    64.5150   100.3660    25.4670   -31.6590 
  163.1250     2.2430    67.0500    81.5700    67.1610   110.2880    25.4660   -31.4700 
  163.2500     2.2310    67.9320    85.5000    69.1800   120.7680    25.4710   -31.2610 
  163.3750     2.2200    67.0750    87.7500    70.3120   128.6730    25.4670   -31.0500 
  163.5000     2.2130    65.3910    88.3760    70.5840   115.2010    25.4040   -30.8510 
  163.6250     2.2130    63.7220    85.5680    69.1650    92.3040    25.2320   -30.6680 
  163.7500     2.2130    62.1120    77.3080    64.8780    83.5930    25.0390   -30.5140 
  163.8750     2.2090    61.7090    63.4340    57.0040    85.1380    24.8930   -30.3860 
  164.0000     2.2020    64.2970    47.3060    46.6130    81.8480    24.8000   -30.2750 
  164.1250     2.1980    71.0010    35.6530    36.4910    58.6530    24.7410   -30.1720 
  164.2500     2.2120    77.0430    31.0080    28.6750    35.4040    24.7150   -30.0700 
  164.3750     2.2430    78.6200    24.4690    23.6100    21.4780    24.7190   -29.9660 
  164.5000     2.2840    77.3060    21.6070    20.9530    18.4340    24.7230   -29.8680 
  164.6250     2.3170    77.5780    21.5030    20.3080    19.2030    24.7200   -29.7730 
  164.7500     2.3300    79.1940    22.4890    20.6220    22.8830    24.7200   -29.6810 
  164.8750     2.3250    80.0480    23.2710    21.0270    28.4800    24.7210   -29.5780 
  165.0000     2.3140    79.6880    22.6950    20.6510    32.2010    24.7200   -29.4670 
  165.1250     2.3040    79.8080    20.3970    19.0990    26.4230    24.7060   -29.3230 
  165.2500     2.3060    83.2390    17.8340    17.2660    18.6490    24.6800   -29.1300 
  165.3750     2.3180    88.9580    16.2800    15.9850    13.6410    24.6580   -28.8760 
  165.5000     2.3310    91.7940    16.5280    15.8050    13.2100    24.6490   -28.5740 
  165.6250     2.3340    85.4910    19.0860    17.1670    18.4670    24.6470   -28.2540 
  165.7500     2.3180    77.2820    23.0000    19.5860    28.7150    24.6440   -27.9610 
  165.8750     2.2970    74.2080    26.7800    22.1640    38.7110    24.6450   -27.7180 
  166.0000     2.2820    74.3910    28.2870    23.4280    43.2690    24.6530   -27.5350 
  166.1250     2.2850    74.6090    25.6960    21.9610    36.8080    24.6740   -27.4330 
  166.2500     2.3050    77.9120    21.1280    18.9760    23.9430    24.6700   -27.3910 
  166.3750     2.3300    85.4500    16.8200    15.9000    14.8890    24.5210   -27.3950 
  166.5000     2.3500    92.0740    13.9250    13.5700    11.1230    24.1970   -27.4260 
  166.6250     2.3640    93.2720    12.6690    12.2800    10.8360    24.0070   -27.4860 
  166.7500     2.3780    93.1200    12.3540    11.6870    12.1050    24.1640   -27.5880 
  166.8750     2.3930    92.9840    12.5430    11.5450    14.1660    24.4950   -27.7560 
  167.0000     2.4040    91.7160    12.8310    11.5890    15.1760    24.7020   -28.0070 
  167.1250     2.4080    89.8170    12.8510    11.5590    13.7600    24.7120   -28.3690 
  167.2500     2.4020    88.1620    12.5570    11.3530    12.5150    24.7030   -28.8060 
  167.3750     2.3940    85.5500    12.0590    11.0080    12.0670    24.7040   -29.2920 
  167.5000     2.3900    82.1730    11.5180    10.6150    11.6960    24.7040   -29.8000 
  167.6250     2.3900    81.8900    11.1000    10.2820    11.0910    24.7030   -30.2920 
  167.7500     2.3940    84.6290    10.8730    10.0720    10.6200    24.7060   -30.7330 
  167.8750     2.3940    88.0790    10.8610    10.0060    10.8040    24.7090   -31.1080 
  168.0000     2.3890    90.0100    11.0580    10.0850    11.4380    24.7090   -31.4170 
  168.1250     2.3800    90.5120    11.4550    10.3100    12.0760    24.7080   -31.6480 
  168.2500     2.3710    88.2810    11.9470    10.6160    12.4660    24.7100   -31.8320 
  168.3750     2.3650    82.2390    12.4410    10.9430    12.8170    24.7150   -31.9720 
  168.5000     2.3650    75.1540    12.8400    11.2240    13.0480    24.7190   -32.0650 
  168.6250     2.3690    74.7740    13.0350    11.3730    13.6270    24.7210   -32.0940 
  168.7500     2.3790    80.2080    13.0420    11.3850    13.9220    24.7230   -32.0620 
  168.8750     2.3900    85.5120    12.9310    11.2980    14.0060    24.7240   -31.9690 
  169.0000     2.3970    87.0650    12.8230    11.1920    13.7200    24.7250   -31.8200 
  169.1250     2.3980    86.9540    12.8900    11.1850    13.1680    24.7230   -31.6310 
  169.2500     2.3920    88.0510    13.2060    11.3410    13.1970    24.7190   -31.4300 
  169.3750     2.3840    89.0690    13.7800    11.6800    14.0190    24.7160   -31.2280 
  169.5000     2.3760    88.3210    14.5490    12.1770    15.4440    24.7150   -31.0410 
  169.6250     2.3670    85.9630    15.4040    12.7780    16.2460    24.7140   -30.8910 
  169.7500     2.3550    83.9150    16.2110    13.3880    16.8340    24.7120   -30.7780 
  169.8750     2.3400    83.3980    16.8850    13.9390    17.6930    24.7130   -30.6960 
  170.0000     2.3270    83.2080    17.3530    14.3690    18.1090    24.7080   -30.6330 
  170.1250     2.3170    82.1060    17.5080    14.5920    18.0090    24.6480   -30.5800 
  170.2500     2.3150    80.8170    17.3620    14.6080    17.1660    24.5430   -30.5210 
  170.3750     2.3200    79.2300    16.9410    14.4240    15.9920    24.4470   -30.4570 
  170.5000     2.3300    79.3490    16.3470    14.0990    14.9100    24.4060   -30.4020 
  170.6250     2.3400    79.9530    15.7680    13.7420    14.2240    24.4350   -30.3570 
  170.7500     2.3480    80.6330    15.3900    13.4870    14.1840    24.4940   -30.3350 
  170.8750     2.3510    82.3560    15.3330    13.4290    14.4710    24.5500   -30.3400 
  171.0000     2.3500    83.9640    15.6330    13.6180    14.7010    24.5750   -30.3420 
  171.1250     2.3450    83.2200    16.2310    14.0530    15.2420    24.5690   -30.3950 
  171.2500     2.3390    81.7680    16.8350    14.5460    16.3190    24.5640   -30.4910 
  171.3750     2.3350    81.3030    17.0440    14.7340    17.0340    24.5630   -30.6310 
  171.5000     2.3370    81.4240    17.1950    14.9540    18.0600    24.5640   -30.7980 
  171.6250     2.3480    80.7580    16.8660    14.8750    18.0510    24.5640   -30.9750 
  171.7500     2.3650    79.6450    16.1360    14.4790    15.8920    24.6030   -31.1640 
  171.8750     2.3790    80.8740    15.2950    13.9340    14.3200    24.7410   -31.3680 
  172.0000     2.3840    84.1820    14.6660    13.4540    13.6960    24.9650   -31.5810 
  172.1250     2.3790    86.8440    14.5530    13.2700    13.5910    25.1490   -31.8090 
  172.2500     2.3680    87.3230    14.9010    13.4050    14.2810    25.2200   -32.0650 
  172.3750     2.3570    84.9370    15.6010    13.8210    15.2410    25.2240   -32.3690 
  172.5000     2.3490    81.6070    16.5390    14.4530    16.1710    25.2230   -32.7390 
  172.6250     2.3420    81.6030    17.7040    15.2870    17.7840    25.2300   -33.1860 
  172.7500     2.3310    82.2470    19.1070    16.3000    18.6750    25.2330   -33.6850 
  172.8750     2.3150    80.6900    20.8140    17.5300    19.5990    25.2200   -34.1980 
  173.0000     2.2970    77.9550    22.8540    19.0030    23.9380    25.1900   -34.6930 
  173.1250     2.2820    77.4460    25.2080    20.7220    29.4060    25.1430   -35.1300 
  173.2500     2.2750    76.6600    27.7810    22.5940    31.4450    25.0260   -35.4950 
  173.3750     2.2750    74.5000    30.7270    24.6530    32.1540    24.8420   -35.7980 
  173.5000     2.2780    74.8280    34.4620    27.0780    32.5220    24.7020   -36.0580 
  173.6250     2.2810    78.2470    38.0100    30.3470    37.6040    24.7120   -36.2940 
