~V
VERS. 2.00: Ver 2.00
~W
STRT.M 50.0000:
STOP.M 246.0000:
STEP.M 0.1250:
NULL. -999.2500:
UWI. F10164:
~C
DEPT.M :
GR.API :
RML.OHMM :
RI. :
RXO.OHMM :
CALI.CM :
SP.MV :
DEN.GM/CC :
~A
# ...
   83.7500    82.8220     7.9880     6.3990     8.8050    24.6440   -14.4500     2.2140 
   83.8750    82.5740     7.8100     6.2520     8.4620    24.7170   -14.6390     2.2270 
   84.0000    81.4340     7.7670     6.1670     8.2280    24.3390   -14.7210     2.2490 
   84.1250    81.8170     7.7920     6.1320     8.3580    24.2850   -14.6130     2.2700 
   84.2500    81.6650     7.7670     6.0810     8.5920    24.2670   -14.4380     2.2790 
   84.3750    82.3810     7.6350     5.9700     8.6700    24.2670   -14.2440     2.2680 
   84.5000    92.8710     7.4100     5.7940     8.3090    24.2670   -13.9280     2.2390 
   84.6250   107.9290     7.2000     5.6030     7.2310    24.2790   -13.5010     2.1930 
   84.7500   109.7380     7.1400     5.4850     6.1940    24.3510   -13.1650     2.1440 
   84.8750    96.5710     7.3240     5.5170     5.9650    24.5020   -12.8520     2.1040 
   85.0000    84.1210     7.7830     5.7470     6.7930    24.6600   -12.5180     2.0950 
   85.1250    86.0090     8.4870     6.2040     8.0780    24.7770   -12.2970     2.1380 
   85.2500    90.4110     9.2570     6.7860     8.8580    24.7930   -12.1490     2.2170 
   85.3750    92.0420     9.9250     7.3790     9.8960    24.7820   -12.0970     2.3030 
   85.5000    97.1830    10.3320     7.8460    12.0630    24.6880   -12.2800     2.3620 
   85.6250   105.4180    10.3240     8.0210    13.4250    24.6130   -12.6600     2.3680 
   85.7500   106.0810     9.9940     7.9160    12.1030    24.3330   -13.0220     2.3380 
   85.8750    97.1130     9.4800     7.6000    10.1580    24.1040   -13.3650     2.3000 
   86.0000    90.2500     8.9540     7.1970     9.2780    23.9470   -13.6470     2.2760 
   86.1250    94.8550     8.6060     6.8540     8.6610    23.8520   -13.8270     2.2780 
   86.2500    99.3810     8.4780     6.6460     7.5460    23.7960   -14.0590     2.2960 
   86.3750    98.6680     8.5380     6.5840     6.7870    23.7760   -14.3410     2.3140 
   86.5000    94.4620     8.7000     6.6290     6.8720    23.7610   -14.5810     2.3190 
   86.6250    92.4310     8.8510     6.7190     7.4730    23.6960   -14.8710     2.3070 
   86.7500    93.8460     8.9150     6.7860     8.0310    23.6050   -15.2740     2.2880 
   86.8750    95.2470     8.8780     6.8020     8.5560    23.5650   -15.7270     2.2730 
   87.0000    93.0070     8.7860     6.7710     9.0890    23.5650   -16.3080     2.2650 
   87.1250    86.5280     8.6590     6.7150     9.3490    23.5150   -17.0440     2.2530 
   87.2500    79.3680     8.4430     6.6600     9.4080    23.4660   -17.7270     2.2280 
   87.3750    73.6700     8.1440     6.6070     9.3690    23.4910   -18.3420     2.1890 
   87.5000    71.5990     7.8670     6.5430     9.2770    23.7280   -18.9390     2.1460 
   87.6250    73.5340     7.7090     6.4530     9.2360    24.0360   -19.3940     2.1170 
   87.7500    76.4630     7.6250     6.3680     9.3300    23.7910   -19.6800     2.1080 
   87.8750    79.2120     7.6420     6.3800     9.4490    23.7430   -19.8990     2.1160 
   88.0000    82.6720     7.8880     6.6080     9.5010    23.7330   -20.0190     2.1320 
   88.1250    85.7870     8.4310     7.1110     9.4960    23.7330   -20.0530     2.1460 
   88.2500    86.0670     9.0220     7.6590     9.4690    23.7330   -20.1380     2.1540 
   88.3750    81.9270     9.3720     7.9830     9.4400    23.7330   -20.1960     2.1540 
   88.5000    74.4910     9.2740     7.8920     9.4390    23.7330   -20.1960     2.1490 
   88.6250    69.6440     8.6940     7.3550     9.4840    23.7450   -20.2080     2.1410 
   88.7500    71.4920     7.9690     6.6840     9.4680    23.8140   -20.1720     2.1370 
   88.8750    76.7680     7.3560     6.1150     9.2760    23.9510   -20.0390     2.1410 
   89.0000    80.3720     6.9700     5.7580     8.9080    24.0140   -19.8610     2.1530 
   89.1250    81.3540     6.7990     5.5990     8.4550    24.1220   -19.5800     2.1690 
   89.2500    81.7840     6.7230     5.5290     8.1270    24.3770   -19.2140     2.1830 
   89.3750    82.2520     6.7070     5.5140     7.9920    24.5130   -18.8890     2.1910 
   89.5000    82.7550     6.7340     5.5400     7.9270    24.4370   -18.5790     2.1920 
   89.6250    83.7670     6.7860     5.5870     7.8430    24.4080   -18.2740     2.1890 
   89.7500    83.5130     6.8330     5.6310     7.8120    24.4010   -18.1300     2.1860 
   89.8750    81.1870     6.8680     5.6640     7.8730    24.4180   -18.1380     2.1830 
   90.0000    85.2430     6.9340     5.7240     7.9660    24.4620   -18.1940     2.1810 
   90.1250    95.3170     7.1760     5.9490     8.0340    24.5050   -18.3620     2.1780 
   90.2500    97.9010     7.6660     6.4020     8.1300    24.4770   -18.5730     2.1740 
   90.3750    89.6500     8.3220     7.0100     8.2700    24.4310   -18.7100     2.1680 
   90.5000    80.9650     8.9040     7.5500     8.4170    24.4070   -18.8410     2.1630 
   90.6250    79.7320     9.0620     7.6960     8.4950    24.4180   -18.9980     2.1630 
   90.7500    83.5720     8.7730     7.4280     8.5150    24.4600   -19.0270     2.1670 
   90.8750    90.9710     8.2010     6.8980     8.4810    24.5140   -18.9600     2.1750 
   91.0000    94.6840     7.6200     6.3600     8.3890    24.5550   -18.9140     2.1840 
   91.1250    86.5170     7.2800     6.0450     8.3130    24.5760   -18.8000     2.1920 
   91.2500    77.8890     7.1520     5.9260     8.3140    24.5390   -18.6430     2.2010 
   91.3750    78.5780     7.1360     5.9110     8.3330    24.4630   -18.5360     2.2120 
   91.5000    85.0460     7.1520     5.9270     8.2950    24.3860   -18.3710     2.2250 
   91.6250    86.6640     7.1760     5.9480     8.2340    24.2830   -18.1410     2.2340 
   91.7500    83.8790     7.1950     5.9660     8.2430    24.1650   -17.9780     2.2350 
   91.8750    85.9830     7.1930     5.9650     8.3360    24.1300   -17.7960     2.2290 
   92.0000    98.1980     7.1590     5.9320     8.4830    24.1800   -17.5600     2.2200 
   92.1250   115.7060     7.0760     5.8600     8.5270    24.3030   -17.2920     2.2120 
   92.2500   122.0450     6.9920     5.7690     8.2620    24.0370   -16.9670     2.2040 
   92.3750   112.4100     6.9640     5.6780     7.8250    23.6600   -16.5970     2.1930 
   92.5000    97.6920     6.9930     5.6000     7.5860    23.6000   -16.3210     2.1820 
   92.6250    98.4080     7.0010     5.5430     7.7260    23.6000   -16.0790     2.1780 
   92.7500   107.1190     6.9470     5.4950     7.9390    23.6000   -15.7590     2.1870 
   92.8750   107.5300     6.8550     5.4430     7.9950    23.6000   -15.4750     2.2090 
   93.0000    98.6800     6.7580     5.3850     7.7920    23.6070   -15.2040     2.2340 
   93.1250    94.0700     6.6700     5.3260     7.3160    23.6440   -14.9110     2.2480 
   93.2500    95.4120     6.6130     5.2790     6.9490    23.7230   -14.6630     2.2440 
   93.3750    94.7930     6.5930     5.2530     6.9260    23.7490   -14.4760     2.2250 
   93.5000    94.0750     6.6020     5.2460     7.0810    23.8520   -14.2510     2.1970 
   93.6250    93.0820     6.6180     5.2500     7.0780    23.9070   -14.0390     2.1740 
   93.7500    89.4390     6.6210     5.2530     6.9570    24.0030   -13.8970     2.1610 
   93.8750    86.3540     6.6070     5.2500     6.9040    24.1510   -13.7330     2.1580 
   94.0000    87.0070     6.5800     5.2400     6.9110    25.4890   -13.5800     2.1630 
   94.1250    89.9010     6.5530     5.2270     6.9880    25.4430   -13.5820     2.1700 
   94.2500    89.7450     6.5450     5.2230     7.1870    25.3660   -13.6440     2.1790 
   94.3750    88.3980     6.5860     5.2450     7.4190    25.3380   -13.7160     2.1860 
   94.5000    89.0070     6.7130     5.3170     7.4770    25.3810   -13.8730     2.1940 
   94.6250    88.4020     6.9870     5.4890     7.2960    25.5010   -14.0820     2.1980 
   94.7500    90.9080     7.3940     5.7660     7.1850    25.7170   -14.3400     2.1970 
   94.8750    99.0750     7.8850     6.1340     7.6090    25.9440   -14.7080     2.1870 
