~V
VERS. 2.00: Ver 2.00
~W
STRT.M 55.0000:
STOP.M 239.0000:
STEP.M 0.1250:
NULL. -999.2500:
UWI. F10186:
~C
DEPT.M :
GR.API :
RML.OHMM :
RI. :
RXO.OHMM :
CALI.CM :
DEN.GM/CC :
SP.MV :
~A
   55.0000    32.6730     1.3710     0.4510     0.8860    25.3160     2.0960    23.6320 
   55.1250    36.3670     1.4530     0.4530     0.9590    25.3110     2.0830    23.1770 
   55.2500    37.8290     1.4690     0.4480     0.9090    25.3080     2.0730    22.6980 
   55.3750    35.7260     1.3510     0.4230     0.7540    25.3050     2.0750    22.1960 
   55.5000    32.7930     1.0510     0.3690     0.6350    25.3020     2.1040    21.5750 
   55.6250    33.7090     0.6170     0.2890     0.5860    25.3070     2.1880    20.7190 
   55.7500    38.0450     0.2660     0.2140     0.5860    25.3010     2.3260    19.6000 
   55.8750    42.6210     0.0930     0.1700     0.6820    25.2720     2.4790    18.0510 
   56.0000    45.9960     0.0900     0.1800     1.0100    25.1980     2.5740    16.0390 
   56.1250    47.8260     0.2790     0.2860     1.4320    24.8400     2.5430    13.4460 
   56.2500    49.4840     0.6700     0.5210     2.0240    23.9730     2.4520    10.4110 
   56.3750    51.7930     1.2880     0.9280     3.1380    22.7420     2.3430     7.0880 
   56.5000    54.5870     2.0920     1.5220     5.2610    21.8980     2.2460     3.6550 
   56.6250    55.0740     2.9280     2.2760     6.7530    21.6470     2.1830     0.3850 
   56.7500    54.2590     3.5500     3.0460     7.4850    21.6590     2.1520    -2.6440 
   56.8750    55.1320     3.8010     3.7030     7.5160    21.7180     2.1410    -5.2980 
   57.0000    58.1950     3.7600     4.1910     7.5850    21.7580     2.1390    -7.4290 
   57.1250    60.4900     3.7190     4.5580     7.7030    21.7470     2.1390    -8.8770 
   57.2500    60.8560     3.8270     4.9120     7.7150    21.7320     2.1380    -9.8190 
   57.3750    61.2380     4.0510     5.2730     7.7530    21.7230     2.1400   -10.2800 
   57.5000    62.7500     4.2920     5.6000     7.9730    21.7110     2.1450   -10.3770 
   57.6250    65.4900     4.4150     5.7860     8.2340    21.7100     2.1540   -10.2000 
   57.7500    69.0360     4.3650     5.7770     8.3050    21.8130     2.1680    -9.7790 
   57.8750    72.9170     4.1580     5.5690     7.8820    22.1350     2.1860    -9.1290 
   58.0000    77.4110     3.8730     5.2270     6.8320    22.7270     2.2070    -8.3330 
   58.1250    82.1820     3.6260     4.8690     5.5260    23.4390     2.2290    -7.4440 
   58.2500    85.6400     3.4820     4.6010     4.6160    23.9240     2.2510    -6.5320 
   58.3750    88.3490     3.4520     4.4560     4.4280    24.0970     2.2710    -5.7060 
   58.5000    91.6640     3.5130     4.4260     4.6330    24.0310     2.2900    -5.0000 
   58.6250    94.1250     3.6280     4.4820     4.8310    23.9090     2.3060    -4.4810 
   58.7500    92.7140     3.7510     4.5720     4.7870    23.8120     2.3180    -4.1490 
   58.8750    88.8310     3.8630     4.6730     4.5690    23.7060     2.3190    -4.0170 
   59.0000    86.3040     3.9620     4.7820     4.4740    23.5560     2.3100    -4.1150 
   59.1250    87.2040     4.0590     4.9020     4.6530    23.3920     2.2910    -4.3730 
   59.2500    88.8870     4.1550     5.0240     4.9270    23.3150     2.2720    -4.7070 
   59.3750    89.3500     4.2350     5.1280     5.1530    23.4150     2.2590    -5.0730 
   59.5000    88.4390     4.2780     5.1950     5.4410    23.6830     2.2530    -5.4090 
   59.6250    87.8130     4.2660     5.2060     5.6000    23.9180     2.2570    -5.7280 
   59.7500    89.0730     4.2290     5.1840     5.6120    24.0210     2.2660    -6.0770 
   59.8750    89.4340     4.2080     5.1600     5.2940    24.0460     2.2740    -6.4310 
   60.0000    86.5200     4.2480     5.1680     5.0530    24.0520     2.2790    -6.7520 
   60.1250    82.9430     4.3850     5.2400     5.0200    23.9960     2.2760    -7.1300 
   60.2500    82.1360     4.5920     5.3610     5.2500    23.8550     2.2670    -7.5600 
   60.3750    84.4080     4.8260     5.5030     5.5900    23.5900     2.2540    -8.0270 
   60.5000    87.3020     5.0290     5.6210     5.9070    23.2600     2.2390    -8.6070 
   60.6250    89.3120     5.1180     5.6550     6.4250    22.9990     2.2250    -9.2820 
   60.7500    89.7500     5.0890     5.5990     6.5370    23.0150     2.2160    -9.9770 
   60.8750    88.2370     5.0160     5.5070     6.2580    22.9930     2.2140   -10.6730 
   61.0000    85.1780     5.0700     5.5090     6.0870    22.8750     2.2190   -11.3660 
   61.1250    80.6200     5.5550     5.8630     6.4520    23.1150     2.2380   -11.9790 
   61.2500    79.3110     6.5590     6.6770     7.1740    23.5920     2.2730   -12.5560 
   61.3750    80.7060     8.0160     7.9430     9.1400    24.0100     2.3200   -13.1700 
   61.5000    77.9010     9.6390     9.4590    13.1680    24.1390     2.3620   -13.7770 
   61.6250    66.8130    10.8470    10.7480    20.2900    23.9190     2.3720   -14.3810 
   61.7500    57.1280    11.2030    11.3520    27.3000    23.2720     2.3420   -14.9790 
   61.8750    55.4250    10.5950    11.0650    23.0730    22.3100     2.2860   -15.5360 
   62.0000    58.6750     9.3830    10.0930    13.3700    21.6180     2.2280   -16.0350 
   62.1250    61.4380     8.2560     8.9780     9.7870    21.4210     2.1890   -16.5070 
   62.2500    61.3840     7.5770     8.1500     8.9280    21.4220     2.1690   -16.9080 
   62.3750    59.1950     7.3300     7.6840     8.9280    21.4450     2.1640   -17.1760 
   62.5000    57.0360     7.3540     7.4950     9.0210    21.4580     2.1670   -17.3470 
   62.6250    57.6040     7.4660     7.4560     8.9940    21.4790     2.1720   -17.4650 
   62.7500    60.3190     7.5370     7.4330     8.8610    21.5280     2.1770   -17.5300 
   62.8750    63.2410     7.5550     7.3950     8.6760    21.6050     2.1810   -17.6050 
   63.0000    65.1630     7.5600     7.3520     8.3800    21.7300     2.1840   -17.7200 
   63.1250    64.7170     7.6090     7.3340     8.0040    21.8570     2.1830   -17.8550 
   63.2500    63.0310     7.7060     7.3430     7.7570    21.8950     2.1750   -17.9940 
   63.3750    61.5350     7.8270     7.3610     7.8470    21.8450     2.1640   -18.1880 
   63.5000    60.5030     7.9300     7.3600     8.1540    21.7720     2.1510   -18.3730 
   63.6250    58.6090     7.9720     7.3110     8.2520    21.7040     2.1440   -18.5210 
   63.7500    55.9730     7.9610     7.2170     8.1710    21.7280     2.1440   -18.6570 
   63.8750    54.1530     7.9260     7.1000     8.1590    21.7730     2.1460   -18.7280 
   64.0000    52.8280     7.9090     6.9890     8.2330    21.7940     2.1500   -18.7330 
   64.1250    53.1650     7.9500     6.9210     8.1570    21.7900     2.1540   -18.6860 
   64.2500    56.0310     8.0480     6.9040     7.9010    21.7760     2.1580   -18.6630 
   64.3750    58.6350     8.1850     6.9360     7.8350    21.7520     2.1620   -18.6260 
   64.5000    57.6050     8.3340     7.0030     7.9820    21.7380     2.1660   -18.5920 
   64.6250    54.8420     8.4740     7.0940     8.1180    21.7500     2.1720   -18.5640 
   64.7500    57.5040     8.5920     7.1880     8.1870    21.7730     2.1810   -18.5560 
   64.8750    62.8800     8.6880     7.2770     8.1740    21.7880     2.1940   -18.5890 
   65.0000    66.2990     8.7660     7.3560     8.1030    21.7870     2.2070   -18.6960 
   65.1250    66.0420     8.8280     7.4190     8.0490    21.7560     2.2160   -18.8670 
   65.2500    64.1000     8.8760     7.4660     8.1570    21.7060     2.2180   -19.0040 
   65.3750    61.7310     8.9060     7.4920     8.3460    21.6700     2.2160   -19.0910 
   65.5000    61.7100     8.9120     7.4960     8.4140    21.6650     2.2140   -19.1230 
   65.6250    64.5880     8.8910     7.4750     8.3360    21.6940     2.2110   -19.1140 
   65.7500    66.2770     8.8570     7.4390     8.2190    21.7430     2.2060   -19.0380 
   65.8750    65.0080     8.8160     7.3940     8.1140    21.7790     2.1980   -18.8890 
   66.0000    61.8710     8.7760     7.3480     8.0930    21.7930     2.1880   -18.6540 
   66.1250    58.6840     8.7370     7.3040     8.1610    21.7940     2.1800   -18.2920 
