~V
VERS. 2.00: Ver 2.00
~W
STRT.M 62.0000:
STOP.M 235.0000:
STEP.M 0.1250:
NULL. -999.2500:
UWI. F10157:
~C
DEPT.M :
SP.MV :
DEN.GM/CC :
GR.API :
RML.OHMM :
RI. :
RXO.OHMM :
CALI.CM :
~A
# ...
  129.5000    -1.6360     2.3060    84.3280     5.8670     5.7090     4.8760    25.4620 
  129.6250    -1.6290     2.3060    86.0110     5.8910     5.6550     4.9550    25.4670 
  129.7500    -1.6110     2.3060    86.9070     6.0550     5.7620     5.2590    25.4670 
  129.8750    -1.5790     2.3050    86.5300     6.2250     5.9170     5.3150    25.4630 
  130.0000    -1.5330     2.3000    86.7190     6.3130     6.0360     5.0310    25.4530 
  130.1250    -1.4790     2.2900    88.9960     6.2690     6.0600     4.8730    25.4300 
  130.2500    -1.4330     2.2850    91.3440     6.1460     6.0100     4.8450    25.3980 
  130.3750    -1.3900     2.2850    91.9590     6.0020     5.9180     4.9060    25.3580 
  130.5000    -1.3510     2.2890    90.4870     5.8960     5.8270     4.9510    25.3160 
  130.6250    -1.3230     2.2920    88.0620     5.9070     5.8000     4.8290    25.2760 
  130.7500    -1.2930     2.3000    85.2330     6.0450     5.8650     4.9120    25.2420 
  130.8750    -1.2400     2.3190    83.0400     6.2790     6.0140     5.0810    25.2180 
  131.0000    -1.1480     2.3490    83.4560     6.5340     6.1940     5.2970    25.2050 
  131.1250    -1.0330     2.3700    85.2400     6.6670     6.2950     6.0620    25.2200 
  131.2500    -0.9150     2.3660    87.6710     6.5970     6.2330     6.8160    25.2590 
  131.3750    -0.8170     2.3410    90.6940     6.3490     6.0000     5.9650    25.3110 
  131.5000    -0.7400     2.3110    95.3100     6.0630     5.6930     4.9980    25.3740 
  131.6250    -0.6890     2.2980    97.8160     5.9500     5.4870     4.6140    25.4240 
  131.7500    -0.6630     2.3020    93.3270     6.0980     5.4780     4.7270    25.4260 
  131.8750    -0.6570     2.3170    85.0820     6.5370     5.7130     5.1930    25.4490 
  132.0000    -0.6690     2.3370    79.6470     7.2730     6.2070     6.2710    25.4640 
  132.1250    -0.6430     2.3710    78.7980     8.3620     7.0040     7.5570    25.4670 
  132.2500    -0.5750     2.4250    77.1290     9.7910     8.0720     7.9110    25.4670 
  132.3750    -0.4680     2.4900    74.1890    11.6150     9.4400     8.8580    25.4670 
  132.5000    -0.3450     2.5430    69.6710    13.8020    11.1000    12.9800    25.4680 
  132.6250    -0.2340     2.5550    62.6690    16.0480    12.8940    21.4200    25.4710 
  132.7500    -0.1230     2.5360    57.0140    17.7690    14.4070    23.8810    25.4750 
  132.8750    -0.0300     2.5110    56.7780    18.5160    15.2660    19.5810    25.4930 
  133.0000     0.0350     2.4990    59.2320    18.2710    15.3640    14.8570    25.5000 
  133.1250     0.0610     2.5050    58.5310    17.5490    14.9640    12.9560    25.5020 
  133.2500     0.0380     2.5170    55.2410    17.1310    14.6450    12.5200    25.5020 
  133.3750    -0.0160     2.5270    52.2220    17.3250    14.6870    13.5150    25.5020 
  133.5000    -0.0850     2.5300    50.6110    18.0740    15.1390    15.4810    25.5020 
  133.6250    -0.2110     2.5210    50.8790    19.0750    15.8710    16.7270    25.5020 
  133.7500    -0.3740     2.5030    51.9910    19.9090    16.5760    16.6580    25.5030 
  133.8750    -0.5800     2.4770    52.9110    20.3750    17.0670    16.7240    25.5030 
  134.0000    -0.8090     2.4500    52.9060    20.4350    17.2620    17.3160    25.5030 
  134.1250    -1.0360     2.4330    53.4540    20.1290    17.1510    17.5510    25.5040 
  134.2500    -1.2290     2.4310    55.5810    19.6150    16.8550    17.0150    25.5040 
  134.3750    -1.3870     2.4420    58.1330    18.9570    16.4350    15.9490    25.5040 
  134.5000    -1.5010     2.4560    58.6180    18.2030    15.9280    15.2920    25.5040 
  134.6250    -1.5740     2.4630    57.6450    17.4240    15.3760    15.7070    25.5040 
  134.7500    -1.6230     2.4590    58.0380    16.7440    14.8680    15.2110    25.5030 
  134.8750    -1.6650     2.4500    60.3660    16.2930    14.5020    14.0020    25.5030 
  135.0000    -1.7010     2.4430    63.0060    16.1860    14.3780    12.9000    25.5030 
  135.1250    -1.7540     2.4460    63.0940    16.5220    14.5990    12.9790    25.5020 
  135.2500    -1.8000     2.4580    61.0490    17.0950    15.0420    13.8310    25.5020 
  135.3750    -1.8250     2.4700    58.1330    17.6170    15.5000    15.1560    25.5020 
  135.5000    -1.8160     2.4750    55.0910    17.7460    15.7000    16.1560    25.5030 
  135.6250    -1.7640     2.4710    53.2330    17.1850    15.3620    16.2680    25.5030 
  135.7500    -1.6860     2.4630    53.6730    16.1820    14.6300    15.1170    25.5040 
  135.8750    -1.5980     2.4590    56.4590    15.1040    13.7720    12.5210    25.5030 
  136.0000    -1.5170     2.4640    58.0370    14.3320    13.0860    10.5310    25.5020 
  136.1250    -1.4330     2.4800    54.7020    14.2030    12.8590    10.7290    25.5010 
  136.2500    -1.3570     2.4970    49.7170    14.6480    13.0900    12.3230    25.5010 
  136.3750    -1.2840     2.5080    48.3210    15.5440    13.7250    13.7950    25.5010 
  136.5000    -1.2170     2.5090    49.8560    16.6780    14.6260    14.9780    25.5010 
  136.6250    -1.1700     2.4980    49.7580    17.7740    15.5800    16.0330    25.5020 
  136.7500    -1.1380     2.4830    48.6830    18.6510    16.3900    16.4670    25.5030 
  136.8750    -1.1300     2.4710    49.0050    19.2610    16.9810    17.0960    25.5040 
  137.0000    -1.1610     2.4680    50.8630    19.6170    17.3420    17.1220    25.5050 
  137.1250    -1.2250     2.4740    52.6790    19.6900    17.4460    17.5460    25.5050 
  137.2500    -1.3360     2.4820    54.5090    19.5260    17.3430    18.1360    25.5200 
  137.3750    -1.4700     2.4830    55.9200    19.1570    17.0570    18.3570    25.5390 
  137.5000    -1.6220     2.4750    55.4630    18.6600    16.6490    17.9990    25.5410 
  137.6250    -1.7830     2.4620    54.0150    18.1820    16.2280    17.5760    25.5350 
  137.7500    -1.9430     2.4510    52.5670    17.8780    15.9240    16.8340    25.5250 
  137.8750    -2.1000     2.4450    51.2820    17.8540    15.8330    16.2480    25.5110 
  138.0000    -2.2450     2.4460    51.4880    18.1730    16.0120    15.9580    25.4920 
  138.1250    -2.3660     2.4520    53.8160    18.8680    16.5130    16.8760    25.4780 
  138.2500    -2.4560     2.4610    54.7580    19.7470    17.2020    17.8410    25.4690 
  138.3750    -2.5130     2.4700    52.3100    20.6050    17.9290    18.4790    25.4670 
  138.5000    -2.5350     2.4770    48.3010    21.2280    18.5150    19.1770    25.4670 
  138.6250    -2.5010     2.4830    48.9900    21.4290    18.7790    19.8650    25.4670 
  138.7500    -2.4290     2.4910    52.0140    21.3280    18.7750    19.7260    25.4670 
  138.8750    -2.3320     2.5030    52.9070    21.1010    18.6250    18.4830    25.4700 
  139.0000    -2.2350     2.5200    51.7860    20.9260    18.4720    17.4450    25.4800 
  139.1250    -2.1580     2.5330    52.3640    20.9300    18.4360    17.2840    25.4960 
  139.2500    -2.1110     2.5410    54.3370    21.0610    18.5090    17.6760    25.5160 
  139.3750    -2.1040     2.5450    55.3570    21.2170    18.6270    17.9620    25.5380 
  139.5000    -2.1390     2.5470    54.2370    21.2950    18.7100    17.9820    25.5590 
  139.6250    -2.1990     2.5450    50.8270    21.2610    18.7190    17.8640    25.5770 
  139.7500    -2.2750     2.5420    47.0590    21.2260    18.7270    17.5950    25.5910 
  139.8750    -2.3380     2.5370    45.4170    21.2910    18.8130    17.5790    25.5950 
  140.0000    -2.3870     2.5340    45.8210    21.4760    19.0070    17.7000    25.5820 
  140.1250    -2.3960     2.5340    45.9100    21.6560    19.2250    18.1130    25.5540 
  140.2500    -2.3970     2.5330    45.6860    21.6280    19.2940    19.4190    25.5200 
  140.3750    -2.3950     2.5310    47.4470    21.2730    19.0950    20.1440    25.4900 
  140.5000    -2.4090     2.5290    50.8460    20.6130    18.6210    19.1540    25.4710 
  140.6250    -2.4620     2.5320    51.7780    19.7990    17.9690    17.4070    25.4680 
