~V
VERS. 2.00: Ver 2.00
~W
STRT.M 45.0000:
STOP.M 252.0000:
STEP.M 0.1250:
NULL. -999.2500:
UWI. F10190:
~C
DEPT.M :
GR.API :
RML.OHMM :
RI. :
RXO.OHMM :
CALI.CM :
SP.MV :
DEN.GM/CC :
~A
# ...
  202.5000    93.5390     9.4310     7.7270     8.2910    25.0950   -34.0020     2.4050 
  202.6250    93.2130     9.4810     7.7680     8.2030    25.1150   -34.9940     2.3970 
  202.7500    89.4760     9.5470     7.8190     8.1430    25.1280   -35.8210     2.3820 
  202.8750    84.5030     9.6390     7.8840     8.0190    25.1440   -36.4310     2.3630 
  203.0000    81.5250     9.7380     7.9490     7.8880    25.1170   -36.8280     2.3450 
  203.1250    82.8420     9.7920     7.9780     7.9280    25.0800   -37.0390     2.3300 
  203.2500    88.2790     9.7620     7.9400     8.1610    25.0360   -37.0800     2.3180 
  203.3750    93.5400     9.6610     7.8360     8.3650    24.9730   -36.9810     2.3170 
  203.5000    93.2130     9.5580     7.7090     7.9950    24.8550   -36.7790     2.3290 
  203.6250    90.7740     9.5470     7.6280     7.3300    24.7990   -36.5690     2.3490 
  203.7500    90.2300     9.6960     7.6450     7.1770    24.8570   -36.4000     2.3680 
  203.8750    91.4770    10.0480     7.7980     8.1000    24.9910   -36.3400     2.3870 
  204.0000    92.0470    10.5980     8.1140     9.5180    25.0700   -36.4010     2.4000 
  204.1250    89.7390    11.1950     8.5160     9.9700    25.0750   -36.5410     2.3980 
  204.2500    84.4000    11.7120     8.9290    10.2360    25.0510   -36.7000     2.3810 
  204.3750    78.3690    12.0800     9.2950    11.0150    25.0080   -36.8340     2.3590 
  204.5000    75.4220    12.3440     9.6160    11.7630    24.9450   -36.8690     2.3360 
  204.6250    75.1120    12.7140     9.9920    11.5020    24.9090   -36.7430     2.3180 
  204.7500    74.7270    13.4040    10.5540    11.4620    24.9180   -36.4420     2.3190 
  204.8750    72.3340    14.6030    11.4430    12.9160    24.9000   -35.9430     2.3520 
  205.0000    68.0050    16.4580    12.8210    15.7200    24.8520   -35.1820     2.4060 
  205.1250    64.3050    18.5670    14.4900    17.8870    24.8070   -34.2040     2.4460 
  205.2500    62.3300    20.2150    15.9690    20.0660    24.8020   -33.0430     2.4610 
  205.3750    61.1630    20.4710    16.4950    21.5250    24.8090   -31.7260     2.4620 
  205.5000    59.9300    18.5700    15.3070    20.6100    24.7910   -30.2260     2.4570 
  205.6250    57.9710    15.5130    13.0700    15.7670    24.7790   -28.6250     2.4360 
  205.7500    56.6260    12.3650    10.6020    10.0220    24.8310   -26.9790     2.3980 
  205.8750    56.4200     9.8600     8.5040     6.4320    24.9990   -25.3540     2.3490 
  206.0000    57.1440     8.3580     7.1040     5.4950    25.2300   -23.8340     2.2990 
  206.1250    59.4350     7.5820     6.2640     5.0390    25.3830   -22.4700     2.2610 
  206.2500    63.6500     7.3250     5.8720     4.7890    25.4000   -21.3390     2.2560 
  206.3750    68.1900     7.3740     5.7980     4.7680    25.3550   -20.4710     2.2940 
  206.5000    70.6420     7.5470     5.9290     4.8600    25.3220   -19.9350     2.3560 
  206.6250    71.2500     7.7200     6.1300     5.0720    25.1250   -19.6290     2.3970 
  206.7500    71.5870     7.8750     6.3550     5.3740    24.9230   -19.4460     2.4050 
  206.8750    72.0840     8.0100     6.5770     5.7370    24.8400   -19.3480     2.3970 
  207.0000    72.4130     8.0950     6.7570     5.8910    24.8390   -19.3600     2.3930 
  207.1250    73.5080     8.1080     6.8630     5.7650    24.8000   -19.4270     2.3890 
  207.2500    75.2550     8.0300     6.8750     5.6840    24.7660   -19.4900     2.3810 
  207.3750    76.6150     7.8650     6.7860     5.7570    24.7530   -19.5250     2.3700 
  207.5000    75.0430     7.6410     6.6090     5.8870    24.7500   -19.5230     2.3650 
  207.6250    72.7950     7.4310     6.4090     5.7860    24.7330   -19.5490     2.3690 
  207.7500    73.0790     7.3000     6.2440     5.5570    24.6810   -19.6900     2.3770 
  207.8750    74.9300     7.2940     6.1570     5.4690    24.5980   -19.9340     2.3820 
  208.0000    76.5450     7.4360     6.1830     5.5880    24.4810   -20.2330     2.3870 
  208.1250    76.7670     7.6550     6.2820     5.7420    24.2990   -20.5350     2.3910 
  208.2500    77.0000     7.8710     6.4060     5.8980    24.0540   -20.8320     2.3940 
  208.3750    77.1490     8.0170     6.5060     6.0490    23.8200   -21.1360     2.3910 
  208.5000    78.7810     8.0880     6.5690     6.1660    23.7090   -21.4780     2.3810 
  208.6250    82.8840     8.1970     6.6580     6.3160    23.6700   -21.8380     2.3700 
  208.7500    85.5810     8.4590     6.8510     6.6160    23.6840   -22.1840     2.3570 
  208.8750    84.2660     8.9480     7.2080     7.1700    23.7930   -22.5090     2.3440 
  209.0000    80.2900     9.6890     7.7730     7.8970    24.0730   -22.8190     2.3290 
  209.1250    78.0740    10.5500     8.4710     9.1240    24.3740   -23.1620     2.3120 
  209.2500    78.2350    11.4280     9.2370    10.6040    24.5420   -23.5560     2.2940 
  209.3750    78.7830    12.2570    10.0100    10.9980    24.5700   -23.9930     2.2790 
  209.5000    78.1130    13.0300    10.7640    11.5940    24.6510   -24.4550     2.2760 
  209.6250    75.7250    13.8060    11.5160    12.4150    24.8200   -24.8990     2.2840 
  209.7500    73.4040    14.5970    12.2800    15.1330    25.0070   -25.3110     2.2980 
  209.8750    73.5010    15.3190    13.0190    18.5770    25.1220   -25.6530     2.3120 
  210.0000    74.0220    15.7590    13.5880    18.0940    25.1360   -25.8590     2.3160 
  210.1250    72.3340    15.8660    13.9190    17.0120    25.1040   -25.9370     2.3150 
  210.2500    70.3290    15.7070    14.0320    17.4870    25.0630   -25.9050     2.3120 
  210.3750    70.6500    15.4540    14.0410    17.3440    25.0370   -25.8050     2.3050 
  210.5000    73.0410    15.3590    14.1450    16.1200    25.0360   -25.6600     2.2950 
  210.6250    73.7790    15.5020    14.4510    16.2080    25.0390   -25.4700     2.2840 
  210.7500    72.4360    15.7570    14.8890    16.5770    25.0380   -25.2290     2.2760 
  210.8750    72.8290    15.8690    15.2360    16.6520    25.0300   -24.9630     2.2720 
  211.0000    76.6860    15.5290    15.1640    17.2400    25.0080   -24.7740     2.2750 
  211.1250    79.5630    14.7760    14.6480    18.2390    24.9840   -24.6790     2.2850 
  211.2500    79.0830    13.8170    13.8430    16.2140    24.9690   -24.6720     2.3040 
  211.3750    76.0740    12.9760    13.0320    11.8250    24.9650   -24.7250     2.3260 
  211.5000    74.8830    12.5550    12.4990    10.4000    24.9650   -24.8390     2.3420 
  211.6250    75.6260    12.4270    12.2040    11.3810    24.9650   -25.0330     2.3410 
  211.7500    76.8080    12.3260    11.9610    13.1190    24.9660   -25.2870     2.3280 
  211.8750    75.9800    11.9820    11.5590    13.8740    24.9660   -25.6160     2.3160 
  212.0000    74.1130    11.3210    10.9320    12.4420    24.9670   -25.9840     2.3140 
  212.1250    75.5220    10.7690    10.3820    11.0000    24.9660   -26.3610     2.3170 
  212.2500    78.3120    10.9080    10.3170    10.4190    24.9650   -26.7420     2.3170 
  212.3750    77.4830    12.3950    11.2190    10.4350    24.9650   -27.1180     2.3120 
  212.5000    71.8220    15.6780    14.9350    14.6170    24.9650   -27.4500     2.3040 
  212.6250    66.9070    20.1370    23.7160    26.8310    24.9650   -27.7280     2.2920 
  212.7500    65.6230    30.5240    35.2150    55.6880    24.9650   -27.9740     2.2720 
  212.8750    66.6210    46.1630    51.3400    82.1050    24.9650   -28.1800     2.2370 
  213.0000    66.8720    65.3060    70.0980    93.0400    24.9720   -28.3200     2.2010 
  213.1250    65.6050    81.6210    85.3940    98.3660    24.9800   -28.3900     2.1860 
  213.2500    64.6730    91.2560    93.5510   111.4050    24.9810   -28.4010     2.1950 
  213.3750    63.3980    94.7340    95.7070   118.6720    24.9860   -28.3630     2.2120 
  213.5000    60.2910    94.6280    95.1820   113.4120    25.0050   -28.3200     2.2190 
  213.6250    57.0830    93.5880    94.4030   103.5470    24.9840   -28.2830     2.2180 
