~V
VERS. 2.00: Ver 2.00
~W
STRT.M 63.0000:
STOP.M 207.0000:
STEP.M 0.1250:
NULL. -999.2500:
UWI. F10132:
~C
DEPT.M :
SP.MV :
DEN.GM/CC :
GR.API :
RML.OHMM :
RI. :
RXO.OHMM :
CALI.CM :
~A
# ...
   96.7500   -34.0850     2.2710    84.5890     7.3620     5.9460     6.2510    26.2460 
   96.8750   -34.1390     2.2660    85.4920     7.6270     6.1400     6.3050    26.2320 
   97.0000   -34.2010     2.2500    85.1990     7.8980     6.4240     6.2340    26.2120 
   97.1250   -34.2770     2.2240    82.9400     8.1200     6.7130     6.0980    26.1340 
   97.2500   -34.3580     2.1980    82.8400     8.2240     6.8790     5.9190    25.9190 
   97.3750   -34.4310     2.1780    86.5290     8.1320     6.8080     5.9610    25.5500 
   97.5000   -34.4750     2.1700    91.0650     7.8160     6.4590     6.2480    25.1550 
   97.6250   -34.4700     2.1800    91.9050     7.3590     5.9020     6.1470    24.9970 
   97.7500   -34.4250     2.2080    90.2170     7.0410     5.3950     5.7080    25.0900 
   97.8750   -34.3440     2.2570    88.4130     7.2120     5.1930     5.8540    25.2710 
   98.0000   -34.2450     2.3300    85.9400     8.3110     5.5650     8.4740    25.3830 
   98.1250   -34.1510     2.4270    81.9470    11.1110     6.9550    18.5740    25.4020 
   98.2500   -34.0840     2.5340    75.7540    15.8170     9.5360    38.4550    25.3930 
   98.3750   -34.0480     2.6270    67.0140    22.3900    13.4990    68.2540    25.3580 
   98.5000   -34.0560     2.6800    58.4140    29.6960    18.5320    90.9520    25.2690 
   98.6250   -34.1250     2.6710    54.4040    34.1300    22.7520    86.2170    25.1450 
   98.7500   -34.2430     2.6110    55.9270    33.3770    23.9590    58.8140    25.0130 
   98.8750   -34.3930     2.5200    60.3660    28.5420    22.0500    33.9630    24.7850 
   99.0000   -34.5620     2.4200    65.2260    22.6270    18.6760    20.0790    24.4220 
   99.1250   -34.7250     2.3270    70.3680    17.9410    15.4040    14.2980    24.1140 
   99.2500   -34.8730     2.2500    74.4420    14.6520    12.7150    12.7730    24.1210 
   99.3750   -35.0010     2.1950    78.3130    12.3560    10.5750    14.1390    24.4540 
   99.5000   -35.1030     2.1650    82.5850    10.6290     8.9030    12.5080    24.8780 
   99.6250   -35.1860     2.1630    88.0110     9.2860     7.7380     7.6630    25.1320 
   99.7500   -35.2860     2.1740    95.0300     8.2020     6.9280     5.8020    25.1920 
   99.8750   -35.4500     2.1860   100.6850     7.3500     6.3620     5.3030    25.1110 
  100.0000   -35.7000     2.1930   101.8430     6.7100     5.9580     5.2840    24.8850 
  100.1250   -36.0670     2.1970    99.9290     6.3260     5.7410     5.4170    24.5170 
  100.2500   -36.5240     2.2070    99.7980     6.2050     5.7110     5.3870    24.1910 
  100.3750   -37.0510     2.2250    99.6650     6.4200     5.8570     4.9270    24.0120 
  100.5000   -37.6190     2.2500    94.6140     7.0550     6.1690     4.9580    23.8900 
  100.6250   -38.1880     2.2760    84.8540     8.2260     6.7320     6.3880    23.6800 
  100.7500   -38.7120     2.2980    76.4060     9.7130     7.5590     8.7280    23.4690 
  100.8750   -39.1650     2.3100    72.0210    11.1900     8.5500     9.8620    23.3670 
  101.0000   -39.5410     2.3080    72.1400    12.2520     9.4260     9.2880    23.3630 
  101.1250   -39.8480     2.2900    75.1930    12.5170     9.8200     8.5430    23.3700 
  101.2500   -40.1030     2.2640    77.2980    12.2290     9.7960     8.1380    23.3660 
  101.3750   -40.3190     2.2390    78.9320    11.7160     9.5860     7.9280    23.3660 
  101.5000   -40.5040     2.2190    78.7100    11.2530     9.3870     7.7770    23.3690 
  101.6250   -40.6480     2.2100    75.0790    10.9570     9.2250     7.5960    23.3750 
  101.7500   -40.7600     2.2050    72.6560    10.7390     9.0280     7.4010    23.3820 
  101.8750   -40.8530     2.2010    74.0790    10.5340     8.7920     7.2780    23.3950 
  102.0000   -40.9360     2.1950    76.5170    10.3160     8.5770     7.2840    23.4170 
  102.1250   -41.0180     2.1890    75.3740    10.1110     8.4120     7.3250    23.4510 
  102.2500   -41.1130     2.1880    75.1310     9.9590     8.2500     7.2450    23.5070 
  102.3750   -41.2250     2.1900    77.4410     9.8950     8.0730     7.1530    23.5740 
  102.5000   -41.3540     2.1930    78.0620     9.9330     7.9190     7.2670    23.6260 
  102.6250   -41.4800     2.1920    74.1720    10.0540     7.8800     7.3080    23.6710 
  102.7500   -41.5930     2.1900    69.3920    10.1860     7.9350     7.2870    23.7480 
  102.8750   -41.6770     2.1920    66.9870    10.2750     8.0150     7.4350    23.8380 
  103.0000   -41.7280     2.1990    66.6240    10.2860     8.0640     7.8740    23.8940 
  103.1250   -41.7380     2.2080    66.3690    10.1990     8.0880     8.3110    23.8940 
  103.2500   -41.7150     2.2140    65.6520    10.0590     8.1060     8.3940    23.8700 
  103.3750   -41.6730     2.2150    66.8270     9.8990     8.0610     8.1470    23.8310 
  103.5000   -41.6310     2.2150    69.2810     9.7460     7.9020     7.6820    23.7070 
  103.6250   -41.5940     2.2180    70.3230     9.6340     7.6500     7.2270    23.4010 
  103.7500   -41.5550     2.2230    71.3160     9.5760     7.4290     6.9960    23.0410 
  103.8750   -41.5040     2.2280    73.0240     9.5710     7.3180     6.8940    22.8030 
  104.0000   -41.4400     2.2300    74.0130     9.6060     7.3100     6.8250    22.7430 
  104.1250   -41.3600     2.2280    72.9530     9.6600     7.3450     6.7210    22.7550 
  104.2500   -41.2760     2.2210    74.4810     9.7080     7.3840     6.6520    22.7560 
  104.3750   -41.1990     2.2130    79.6910     9.7380     7.4610     6.6420    22.7640 
  104.5000   -41.1300     2.2040    81.6210     9.7520     7.5930     6.6910    22.7960 
  104.6250   -41.0830     2.1950    75.2030     9.7560     7.7190     6.7920    22.8370 
  104.7500   -41.0620     2.1870    68.2230     9.7660     7.7840     6.8900    22.8630 
  104.8750   -41.0560     2.1800    66.0160     9.8010     7.8220     7.1030    22.8970 
  105.0000   -41.0560     2.1740    66.8030     9.8660     7.9190     7.2800    22.9960 
  105.1250   -41.0650     2.1700    66.5440     9.9530     8.1010     7.2340    23.1740 
  105.2500   -41.0820     2.1660    67.3250    10.0250     8.2750     7.1290    23.3340 
  105.3750   -41.1080     2.1640    69.3640    10.0540     8.3690     7.2180    23.4170 
  105.5000   -41.1510     2.1660    70.6490    10.0330     8.3690     7.4390    23.4330 
  105.6250   -41.2210     2.1710    70.9330     9.9620     8.3030     7.4520    23.4280 
  105.7500   -41.3100     2.1780    71.1330     9.8780     8.1990     7.2300    23.4200 
  105.8750   -41.4100     2.1860    70.9590     9.8130     8.0590     7.0450    23.3960 
  106.0000   -41.5190     2.1920    70.5080     9.7850     7.9010     7.0530    23.3630 
  106.1250   -41.6290     2.1960    71.3780     9.7910     7.7790     7.2050    23.2970 
  106.2500   -41.7340     2.1960    73.0580     9.8030     7.7390     7.3890    23.1800 
  106.3750   -41.8360     2.1960    74.1870     9.8090     7.7600     7.6390    23.0330 
  106.5000   -41.9330     2.1950    74.0040     9.8080     7.7940     7.8600    22.9120 
  106.6250   -42.0240     2.1950    72.7700     9.8210     7.8060     8.0580    22.8670 
  106.7500   -42.1060     2.1960    71.3320     9.8650     7.8170     8.2200    22.8580 
  106.8750   -42.1770     2.1950    69.0880     9.9350     7.8530     8.3620    22.8600 
  107.0000   -42.2300     2.1890    67.0990    10.0170     7.9040     8.3320    22.8610 
  107.1250   -42.2550     2.1790    65.6080    10.1060     7.9600     8.2540    22.8620 
  107.2500   -42.2570     2.1670    64.6330    10.2010     8.0190     8.2750    22.8590 
  107.3750   -42.2280     2.1590    64.5040    10.2890     8.0750     8.3660    22.8510 
  107.5000   -42.1600     2.1580    66.4860    10.3460     8.1150     8.3490    22.8470 
  107.6250   -42.0340     2.1610    69.2170    10.3350     8.1190     8.2620    22.8480 
  107.7500   -41.8580     2.1660    68.2310    10.2600     8.0830     8.1220    22.8490 
  107.8750   -41.6400     2.1670    65.1310    10.1260     8.0110     8.0050    22.8570 
