~V
VERS. 2.00: Ver 2.00
~W
STRT.M 60.0000:
STOP.M 245.0000:
STEP.M 0.1250:
NULL. -999.2500:
UWI. F10162:
~C
DEPT.M :
SP.MV :
DEN.GM/CC :
GR.API :
RML.OHMM :
RI. :
RXO.OHMM :
CALI.CM :
~A
# ...
  150.0000    -8.2720     2.1530    67.8330    21.6200    18.9390    20.4800    24.9980 
  150.1250    -8.1230     2.1770    73.4800    20.9760    18.8140    21.7850    24.9970 
  150.2500    -7.9620     2.2080    78.3960    19.5590    17.8080    21.2080    25.0210 
  150.3750    -7.7410     2.2410    80.2720    17.7130    16.2190    18.0200    25.0670 
  150.5000    -7.5200     2.2700    81.8580    15.8540    14.4700    14.9030    25.0950 
  150.6250    -7.3090     2.2870    83.0600    14.4150    13.0010    13.1090    25.1090 
  150.7500    -7.1010     2.2960    80.8100    13.5110    11.9810    11.6500    25.1390 
  150.8750    -6.9380     2.2980    74.5600    13.1190    11.4370    10.5980    25.1910 
  151.0000    -6.7810     2.2960    68.8430    13.0820    11.2840    11.2640    25.2200 
  151.1250    -6.6470     2.2920    67.9480    13.1500    11.3430    12.5240    25.2260 
  151.2500    -6.5450     2.2880    70.2500    13.0650    11.3400    12.7110    25.2350 
  151.3750    -6.4490     2.2850    75.2240    12.7350    11.1380    11.6900    25.2550 
  151.5000    -6.3750     2.2870    80.2620    12.2140    10.7440    10.2280    25.2750 
  151.6250    -6.4120     2.2920    84.2160    11.7080    10.3160     9.6580    25.2760 
  151.7500    -6.4450     2.2990    84.9100    11.4330    10.0540    10.0010    25.2940 
  151.8750    -6.4740     2.3030    81.9560    11.5060    10.0700    10.6140    25.2960 
  152.0000    -6.4950     2.3020    79.0440    11.9520    10.4010    11.2100    25.2790 
  152.1250    -6.4340     2.2950    79.5520    12.7490    11.0660    12.2420    25.2550 
  152.2500    -6.4720     2.2850    80.2790    13.6970    11.9360    12.4280    25.2790 
  152.3750    -6.6100     2.2800    77.9440    14.5940    12.8720    12.8170    25.3060 
  152.5000    -6.8080     2.2840    73.8700    15.1930    13.6430    13.8880    25.2580 
  152.6250    -7.0120     2.2950    71.4240    15.1460    13.8530    15.7540    25.0950 
  152.7500    -7.2000     2.3070    70.6640    14.4420    13.3810    17.3790    24.8500 
  152.8750    -7.3580     2.3150    71.2330    13.2070    12.2810    16.5770    24.5880 
  153.0000    -7.4730     2.3230    71.8970    11.7360    10.8310    12.8950    24.6320 
  153.1250    -7.5510     2.3310    72.6340    10.4850     9.4770    10.3590    24.8160 
  153.2500    -7.6130     2.3360    73.8000     9.7740     8.5320     9.9100    24.9800 
  153.3750    -7.6690     2.3310    76.0820     9.7740     8.1420     9.1410    25.0160 
  153.5000    -7.6860     2.3130    77.1000    10.5150     8.3690     8.5100    25.0060 
  153.6250    -7.6630     2.2880    73.2140    11.9380     9.2870    10.0940    25.0080 
  153.7500    -7.6230     2.2720    67.6590    13.5910    10.6150    13.5240    25.0170 
  153.8750    -7.6530     2.2740    63.9160    15.0820    12.0370    16.2110    24.9770 
  154.0000    -7.7930     2.2920    64.3140    16.1070    13.1960    17.1320    24.8780 
  154.1250    -7.9870     2.3150    67.0570    16.5570    13.8280    16.2070    24.7320 
  154.2500    -8.1350     2.3270    68.8600    16.8060    14.1690    16.0430    24.5670 
  154.3750    -8.1780     2.3240    68.4070    17.1940    14.5380    16.6900    24.3370 
  154.5000    -8.1120     2.3090    64.9790    17.9290    15.1780    18.8570    24.3030 
  154.6250    -8.0870     2.2930    60.3730    19.0140    16.1770    21.0640    24.6050 
  154.7500    -8.1120     2.2800    57.7870    20.1420    17.3060    24.0840    24.9370 
  154.8750    -8.0720     2.2680    58.4650    21.0290    18.3060    27.2220    25.0840 
  155.0000    -8.0650     2.2540    61.4510    21.4440    18.9200    28.2170    25.1330 
  155.1250    -8.1530     2.2380    64.3420    21.1180    18.8760    25.7590    25.1220 
  155.2500    -8.2350     2.2330    63.9200    20.0900    18.1930    22.7830    25.0590 
  155.3750    -8.3760     2.2450    61.0130    18.3920    16.8410    20.4650    24.9380 
  155.5000    -8.5240     2.2710    62.1620    16.1920    14.8930    18.6440    24.7870 
  155.6250    -8.5790     2.2980    72.0450    13.8490    12.6700    15.9960    24.7200 
  155.7500    -8.6110     2.3140    81.9150    11.8410    10.7050    13.7630    24.7000 
  155.8750    -8.6120     2.3180    84.7720    10.4670     9.2970    11.0740    24.7680 
  156.0000    -8.5780     2.3140    82.5330     9.8280     8.5470     8.4900    24.8140 
  156.1250    -8.4440     2.3070    83.3400     9.8900     8.4900     7.9620    24.7800 
  156.2500    -8.2380     2.3010    85.6900    10.2340     8.8210    11.6730    24.6650 
  156.3750    -8.0370     2.2990    84.4180    10.5290     9.2550    16.0220    24.5170 
  156.5000    -7.8520     2.3060    79.7970    10.5220     9.4870    14.7690    24.4980 
  156.6250    -7.6640     2.3230    78.8010    10.1150     9.3070     9.6550    24.6020 
  156.7500    -7.5560     2.3410    81.2110     9.5510     8.8930     7.7800    24.5030 
  156.8750    -7.4830     2.3550    81.4240     9.0430     8.4490     7.3390    24.2500 
  157.0000    -7.3730     2.3590    78.9560     8.7060     8.1160     7.3450    23.9980 
  157.1250    -7.2670     2.3570    77.9270     8.5160     7.9160     7.4710    23.9050 
  157.2500    -7.1640     2.3560    78.4070     8.3180     7.7080     7.8000    23.8700 
  157.3750    -7.0710     2.3590    80.1440     8.0360     7.3940     7.2720    23.8760 
  157.5000    -7.0210     2.3660    82.2690     7.6980     6.9770     6.1860    23.8840 
  157.6250    -6.9910     2.3760    83.0570     7.4410     6.5850     5.6230    23.8280 
  157.7500    -6.9310     2.3880    82.7820     7.4000     6.3550     5.4840    23.6760 
  157.8750    -6.8510     2.3990    81.6480     7.6660     6.3730     5.3730    23.5270 
  158.0000    -6.7550     2.4050    78.6120     8.2780     6.6870     5.5870    23.5470 
  158.1250    -6.7160     2.3970    75.2540     9.2710     7.3630     7.4210    23.7270 
  158.2500    -6.7150     2.3780    76.1590    10.5100     8.3110    10.1600    24.0030 
  158.3750    -6.7130     2.3530    79.3430    11.8860     9.4560    11.1800    24.2460 
  158.5000    -6.8340     2.3300    80.7690    13.2710    10.6920    11.6620    24.3760 
  158.6250    -7.1310     2.3170    81.3400    14.4980    11.8650    13.1940    24.5290 
  158.7500    -7.4960     2.3090    82.8020    15.4660    12.8510    14.5260    24.7710 
  158.8750    -7.8920     2.3040    82.9740    16.1110    13.5680    14.9070    24.9670 
  159.0000    -8.2720     2.2980    81.8550    16.4170    13.9650    14.9410    25.0360 
  159.1250    -8.6690     2.2940    80.9870    16.4060    13.9890    15.3600    25.0080 
  159.2500    -9.1130     2.2940    79.5260    16.2640    13.7960    15.2660    24.9660 
  159.3750    -9.5820     2.2990    78.0910    16.1380    13.5570    14.2920    24.9420 
  159.5000    -9.9080     2.3070    79.0860    16.1450    13.4210    12.7070    24.8940 
  159.6250   -10.0210     2.3120    81.8280    16.3600    13.4950    12.3410    24.6390 
  159.7500   -10.0610     2.3130    83.2960    16.7050    13.7280    12.4810    24.0710 
  159.8750   -10.0260     2.3120    84.9680    17.0840    14.0430    13.0140    23.5140 
  160.0000    -9.9880     2.3150    87.7440    17.3930    14.3430    13.7890    23.4300 
  160.1250    -9.9430     2.3230    88.0300    17.5420    14.5280    14.2290    23.8810 
  160.2500    -9.8180     2.3320    84.2660    17.5760    14.6070    14.5580    24.3680 
  160.3750    -9.6190     2.3360    80.2750    17.5740    14.6440    14.9340    24.6990 
  160.5000    -9.4360     2.3270    79.4080    17.6230    14.7170    15.6280    24.9810 
  160.6250    -9.2640     2.3050    80.1270    17.7820    14.8930    15.7870    25.2440 
  160.7500    -9.1160     2.2800    79.4360    18.0040    15.1460    16.0310    25.2410 
  160.8750    -9.1630     2.2580    76.6770    18.2210    15.4250    16.6700    24.8610 
  161.0000    -9.3690     2.2450    74.2170    18.3650    15.6680    17.2920    24.2150 
  161.1250    -9.7040     2.2420    73.6390    18.3870    15.8090    17.4550    23.6990 
