~V
VERS. 2.00: Ver 2.00
~W
STRT.M 50.0000:
STOP.M 237.0000:
STEP.M 0.1250:
NULL. -999.2500:
UWI. F10163:
~C
DEPT.M :
DEN.GM/CC :
GR.API :
RML.OHMM :
RI. :
RXO.OHMM :
CALI.CM :
SP.MV :
~A
# ...
   61.2500     2.1790    78.3750     4.9970     5.9310     8.6710    22.6810   -29.3490 
   61.3750     2.1880    74.7320     5.7110     6.4610     9.1920    22.6020   -29.5580 
   61.5000     2.2090    71.0250     6.7200     7.4040    10.2810    22.8560   -29.7790 
   61.6250     2.2390    67.0050     7.8220     8.7360    14.0160    23.3360   -29.9810 
   61.7500     2.2620    62.8980     8.7200    10.0610    22.8780    23.7900   -30.1240 
   61.8750     2.2650    59.2920     9.0440    10.8100    31.3570    24.0770   -30.1120 
   62.0000     2.2500    58.0660     8.4980    10.5030    26.6520    24.3620   -29.8400 
   62.1250     2.2310    63.4920     7.2610     9.1430    15.2780    24.4540   -29.1980 
   62.2500     2.2220    72.6490     6.0650     7.5530    10.2310    24.2640   -28.3080 
   62.3750     2.2220    81.5990     5.1940     6.2110     7.5090    24.4060   -27.3130 
   62.5000     2.2190    88.9780     4.6970     5.3220     5.6780    24.6750   -26.3370 
   62.6250     2.2050    94.6640     4.5940     4.9640     5.2500    24.7490   -25.4620 
   62.7500     2.1900    97.2980     4.7760     4.9870     5.6130    24.3690   -24.7100 
   62.8750     2.1930    96.8020     5.2020     5.3230     6.3730    23.7070   -24.1230 
   63.0000     2.2220    95.5150     5.8300     5.9190     7.0120    23.5180   -23.7550 
   63.1250     2.2770    93.0890     6.6100     6.7320     7.2700    23.7090   -23.6860 
   63.2500     2.3310    88.6140     7.3710     7.5960     8.3280    23.8100   -23.8160 
   63.3750     2.3640    84.3210     7.8770     8.2920    10.5310    23.7020   -24.0330 
   63.5000     2.3650    82.7860     7.8970     8.5650    11.6980    23.4590   -24.2370 
   63.6250     2.3370    83.4870     7.3180     8.1880    11.8850    23.4640   -24.3740 
   63.7500     2.3020    86.5920     6.5070     7.4300    10.0160    23.5740   -24.4780 
   63.8750     2.2750    91.8490     5.7880     6.6090     7.3520    23.8100   -24.5910 
   64.0000     2.2700    96.5430     5.3680     5.9980     5.5800    24.1640   -24.7740 
   64.1250     2.2920    95.9260     5.3500     5.7880     5.2570    24.0620   -25.1040 
   64.2500     2.3240    91.0860     5.6130     5.9060     5.7940    23.6500   -25.5890 
   64.3750     2.3460    86.0980     6.0480     6.2590     6.6920    23.1920   -26.2440 
   64.5000     2.3370    82.8250     6.5250     6.7110     7.6200    22.9900   -27.0630 
   64.6250     2.2920    81.0430     6.8980     7.0960     7.9010    22.9600   -27.9860 
   64.7500     2.2350    78.4760     7.1240     7.3340     8.3440    22.9610   -28.8820 
   64.8750     2.1890    75.7260     7.2140     7.4250     8.5840    22.9760   -29.6630 
   65.0000     2.1670    75.4920     7.1910     7.3990     8.6720    22.8060   -30.2550 
   65.1250     2.1690    76.8180     7.0430     7.2560     8.9100    22.5180   -30.5450 
   65.2500     2.1800    75.9810     6.7700     7.0010     8.8750    22.4190   -30.5540 
   65.3750     2.1900    72.4380     6.3750     6.6230     8.2860    22.5440   -30.2930 
   65.5000     2.1910    71.0070     5.9290     6.1620     7.4910    22.9140   -29.8100 
   65.6250     2.1830    75.9790     5.6000     5.7880     6.9280    23.1550   -29.1930 
   65.7500     2.1830    83.9620     5.5100     5.6900     6.5810    23.4860   -28.6070 
   65.8750     2.2080    89.3540     5.7660     6.0160     6.2130    23.8610   -28.1270 
   66.0000     2.2700    88.9650     6.5410     6.8290     6.5600    24.2210   -27.8320 
   66.1250     2.3650    82.6430     8.1240     8.1040    10.3940    24.1160   -27.8350 
   66.2500     2.4490    74.0550     9.9650     9.4050    20.9450    24.0240   -28.0790 
   66.3750     2.4810    66.6100    10.8710    10.1740    31.5640    24.0120   -28.5290 
   66.5000     2.4450    62.5410    10.2880     9.9950    27.2190    24.0150   -29.1320 
   66.6250     2.3620    62.0620     9.0010     8.9530    16.4130    24.0750   -29.7990 
   66.7500     2.2800    63.6840     7.9360     7.7900    10.8710    24.0550   -30.4380 
   66.8750     2.2200    65.6100     7.3160     6.8930     9.1570    24.3560   -31.0320 
   67.0000     2.1810    65.9200     7.1390     6.3890     8.8770    24.5820   -31.5310 
   67.1250     2.1500    65.8120     7.2960     6.2670     8.8550    24.8840   -31.8440 
   67.2500     2.1180    66.1140     7.5330     6.3280     8.8720    25.2550   -31.9820 
   67.3750     2.0840    64.6540     7.7070     6.4540     8.9280    25.5470   -31.9790 
   67.5000     2.0580    61.7400     7.7680     6.5740     8.9330    25.3290   -31.8300 
   67.6250     2.0490    62.5800     7.7380     6.6600     8.9840    24.6350   -31.5520 
   67.7500     2.0540    67.0350     7.6730     6.7100     9.1190    23.9900   -31.1980 
   67.8750     2.0710    73.1630     7.5640     6.6990     9.4130    23.6280   -30.7430 
   68.0000     2.0970    79.1980     7.3760     6.5890     9.6130    23.5770   -30.1700 
   68.1250     2.1310    82.4200     7.0700     6.3440     9.4300    23.6260   -29.4790 
   68.2500     2.1730    82.2300     6.7180     6.0280     8.6650    23.8080   -28.7720 
   68.3750     2.2150    82.4610     6.4300     5.7260     7.4400    23.9980   -28.0880 
   68.5000     2.2470    84.3030     6.3280     5.5300     6.5300    23.9510   -27.4960 
   68.6250     2.2550    81.7050     6.5300     5.5500     6.8290    23.6560   -27.0220 
   68.7500     2.2390    75.0210     6.9560     5.7710     8.0470    23.4130   -26.5750 
   68.8750     2.2070    68.6190     7.4710     6.1410     9.1710    23.2430   -26.1230 
   69.0000     2.1680    64.4950     7.8800     6.5390     9.7740    23.1450   -25.6350 
   69.1250     2.1320    62.1840     7.9330     6.7600     9.9830    23.2890   -25.0410 
   69.2500     2.1130    63.6400     7.6300     6.7050     9.6240    23.3850   -24.3070 
   69.3750     2.1210    71.6610     7.1030     6.3950     8.5050    23.5770   -23.3950 
   69.5000     2.1570    83.7220     6.5600     5.9590     6.9790    23.4050   -22.3150 
   69.6250     2.2120    93.2660     6.2260     5.5830     6.2190    23.0330   -21.1210 
   69.7500     2.2620    98.1800     6.1390     5.3700     5.8000    22.9690   -19.9280 
   69.8750     2.2910    98.7170     6.2520     5.3330     5.7150    22.9680   -18.7900 
   70.0000     2.2940    95.5990     6.4480     5.4160     6.0110    23.0270   -17.7610 
   70.1250     2.2800    91.3580     6.5280     5.4850     7.0800    23.4140   -16.9140 
   70.2500     2.2680    89.7520     6.3580     5.4040     8.1430    23.9700   -16.2050 
   70.3750     2.2650    90.2040     5.9300     5.1280     7.1630    24.2610   -15.6420 
   70.5000     2.2700    91.1190     5.3770     4.7230     5.2120    24.1560   -15.1980 
   70.6250     2.2790    91.2480     4.9430     4.3450     4.3830    24.0370   -14.8500 
   70.7500     2.2880    90.7640     4.7920     4.1350     4.1620    24.0130   -14.5600 
   70.8750     2.3010    90.1740     5.0090     4.1750     4.2280    24.0390   -14.3160 
   71.0000     2.3270    91.3000     5.6150     4.5090     4.6860    24.0100   -14.1110 
   71.1250     2.3730    93.7640     6.5820     5.1710     5.5280    24.0130   -13.9790 
   71.2500     2.4310    94.6100     7.6420     6.0080     6.5920    24.0540   -13.9250 
   71.3750     2.4840    92.9100     8.4870     6.8110     7.5740    24.1250   -13.9500 
   71.5000     2.5100    91.0150     8.8210     7.3190     8.2510    24.2460   -14.0380 
   71.6250     2.4900    89.4060     8.4720     7.2910     8.3740    24.2830   -14.2210 
   71.7500     2.4350    85.6120     7.8120     6.9080     7.5690    24.3340   -14.4410 
   71.8750     2.3640    79.6480     7.1800     6.4120     6.4560    24.3550   -14.6700 
   72.0000     2.3010    75.5060     6.7830     6.0030     5.9140    24.3660   -14.9110 
   72.1250     2.2700    78.4650     6.6770     5.7960     6.0630    24.3680   -15.1600 
   72.2500     2.2700    84.5090     6.7040     5.7210     6.6590    24.3340   -15.3870 
   72.3750     2.2910    89.5700     6.7330     5.6900     7.2760    24.3080   -15.5820 
