~V
VERS. 2.00: Ver 2.00
~W
STRT.M 50.0000:
STOP.M 224.0000:
STEP.M 0.1250:
NULL. -999.2500:
UWI. F10153:
~C
DEPT.M :
GR.API :
RML.OHMM :
RI. :
RXO.OHMM :
CALI.CM :
SP.MV :
DEN.GM/CC :
~A
# ...
  151.2500    71.9300   130.1170   119.3970    50.1400    24.6240   -26.0290     2.1850 
  151.3750    71.9560   125.2290   116.2220    57.0950    24.8820   -25.9830     2.1850 
  151.5000    71.5590   124.2420   114.3060    70.2520    25.1210   -25.8830     2.1940 
  151.6250    69.6970   124.5360   112.4530    85.2550    25.3040   -25.7800     2.2060 
  151.7500    67.1740   121.7010   109.7960    98.4090    25.4190   -25.6820     2.2170 
  151.8750    66.3070   115.2500   105.3920    94.9740    25.4660   -25.5840     2.2220 
  152.0000    66.6990   106.8710    98.8750    76.1280    25.5010   -25.4810     2.2250 
  152.1250    67.1320    96.2080    89.8840    62.2190    25.5420   -25.4030     2.2270 
  152.2500    67.6970    83.9420    79.1200    64.5090    25.5580   -25.3690     2.2300 
  152.3750    69.1390    71.8280    68.1860    60.9330    25.5090   -25.4010     2.2350 
  152.5000    71.0050    62.1330    59.2330    51.7120    25.4420   -25.5020     2.2400 
  152.6250    72.1940    56.6130    53.8660    49.0310    25.4360   -25.6880     2.2430 
  152.7500    73.0170    55.3950    52.2340    48.9370    25.5120   -25.9640     2.2430 
  152.8750    74.6090    60.0430    55.8470    50.8050    25.6350   -26.3210     2.2380 
  153.0000    76.5770    69.7620    64.1990    57.2270    25.7130   -26.6790     2.2320 
  153.1250    77.9840    83.1740    76.2400    63.4330    25.7020   -27.0080     2.2290 
  153.2500    78.6440    98.1830    90.0710    71.3800    25.6210   -27.3420     2.2270 
  153.3750    77.8930   111.8620   102.9260    85.1290    25.3700   -27.7230     2.2210 
  153.5000    75.2930   122.2030   112.6520    98.6330    24.8560   -28.1170     2.2050 
  153.6250    72.3460   129.0130   118.8830   105.5020    24.2040   -28.4520     2.1830 
  153.7500    70.8260   133.2890   122.5900   105.1960    23.6590   -28.7150     2.1580 
  153.8750    72.0260   135.0680   123.8720   100.4910    23.4780   -28.9470     2.1380 
  154.0000    74.2170   135.5460   123.8520    97.3780    23.5570   -29.2170     2.1240 
  154.1250    74.8950   136.2730   123.8840    97.0890    23.7100   -29.5120     2.1140 
  154.2500    73.3050   138.0630   124.7150    98.1110    23.8570   -29.7860     2.1080 
  154.3750    71.7470   141.2400   126.7560   101.5220    23.9730   -29.9980     2.1110 
  154.5000    74.0260   143.8840   128.6360   106.8980    24.0750   -30.1660     2.1250 
  154.6250    77.7550   142.4180   127.5720   114.7840    24.1540   -30.3310     2.1480 
  154.7500    78.4100   135.2800   122.1500   130.2100    24.1770   -30.5130     2.1740 
  154.8750    74.0570   121.4850   111.0780   139.9810    24.0570   -30.7050     2.1970 
  155.0000    69.2520   105.8740    97.8850   114.4550    23.8170   -30.9100     2.2100 
  155.1250    67.6470    93.9770    87.1870    77.5200    23.5620   -31.1500     2.2090 
  155.2500    68.8770    87.8540    81.0730    56.8390    23.3580   -31.4240     2.1950 
  155.3750    71.9190    91.2340    83.1730    57.5830    23.2300   -31.7350     2.1720 
  155.5000    74.2180   104.1340    93.9120    70.6750    23.1480   -32.1080     2.1490 
  155.6250    73.8950   125.5070   112.5480    86.1430    23.1120   -32.5700     2.1350 
  155.7500    71.6900   151.6850   135.7620    97.2850    23.1390   -33.0800     2.1360 
  155.8750    69.6300   174.8300   156.8650    97.1870    23.2500   -33.5520     2.1530 
  156.0000    69.2330   185.9210   168.1340    94.2790    23.4210   -33.9420     2.1730 
  156.1250    70.3500   182.5110   167.0150    93.6780    23.6380   -34.2830     2.1840 
  156.2500    71.9100   170.6420   158.0980   100.6070    23.8860   -34.6320     2.1860 
  156.3750    72.4090   156.8430   146.5780   120.6530    24.1210   -35.0200     2.1820 
  156.5000    72.0540   145.4720   136.7230   136.4490    24.3000   -35.3810     2.1840 
  156.6250    71.7040   137.0360   129.4300   130.5750    24.4170   -35.6400     2.1920 
  156.7500    71.0900   130.5440   123.9360   115.3100    24.4850   -35.8220     2.2030 
  156.8750    69.8010   125.7350   120.0030   100.7010    24.4700   -35.9970     2.2090 
  157.0000    69.3010   122.1320   117.1250    87.4940    24.3980   -36.2160     2.2110 
  157.1250    70.6510   119.3780   114.9550    78.3910    24.3620   -36.4430     2.2110 
  157.2500    71.9870   116.8950   113.0070    75.9520    24.3970   -36.6140     2.2130 
  157.3750    70.8230   113.5870   110.3170    81.4630    24.4720   -36.6460     2.2190 
  157.5000    69.1720   108.8040   106.2180    85.2530    24.5090   -36.5860     2.2260 
  157.6250    69.6010   102.9810   100.9450    77.7420    24.5070   -36.4970     2.2330 
  157.7500    71.4700    97.2340    95.4540    64.7110    24.4980   -36.3850     2.2390 
  157.8750    72.7880    93.6710    91.5830    57.5290    24.4950   -36.2230     2.2430 
  158.0000    72.3990    93.8550    90.9010    61.8890    24.4600   -36.0150     2.2430 
  158.1250    70.7600    99.0940    94.8020    72.1840    24.3550   -35.8010     2.2420 
  158.2500    69.1240   109.3160   103.3330    86.2330    24.1990   -35.6150     2.2370 
  158.3750    69.6470   126.6850   118.5300   104.3080    24.0630   -35.4780     2.2300 
  158.5000    70.9040   151.0300   140.1230   143.2920    24.0000   -35.3690     2.2230 
  158.6250    69.7130   181.5910   167.1340   211.2880    23.9920   -35.2940     2.2160 
  158.7500    66.2040   215.8760   197.0850   288.2970    23.9990   -35.2660     2.2140 
  158.8750    62.8730   248.9780   225.2740   348.0890    23.9930   -35.2790     2.2150 
  159.0000    60.3940   273.7910   245.6890   375.9130    23.9750   -35.2660     2.2180 
  159.1250    58.2480   285.1420   254.1940   389.1740    23.9530   -35.1740     2.2170 
  159.2500    57.7600   285.0220   252.6460   397.3270    23.9110   -35.0240     2.2110 
  159.3750    60.5760   275.8140   243.1030   372.7490    23.7860   -34.8910     2.1960 
  159.5000    63.5970   263.9570   231.3510   329.8660    23.6380   -34.8190     2.1810 
  159.6250    65.1440   253.7550   221.4580   268.7060    23.6090   -34.7530     2.1730 
  159.7500    66.4640   246.5070   214.6840   197.3400    23.7130   -34.6400     2.1750 
  159.8750    67.6930   243.7320   212.7160   174.9920    23.8680   -34.4600     2.1890 
  160.0000    66.9110   244.2320   214.5670   201.5750    24.0510   -34.2960     2.2020 
  160.1250    64.0200   245.7840   218.2860   232.6760    24.4080   -34.2100     2.2080 
  160.2500    61.0620   246.5180   222.0040   245.7240    24.9550   -34.1900     2.2080 
  160.3750    60.8590   243.5980   223.0680   247.6710    25.5050   -34.1920     2.2040 
  160.5000    62.9050   235.1140   219.3180   242.1240    25.8280   -34.1630     2.1990 
  160.6250    64.6980   218.8750   208.3070   229.1980    25.9240   -34.1100     2.1940 
  160.7500    64.8640   194.8530   189.6760   212.6660    25.9150   -34.0490     2.1890 
  160.8750    63.9290   162.3500   161.7530   181.6050    25.8320   -33.9560     2.1880 
  161.0000    65.7000   127.3240   129.5360   138.1550    25.6300   -33.7920     2.1960 
  161.1250    71.2140    96.7350    99.8970    97.7040    25.2800   -33.5600     2.2150 
  161.2500    76.8410    72.8800    75.9390    63.2460    24.8480   -33.3050     2.2420 
  161.3750    77.8410    58.2230    60.7370    40.7000    24.4640   -33.0470     2.2700 
  161.5000    75.9320    50.7020    52.6030    30.5010    24.1910   -32.7570     2.2890 
  161.6250    75.5360    48.4110    49.6920    30.9150    23.9920   -32.4220     2.2970 
  161.7500    76.8880    49.6200    50.2930    36.5210    23.8160   -32.0890     2.2960 
  161.8750    77.5910    54.0330    54.1930    37.0580    23.6680   -31.8410     2.2890 
  162.0000    76.8060    60.4080    60.1630    33.2300    23.5500   -31.6880     2.2780 
  162.1250    75.2970    67.6290    66.9950    38.2590    23.4440   -31.5730     2.2670 
  162.2500    74.2640    74.8190    73.7250    58.1670    23.3490   -31.4310     2.2580 
  162.3750    73.7020    80.7500    79.0290    74.0420    23.2950   -31.2240     2.2540 
