~V
VERS. 2.00: Ver 2.00
~W
STRT.M 55.0000:
STOP.M 228.0000:
STEP.M 0.1250:
NULL. -999.2500:
UWI. F10142:
~C
DEPT.M :
DEN.GM/CC :
GR.API :
RML.OHMM :
RI. :
RXO.OHMM :
CALI.CM :
SP.MV :
~A
# ...
  133.7500     2.4860    63.9110    18.9750    17.9540    16.4370    24.7360    -9.1460 
  133.8750     2.4950    62.1940    19.2400    18.1720    17.5680    24.7410    -9.1740 
  134.0000     2.5120    63.2970    20.0170    18.8160    19.0740    24.7730    -9.1980 
  134.1250     2.5260    65.6190    21.0420    19.7290    20.2530    24.7940    -9.2060 
  134.2500     2.5280    65.7900    21.6880    20.3910    21.2470    24.8070    -9.2190 
  134.3750     2.5100    64.3800    21.3820    20.2780    21.1790    24.8090    -9.2420 
  134.5000     2.4720    64.4070    19.8410    19.0600    20.3440    24.8360    -9.2710 
  134.6250     2.4190    70.2480    17.2000    16.7490    14.4110    24.9570    -9.3150 
  134.7500     2.3670    77.3460    14.3320    14.1030     9.2570    25.1380    -9.3510 
  134.8750     2.3260    80.3780    11.8350    11.6770     6.9930    25.2240    -9.3860 
  135.0000     2.2990    79.2840    10.0280     9.8040     6.7640    25.2160    -9.4360 
  135.1250     2.2870    78.7160     9.0760     8.6840     7.1900    25.1840    -9.4770 
  135.2500     2.2810    80.8750     8.7610     8.1600     7.3880    25.1490    -9.5060 
  135.3750     2.2790    83.6130     9.0150     8.1870     7.5220    25.0770    -9.5540 
  135.5000     2.2820    83.9590     9.8300     8.7540     8.0590    24.9660    -9.5950 
  135.6250     2.2930    79.4640    11.3600    10.0000    10.6960    24.9020    -9.6330 
  135.7500     2.3150    71.1910    13.5500    11.8870    15.6670    24.8750    -9.6680 
  135.8750     2.3440    63.4160    16.3270    14.3870    22.0130    24.8740    -9.6980 
  136.0000     2.3760    60.3560    19.4000    17.2800    24.7610    24.9100    -9.7350 
  136.1250     2.3950    63.5670    22.0680    19.9630    23.3460    24.9440    -9.7720 
  136.2500     2.3970    66.8880    23.6690    21.7480    22.2830    24.8810    -9.7990 
  136.3750     2.3820    67.7330    23.8540    22.2150    21.5930    24.7960    -9.8220 
  136.5000     2.3560    69.2280    22.7210    21.3650    22.7140    24.7690    -9.8390 
  136.6250     2.3290    73.1850    20.6930    19.5250    20.6410    24.8180    -9.8390 
  136.7500     2.3060    75.9760    18.5670    17.4640    15.6310    24.8990    -9.8420 
  136.8750     2.2900    75.6720    16.8030    15.6300    13.5800    25.0390    -9.8540 
  137.0000     2.2790    73.9060    15.6800    14.2990    13.5590    25.2010    -9.8630 
  137.1250     2.2730    73.5420    15.4270    13.6970    13.7360    25.2680    -9.8720 
  137.2500     2.2710    73.2110    15.8470    13.7060    15.1140    25.2880    -9.8880 
  137.3750     2.2730    71.4310    16.7800    14.2210    17.2700    25.2990    -9.9080 
  137.5000     2.2760    68.6160    17.9560    15.0760    19.6500    25.3150    -9.9360 
  137.6250     2.2770    67.6610    18.8020    16.0750    20.3420    25.3140    -9.9610 
  137.7500     2.2710    67.8700    19.1480    17.0310    20.9890    25.3080    -9.9940 
  137.8750     2.2600    67.5110    19.3270    17.9020    21.6620    25.3080   -10.0190 
  138.0000     2.2460    66.1640    19.7880    18.7360    23.6600    25.3090   -10.0220 
  138.1250     2.2330    66.0960    20.6830    19.6300    25.2850    25.3000   -10.0400 
  138.2500     2.2250    68.9750    21.7020    20.5800    26.9020    25.2960   -10.0680 
  138.3750     2.2230    72.3580    22.6460    21.4560    29.1490    25.2880   -10.0770 
  138.5000     2.2280    72.2720    23.2480    22.0320    30.9700    25.2550   -10.0710 
  138.6250     2.2390    69.3370    23.0880    21.9640    28.5200    25.2200   -10.0600 
  138.7500     2.2510    68.2670    22.1680    21.2400    23.2100    25.2120   -10.0340 
  138.8750     2.2600    69.5170    20.6350    19.9520    19.7410    25.2140   -10.0080 
  139.0000     2.2670    70.7760    18.7780    18.3180    18.6590    25.2060    -9.9850 
  139.1250     2.2730    73.9130    16.9350    16.6140    16.4360    25.1890    -9.9470 
  139.2500     2.2790    78.1440    15.3350    15.0760    13.5230    25.1700    -9.9120 
  139.3750     2.2850    78.8180    14.0720    13.8150    12.1760    25.1400    -9.8770 
  139.5000     2.2890    74.5760    13.1620    12.8660    11.4180    25.0730    -9.8390 
  139.6250     2.2900    72.0630    12.6250    12.2550    11.5980    25.0100    -9.8170 
  139.7500     2.2870    74.7790    12.3410    11.8780    11.7050    24.9500    -9.8020 
  139.8750     2.2840    78.4150    12.2390    11.6760    11.7100    24.9130    -9.7920 
  140.0000     2.2840    80.4870    12.2380    11.5900    11.7260    24.8820    -9.7960 
  140.1250     2.2880    82.6040    12.2550    11.5590    11.7080    24.8540    -9.8010 
  140.2500     2.2960    83.0340    12.2170    11.5100    11.5210    24.8490    -9.7930 
  140.3750     2.3020    79.8310    12.0790    11.3980    11.4070    24.8720    -9.7990 
  140.5000     2.3050    75.8480    11.8300    11.2010    11.0700    24.8860    -9.8210 
  140.6250     2.3010    75.7510    11.5380    10.9500    10.4120    24.8600    -9.8370 
  140.7500     2.2940    77.4940    11.3700    10.7710     9.9390    24.7600    -9.8630 
  140.8750     2.2840    77.0860    11.5060    10.8060     9.9230    24.5890    -9.8850 
  141.0000     2.2700    74.6300    12.0660    11.1730    10.0650    24.4090    -9.8820 
  141.1250     2.2560    71.4160    13.0510    11.9200    11.4010    24.3230    -9.8850 
  141.2500     2.2450    69.6450    14.0810    12.7760    14.2100    24.2680    -9.8910 
  141.3750     2.2410    69.9190    14.7400    13.4020    16.9710    24.2250    -9.8740 
  141.5000     2.2480    72.7800    14.6850    13.4780    15.7260    24.2060    -9.8570 
  141.6250     2.2670    79.8330    13.7740    12.8010    11.1240    24.2220    -9.8310 
  141.7500     2.2890    87.5150    12.4800    11.7100     8.5720    24.2180    -9.7930 
  141.8750     2.3090    93.7360    11.1970    10.5300     7.7760    24.2090    -9.7590 
  142.0000     2.3240    96.9460    10.1750     9.5080     7.7430    24.2030    -9.7350 
  142.1250     2.3340    95.2000     9.5140     8.7880     7.5700    24.2260    -9.7290 
  142.2500     2.3420    91.0800     9.1060     8.3180     7.0670    24.3380    -9.7320 
  142.3750     2.3480    88.2650     8.9430     8.0870     6.7510    24.5860    -9.7490 
  142.5000     2.3500    88.1870     9.1110     8.1360     6.7330    24.9120    -9.7780 
  142.6250     2.3400    86.5280     9.8750     8.6490     7.2020    25.1940    -9.8190 
  142.7500     2.3200    81.5020    11.3100     9.6970    10.0800    25.3200    -9.8720 
  142.8750     2.2950    74.7350    13.3980    11.3270    17.6640    25.3470    -9.9260 
  143.0000     2.2730    68.6940    15.8360    13.3780    26.5990    25.3470    -9.9910 
  143.1250     2.2600    66.1490    17.8230    15.2900    28.8510    25.3440   -10.0400 
  143.2500     2.2560    66.4570    18.6400    16.3920    25.0800    25.3330   -10.0740 
  143.3750     2.2590    69.7410    18.0590    16.3570    20.1090    25.3080   -10.1070 
  143.5000     2.2660    74.9450    16.4620    15.3430    15.4770    25.2900   -10.1260 
  143.6250     2.2720    78.9240    14.6620    13.8980    12.2890    25.2760   -10.1390 
  143.7500     2.2730    78.4690    13.3560    12.6660    10.8450    25.2590   -10.1470 
  143.8750     2.2710    74.9540    12.7430    11.8920    10.7220    25.2410   -10.1550 
  144.0000     2.2660    72.0300    12.7230    11.5880    10.9430    25.2200   -10.1440 
  144.1250     2.2640    70.2950    13.0160    11.6240    12.2440    25.1900   -10.1390 
  144.2500     2.2630    69.7350    13.1960    11.6820    13.2110    25.1640   -10.1410 
  144.3750     2.2640    71.0450    13.0140    11.5430    12.2180    25.1570   -10.1290 
  144.5000     2.2680    74.1080    12.4010    11.0990     9.4800    25.1480   -10.1070 
  144.6250     2.2750    77.8280    11.4690    10.3740     7.5560    25.1090   -10.0770 
  144.7500     2.2850    80.1290    10.5250     9.5940     7.3470    25.0080   -10.0430 
  144.8750     2.2930    80.2120     9.7600     8.9240     7.4440    24.8700   -10.0100 
