~V
VERS. 2.00: Ver 2.00
~W
STRT.M 45.0000:
STOP.M 252.0000:
STEP.M 0.1250:
NULL. -999.2500:
UWI. F10190:
~C
DEPT.M :
GR.API :
RML.OHMM :
RI. :
RXO.OHMM :
CALI.CM :
SP.MV :
DEN.GM/CC :
~A
# ...
  180.0000    80.3630    24.5250    22.8890    16.2800    23.7400   -23.9420     2.3080 
  180.1250    81.5120    20.0380    18.4740    14.5730    24.1060   -23.4980     2.3240 
  180.2500    79.0350    17.4520    16.0950    11.9440    24.5870   -23.1090     2.3370 
  180.3750    74.8730    16.1370    15.0780    11.6960    25.0120   -22.7780     2.3430 
  180.5000    74.0300    15.7640    15.0090    14.0430    25.1790   -22.5080     2.3380 
  180.6250    76.6130    15.9300    15.4320    16.1640    25.2500   -22.3200     2.3260 
  180.7500    79.3490    16.5640    16.2960    15.1260    25.2940   -22.2330     2.3160 
  180.8750    81.0190    17.7320    17.7410    14.2360    25.2930   -22.2530     2.3150 
  181.0000    81.6470    19.7890    20.2590    16.1970    25.2310   -22.3550     2.3130 
  181.1250    80.6770    22.9420    24.0860    19.6500    25.1620   -22.4760     2.3020 
  181.2500    76.7760    27.4950    29.4540    23.9100    25.1010   -22.6190     2.2890 
  181.3750    72.6100    33.5620    33.7480    30.7810    25.0280   -22.7720     2.2850 
  181.5000    71.3740    40.8700    40.8650    41.8280    25.0000   -22.9780     2.2870 
  181.6250    70.4240    47.8520    48.0050    54.1670    25.0050   -23.2080     2.2820 
  181.7500    68.5030    53.2520    53.9760    61.6630    25.0190   -23.4250     2.2720 
  181.8750    67.2770    56.2620    57.2980    63.7470    25.0060   -23.6140     2.2680 
  182.0000    68.9520    55.4600    56.6610    61.5190    24.9880   -23.7510     2.2730 
  182.1250    70.6370    51.5480    52.7180    56.8290    24.9650   -23.8860     2.2790 
  182.2500    69.0810    45.5540    46.5030    51.7050    24.9220   -24.0110     2.2810 
  182.3750    65.5850    38.8450    39.4750    42.6720    24.8700   -24.1450     2.2830 
  182.5000    66.9060    32.8230    33.1350    32.0510    24.8410   -24.2460     2.2900 
  182.6250    71.6810    28.0960    28.1140    23.5960    24.8280   -24.3190     2.2980 
  182.7500    73.8420    24.7680    24.4920    20.4730    24.8170   -24.3650     2.3010 
  182.8750    72.1410    22.6840    22.1000    19.9770    24.8120   -24.3650     2.2960 
  183.0000    72.8070    21.8580    20.9350    19.9740    24.8800   -24.3330     2.2880 
  183.1250    76.0990    22.0940    20.7760    21.0260    24.9880   -24.2490     2.2810 
  183.2500    77.5250    23.5170    21.6920    22.5430    25.0810   -24.1280     2.2720 
  183.3750    75.8570    26.3960    23.8750    22.5570    25.1200   -23.9800     2.2580 
  183.5000    73.5150    31.4270    27.9830    28.2350    25.1110   -23.8420     2.2380 
  183.6250    72.3490    38.4640    34.0890    44.2040    25.0760   -23.7390     2.2200 
  183.7500    71.2950    47.1780    42.1230    63.0610    25.0030   -23.6690     2.2110 
  183.8750    69.7130    56.7590    51.4650    69.1680    24.8710   -23.6200     2.2120 
  184.0000    68.0890    65.9130    60.8590    78.0840    24.7550   -23.5780     2.2150 
  184.1250    65.5410    73.7260    69.1140    84.9410    24.7680   -23.5590     2.2110 
  184.2500    63.0990    79.7930    75.6900    88.7320    24.8810   -23.6050     2.2030 
  184.3750    62.0450    83.7280    80.2200    90.1470    24.9620   -23.7420     2.1950 
  184.5000    62.2630    84.2050    81.5290    98.3840    24.9840   -23.9270     2.1930 
  184.6250    62.5060    81.1350    79.4940   110.3170    24.9970   -24.1150     2.1910 
  184.7500    62.1570    74.9350    74.3310   115.2990    25.0280   -24.3020     2.1850 
  184.8750    61.4790    66.7110    66.9150    92.9680    25.0610   -24.5170     2.1810 
  185.0000    60.4500    58.0830    58.3230    67.6020    25.0910   -24.7920     2.1840 
  185.1250    61.5560    50.6030    49.6660    57.1320    25.0980   -25.1130     2.1890 
  185.2500    64.3570    43.6930    42.6030    51.0520    25.0780   -25.4650     2.1930 
  185.3750    66.4660    38.0080    36.8330    43.0930    25.0580   -25.8300     2.2000 
  185.5000    67.9050    33.7640    32.5340    30.3650    25.0530   -26.2340     2.2150 
  185.6250    70.2760    30.6350    29.3570    30.3280    25.0580   -26.6870     2.2350 
  185.7500    71.7480    28.5130    27.2080    26.9980    25.0730   -27.2000     2.2530 
  185.8750    69.7680    27.3840    26.0980    23.3430    25.0790   -27.7710     2.2640 
  186.0000    66.6810    27.4690    26.2570    26.2420    25.0450   -28.3840     2.2630 
  186.1250    64.7770    28.6240    27.5180    28.6870    25.0120   -29.0040     2.2530 
  186.2500    63.7350    30.8950    29.9020    28.5520    25.0310   -29.5860     2.2410 
  186.3750    63.9690    34.3280    33.4080    38.2770    25.0510   -30.1080     2.2310 
  186.5000    66.0690    38.9880    37.9870    45.5480    25.0500   -30.5610     2.2240 
  186.6250    67.6700    44.2070    42.9390    54.3630    25.0490   -30.9840     2.2180 
  186.7500    66.4050    49.1570    47.4650    59.3260    25.0470   -31.3340     2.2160 
  186.8750    64.1440    52.7820    50.6440    61.7820    25.0460   -31.5670     2.2200 
  187.0000    64.3480    53.9540    51.5990    59.2270    25.0420   -31.6720     2.2300 
  187.1250    66.1330    53.4120    51.1910    55.4820    25.0250   -31.6890     2.2400 
  187.2500    68.0490    52.4050    50.6990    51.1540    24.9860   -31.6650     2.2500 
  187.3750    68.3140    52.3250    51.4910    44.7530    24.9200   -31.6280     2.2600 
  187.5000    66.3180    54.7180    55.0730    40.8530    24.8070   -31.5730     2.2620 
  187.6250    64.0100    59.7040    61.3420    50.5920    24.6540   -31.4660     2.2530 
  187.7500    64.0370    66.7450    69.5500    69.1420    24.5130   -31.3500     2.2350 
  187.8750    67.0950    74.3280    77.9700    78.1640    24.4070   -31.2620     2.2190 
  188.0000    68.3800    79.8700    83.7860    73.1100    24.3620   -31.2300     2.2110 
  188.1250    66.2880    82.4640    86.3550    67.1730    24.3780   -31.2770     2.2100 
  188.2500    62.9800    83.2650    87.3310    63.7810    24.4280   -31.3840     2.2160 
  188.3750    62.1050    85.0820    89.9430    60.9300    24.4610   -31.5430     2.2280 
  188.5000    63.8790    92.6360    98.9820    60.8840    24.4600   -31.7580     2.2370 
  188.6250    64.1980   109.2750   117.1920    72.0290    24.4480   -32.0280     2.2350 
  188.7500    60.3940   139.6190   148.5720   100.9880    24.4580   -32.3300     2.2220 
  188.8750    54.0920   189.1450   198.5800   189.9010    24.4880   -32.6410     2.1960 
  189.0000    49.6160   265.4440   277.0000   407.0250    24.5110   -32.9400     2.1620 
  189.1250    48.5490   357.0830   373.4730   621.2300    24.4860   -33.1970     2.1320 
  189.2500    49.0270   437.9150   454.3000   609.8120    24.4500   -33.3800     2.1150 
  189.3750    49.9000   470.8760   470.2190   532.7240    24.4730   -33.4590     2.1100 
  189.5000    51.8400   431.6430   405.5460   463.1880    24.5770   -33.4070     2.1150 
  189.6250    54.4980   358.8310   319.5630   369.0770    24.6640   -33.2330     2.1290 
  189.7500    55.6730   281.5940   241.5900   287.1880    24.6900   -32.9630     2.1510 
  189.8750    55.4530   213.6510   179.1080   212.3250    24.6840   -32.6110     2.1750 
  190.0000    57.2700   161.6470   134.4310   152.1390    24.6860   -32.2080     2.1950 
  190.1250    61.4920   123.8370   103.2000   113.2700    24.7330   -31.8200     2.2090 
  190.2500    65.1530    98.7750    83.1570    89.6180    24.8390   -31.4790     2.2180 
  190.3750    66.0670    84.4760    72.2130    68.9750    24.9660   -31.2130     2.2250 
  190.5000    63.9170    80.8090    70.0900    59.2200    25.0260   -31.0360     2.2280 
  190.6250    62.1430    85.1480    74.5460    81.8260    25.0410   -30.9480     2.2300 
  190.7500    62.9670    96.7140    84.9730   102.5930    25.0290   -30.9830     2.2300 
  190.8750    64.6320   114.7360   100.7740   102.9770    24.9980   -31.1760     2.2300 
  191.0000    63.3680   138.2140   121.1110   120.2550    24.9660   -31.5360     2.2260 
  191.1250    60.2510   162.6550   142.1540   139.0290    24.9190   -31.9850     2.2220 
