~V
VERS. 2.00: Ver 2.00
~W
STRT.M 50.0000:
STOP.M 211.0000:
STEP.M 0.1250:
NULL. -999.2500:
UWI. F10140:
~C
DEPT.M :
DEN.GM/CC :
GR.API :
RML.OHMM :
RI. :
RXO.OHMM :
CALI.CM :
SP.MV :
~A
# ...
  185.0000     2.2890    78.0250    73.1090    65.0910    56.3510    22.3510   -10.2890 
  185.1250     2.3140    79.1440    83.5960    72.0180    52.3860    22.3440   -10.1760 
  185.2500     2.3710    80.0010    97.8640    83.0580    63.9940    22.3960   -10.0360 
  185.3750     2.4520    75.9430   115.0530   100.6040    91.8830    22.5820    -9.8290 
  185.5000     2.5430    68.5920   137.5240   127.1430   129.1900    22.9140    -9.5780 
  185.6250     2.6230    65.1670   172.6460   165.8650   179.9940    23.2150    -9.2430 
  185.7500     2.6820    66.7550   216.6810   211.7870   258.2590    23.3100    -8.8710 
  185.8750     2.7220    68.7640   256.1470   254.7310   328.3760    23.2320    -8.5290 
  186.0000     2.7510    68.0160   274.6410   279.3360   364.6640    23.0630    -8.2040 
  186.1250     2.7740    66.3110   260.9820   270.1420   389.8000    22.8690    -7.8710 
  186.2500     2.7950    66.8090   228.5480   239.3380   382.7390    22.7000    -7.5340 
  186.3750     2.8120    69.8650   190.6610   202.2980   315.3470    22.5440    -7.1920 
  186.5000     2.8200    75.2480   154.8500   168.6060   238.0900    22.3770    -6.8370 
  186.6250     2.8140    81.2820   120.8670   136.0540   173.9460    22.1780    -6.5120 
  186.7500     2.7970    84.4590    86.9870    99.2670   131.2330    21.9690    -6.2320 
  186.8750     2.7750    84.1280    55.8810    62.7950   109.2220    21.8210    -5.9820 
  187.0000     2.7500    82.7120    31.7040    34.8420    93.1990    21.8210    -5.7700 
  187.1250     2.7200    83.0170    17.6290    19.3010    51.8820    22.0300    -5.6320 
  187.2500     2.6820    87.4610    10.2980    11.1750    21.4310    22.3840    -5.5930 
  187.3750     2.6310    94.5540     7.1240     7.4060     9.5390    22.7950    -5.6560 
  187.5000     2.5720   101.4350     6.2480     5.9890     6.7910    23.1740    -5.8110 
  187.6250     2.5210   106.7270     6.8250     6.0530     6.8500    23.3380    -6.0460 
  187.7500     2.4920   110.1780     8.1630     7.0360     7.9220    23.2480    -6.2970 
  187.8750     2.4880   110.3070     9.9030     8.7600    10.2240    23.0170    -6.5480 
  188.0000     2.5060   106.9140    11.5560    10.8270    13.0580    22.7690    -6.7820 
  188.1250     2.5340   104.0340    12.4380    12.3870    14.1800    22.6000    -6.9600 
  188.2500     2.5570   103.3210    12.3690    12.8650    13.6990    22.5610    -7.0730 
  188.3750     2.5670   104.2110    11.4700    12.2170    13.3430    22.6600    -7.1030 
  188.5000     2.5630   109.0110    10.0940    10.8260    11.8700    22.8350    -7.0280 
  188.6250     2.5460   116.7860     8.6820     9.2380    10.0550    22.9780    -6.8110 
  188.7500     2.5260   119.6720     7.5320     7.8630     8.4340    23.0430    -6.4680 
  188.8750     2.5080   114.1130     6.7310     6.8190     7.2930    23.0330    -6.0060 
  189.0000     2.4940   104.0380     6.2600     6.1070     6.4970    22.9600    -5.4830 
  189.1250     2.4850    94.6490     6.0720     5.7230     6.1310    22.8650    -4.9160 
  189.2500     2.4780    87.6360     6.0220     5.5360     5.7920    22.8170    -4.2840 
  189.3750     2.4690    82.4330     6.0290     5.4660     5.4240    22.8650    -3.6150 
  189.5000     2.4530    80.2140     6.0350     5.4430     5.1890    23.0200    -2.9470 
  189.6250     2.4220    81.9340     6.0240     5.4220     5.2570    23.2660    -2.3510 
  189.7500     2.3810    85.8490     6.0200     5.3980     5.3300    23.5230    -1.8880 
  189.8750     2.3450    90.5880     6.0480     5.3940     5.2070    23.6980    -1.5940 
  190.0000     2.3310    94.9300     6.1110     5.4250     5.1900    23.7370    -1.3890 
  190.1250     2.3550    98.5290     6.1810     5.4780     5.5510    23.6280    -1.2180 
  190.2500     2.4040   103.0610     6.2140     5.5060     5.8680    23.4570    -1.0950 
  190.3750     2.4560   107.5160     6.1810     5.4730     5.8780    23.2990    -1.0180 
  190.5000     2.4900   108.4840     6.0800     5.3670     5.5030    23.2000    -0.9780 
  190.6250     2.4930   105.0650     5.9340     5.1970     4.9150    23.1750    -0.9840 
  190.7500     2.4790    99.8610     5.7940     5.0150     4.6190    23.1590    -0.9960 
  190.8750     2.4640    93.7800     5.6890     4.8510     4.6300    23.1410    -0.9560 
  191.0000     2.4600    84.3470     5.6320     4.7240     4.7200    23.1450    -0.9030 
  191.1250     2.4700    73.2540     5.6200     4.6450     4.7970    23.1560    -0.9150 
  191.2500     2.4840    67.7150     5.6250     4.6040     4.8040    23.1590    -0.9960 
  191.3750     2.4910    69.3990     5.6380     4.5960     4.7460    23.1640    -1.1220 
  191.5000     2.4890    74.8530     5.6610     4.6170     4.7070    23.1990    -1.2860 
  191.6250     2.4770    76.9580     5.7180     4.6690     4.6850    23.3130    -1.4690 
  191.7500     2.4630    76.1490     5.8250     4.7490     4.7080    23.4560    -1.6930 
  191.8750     2.4510    75.5000     5.9930     4.8590     4.8390    23.5650    -2.0300 
  192.0000     2.4450    78.3250     6.2200     5.0110     5.1600    23.5830    -2.4820 
  192.1250     2.4480    86.3230     6.4900     5.2170     5.7130    23.4790    -3.0000 
  192.2500     2.4580    95.5920     6.7480     5.4500     6.1950    23.3520    -3.5390 
  192.3750     2.4670   101.4920     6.9540     5.6600     6.6790    23.3480    -4.0720 
  192.5000     2.4660   102.6690     7.1110     5.8000     7.0720    23.5690    -4.5540 
  192.6250     2.4460   100.0330     7.3220     5.8880     7.0700    24.0080    -4.9160 
  192.7500     2.4120    97.3540     7.7330     6.0570     6.6540    24.4360    -5.1350 
  192.8750     2.3820    96.1090     8.4420     6.4320     6.4620    24.6560    -5.1790 
  193.0000     2.3800    96.0110     9.4270     7.0870     7.8540    24.6200    -5.0660 
  193.1250     2.4270    95.5940    10.4640     8.0050    13.3600    24.4200    -4.8250 
  193.2500     2.5030    92.9350    11.1780     8.8810    23.3930    24.2520    -4.4820 
  193.3750     2.5740    88.7000    11.3040     9.3450    25.6340    24.1810    -4.0720 
  193.5000     2.6080    86.8940    10.8110     9.1720    17.5480    24.1950    -3.6580 
  193.6250     2.5870    92.4070     9.9510     8.4820    11.1520    24.2370    -3.3180 
  193.7500     2.5390   100.3080     9.2140     7.7740     9.5080    24.2630    -3.0430 
  193.8750     2.4920   103.8610     8.8810     7.3390     9.5530    24.2640    -2.8290 
  194.0000     2.4600   102.6110     9.0400     7.3270     8.8060    24.2640    -2.6530 
  194.1250     2.4420   100.1390     9.6230     7.7980     9.9960    24.2850    -2.5100 
  194.2500     2.4240    97.6190    10.2730     8.4850    12.2590    24.2920    -2.3730 
  194.3750     2.3970    95.9710    10.6840     9.0820    13.0300    24.2730    -2.2470 
  194.5000     2.3640    96.3710    10.6350     9.2820    11.9080    24.2300    -2.1470 
  194.6250     2.3360    97.4700    10.0420     8.8780    12.1070    24.1510    -2.0790 
  194.7500     2.3240    96.9730     9.2230     8.1560    10.4610    24.0540    -2.0550 
  194.8750     2.3320    97.4560     8.4720     7.4180     8.4170    23.9950    -2.0570 
  195.0000     2.3550   101.8360     8.0120     6.8910     7.6980    24.0220    -2.0930 
  195.1250     2.3820   107.2530     7.9710     6.7210     7.5060    24.1520    -2.1490 
  195.2500     2.4010   108.1820     8.2000     6.8430     8.1360    24.3130    -2.2430 
  195.3750     2.4110   105.4750     8.5530     7.1830     9.2170    24.4470    -2.3780 
  195.5000     2.4120   103.4710     8.8970     7.6150    10.1360    24.5300    -2.5370 
  195.6250     2.4070   103.9280     9.1640     7.9910    10.0420    24.5620    -2.6770 
  195.7500     2.3980   103.1650     9.4200     8.2930     9.6350    24.5790    -2.7280 
  195.8750     2.3890    99.9450     9.7560     8.6050     9.6980    24.5900    -2.7230 
  196.0000     2.3860    95.2800    10.2090     9.0260    10.6350    24.5870    -2.7220 
  196.1250     2.3930    91.4350    10.6870     9.5860    12.1340    24.5680    -2.6720 
