~V
VERS. 2.00: Ver 2.00
~W
STRT.M 63.0000:
STOP.M 308.0000:
STEP.M 0.1250:
NULL. -999.2500:
UWI. F10102:
~C
DEPT.M :
DEN.GM/CC :
SP.MV :
GR.API :
RML.OHMM :
RI. :
RXO.OHMM :
CALI.CM :
~A
# ...
  175.5000     2.3840    -4.7700    86.8040     4.7840     3.8350     3.8980    24.7800 
  175.6250     2.3890    -4.8370    89.8060     4.8130     3.8550     4.0540    24.7220 
  175.7500     2.3940    -5.0070    89.8280     4.8370     3.8710     4.2120    24.6490 
  175.8750     2.4030    -5.2030    89.3900     4.8270     3.8620     4.0490    24.4820 
  176.0000     2.4180    -5.4230    91.2840     4.7860     3.8290     3.8650    24.2900 
  176.1250     2.4340    -5.6900    93.6520     4.7290     3.7810     3.6960    24.1420 
  176.2500     2.4460    -5.9810    93.8510     4.6790     3.7320     3.5970    24.0710 
  176.3750     2.4420    -6.1780    92.5040     4.6600     3.7020     3.5500    24.0040 
  176.5000     2.4240    -6.2000    94.5750     4.6690     3.6970     3.6160    23.8920 
  176.6250     2.3980    -6.0360    98.8320     4.7020     3.7190     3.6740    23.8130 
  176.7500     2.3700    -5.8640   102.0810     4.7520     3.7630     3.7550    23.8750 
  176.8750     2.3520    -5.7140   102.2350     4.8200     3.8270     3.8010    24.1640 
  177.0000     2.3440    -5.4290   100.8460     4.8980     3.9030     3.8950    24.5110 
  177.1250     2.3440    -5.1070    97.3010     4.9720     3.9820     3.9870    24.7470 
  177.2500     2.3460    -4.7970    91.4820     5.0200     4.0480     4.0550    24.8680 
  177.3750     2.3440    -4.5420    87.4620     5.0100     4.0730     4.1350    24.8890 
  177.5000     2.3360    -4.4340    87.4870     4.9480     4.0530     4.2210    24.8810 
  177.6250     2.3250    -4.4740    91.0880     4.8590     4.0010     4.1850    24.8630 
  177.7500     2.3170    -4.5320    95.3250     4.7900     3.9480     3.8810    24.8550 
  177.8750     2.3140    -4.6280    98.7260     4.8170     3.9520     3.7370    24.8550 
  178.0000     2.3150    -4.8530   101.5940     4.9630     4.0460     3.8790    24.8550 
  178.1250     2.3160    -5.0690   101.7230     5.2200     4.2400     4.1600    24.8550 
  178.2500     2.3140    -5.1920    97.7390     5.5360     4.5100     4.4480    24.8610 
  178.3750     2.3080    -5.2640    91.8600     5.8180     4.7950     4.7470    24.8790 
  178.5000     2.3040    -5.3150    87.2250     5.9930     5.0080     5.0020    24.9030 
  178.6250     2.3060    -5.3610    83.7810     6.0300     5.0970     5.0050    24.9120 
  178.7500     2.3140    -5.3770    82.4220     5.9500     5.0600     4.6990    24.9050 
  178.8750     2.3260    -5.3310    86.6320     5.8000     4.9330     4.4870    24.8700 
  179.0000     2.3340    -5.3150    92.2160     5.6550     4.7900     4.4330    24.8250 
  179.1250     2.3350    -5.4010    95.1130     5.5560     4.6660     4.4310    24.7740 
  179.2500     2.3300    -5.5740    94.9350     5.5320     4.5800     4.4850    24.6480 
  179.3750     2.3230    -5.7900    92.8640     5.6390     4.5700     4.5740    24.3850 
  179.5000     2.3190    -6.0120    90.4270     5.8960     4.6670     4.6710    24.0710 
  179.6250     2.3170    -6.2570    88.7340     6.3350     4.9060     4.7760    23.9190 
  179.7500     2.3150    -6.5420    89.1520     6.9670     5.3130     5.1120    23.8920 
  179.8750     2.3110    -6.7640    88.9990     7.8030     5.9220     6.2130    23.8680 
  180.0000     2.3060    -6.8810    84.6100     8.7740     6.6860     7.6760    23.7680 
  180.1250     2.3010    -7.0400    78.2040     9.8360     7.5720     8.2370    23.6420 
  180.2500     2.2940    -7.2320    73.7810    10.9570     8.5430     8.4210    23.7750 
  180.3750     2.2850    -7.4220    74.6500    12.1140     9.5700     9.8090    24.2720 
  180.5000     2.2740    -7.6730    77.2420    13.2800    10.6160    12.0890    24.7890 
  180.6250     2.2630    -7.9660    80.2120    14.4440    11.6620    13.5160    25.0330 
  180.7500     2.2550    -8.3170    83.0460    15.6080    12.7080    14.0070    25.0810 
  180.8750     2.2530    -8.7980    83.9310    16.8090    13.7690    14.6480    25.1010 
  181.0000     2.2500    -9.3280    83.0920    18.0800    14.8650    15.2590    25.1190 
  181.1250     2.2450    -9.7340    80.5170    19.4350    16.0180    15.8000    25.1540 
  181.2500     2.2350   -10.0560    77.8050    20.8530    17.2450    17.0520    25.2150 
  181.3750     2.2240   -10.3960    77.1460    22.2720    18.5220    19.9390    25.2330 
  181.5000     2.2170   -10.6910    77.4140    23.6450    19.7860    21.9530    25.1750 
  181.6250     2.2150   -10.9480    76.0110    24.9910    21.0330    22.0660    25.0870 
  181.7500     2.2180   -11.1960    73.8510    26.3820    22.3300    21.9730    25.0700 
  181.8750     2.2180   -11.3670    74.4640    27.8940    23.7770    23.1850    25.1230 
  182.0000     2.2120   -11.5170    76.2490    29.4290    25.3380    24.0500    25.1810 
  182.1250     2.1990   -11.6520    75.8540    30.7070    26.8470    24.9840    25.1880 
  182.2500     2.1790   -11.7630    72.9260    31.2810    27.9340    25.6470    25.1380 
  182.3750     2.1600   -11.9370    68.4920    30.5120    27.8420    24.4170    24.9770 
  182.5000     2.1520   -12.1180    66.2250    28.5930    26.4790    21.8850    24.6680 
  182.6250     2.1570   -12.2660    69.8430    26.0470    24.2510    19.4120    24.2030 
  182.7500     2.1740   -12.3920    76.6900    23.6300    21.9100    16.2920    23.6500 
  182.8750     2.1910   -12.4860    79.7750    22.1610    20.2790    13.0970    23.2270 
  183.0000     2.1990   -12.5650    79.1830    21.7320    19.5790    11.4240    22.9850 
  183.1250     2.1970   -12.7130    78.2310    22.1260    19.7290    13.2680    22.9410 
  183.2500     2.1890   -12.9220    77.2890    22.8770    20.3820    16.6180    23.0120 
  183.3750     2.1840   -13.0580    77.6620    23.3650    20.9570    18.2820    23.0520 
  183.5000     2.1860   -13.2430    80.9350    23.3290    21.0330    17.4430    23.0080 
  183.6250     2.1950   -13.4320    84.6540    22.9460    20.6520    15.6040    22.9110 
  183.7500     2.2060   -13.5390    83.6280    22.7040    20.2360    14.3780    22.8180 
  183.8750     2.2150   -13.7300    76.4010    23.3320    20.5010    15.0300    22.7630 
  184.0000     2.2210   -13.9980    69.0800    25.0400    21.7820    16.5070    22.7930 
  184.1250     2.2250   -14.2060    65.3860    27.7630    24.1760    18.0940    22.9560 
  184.2500     2.2330   -14.3960    66.2740    31.1190    27.4800    19.9810    23.1260 
  184.3750     2.2470   -14.6130    66.9320    34.3430    31.0640    22.5540    23.2310 
  184.5000     2.2640   -14.6730    63.9070    36.6400    33.9590    26.4270    23.3030 
  184.6250     2.2780   -14.6270    60.8000    37.5280    35.5240    29.8640    23.4500 
  184.7500     2.2880   -14.6240    60.8290    36.9100    35.5590    32.3330    23.8120 
  184.8750     2.2900   -14.5140    62.2770    34.8820    34.0930    31.0220    24.3230 
  185.0000     2.2850   -14.2940    62.7700    32.0960    31.7480    29.7420    24.7910 
  185.1250     2.2730   -14.0360    65.7860    28.9990    28.8630    27.5860    25.0040 
  185.2500     2.2580   -13.7050    71.5670    25.9670    25.7320    23.8680    25.0340 
  185.3750     2.2460   -13.3650    76.3570    23.2200    22.6900    20.5020    24.9500 
  185.5000     2.2410   -13.1160    80.5530    20.7720    20.0340    17.5600    24.7400 
  185.6250     2.2440   -12.9610    86.7310    18.7830    17.9890    14.5860    24.3930 
  185.7500     2.2530   -12.8300    93.5360    17.4340    16.6900    12.6860    24.0020 
  185.8750     2.2640   -12.6990    98.1840    17.0580    16.2860    12.4640    23.8060 
  186.0000     2.2760   -12.6390    99.2600    17.7640    16.5630    13.2020    23.7530 
  186.1250     2.2840   -12.6760    95.7380    19.3640    17.3760    14.5740    23.7310 
  186.2500     2.2870   -12.6940    89.2830    21.1670    18.5150    16.2770    23.7370 
  186.3750     2.2820   -12.6690    85.0820    22.4260    19.6910    17.3550    23.8100 
  186.5000     2.2740   -12.7220    83.6160    23.1750    20.6460    17.5780    23.9790 
  186.6250     2.2660   -12.7560    82.3310    23.6040    21.2710    17.1950    24.2570 
