~V
VERS. 2.00: Ver 2.00
~W
STRT.M 59.0000:
STOP.M 202.0000:
STEP.M 0.1250:
NULL. -999.2500:
UWI. F10133:
~C
DEPT.M :
GR.API :
RML.OHMM :
RI. :
RXO.OHMM :
CALI.CM :
SP.MV :
DEN.GM/CC :
~A
# ...
  194.0000    84.5330     9.4860     8.7580     8.7620    24.3660    -2.9050     2.3870 
  194.1250    84.5330     9.4200     8.6860     8.7210    24.3950    -2.9800     2.4090 
  194.2500    84.5330     9.3580     8.5830     8.4100    24.3590    -3.1010     2.4280 
  194.3750    84.5330     9.3410     8.5040     8.0450    24.3320    -3.2900     2.4410 
  194.5000    84.5330     9.3920     8.4870     7.8690    24.3480    -3.5530     2.4500 
  194.6250    84.5330     9.5270     8.5670     7.8820    24.3470    -3.9380     2.4570 
  194.7500    84.5330     9.7190     8.7260     8.4190    24.3410    -4.3600     2.4650 
  194.8750    84.5330     9.9380     8.9400    10.0480    24.4090    -4.7580     2.4720 
  195.0000    84.5330    10.1490     9.1740    13.2420    24.4850    -5.0810     2.4770 
  195.1250    84.5330    10.3050     9.3700    14.6220    24.4710    -5.2720     2.4810 
  195.2500    84.5330    10.3870     9.4910    12.7900    24.4060    -5.3750     2.4840 
  195.3750    84.5330    10.3910     9.5190    11.2230    24.3110    -5.4180     2.4880 
  195.5000    84.5330    10.3300     9.4640    10.0190    24.2440    -5.3810     2.4940 
  195.6250    84.5330    10.2290     9.3560     9.4420    24.2430    -5.2450     2.4990 
  195.7500    84.5330    10.1220     9.2440     8.9160    24.2940    -5.0770     2.4980 
  195.8750    84.5330    10.0260     9.1550     8.8770    24.3080    -4.9190     2.4870 
  196.0000    84.5330     9.9490     9.0950     9.2740    24.2340    -4.8090     2.4690 
  196.1250    84.5330     9.9000     9.0550     9.7590    24.2020    -4.7820     2.4520 
  196.2500    84.5330     9.8780     9.0090    10.2930    24.2380    -4.8070     2.4440 
  196.3750    84.5330     9.8840     8.9480    11.1350    24.3110    -4.8460     2.4490 
  196.5000    84.5330     9.9170     8.8760    12.2040    24.3280    -4.8900     2.4650 
  196.6250    84.5330     9.9700     8.8090    13.3120    24.3230    -4.9390     2.4850 
  196.7500    84.5330    10.0310     8.7580    14.1480    24.3850    -5.0770     2.5060 
  196.8750    84.5330    10.0860     8.7280    14.4900    24.4460    -5.3660     2.5220 
  197.0000    84.5330    10.1240     8.7140    13.9830    24.4630    -5.8260     2.5330 
  197.1250    84.5330    10.1370     8.7140    13.2440    24.4260    -6.4700     2.5330 
  197.2500    84.5330    10.1380     8.7140    14.4050    24.3980    -7.2730     2.5240 
  197.3750    84.5330    10.1370     8.7140    14.8560    24.3930    -8.1770     2.5070 
  197.5000    84.5330    10.1370     8.7140    13.9370    24.3630    -9.0560     2.4860 
  197.6250    84.5330    10.1370     8.7140    12.5560    24.3950    -9.8800     2.4650 
  197.7500    84.5330    10.1370     8.7140    11.6800    24.3070   -10.5950     2.4460 
  197.8750    84.5330    10.1370     8.7140    10.2170    24.2200   -11.1720     2.4300 
  198.0000    84.5330    10.1370     8.7140     8.9720    24.1890   -11.6150     2.4130 
  198.1250    84.5330    10.1370     8.7140     9.5990    24.2360   -11.9130     2.3950 
  198.2500    84.5330    10.1370     8.7140    11.0210    24.3150   -12.0830     2.3810 
  198.3750    84.5330    10.1370     8.7140    11.3660    24.3700   -12.2020     2.3750 
  198.5000    84.5330    10.1370     8.7140    10.8110    24.3250   -12.4040     2.3860 
  198.6250    84.5330    10.1370     8.7140    10.4620    24.2740   -12.8030     2.4140 
  198.7500    84.5330    10.1370     8.7140    10.7940    24.2690   -13.4550     2.4480 
  198.8750    84.5330    10.1370     8.7140    11.1120    24.2940   -14.2070     2.4780 
  199.0000    84.5330    10.1370     8.7140    10.9610    24.3830   -14.9630     2.4940 
  199.1250    84.5330    10.1370     8.7140    10.5350    24.4480   -15.6850     2.4900 
  199.2500    84.5330    10.1370     8.7140     9.8070    24.5040   -16.3710     2.4690 
  199.3750    84.5330    10.1370     8.7140     8.9550    24.5170   -16.9970     2.4360 
  199.5000    84.5330    10.1370     8.7140     7.6140    24.4700   -17.5220     2.4030 
  199.6250    84.5330    10.1370     8.7140     6.7050    24.3910   -17.8490     2.3900 
  199.7500    84.5330    10.1370     8.7140     6.2540    24.3390   -17.8640     2.4040 
  199.8750    84.5330    10.1370     8.7140     6.5440    24.2650   -17.8800     2.4400 
  200.0000    84.5330    10.1370     8.7140     7.5630    24.2560  -999.2500     2.4780 
  200.1250    84.5330    10.1370     8.7140     8.4550    24.3470  -999.2500     2.4950 
  200.2500    84.5330    10.1370     8.7140     8.3270    24.4250  -999.2500     2.4930 
  200.3750    84.5330    10.1370     8.7140     7.7990    24.5120  -999.2500     2.4860 
  200.5000    84.5330    10.1370     8.7140     7.8470    24.5600  -999.2500     2.4850 
  200.6250    84.5330    10.1370     8.7140     8.2830    24.4250  -999.2500     2.4860 
  200.7500    84.5330    10.1370     8.7140     7.6530    23.5500  -999.2500     2.4660 
  200.8750    84.5330    10.1370     8.7140     5.5520    21.2830  -999.2500     2.4130 
  201.0000    84.5330    10.1370     8.7140     3.8720    18.4520  -999.2500     2.3330 
  201.1250    84.5330    10.1370     8.7140     3.3460    17.2180  -999.2500     2.2490 
  201.2500    84.5330    10.1370     8.7140     3.2930    16.9320  -999.2500     2.1870 
  201.3750    84.5330    10.1370     8.7140     3.2930    16.9320  -999.2500     2.1540 
  201.5000    84.5330    10.1370     8.7140     3.2940    16.9320  -999.2500     2.1430 
  201.6250    84.5330    10.1370     8.7140     3.2940    16.9320  -999.2500     2.1430 
  201.7500    84.5330    10.1370     8.7140     3.2940    16.9320  -999.2500     2.1440 
  201.8750    84.5330    10.1370     8.7140     3.2940    16.9320  -999.2500     2.1440 
  202.0000    84.5330    10.1370     8.7140     3.2940    16.9320  -999.2500     2.1420 
