~V
VERS. 2.00: Ver 2.00
~W
STRT.M 63.0000:
STOP.M 207.0000:
STEP.M 0.1250:
NULL. -999.2500:
UWI. F10132:
~C
DEPT.M :
SP.MV :
DEN.GM/CC :
GR.API :
RML.OHMM :
RI. :
RXO.OHMM :
CALI.CM :
~A
# ...
  153.0000   -28.5270     2.2790    55.6470   134.5530   121.0190   135.2850    28.0720 
  153.1250   -28.5970     2.2810    57.4400   121.4140   109.6170   127.8560    28.1490 
  153.2500   -28.6450     2.2790    58.5580   106.6870    96.5270   110.1720    28.2510 
  153.3750   -28.6470     2.2850    59.2910    92.9720    84.0640    88.9560    28.2430 
  153.5000   -28.6050     2.3030    61.3780    82.4290    74.2600    72.5620    28.1080 
  153.6250   -28.5450     2.3270    64.2610    77.0720    69.0460    63.9070    28.0510 
  153.7500   -28.5060     2.3420    65.0660    76.3980    68.0910    60.5950    28.1710 
  153.8750   -28.4930     2.3410    64.2400    79.9630    71.1190    62.2120    28.3420 
  154.0000   -28.4970     2.3290    63.7210    86.8120    77.4360    67.6120    28.4350 
  154.1250   -28.5010     2.3180    65.8150    95.2800    85.7450    74.8100    28.4420 
  154.2500   -28.4910     2.3100    67.9740   102.5690    93.3590    80.9550    28.4330 
  154.3750   -28.4610     2.3020    67.5100   106.7220    98.2220    83.7130    28.4290 
  154.5000   -28.4170     2.2890    65.8980   107.0230    99.3630    81.2940    28.4290 
  154.6250   -28.3800     2.2680    65.1960   103.7390    96.7630    74.2650    28.4320 
  154.7500   -28.3740     2.2500    65.6910    98.6320    92.1220    68.0200    28.4410 
  154.8750   -28.4100     2.2460    65.7180    92.4410    86.2230    65.7520    28.4330 
  155.0000   -28.4970     2.2580    64.3450    85.6790    79.6120    66.2250    28.3910 
  155.1250   -28.6090     2.2830    64.7770    79.1060    72.9870    66.0730    28.3280 
  155.2500   -28.7080     2.3060    66.6710    73.6960    67.2680    64.5050    28.2880 
  155.3750   -28.7660     2.3190    66.6940    70.4120    63.3190    63.1550    28.2740 
  155.5000   -28.7830     2.3220    64.1140    70.1700    61.9440    62.3170    28.3040 
  155.6250   -28.7680     2.3170    61.4810    74.5840    64.5400    62.8150    28.4960 
  155.7500   -28.7590     2.3070    61.2360    83.7730    71.2910    65.9090    28.8120 
  155.8750   -28.7820     2.2970    63.1520    98.0700    82.6430    71.0740    29.0510 
  156.0000   -28.8360     2.2850    67.0690   117.0120    98.3970    77.6800    29.0110 
  156.1250   -28.9010     2.2690    70.3350   138.4430   116.9040    83.8580    28.7280 
  156.2500   -28.9610     2.2500    70.7220   157.0780   133.5040    87.5170    28.4990 
  156.3750   -29.0140     2.2320    69.9300   167.9360   143.7670    87.9620    28.4150 
  156.5000   -29.0500     2.2220    70.3530   168.4360   145.1530    86.1280    28.4190 
  156.6250   -29.0680     2.2230    70.9180   159.3540   137.7370    87.7540    28.4240 
  156.7500   -29.0810     2.2290    69.0160   147.0860   126.8870    93.4070    28.4260 
  156.8750   -29.1170     2.2350    65.9070   135.3160   116.0200   101.4040    28.4320 
  157.0000   -29.2010     2.2400    63.6070   125.7410   106.9700   108.7930    28.4260 
  157.1250   -29.3150     2.2310    62.4190   118.8380   100.4490   111.3150    28.4150 
  157.2500   -29.4250     2.2000    61.4960   113.6430    95.6730   109.5620    28.4100 
  157.3750   -29.4960     2.1690    60.3180   109.6280    92.1660   106.0380    28.4210 
  157.5000   -29.5140     2.1320    59.6890   106.4200    89.5500   102.0550    28.4420 
  157.6250   -29.4740     2.1080    60.8000   103.9050    87.6930    98.2950    28.2400 
  157.7500   -29.3910     2.1080    63.1030   101.9700    86.4390    94.9740    27.5950 
  157.8750   -29.2770     2.1360    64.9310   100.7520    85.8820    92.2290    26.6400 
  158.0000   -29.1600     2.1800    64.7410   100.5090    86.2150    90.3860    25.8440 
  158.1250   -29.0770     2.2100    64.9760   101.7790    87.8970    89.8890    25.6180 
  158.2500   -29.0320     2.2130    66.9500   104.4020    90.8170    90.1830    25.7390 
  158.3750   -29.0170     2.1950    69.2860   107.8120    94.5390    91.4940    26.1030 
  158.5000   -29.0180     2.1690    69.5850   110.6790    97.9360    93.7230    26.7550 
  158.6250   -29.0070     2.1440    68.0760   110.4060    98.6710    96.3780    27.5250 
  158.7500   -28.9890     2.1240    67.3470   105.7240    95.3910    97.4140    28.0270 
  158.8750   -28.9840     2.1100    68.0040    96.6850    87.8900    95.2840    28.1800 
  159.0000   -29.0040     2.1060    68.1930    85.0840    77.6170    89.2500    28.1720 
  159.1250   -29.0590     2.1200    66.8830    74.0120    67.3290    78.8540    28.1560 
  159.2500   -29.1580     2.1490    66.1520    65.7930    59.3420    67.3540    28.1190 
  159.3750   -29.2860     2.1820    65.8820    61.4550    54.6570    57.7400    28.0380 
  159.5000   -29.4200     2.2060    65.5790    61.3720    53.6330    52.4860    27.9000 
  159.6250   -29.5310     2.2230    65.0740    66.4260    57.1270    52.8190    27.7100 
  159.7500   -29.5990     2.2130    64.8730    75.8660    64.6990    55.9440    27.3820 
  159.8750   -29.6280     2.1980    65.1540    89.3080    76.3000    61.3430    26.6650 
  160.0000   -29.6260     2.1870    65.1460   105.6170    91.1800    67.9590    25.5630 
  160.1250   -29.6330     2.1830    66.6690   122.2170   107.2530    73.1490    24.6210 
  160.2500   -29.6580     2.1840    68.1390   135.8140   121.2230    74.5320    24.2210 
  160.3750   -29.6970     2.1880    66.9450   144.6080   131.1330    70.8110    24.2210 
  160.5000   -29.7480     2.1960    62.7470   148.6580   136.7910    62.8510    24.3070 
  160.6250   -29.7850     2.1970    57.3290   147.7820   138.0700    57.0220    24.2840 
  160.7500   -29.8030     2.1810    55.1110   141.0750   134.1290    54.3580    24.1200 
  160.8750   -29.7980     2.1510    57.5320   126.4130   122.5710    53.0740    23.8870 
  161.0000   -29.7830     2.1190    62.6070   104.5480   103.4090    49.6750    23.7100 
  161.1250   -29.7830     2.1090    65.1680    80.7700    81.1450    42.4640    23.6350 
  161.2500   -29.7890     2.1340    65.7800    61.1940    62.2110    34.4660    23.6050 
  161.3750   -29.7920     2.1910    68.5970    47.9040    49.0900    27.9050    23.6070 
  161.5000   -29.7870     2.2590    73.5800    40.5600    41.6890    24.2160    23.6240 
  161.6250   -29.7570     2.3110    76.1160    38.4320    39.3350    23.6620    23.6340 
  161.7500   -29.6960     2.3460    73.5280    39.4860    40.0780    25.3810    23.6600 
  161.8750   -29.6150     2.3740    68.6350    42.9510    43.2730    29.1110    23.7190 
  162.0000   -29.5510     2.3900    65.8430    48.1790    48.3770    33.8640    23.7930 
  162.1250   -29.5560     2.3690    67.5090    54.6570    54.8610    38.6360    23.8330 
  162.2500   -29.6390     2.3100    68.9250    61.6670    61.8070    42.8200    23.8220 
  162.3750   -29.7890     2.2330    67.4680    68.9380    68.7700    45.6940    23.7700 
  162.5000   -29.9660     2.1640    65.2960    76.4000    75.5390    46.9280    23.7770 
  162.6250   -30.1290     2.1380    64.2540    84.4970    82.3670    45.6660    24.1540 
  162.7500   -30.2470     2.1560    64.6430    94.0540    90.1020    41.5570    24.9420 
  162.8750   -30.3080     2.1970    65.6260   106.3080    99.9910    35.6590    25.5570 
  163.0000   -30.3220     2.2280    64.8360   122.7220   113.6360    29.2470    25.2990 
  163.1250   -30.3010     2.2330    62.9880   145.5070   133.6380    24.8130    24.2180 
  163.2500   -30.2910     2.2310    61.8900   173.4970   159.2690    23.9250    23.3990 
  163.3750   -30.3230     2.2340    61.0710   203.9460   188.0190    25.4930    23.3460 
  163.5000   -30.3950     2.2410    58.1870   231.6940   214.7990    28.7380    23.7980 
  163.6250   -30.4890     2.2360    54.5210   249.2910   232.0660    34.4000    24.2320 
  163.7500   -30.5760     2.2080    53.6730   256.8840   239.3250    43.1590    24.4960 
  163.8750   -30.6470     2.1640    54.8160   258.9020   240.5460    56.2390    24.7120 
  164.0000   -30.6830     2.1200    57.2130   261.6560   242.1740    74.7410    24.9610 
  164.1250   -30.6920     2.0980    59.6550   271.0620   251.0620    99.4140    25.1130 
