~V
VERS. 2.00: Ver 2.00
~W
STRT.M 58.0000:
STOP.M 228.0000:
STEP.M 0.1250:
NULL. -999.2500:
UWI. F10151:
~C
DEPT.M :
SP.MV :
GR.API :
RML.OHMM :
RI. :
RXO.OHMM :
CALI.CM :
DEN.GM/CC :
~A
# ...
  125.5000   -22.1670    71.4140     9.8920     8.5370     9.4680    25.4710     2.0680 
  125.6250   -21.1010    73.0980     9.2040     8.0240     9.4150    25.5400     2.0520 
  125.7500   -19.7990    78.7200     8.2820     7.2820     8.6090    25.3970     2.0710 
  125.8750   -18.3180    88.1240     7.3010     6.4620     7.0740    25.1120     2.1250 
  126.0000   -16.8410   100.4980     6.4420     5.7220     5.5720    24.8210     2.1960 
  126.1250   -15.4120   109.1560     5.8840     5.2130     5.0640    24.6910     2.2560 
  126.2500   -14.0820   112.2520     5.6330     4.9500     5.0440    24.6390     2.2910 
  126.3750   -12.8770   112.6780     5.6770     4.9330     5.0430    24.6270     2.3020 
  126.5000   -11.8610   112.0010     5.9670     5.1450     5.0460    24.6380     2.3020 
  126.6250   -11.1070   108.1680     6.4240     5.5580     5.3240    24.6160     2.2980 
  126.7500   -10.5380   100.8830     6.8630     6.0280     5.6420    24.6040     2.2960 
  126.8750   -10.0850    94.8510     7.1230     6.4060     5.8990    24.6000     2.2980 
  127.0000    -9.5610    92.5580     7.0740     6.5310     6.3800    24.5790     2.3050 
  127.1250    -8.9940    92.9770     6.6310     6.2540     6.5680    24.5410     2.3190 
  127.2500    -8.4230    98.2460     5.9700     5.7120     6.0350    24.5370     2.3360 
  127.3750    -7.8620   109.1720     5.2730     5.0880     4.9450    24.5360     2.3460 
  127.5000    -7.3560   118.1800     4.7140     4.5500     4.3720    24.5160     2.3350 
  127.6250    -6.9190   116.1480     4.4600     4.2430     4.2550    24.5060     2.3010 
  127.7500    -6.5550   110.5550     4.5010     4.1780     4.2970    24.4990     2.2620 
  127.8750    -6.3160   107.5790     4.7970     4.3510     4.3730    24.4920     2.2380 
  128.0000    -6.2410   104.6910     5.2670     4.7130     4.7030    24.4860     2.2360 
  128.1250    -6.2990   100.6870     5.7930     5.1850     5.3500    24.4700     2.2520 
  128.2500    -6.4560    98.1890     6.2550     5.6360     6.0700    24.4270     2.2660 
  128.3750    -6.6750    96.2970     6.5930     5.9860     6.8100    24.3980     2.2700 
  128.5000    -6.9010    93.2400     6.7970     6.1960     7.0790    24.4240     2.2610 
  128.6250    -7.0730    89.2940     6.9010     6.2740     6.8000    24.5420     2.2470 
  128.7500    -7.1670    87.1430     7.0150     6.3210     6.9010    24.6220     2.2380 
  128.8750    -7.1610    86.7900     7.2490     6.4380     7.5250    24.6450     2.2470 
  129.0000    -7.0360    87.1620     7.7520     6.7400     8.1170    24.6420     2.2870 
  129.1250    -6.8240    85.4810     8.8520     7.4230     8.7320    24.4820     2.3680 
  129.2500    -6.5260    83.2020    10.5650     8.5280    10.0470    24.2740     2.4640 
  129.3750    -6.2230    82.4080    12.7130    10.0620    13.3310    24.1950     2.5460 
  129.5000    -5.9140    81.5090    14.9680    11.9100    18.5340    24.3300     2.5860 
  129.6250    -5.7140    78.8320    16.9460    13.7880    24.6800    24.3890     2.5750 
  129.7500    -5.6230    77.8410    18.4620    15.3500    24.9970    24.2550     2.5450 
  129.8750    -5.5940    79.2130    19.4210    16.4230    20.2310    24.0320     2.5230 
  130.0000    -5.6840    80.7270    19.8700    17.0140    17.4330    23.9320     2.5210 
  130.1250    -5.8100    79.0630    19.9140    17.1920    18.1330    23.9080     2.5280 
  130.2500    -5.9720    75.1650    19.7710    17.1630    20.1670    23.9090     2.5220 
  130.3750    -6.1050    72.3690    19.5540    17.0310    21.0220    23.8350     2.4960 
  130.5000    -6.1510    72.4520    19.3700    16.8850    19.1570    23.7250     2.4620 
  130.6250    -6.1110    74.9150    19.3610    16.8480    16.7980    23.7180     2.4450 
  130.7500    -6.0260    75.9560    19.5730    16.9950    17.2590    23.9150     2.4520 
  130.8750    -5.8980    73.5830    19.9630    17.3400    18.8460    24.2460     2.4760 
  131.0000    -5.7480    69.4530    20.3740    17.7900    18.5700    24.4790     2.5030 
  131.1250    -5.6020    67.8810    20.4920    18.0740    17.7320    24.5200     2.5190 
  131.2500    -5.4530    69.2180    20.1470    17.9410    17.7560    24.4850     2.5230 
  131.3750    -5.3370    70.8220    19.3290    17.3230    18.1250    24.4740     2.5200 
  131.5000    -5.2800    70.1280    18.2150    16.3730    17.8580    24.5380     2.5140 
  131.6250    -5.2810    67.4220    17.1400    15.3960    16.0620    24.5390     2.5110 
  131.7500    -5.2930    63.4210    16.4210    14.6700    14.2840    24.4820     2.5150 
  131.8750    -5.3130    59.7360    16.2500    14.3620    13.1180    24.4360     2.5290 
  132.0000    -5.2930    60.2630    16.7050    14.5630    13.7300    24.4320     2.5490 
  132.1250    -5.2800    64.2320    17.7910    15.3440    14.8020    24.4290     2.5670 
  132.2500    -5.2640    65.4910    19.1470    16.4650    15.8330    24.4430     2.5790 
  132.3750    -5.2430    63.3030    20.4250    17.6470    16.8640    24.4290     2.5860 
  132.5000    -5.2610    63.9360    21.2960    18.5520    18.2490    24.4360     2.5860 
  132.6250    -5.2320    69.7740    21.4940    18.8560    19.6440    24.4620     2.5800 
  132.7500    -5.2410    73.5930    21.2290    18.6990    19.6640    24.4670     2.5690 
  132.8750    -5.2800    72.2650    20.7750    18.3190    18.3550    24.4660     2.5540 
  133.0000    -5.3250    69.3030    20.4140    17.9670    17.1400    24.4630     2.5360 
  133.1250    -5.3950    68.2540    20.3980    17.8690    17.2510    24.4500     2.5170 
  133.2500    -5.4560    67.4830    20.7400    18.0680    18.0650    24.4480     2.5020 
  133.3750    -5.5070    67.9380    21.3970    18.5550    18.8080    24.5060     2.4920 
  133.5000    -5.5680    72.0530    22.2560    19.2570    18.9850    24.5160     2.4900 
  133.6250    -5.6230    77.1780    23.0620    20.0050    19.5620    24.5300     2.4880 
  133.7500    -5.6350    79.2850    23.4690    20.4880    20.8380    24.5070     2.4780 
  133.8750    -5.6720    78.7950    23.1840    20.3970    22.8220    24.4900     2.4530 
  134.0000    -5.7350    77.9430    22.1080    19.5790    24.0100    24.5070     2.4190 
  134.1250    -5.8020    77.8540    20.4010    18.1520    22.4420    24.5310     2.3920 
  134.2500    -5.8730    79.1140    18.6470    16.6600    18.6210    24.5280     2.3890 
  134.3750    -5.9190    80.5740    17.2490    15.4560    14.8130    24.3970     2.4140 
  134.5000    -5.9720    80.2600    16.4140    14.7140    12.8330    24.1560     2.4590 
  134.6250    -6.0390    78.6700    16.1830    14.4940    13.5860    23.9460     2.5070 
  134.7500    -6.1000    78.4420    16.2480    14.5770    15.0340    23.7880     2.5440 
  134.8750    -6.0890    79.3310    16.4000    14.7960    16.2260    23.6590     2.5670 
  135.0000    -6.0230    80.7270    16.5060    15.0200    15.7410    23.6390     2.5750 
  135.1250    -5.8760    81.3430    16.5140    15.1790    14.7970    23.7690     2.5650 
  135.2500    -5.7220    81.7870    16.4440    15.2660    14.9200    23.9060     2.5370 
  135.3750    -5.5490    82.0660    16.2780    15.2460    15.5400    24.0040     2.4980 
  135.5000    -5.3370    83.8720    15.9500    15.0660    15.4460    24.1540     2.4590 
  135.6250    -5.1470    86.7460    15.4610    14.6670    14.7360    24.3010     2.4350 
  135.7500    -4.9820    86.8200    15.0520    14.1520    13.4200    24.3260     2.4270 
  135.8750    -4.8550    81.7670    14.8380    13.6540    12.0730    24.3330     2.4280 
  136.0000    -4.7290    74.2490    14.7540    13.3090    11.1880    24.3730     2.4320 
  136.1250    -4.6660    70.4270    14.7220    13.2200    11.5430    24.3390     2.4380 
  136.2500    -4.6200    69.7890    14.7850    13.3310    12.7090    24.2980     2.4510 
  136.3750    -4.6260    68.4200    14.9650    13.5750    13.6310    24.2170     2.4720 
  136.5000    -4.6450    66.5120    15.1560    13.8640    14.4050    24.0770     2.4960 
  136.6250    -4.6340    67.1500    15.2530    14.1020    14.0880    23.9340     2.5120 
