~V
VERS. 2.00: Ver 2.00
~W
STRT.M 63.0000:
STOP.M 207.0000:
STEP.M 0.1250:
NULL. -999.2500:
UWI. F10132:
~C
DEPT.M :
SP.MV :
DEN.GM/CC :
GR.API :
RML.OHMM :
RI. :
RXO.OHMM :
CALI.CM :
~A
   63.0000    16.1890     2.1130    53.9580     0.7010     0.9230  1737.8400    25.5940 
   63.1250    13.6750     2.1110    52.2290     0.9120     0.7790  1416.4110    25.5900 
   63.2500    11.0070     2.1170    49.4060     0.8510     0.6520  1005.6690    25.5880 
   63.3750     8.1730     2.1280    48.7270     0.4390     0.5280   691.6860    25.5900 
   63.5000     5.1570     2.1530    51.0210    -0.1310     0.3790   487.1790    25.5940 
   63.6250     1.9450     2.2550    51.2130    -0.5680     0.2280   335.3490    25.5970 
   63.7500    -1.4130     2.4550    47.1130    -0.8270     0.1430   200.6220    25.6000 
   63.8750    -4.8820     2.6620    43.1160    -0.9590     0.1550    97.2060    25.6010 
   64.0000    -8.4240     2.7620    46.1330    -1.0090     0.2430    30.7780    25.5760 
   64.1250   -11.9650     2.7140    57.1380    -0.9780     0.3780     9.7440    25.6260 
   64.2500   -15.3990     2.5630    68.2070    -0.8600     0.5360     4.8940    26.2070 
   64.3750   -18.6060     2.3480    75.5010    -0.6230     0.7280     4.2740    27.7540 
   64.5000   -21.4930     2.1180    79.8160    -0.2570     0.9810     4.2360    29.9560 
   64.6250   -23.9250     1.9240    82.5510     0.1930     1.3190     4.3230    31.6750 
   64.7500   -25.9530     1.7860    82.5490     0.6280     1.7360     4.5220    32.3310 
   64.8750   -27.6080     1.7190    81.0490     1.0910     2.2700     4.9650    31.7130 
   65.0000   -28.9700     1.7460    80.0700     1.7480     3.0270     5.7520    29.8040 
   65.1250   -30.1220     1.9120    78.8370     2.9530     4.3710     6.9940    27.3250 
   65.2500   -31.2260     2.1700    75.0220     5.0150     6.6360     8.6890    25.6140 
   65.3750   -32.3590     2.4270    69.4680     8.3920    10.1360    10.7340    24.9600 
   65.5000   -33.5430     2.5860    63.9210    13.4160    14.7590    13.0340    24.8020 
   65.6250   -34.7710     2.6100    58.8320    18.7680    18.8890    14.9240    24.6810 
   65.7500   -36.0080     2.5630    55.3730    20.5760    20.1190    15.6580    24.4900 
   65.8750   -37.2180     2.4840    54.1180    17.9660    18.0790    14.2050    24.1740 
   66.0000   -38.3530     2.3940    55.1400    13.8780    14.5780    11.1080    23.7810 
   66.1250   -39.3480     2.3100    57.7120    10.8050    11.5100     8.5270    23.4380 
   66.2500   -40.2180     2.2410    60.8240     8.8720     9.3070     6.7100    23.2050 
   66.3750   -40.9680     2.1920    63.3080     7.7960     7.8760     5.8400    23.0830 
   66.5000   -41.6110     2.1650    63.9680     7.3090     7.0810     5.5310    23.0610 
   66.6250   -42.1360     2.1560    62.4790     7.2080     6.8080     5.5060    23.1310 
   66.7500   -42.5670     2.1580    59.7190     7.2280     6.7280     5.4960    23.2910 
   66.8750   -42.9110     2.1640    58.6320     7.2500     6.6700     5.4720    23.5150 
   67.0000   -43.1830     2.1700    60.6500     7.2680     6.6300     5.4860    23.7070 
   67.1250   -43.3690     2.1730    64.3220     7.3930     6.7230     5.5810    23.7760 
   67.2500   -43.4770     2.1750    65.8800     7.7120     6.9620     5.8520    23.7670 
   67.3750   -43.5030     2.1770    64.2230     8.2530     7.3010     6.2540    23.7540 
   67.5000   -43.4550     2.1800    60.8710     8.9380     7.6810     6.8290    23.7850 
   67.6250   -43.3270     2.1850    59.8450     9.5390     8.0270     7.4590    23.8560 
   67.7500   -43.1470     2.1880    61.0810     9.8110     8.2390     8.0090    23.8980 
   67.8750   -42.9550     2.1850    61.6980     9.6890     8.2520     8.3560    23.8840 
   68.0000   -42.7840     2.1730    62.6900     9.3440     8.1010     8.2460    23.8530 
   68.1250   -42.6720     2.1550    65.8370     9.0900     7.9180     7.3090    23.8360 
   68.2500   -42.6510     2.1420    69.2400     9.0990     7.8270     6.2540    23.7460 
   68.3750   -42.7390     2.1400    69.4700     9.3480     7.8410     5.8290    23.4950 
   68.5000   -42.9300     2.1500    65.4320     9.6610     7.8810     5.7390    23.1080 
   68.6250   -43.2200     2.1690    61.2950     9.7340     7.8060     5.7310    22.7530 
   68.7500   -43.5520     2.1870    61.8510     9.4700     7.5840     5.7450    22.6070 
   68.8750   -43.8800     2.2000    65.3570     8.9880     7.2600     5.7190    22.6810 
   69.0000   -44.1750     2.2060    67.6090     8.5050     6.8940     5.7080    22.8760 
   69.1250   -44.4150     2.2060    66.4040     8.2470     6.5780     5.6440    23.1110 
   69.2500   -44.5950     2.2000    66.3180     8.2490     6.3990     5.6340    23.3680 
   69.3750   -44.7210     2.1910    67.3780     8.4780     6.4050     5.6790    23.6090 
   69.5000   -44.8160     2.1850    66.7580     8.8480     6.5530     5.7590    23.7700 
   69.6250   -44.8880     2.1840    63.4090     9.2500     6.7650     5.8430    23.8410 
   69.7500   -44.9560     2.1860    59.7540     9.5870     6.9890     5.8690    23.8840 
   69.8750   -45.0230     2.1890    58.0700     9.8090     7.2300     5.9000    23.9000 
   70.0000   -45.0880     2.1930    57.9930     9.9000     7.4720     5.8720    23.8820 
   70.1250   -45.1450     2.1910    58.0500     9.8610     7.6250     5.8200    23.8430 
   70.2500   -45.1920     2.1820    57.8130     9.7490     7.6200     5.8070    23.8120 
   70.3750   -45.2150     2.1700    57.5910     9.5940     7.4540     5.8320    23.7570 
   70.5000   -45.2030     2.1570    59.1240     9.4240     7.2110     5.8740    23.5930 
   70.6250   -45.1330     2.1490    60.9500     9.2600     6.9960     5.8550    23.2910 
   70.7500   -44.9980     2.1450    59.7410     9.1120     6.8430     5.8770    22.9980 
   70.8750   -44.8050     2.1410    56.8550     8.9840     6.7440     5.8810    22.8220 
   71.0000   -44.5600     2.1340    56.9990     8.8710     6.6910     5.8970    22.7680 
   71.1250   -44.2650     2.1280    60.6290     8.7680     6.6740     5.8980    22.7600 
   71.2500   -43.9440     2.1270    62.7170     8.6710     6.6300     5.8990    22.7180 
   71.3750   -43.6120     2.1310    62.6590     8.5710     6.5320     5.9230    22.6330 
   71.5000   -43.2780     2.1330    62.0960     8.4660     6.3920     5.9290    22.5940 
   71.6250   -42.9460     2.1270    60.9560     8.3760     6.2600     5.9710    22.7560 
   71.7500   -42.6210     2.1180    61.0590     8.3370     6.2000     5.9950    23.0640 
   71.8750   -42.2960     2.1170    62.9380     8.3580     6.2270     6.0120    23.3630 
   72.0000   -41.9720     2.1360    64.1880     8.3930     6.3270     5.9870    23.5320 
   72.1250   -41.6530     2.1770    66.7800     8.3090     6.4230     5.8880    23.6310 
   72.2500   -41.3370     2.2270    72.9960     7.9930     6.3750     5.7770    23.8550 
   72.3750   -41.0410     2.2720    81.3790     7.3970     6.0710     5.6090    24.2230 
   72.5000   -40.7810     2.3040    89.4500     6.5860     5.4970     5.4680    24.5740 
   72.6250   -40.5970     2.3150    94.5120     5.7870     4.8140     5.3310    24.7100 
   72.7500   -40.5030     2.3140    97.4320     5.2910     4.3200     5.2520    24.6980 
   72.8750   -40.5160     2.3160    97.9190     5.3010     4.1970     5.3840    24.6420 
   73.0000   -40.6560     2.3400    95.5000     5.9360     4.5320     5.7800    24.5910 
   73.1250   -40.9490     2.3970    86.5990     7.2910     5.4160     6.4500    24.5390 
   73.2500   -41.3710     2.4530    73.1280     9.0400     6.6820     7.2370    24.4490 
   73.3750   -41.8940     2.4720    62.3480    10.7260     8.0470     8.0380    24.2280 
   73.5000   -42.4880     2.4380    58.4900    11.7710     9.0540     8.6570    23.8380 
   73.6250   -43.1050     2.3640    61.3700    11.7090     9.2270     8.5850    23.4240 
   73.7500   -43.6860     2.2860    66.5770    11.0040     8.7970     7.5900    23.1930 
   73.8750   -44.1880     2.2200    70.7140    10.1830     8.1250     6.4840    23.1670 
   74.0000   -44.5860     2.1710    70.5270     9.6260     7.5300     6.0140    23.2060 
   74.1250   -44.8390     2.1400    67.2900     9.4720     7.1930     5.9170    23.1620 
