~V
VERS. 2.00: Ver 2.00
~W
STRT.M 57.0000:
STOP.M 214.0000:
STEP.M 0.1250:
NULL. -999.2500:
UWI. F10147:
~C
DEPT.M :
SP.MV :
GR.API :
RML.OHMM :
RI. :
RXO.OHMM :
CALI.CM :
DEN.GM/CC :
~A
# ...
   68.2500    -9.9560    69.5440     7.9220     7.3950     7.0250    21.2040     2.1360 
   68.3750    -9.9540    71.3470     8.1330     7.4980     7.0410    21.0150     2.1200 
   68.5000    -9.9420    75.6380     8.2600     7.5770     7.0310    20.9270     2.1070 
   68.6250    -9.9210    78.8730     8.2560     7.5870     6.9880    20.9870     2.1000 
   68.7500    -9.8830    81.5870     8.1250     7.5010     6.9100    21.1730     2.1020 
   68.8750    -9.8260    85.2840     7.9080     7.3180     6.7770    21.4720     2.1130 
   69.0000    -9.7710    88.2940     7.6690     7.0740     6.5910    21.8400     2.1300 
   69.1250    -9.7200    90.3680     7.4570     6.8220     6.3790    22.1690     2.1510 
   69.2500    -9.6810    92.6970     7.3060     6.6060     6.1720    22.4050     2.1730 
   69.3750    -9.6640    93.1840     7.2620     6.4670     6.0160    22.5720     2.1970 
   69.5000    -9.6790    90.5670     7.3410     6.4150     5.9450    22.7680     2.2180 
   69.6250    -9.7310    86.7230     7.5150     6.4410     5.9670    22.9590     2.2300 
   69.7500    -9.8290    83.1140     7.7370     6.5280     6.0600    22.9070     2.2280 
   69.8750    -9.9830    79.5310     7.9660     6.6570     6.1790    22.4650     2.2100 
   70.0000   -10.1670    76.4440     8.1880     6.8020     6.2850    21.9100     2.1870 
   70.1250   -10.3650    74.4230     8.4000     6.9400     6.3720    21.5860     2.1680 
   70.2500   -10.5730    72.9720     8.5840     7.0500     6.4620    21.5010     2.1550 
   70.3750   -10.7900    72.7080     8.7040     7.1140     6.5770    21.5260     2.1480 
   70.5000   -11.0040    73.4660     8.7430     7.1330     6.7100    21.5710     2.1420 
   70.6250   -11.2060    73.2370     8.7200     7.1160     6.8610    21.6130     2.1340 
   70.7500   -11.3960    71.6200     8.6840     7.0830     7.0380    21.6410     2.1230 
   70.8750   -11.5680    70.6940     8.7020     7.0610     7.2450    21.6400     2.1130 
   71.0000   -11.7200    70.6390     8.8120     7.0740     7.4600    21.6220     2.1060 
   71.1250   -11.8650    69.6540     9.0100     7.1420     7.6490    21.6080     2.1040 
   71.2500   -11.9950    67.4640     9.2720     7.2760     7.7870    21.6050     2.1060 
   71.3750   -12.1040    66.0540     9.5560     7.4710     7.8610    21.5890     2.1130 
   71.5000   -12.2060    65.6570     9.8020     7.6830     7.8900    21.5510     2.1230 
   71.6250   -12.3100    64.8550     9.9490     7.8550     7.9150    21.5090     2.1350 
   71.7500   -12.4080    63.8510     9.9440     7.9320     7.9520    21.4930     2.1480 
   71.8750   -12.4890    64.3700     9.7330     7.8690     7.9470    21.5030     2.1570 
   72.0000   -12.5650    65.8810     9.3500     7.6820     7.8410    21.5350     2.1580 
   72.1250   -12.6260    66.6130     8.8920     7.4210     7.6570    21.6150     2.1530 
   72.2500   -12.6720    66.6240     8.4680     7.1350     7.4890    21.7580     2.1410 
   72.3750   -12.7150    66.5640     8.1620     6.8650     7.4170    21.9380     2.1260 
   72.5000   -12.7430    66.0650     7.9740     6.6280     7.4170    22.0620     2.1090 
   72.6250   -12.7520    64.9100     7.8520     6.4220     7.4220    22.0660     2.0940 
   72.7500   -12.7410    63.7200     7.7560     6.2470     7.3960    21.9990     2.0840 
   72.8750   -12.7110    62.8840     7.6860     6.1100     7.3390    21.9690     2.0790 
   73.0000   -12.6620    62.7410     7.6710     6.0180     7.2820    21.9850     2.0810 
   73.1250   -12.6120    63.9460     7.7340     5.9750     7.2730    22.0030     2.0860 
   73.2500   -12.5600    65.5970     7.8610     5.9840     7.3330    22.0170     2.0940 
   73.3750   -12.4980    66.1490     7.9970     6.0380     7.4410    22.0300     2.1020 
   73.5000   -12.4330    65.6140     8.0800     6.1120     7.5510    22.0300     2.1110 
   73.6250   -12.3660    64.7410     8.0790     6.1760     7.6270    22.0110     2.1200 
   73.7500   -12.3040    63.6610     8.0060     6.2110     7.6590    21.9810     2.1280 
   73.8750   -12.2490    62.5330     7.9200     6.2100     7.6620    21.9330     2.1360 
   74.0000   -12.1980    61.2830     7.8880     6.1920     7.6450    21.8830     2.1450 
   74.1250   -12.1500    59.4090     7.9480     6.1860     7.5950    21.8570     2.1560 
   74.2500   -12.1080    57.4160     8.0970     6.2140     7.5550    21.8610     2.1670 
   74.3750   -12.0720    57.1720     8.2980     6.2820     7.7290    21.8750     2.1760 
   74.5000   -12.0330    59.2700     8.4850     6.3700     8.1700    21.8600     2.1820 
   74.6250   -11.9990    62.0160     8.5890     6.4470     8.5500    21.7720     2.1800 
   74.7500   -11.9620    63.4770     8.5730     6.4950     8.4770    21.5810     2.1700 
   74.8750   -11.9170    63.0250     8.4470     6.5120     7.9590    21.3610     2.1540 
   75.0000   -11.8590    61.6310     8.2900     6.5240     7.4200    21.2190     2.1390 
   75.1250   -11.7800    60.7690     8.1950     6.5590     7.1170    21.1770     2.1290 
   75.2500   -11.6780    60.7220     8.2180     6.6300     6.9890    21.1970     2.1270 
   75.3750   -11.5520    60.5560     8.3340     6.7200     6.9560    21.2300     2.1300 
   75.5000   -11.4080    60.6170     8.4200     6.7730     6.9850    21.2610     2.1340 
   75.6250   -11.2300    62.0320     8.3410     6.7320     7.0330    21.3290     2.1380 
   75.7500   -11.0210    65.0480     8.0460     6.5750     7.0340    21.4920     2.1390 
   75.8750   -10.7940    68.5670     7.6170     6.3360     6.9100    21.7210     2.1390 
   76.0000   -10.5600    71.1800     7.2410     6.1220     6.6600    21.9060     2.1390 
   76.1250   -10.3240    71.7490     7.0820     6.0430     6.4250    21.9610     2.1390 
   76.2500   -10.0910    70.4990     7.2100     6.1690     6.4900    21.9080     2.1430 
   76.3750    -9.8600    69.5690     7.6320     6.5300     7.2410    21.8510     2.1600 
   76.5000    -9.6260    70.1380     8.2660     7.0670     8.6020    21.8720     2.1940 
   76.6250    -9.4010    71.3790     9.0090     7.6860     9.8840    22.0030     2.2420 
   76.7500    -9.1980    73.1420     9.7530     8.2970    10.4010    22.2370     2.2890 
   76.8750    -8.9960    76.8490    10.3140     8.7790    10.4100    22.5950     2.3230 
   77.0000    -8.7940    82.1180    10.5160     9.0230    11.0870    23.1220     2.3420 
   77.1250    -8.5990    87.4060    10.2630     8.9530    12.6230    23.7390     2.3540 
   77.2500    -8.4200    92.4490     9.5640     8.5420    13.3960    24.2150     2.3690 
   77.3750    -8.2710    98.5120     8.5690     7.8390    11.7020    24.4180     2.3870 
   77.5000    -8.1560   104.9720     7.5560     7.0170     8.5370    24.4480     2.3990 
   77.6250    -8.0910   109.2030     6.7610     6.2560     6.0570    24.4120     2.3970 
   77.7500    -8.0680   110.9730     6.2870     5.6700     5.0550    24.2910     2.3810 
   77.8750    -8.0990   113.0210     6.1150     5.3100     4.9750    24.0770     2.3560 
   78.0000    -8.1900   115.8700     6.0810     5.1170     5.0820    23.9340     2.3290 
   78.1250    -8.3190   116.7440     6.0130     4.9950     5.0810    24.0290     2.3090 
   78.2500    -8.4780   114.0130     5.8540     4.8980     4.9670    24.2210     2.2970 
   78.3750    -8.6700   108.8930     5.7390     4.8790     4.8610    24.3210     2.2930 
   78.5000    -8.8960   103.1840     5.9340     5.0810     4.8830    24.3350     2.2970 
   78.6250    -9.1410    97.0580     6.7120     5.6940     5.2320    24.3240     2.3080 
   78.7500    -9.4060    88.8340     8.2650     6.8900     6.6470    24.2900     2.3300 
   78.8750    -9.6900    78.0320    10.5650     8.7250    10.2810    24.1570     2.3630 
   79.0000    -9.9810    68.6470    12.9920    10.7930    14.9460    23.8210     2.3910 
   79.1250   -10.2900    65.2640    14.6030    12.3600    17.4080    23.1480     2.3990 
   79.2500   -10.6090    67.3730    14.7420    12.8220    15.8860    22.1850     2.3730 
   79.3750   -10.9200    70.2850    13.4380    12.0290    12.1230    21.4360     2.3160 
