~V
VERS. 2.00: Ver 2.00
~W
STRT.M 60.0000:
STOP.M 241.0000:
STEP.M 0.1250:
NULL. -999.2500:
UWI. F10158:
~C
DEPT.M :
SP.MV :
DEN.GM/CC :
GR.API :
RML.OHMM :
RI. :
RXO.OHMM :
CALI.CM :
~A
# ...
  127.5000    78.9610     2.2990    63.3880    10.3740     8.6120     8.6010    26.6440 
  127.6250    78.9920     2.3490    65.7920    10.6940     8.9980     9.7180    26.6400 
  127.7500    79.0070     2.3910    67.8400    10.8750     9.2400    10.7250    26.6320 
  127.8750    79.0080     2.4230    66.8140    10.9690     9.3750    11.0500    26.6270 
  128.0000    78.9820     2.4500    65.4060    10.9450     9.3850    10.2810    26.6260 
  128.1250    78.9120     2.4670    67.3020    10.6470     9.1650     9.7290    26.6240 
  128.2500    78.8050     2.4640    69.9840    10.0320     8.6930    10.5330    26.6310 
  128.3750    78.6650     2.4370    73.2490     9.1730     8.0170    11.1680    26.6650 
  128.5000    78.4990     2.3910    78.8340     8.2750     7.2830     9.3380    26.7310 
  128.6250    78.3060     2.3390    84.5740     7.6230     6.6980     6.4030    26.8160 
  128.7500    78.1040     2.2910    85.0220     7.3020     6.3460     5.0650    26.8950 
  128.8750    77.9020     2.2520    81.8840     7.2960     6.2390     5.0760    26.9510 
  129.0000    77.7060     2.2250    81.0290     7.5040     6.3330     5.4710    26.9840 
  129.1250    77.5400     2.2110    81.7260     7.7550     6.5340     5.8960    27.0000 
  129.2500    77.4170     2.2040    79.9860     7.8980     6.7080     6.2250    27.0270 
  129.3750    77.3550     2.1980    79.3810     7.9190     6.8140     6.4250    27.0700 
  129.5000    77.3460     2.1940    81.0620     7.9090     6.8890     6.5750    27.1140 
  129.6250    77.3680     2.1980    79.1230     8.0610     7.0580     6.7710    27.1360 
  129.7500    77.3940     2.2100    73.6120     8.5180     7.4380     7.0660    27.1360 
  129.8750    77.4200     2.2230    69.4380     9.3610     8.1150     7.4110    27.1370 
  130.0000    77.4470     2.2240    67.4070    10.5470     9.0960     7.8670    27.1940 
  130.1250    77.4760     2.2100    64.5870    11.7660    10.2020     9.0640    27.3470 
  130.2500    77.5050     2.1870    63.6760    12.4780    10.9820    11.0730    27.5130 
  130.3750    77.5600     2.1620    66.8940    12.2730    11.0340    13.1790    27.6110 
  130.5000    77.6700     2.1370    71.3530    11.1220    10.2540    13.7820    27.5950 
  130.6250    77.8490     2.1240    75.7450     9.4520     8.9210    11.1890    27.4760 
  130.7500    78.0530     2.1280    81.4460     7.9440     7.6130     7.8030    27.3440 
  130.8750    78.2560     2.1560    86.6640     6.8770     6.5910     5.4410    27.2050 
  131.0000    78.4420     2.2070    88.0730     6.2870     5.9320     4.5730    27.0160 
  131.1250    78.5930     2.2660    87.8610     6.1360     5.6560     4.7770    26.7950 
  131.2500    78.6920     2.3060    89.4020     6.2350     5.6340     5.0340    26.6580 
  131.3750    78.7300     2.3130    91.7580     6.4910     5.7960     5.1740    26.6310 
  131.5000    78.7220     2.2890    92.3330     6.8820     6.1010     5.3130    26.6800 
  131.6250    78.7050     2.2410    89.8980     7.5200     6.6140     5.6350    26.7920 
  131.7500    78.7040     2.1980    86.0850     8.4500     7.3660     6.1950    26.9130 
  131.8750    78.7440     2.1870    81.0590     9.6180     8.3440     6.9090    26.9710 
  132.0000    78.8420     2.2320    76.0400    10.7880     9.3910     7.5700    26.9330 
  132.1250    79.0140     2.3310    73.6360    11.4280    10.0840     8.9610    26.8010 
  132.2500    79.2450     2.4250    74.6930    11.2700    10.1260    11.9500    26.6390 
  132.3750    79.5320     2.4670    77.3350    10.4640     9.5720    14.4990    26.5190 
  132.5000    79.8560     2.4510    78.3040     9.5480     8.8190    13.0480    26.4740 
  132.6250    80.1960     2.4100    79.6390     9.2740     8.4370     9.2040    26.4810 
  132.7500    80.5200     2.3840    80.8160     9.9930     8.7420     7.5330    26.5210 
  132.8750    80.7890     2.3910    76.6960    11.8590     9.9220     8.8600    26.5930 
  133.0000    80.9800     2.4310    65.3080    14.7470    12.0160    12.3450    26.6660 
  133.1250    81.0810     2.4900    54.1440    18.0050    14.7390    17.1670    26.6920 
  133.2500    81.1410     2.5410    49.1710    20.3740    17.0800    21.3900    26.6880 
  133.3750    81.1900     2.5660    48.1190    21.0760    18.2250    23.2700    26.6830 
  133.5000    81.2570     2.5650    48.2970    20.3270    18.0960    22.0530    26.6970 
  133.6250    81.3540     2.5520    50.7390    19.1780    17.3590    18.5040    26.7310 
  133.7500    81.4670     2.5430    53.2300    18.5780    16.8550    15.8650    26.7610 
  133.8750    81.5790     2.5450    52.4020    18.7370    16.8550    15.3720    26.7740 
  134.0000    81.6640     2.5570    48.7880    19.5050    17.3460    16.4610    26.7740 
  134.1250    81.6900     2.5700    47.8130    20.5020    18.1210    18.1220    26.7730 
  134.2500    81.6560     2.5760    52.0600    21.2370    18.7870    19.2570    26.7730 
  134.3750    81.5860     2.5730    58.4330    21.4890    19.1230    19.5840    26.7760 
  134.5000    81.5160     2.5650    61.3020    21.3200    19.1230    19.3760    26.7800 
  134.6250    81.4710     2.5550    59.6620    21.0020    18.9600    18.4850    26.7820 
  134.7500    81.4540     2.5450    58.6290    20.8200    18.8600    17.5040    26.7780 
  134.8750    81.4540     2.5330    59.9790    20.8410    18.8920    17.2150    26.7760 
  135.0000    81.4540     2.5220    62.1570    20.9710    19.0050    17.9910    26.7800 
  135.1250    81.4440     2.5160    62.7220    20.9490    19.0030    19.0280    26.7830 
  135.2500    81.4130     2.5170    62.8640    20.5910    18.7300    18.9690    26.7660 
  135.3750    81.3440     2.5230    62.5120    19.8990    18.1700    18.0310    26.7220 
  135.5000    81.2390     2.5270    61.3640    19.0800    17.4750    16.9220    26.6640 
  135.6250    81.1330     2.5250    59.9260    18.5160    16.9410    16.1490    26.6130 
  135.7500    81.0690     2.5210    58.5580    18.4470    16.7760    15.7810    26.5790 
  135.8750    81.0630     2.5170    56.3510    18.9670    17.0820    16.0100    26.5630 
  136.0000    81.1270     2.5130    53.3470    20.0490    17.8730    17.3190    26.5580 
  136.1250    81.2630     2.5080    52.3170    21.6220    19.1490    19.5700    26.5420 
  136.2500    81.4320     2.5070    53.7410    23.3940    20.6890    21.3860    26.5120 
  136.3750    81.6100     2.5180    53.6800    25.0940    22.2710    22.1440    26.4890 
  136.5000    81.7670     2.5400    50.2920    26.4090    23.6080    22.7880    26.4840 
  136.6250    81.8670     2.5590    46.5810    26.9260    24.3090    24.8920    26.4840 
  136.7500    81.9140     2.5630    46.9050    26.6190    24.2940    26.7070    26.4810 
  136.8750    81.9330     2.5470    50.9360    25.5700    23.5960    25.9860    26.4810 
  137.0000    81.9460     2.5210    56.0260    24.0810    22.4330    22.9020    26.4850 
  137.1250    81.9720     2.4970    57.3920    22.6520    21.1980    20.2530    26.4880 
  137.2500    82.0070     2.4830    54.6920    21.6680    20.2530    19.3080    26.4880 
  137.3750    82.0450     2.4800    50.9030    21.2420    19.7430    18.8550    26.4880 
  137.5000    82.0680     2.4890    50.2040    21.2910    19.6470    18.2170    26.4880 
  137.6250    82.0430     2.5020    52.4650    21.5910    19.8340    18.3910    26.4850 
  137.7500    81.9600     2.5100    53.1160    21.8390    20.0510    19.7050    26.4740 
  137.8750    81.8310     2.5110    51.4340    21.9110    20.1740    20.9450    26.4570 
  138.0000    81.6830     2.5090    49.7990    21.8010    20.1700    20.5850    26.4380 
  138.1250    81.5480     2.5090    50.2680    21.5810    20.0560    19.5890    26.5080 
  138.2500    81.4510     2.5160    50.9100    21.3770    19.9180    19.7600    26.8170 
  138.3750    81.3920     2.5220    51.8810    21.2600    19.8120    20.8920    26.9750 
  138.5000    81.3620     2.5210    54.8040    21.2670    19.7810    21.6340    27.1150 
  138.6250    81.3430     2.5090    57.4060    21.4600    19.8890    21.1650    27.2130 
