~V
VERS. 2.00: Ver 2.00
~W
STRT.M 50.0000:
STOP.M 252.0000:
STEP.M 0.1250:
NULL. -999.2500:
UWI. F10101:
~C
DEPT.M :
DEN.GM/CC :
SP.MV :
GR.API :
RML.OHMM :
RI. :
RXO.OHMM :
CALI.CM :
~A
# ...
   83.7500     2.2870   -15.2910    81.7700    10.0400     7.6320     7.5740    22.9630 
   83.8750     2.2280   -15.4130    80.2220     9.2030     7.0060     7.0040    22.9050 
   84.0000     2.1950   -15.5350    76.0160     8.7590     6.5770     7.1720    22.7480 
   84.1250     2.1870   -15.6420    73.3300     8.6500     6.3860     7.2130    22.6430 
   84.2500     2.1900   -15.7090    74.1480     8.6130     6.2990     7.1400    22.6310 
   84.3750     2.2010   -15.7850    76.5240     8.5150     6.2110     7.0460    22.6870 
   84.5000     2.2170   -15.7910    79.6580     8.3520     6.0780     6.7650    22.8340 
   84.6250     2.2330   -15.8780    85.4490     8.2530     5.9450     6.3100    23.0080 
   84.7500     2.2440   -15.9590    90.7130     8.2980     5.8840     6.1190    23.0550 
   84.8750     2.2430   -16.0400    89.4140     8.4650     5.9150     6.5330    23.0040 
   85.0000     2.2270   -16.1390    82.5930     8.6570     6.0070     7.0490    22.9770 
   85.1250     2.2070   -16.2320    77.5720     8.7350     6.0800     7.3580    23.0010 
   85.2500     2.1970   -16.3470    77.1460     8.6650     6.0820     7.5620    23.0510 
   85.3750     2.2000   -16.4290    80.2880     8.5090     6.0190     7.4270    23.1180 
   85.5000     2.2100   -16.5720    85.5110     8.4130     5.9660     6.8960    23.2110 
   85.6250     2.2200   -16.6580    87.1830     8.5820     6.0540     6.9870    23.3040 
   85.7500     2.2230   -16.7160    82.8340     9.0530     6.3270     7.5420    23.3220 
   85.8750     2.2160   -16.7780    75.4140     9.7670     6.7700     8.3250    23.3210 
   86.0000     2.1990   -16.7800    70.1410    10.5660     7.3110     8.6900    23.3260 
   86.1250     2.1770   -16.7910    69.3650    11.1550     7.7940     8.6820    23.2470 
   86.2500     2.1580   -16.7650    70.6390    11.3510     8.0780     8.4840    23.0880 
   86.3750     2.1450   -16.7570    71.3840    11.1300     8.1010     8.3570    22.9680 
   86.5000     2.1390   -16.6640    69.0360    10.6370     7.8990     8.1330    22.9230 
   86.6250     2.1410   -16.5650    65.6720    10.1340     7.5990     7.9390    22.9160 
   86.7500     2.1490   -16.3860    63.9620     9.8200     7.3620     7.8280    22.9130 
   86.8750     2.1690   -16.1480    64.4280     9.7250     7.2430     7.7640    22.8840 
   87.0000     2.2040   -15.8580    67.0980     9.7670     7.2100     7.6500    22.7900 
   87.1250     2.2540   -15.5070    71.0810     9.7710     7.1500     7.5770    22.7310 
   87.2500     2.3110   -15.1470    75.9050     9.5810     6.9590     7.4240    22.7950 
   87.3750     2.3570   -14.7510    82.3750     9.1440     6.6060     6.8820    23.0120 
   87.5000     2.3710   -14.4610    89.8620     8.5130     6.1350     6.2330    23.3130 
   87.6250     2.3510   -14.1810    95.1620     7.8270     5.6420     5.8920    23.5500 
   87.7500     2.3290   -14.0490    96.1910     7.2730     5.2310     5.8360    23.7180 
   87.8750     2.3180   -14.0580    94.2590     7.0100     4.9930     5.9300    23.8600 
   88.0000     2.3090   -14.2290    91.5880     7.1540     5.0110     6.0950    23.9670 
   88.1250     2.2940   -14.6120    89.6880     7.7970     5.3760     6.2090    23.8570 
   88.2500     2.2790   -15.1410    86.5420     8.7490     5.9980     6.8490    23.5260 
   88.3750     2.2650   -15.8130    79.8800     9.7690     6.7500     8.7700    23.1680 
   88.5000     2.2490   -16.4750    72.1070    10.5290     7.4190    11.1610    23.0360 
   88.6250     2.2290   -17.2350    67.1000    10.6320     7.7000    11.7680    23.0620 
   88.7500     2.2040   -17.9310    65.1140    10.1850     7.5680     9.9190    22.9920 
   88.8750     2.1750   -18.5490    64.2480     9.4660     7.1580     8.7060    22.9280 
   89.0000     2.1450   -19.0750    63.5880     8.8000     6.6810     8.2710    23.0320 
   89.1250     2.1240   -19.4500    65.8200     8.4470     6.3400     8.2580    23.2750 
   89.2500     2.1190   -19.6970    71.0030     8.3800     6.1880     8.4430    23.3930 
   89.3750     2.1260   -19.8210    76.2570     8.4870     6.1890     8.5710    23.3290 
   89.5000     2.1390   -19.9110    76.1960     8.6300     6.2600     8.5230    23.2020 
   89.6250     2.1480   -19.8420    73.0900     8.6870     6.3090     8.4350    23.0840 
   89.7500     2.1490   -19.7830    73.7890     8.6530     6.2980     8.2250    22.9130 
   89.8750     2.1470   -19.6870    77.0930     8.5690     6.2400     8.0040    22.6910 
   90.0000     2.1480   -19.5820    77.6380     8.4930     6.1750     7.7970    22.5100 
   90.1250     2.1550   -19.4560    75.4640     8.4860     6.1580     7.7070    22.3900 
   90.2500     2.1630   -19.3500    75.4660     8.5510     6.1960     7.6810    22.3640 
   90.3750     2.1720   -19.2470    76.2820     8.6700     6.2730     7.7120    22.4230 
   90.5000     2.1820   -19.1120    74.5690     8.8350     6.3780     7.8310    22.4560 
   90.6250     2.1920   -19.0760    71.1240     9.0650     6.5260     8.1180    22.4550 
   90.7500     2.2000   -19.0020    68.7900     9.3570     6.7270     8.4040    22.5620 
   90.8750     2.2000   -18.9360    68.9250     9.6760     6.9680     8.6840    22.7600 
   91.0000     2.1940   -18.9040    71.0550     9.9500     7.2050     9.8990    22.9770 
   91.1250     2.1970   -18.8960    73.6750    10.0640     7.3430    12.0390    23.0530 
   91.2500     2.2050   -18.9040    75.1280     9.9830     7.3290    12.4210    22.8630 
   91.3750     2.2030   -18.9250    74.1170     9.7310     7.1650    10.0860    22.5340 
   91.5000     2.1840   -18.9890    72.7410     9.3960     6.9120     8.7030    22.2520 
   91.6250     2.1650   -18.9740    71.6550     9.1030     6.6650     8.4970    22.0530 
   91.7500     2.1650   -19.0170    69.9720     8.9280     6.4900     8.7100    21.8960 
   91.8750     2.1800   -19.0600    67.8250     8.8830     6.4050     9.3700    21.8200 
   92.0000     2.2040   -19.0810    67.0420     8.9280     6.3930    10.0540    21.7930 
   92.1250     2.2200   -19.1040    67.8850     8.9950     6.4170     9.5670    21.7740 
   92.2500     2.2190   -19.1050    68.7100     9.0390     6.4410     8.8180    21.7710 
   92.3750     2.2050   -19.0890    69.6770     9.0580     6.4560     8.4590    21.7690 
   92.5000     2.1880   -19.0630    72.7940     9.0550     6.4600     8.4450    21.7740 
   92.6250     2.1790   -19.0810    76.1000     9.0130     6.4350     8.3460    21.7860 
   92.7500     2.1750   -19.0080    76.8450     8.9280     6.3800     8.1760    21.7670 
   92.8750     2.1710   -18.9670    76.9010     8.8030     6.3070     7.9650    21.7020 
   93.0000     2.1660   -18.9040    77.9670     8.6570     6.2310     7.7710    21.5890 
   93.1250     2.1600   -18.8430    77.9520     8.5260     6.1680     7.6010    21.3450 
   93.2500     2.1570   -18.7940    75.6820     8.4300     6.1220     7.3450    20.9880 
   93.3750     2.1570   -18.7540    74.5680     8.3770     6.0890     7.0000    20.4850 
   93.5000     2.1570   -18.7090    77.4960     8.3670     6.0680     6.5870    19.8770 
   93.6250     2.1530   -18.6060    79.5150     8.3970     6.0640     6.2730    19.5170 
   93.7500     2.1490   -18.5930    76.7750     8.4440     6.0690     6.2430    19.3880 
   93.8750     2.1460   -18.5380    72.1090     8.4750     6.0690     6.3890    19.3490 
   94.0000     2.1420   -18.5010    70.3080     8.4540     6.0450     6.5060    19.2950 
   94.1250     2.1350   -18.4770    71.7790     8.3230     5.9720     6.5350    19.2640 
   94.2500     2.1270   -18.4400    72.7690     8.0800     5.8450     6.5140    19.2540 
   94.3750     2.1230   -18.4080    73.3070     7.7730     5.6790     6.4900    19.2740 
   94.5000     2.1270   -18.3790    75.0330     7.5390     5.5320     6.5760    19.3720 
   94.6250     2.1410   -18.4330    76.1850     7.6450     5.5510     6.9060    19.6850 
   94.7500     2.1610   -18.4340    74.7730     8.1900     5.8220     7.5030    20.1600 
   94.8750     2.1880   -18.5130    72.1740     9.1460     6.3740     8.7320    20.7150 
