~V
VERS. 2.00: Ver 2.00
~W
STRT.M 56.0000:
STOP.M 352.0000:
STEP.M 0.1250:
NULL. -999.2500:
UWI. F10109:
~C
DEPT.M :
DEN.GM/CC :
SP.MV :
GR.API :
RML.OHMM :
RI. :
RXO.OHMM :
CALI.CM :
~A
# ...
  134.7500     2.1770    -8.9290    66.2270     8.4430     7.6010    10.7360    23.0290 
  134.8750     2.1860    -8.9620    65.7330     8.2610     7.4310    10.5940    23.0820 
  135.0000     2.1940    -8.9840    63.5240     8.0270     7.2250    10.2920    23.1880 
  135.1250     2.1990    -8.9630    61.2840     7.8650     7.0680     9.8770    23.3560 
  135.2500     2.2070    -8.9040    63.4710     7.9280     7.0750     9.4690    23.5600 
  135.3750     2.2290    -8.8460    66.5530     8.3620     7.3640     9.3540    23.7470 
  135.5000     2.2710    -8.7910    65.2550     9.2390     8.0190     9.8150    23.8870 
  135.6250     2.3370    -8.7030    61.9800    10.5050     9.0610    11.6560    23.9340 
  135.7500     2.4080    -8.6360    60.9350    11.7850    10.2240    14.9080    23.9050 
  135.8750     2.4610    -8.6460    61.1970    12.6940    11.1940    20.0010    23.8340 
  136.0000     2.4710    -8.7360    60.3530    12.9000    11.6340    27.0740    23.7020 
  136.1250     2.4280    -8.9130    59.1950    12.1930    11.2380    27.4370    23.4310 
  136.2500     2.3630    -9.1420    57.9550    11.0090    10.3060    19.8280    23.1250 
  136.3750     2.3010    -9.3780    56.8570     9.7950     9.2150    13.6470    22.9330 
  136.5000     2.2550    -9.6130    58.6510     8.8850     8.2870    11.1810    22.8640 
  136.6250     2.2310    -9.8840    62.8380     8.4340     7.7040    10.6740    22.8150 
  136.7500     2.2190   -10.1670    63.9350     8.2630     7.3850    10.5340    22.7380 
  136.8750     2.2150   -10.4110    62.1380     8.2310     7.2460    10.3830    22.6750 
  137.0000     2.2160   -10.6200    62.1200     8.2400     7.2130     9.9950    22.6470 
  137.1250     2.2180   -10.8210    66.3700     8.2690     7.2530     9.7310    22.6730 
  137.2500     2.2190   -11.0580    67.9640     8.3330     7.3430     9.8400    22.7700 
  137.3750     2.2160   -11.3830    64.4670     8.4430     7.4770    10.8470    22.9360 
  137.5000     2.2070   -11.8090    60.8220     8.5740     7.6350    12.4060    23.1480 
  137.6250     2.1940   -12.2700    61.6440     8.6690     7.7750    12.3690    23.4090 
  137.7500     2.1790   -12.7540    61.8970     8.6980     7.8610    10.7650    23.6440 
  137.8750     2.1640   -13.2790    58.4950     8.6590     7.8790    10.0170    23.7800 
  138.0000     2.1520   -13.8070    53.9550     8.5780     7.8380     9.9260    23.8230 
  138.1250     2.1460   -14.2500    52.5060     8.5060     7.7760     9.9420    23.8520 
  138.2500     2.1450   -14.5920    54.1770     8.4780     7.7380     9.8430    23.9090 
  138.3750     2.1470   -14.8180    57.1160     8.5000     7.7460     9.7860    23.9630 
  138.5000     2.1500   -14.9050    59.7650     8.5610     7.8010     9.8810    24.0150 
  138.6250     2.1520   -14.8750    58.5470     8.6380     7.8900    10.1660    24.0660 
  138.7500     2.1560   -14.7500    55.6220     8.6980     7.9780    10.4190    24.0780 
  138.8750     2.1620   -14.5310    54.2550     8.7170     8.0350    10.6110    24.0440 
  139.0000     2.1710   -14.2020    54.1030     8.6850     8.0410    10.8940    23.9980 
  139.1250     2.1810   -13.7800    55.1720     8.6000     7.9880    11.1290    23.9670 
  139.2500     2.1870   -13.3450    57.1100     8.4930     7.9030    11.1500    23.9710 
  139.3750     2.1880   -12.8970    59.2920     8.3910     7.8180    10.8400    24.0160 
  139.5000     2.1860   -12.4260    59.6590     8.3130     7.7580    10.4260    24.1150 
  139.6250     2.1810   -11.9270    57.3400     8.2740     7.7460    10.2700    24.2390 
  139.7500     2.1740   -11.4050    54.5660     8.2640     7.7770    10.2320    24.3090 
  139.8750     2.1660   -10.8500    52.5930     8.2780     7.8450    10.1500    24.3430 
  140.0000     2.1570   -10.2870    53.0790     8.3090     7.9400     9.9610    24.3700 
  140.1250     2.1500    -9.7210    56.3050     8.3370     8.0470     9.8100    24.3770 
  140.2500     2.1480    -9.0700    58.5620     8.3210     8.1210     9.6570    24.3700 
  140.3750     2.1560    -8.3150    58.2510     8.2080     8.1070     9.5260    24.3710 
  140.5000     2.1720    -7.5070    56.5230     7.9540     7.9470     9.3480    24.3720 
  140.6250     2.1930    -6.6790    58.2990     7.5420     7.5930     9.1020    24.3560 
  140.7500     2.2130    -5.8400    65.1990     7.0630     7.1240     8.4650    24.3520 
  140.8750     2.2260    -5.0390    74.2850     6.6090     6.6250     7.2300    24.3670 
  141.0000     2.2310    -4.3270    79.6610     6.2510     6.1810     5.8620    24.3750 
  141.1250     2.2300    -3.7330    78.4100     6.0140     5.8450     5.3510    24.3720 
  141.2500     2.2290    -3.2760    76.3150     5.8250     5.5790     5.3320    24.4010 
  141.3750     2.2330    -2.9800    76.8520     5.6250     5.3400     5.4640    24.4450 
  141.5000     2.2460    -2.8120    81.2730     5.4030     5.1080     5.3780    24.4980 
  141.6250     2.2700    -2.7780    86.4660     5.2470     4.9350     5.1970    24.5640 
  141.7500     2.3020    -2.9200    88.1750     5.2940     4.9120     4.8980    24.6170 
  141.8750     2.3370    -3.2460    85.7830     5.6430     5.1210     4.8170    24.6250 
  142.0000     2.3640    -3.7210    82.0310     6.2980     5.5850     5.3150    24.5960 
  142.1250     2.3650    -4.3820    79.0380     7.1430     6.2580     6.6420    24.5770 
  142.2500     2.3410    -5.2110    75.4470     7.9110     6.9450     9.0340    24.5570 
  142.3750     2.2970    -6.1630    71.2240     8.3990     7.4790    12.3130    24.5040 
  142.5000     2.2480    -7.2080    67.4800     8.5100     7.7420    12.5890    24.4370 
  142.6250     2.2030    -8.2980    63.0240     8.2990     7.7230     9.9360    24.4020 
  142.7500     2.1640    -9.3340    59.7330     8.0440     7.6200     8.5490    24.4050 
  142.8750     2.1290   -10.2510    57.8320     7.9110     7.5770     8.3660    24.4450 
  143.0000     2.1010   -11.0130    56.5310     7.9500     7.6530     8.6830    24.5380 
  143.1250     2.0870   -11.5550    57.1590     8.1000     7.8170     9.0090    24.6080 
  143.2500     2.0890   -11.8920    61.2130     8.2290     7.9630     9.2450    24.5980 
  143.3750     2.1060   -12.0600    65.9690     8.2780     8.0250     9.4290    24.5000 
  143.5000     2.1300   -12.0870    67.0120     8.2470     7.9930     9.4880    24.3020 
  143.6250     2.1500   -11.9900    63.5730     8.1770     7.8950     9.4010    23.9750 
  143.7500     2.1610   -11.8270    61.1210     8.1190     7.7930     9.3090    23.5740 
  143.8750     2.1620   -11.6240    59.8130     8.0840     7.7090     9.2890    23.2060 
  144.0000     2.1590   -11.3960    58.5460     8.0580     7.6440     9.4930    22.9820 
  144.1250     2.1570   -11.1740    58.2950     8.0270     7.5910    10.0940    22.9410 
  144.2500     2.1630   -10.9820    60.1100     8.0060     7.5560    10.5760    22.9740 
  144.3750     2.1740   -10.8310    62.0150     8.0430     7.5710    10.4370    23.0150 
  144.5000     2.1900   -10.7260    62.0170     8.1950     7.6810     9.7440    23.0060 
  144.6250     2.2030   -10.6530    62.9080     8.5290     7.9490     9.1820    22.9230 
  144.7500     2.2120   -10.5890    65.3510     8.9920     8.3420     9.2200    22.8480 
  144.8750     2.2140   -10.5080    66.2210     9.4800     8.7850     9.8850    22.8270 
  145.0000     2.2070   -10.3470    64.8950     9.8320     9.1410    10.6760    22.7960 
  145.1250     2.1920   -10.0590    63.2070     9.7990     9.1850    11.0890    22.7640 
  145.2500     2.1780    -9.6710    60.8880     9.3370     8.8420    11.1640    22.8650 
  145.3750     2.1740    -9.1360    59.0540     8.5150     8.1420    10.7580    23.1940 
  145.5000     2.1870    -8.4520    61.0560     7.5450     7.2560     9.7790    23.6900 
  145.6250     2.2250    -7.7200    66.7070     6.7580     6.4650     8.3620    24.2230 
  145.7500     2.2770    -7.0740    73.4100     6.3400     5.9560     6.9220    24.6930 
  145.8750     2.3290    -6.5650    79.7100     6.3430     5.7960     6.1690    25.0050 
