~V
VERS. 2.00: Ver 2.00
~W
STRT.M 59.0000:
STOP.M 212.0000:
STEP.M 0.1250:
NULL. -999.2500:
UWI. F10143:
~C
DEPT.M :
GR.API :
RML.OHMM :
RI. :
RXO.OHMM :
CALI.CM :
SP.MV :
DEN.GM/CC :
~A
# ...
  115.2500    69.4570     9.1920     7.5290     8.8380    24.9130   -23.2210     2.2700 
  115.3750    70.1060    10.1260     8.3190    12.0840    24.9020   -23.1490     2.2910 
  115.5000    70.5450    10.3520     8.6160    14.3230    24.9870   -23.0650     2.2980 
  115.6250    69.7170     9.6500     8.1630     9.7690    25.1160   -22.9980     2.2710 
  115.7500    69.9990     8.5980     7.3640     6.9050    25.2000   -22.9340     2.2410 
  115.8750    72.0870     7.6590     6.5870     5.8080    25.2070   -22.8610     2.2320 
  116.0000    74.0550     7.0800     6.0570     5.7330    25.1590   -22.7780     2.2400 
  116.1250    74.5240     6.9330     5.8760     5.8580    25.1100   -22.7080     2.2500 
  116.2500    74.6520     7.0130     5.9260     5.9480    25.0750   -22.6710     2.2490 
  116.3750    74.1750     7.1870     6.1160     6.0180    25.0320   -22.6620     2.2400 
  116.5000    73.3140     7.3990     6.3720     6.0380    24.9900   -22.6750     2.2280 
  116.6250    71.0550     7.6960     6.6540     6.1890    25.0110   -22.6790     2.2290 
  116.7500    68.7030     8.0720     6.9150     6.7350    25.0860   -22.6620     2.2470 
  116.8750    68.0900     8.4090     7.0830     7.5460    25.1700   -22.6130     2.2730 
  117.0000    70.2910     8.4940     7.0710     7.8660    25.2100   -22.5460     2.2830 
  117.1250    73.6990     8.1060     6.7930     6.7350    25.2180   -22.4530     2.2650 
  117.2500    73.2850     7.4110     6.3590     6.1640    25.2010   -22.3110     2.2440 
  117.3750    70.0130     6.7300     5.9390     5.9350    25.1850   -22.1280     2.2370 
  117.5000    68.3740     6.4390     5.7450     5.9030    25.1910   -21.8930     2.2470 
  117.6250    69.1600     6.9250     6.0390     5.9880    25.2180   -21.6340     2.2760 
  117.7500    68.0320     8.1040     6.8230     7.3170    25.2290   -21.3780     2.3260 
  117.8750    62.1910     9.7320     8.0100    11.4410    25.2180   -21.1350     2.3930 
  118.0000    55.0080    11.3320     9.3200    20.7240    25.1720   -20.9040     2.4510 
  118.1250    52.8670    12.2360    10.2410    21.3020    25.1020   -20.6880     2.4600 
  118.2500    56.3290    12.4490    10.6470    14.7570    25.0730   -20.4990     2.4360 
  118.3750    60.0700    12.5020    10.8460     9.8920    25.0820   -20.3410     2.4200 
  118.5000    60.0670    13.1040    11.3170    10.0190    25.0960   -20.2210     2.4430 
  118.6250    57.5110    14.9780    12.6240    15.8900    25.1020   -20.1260     2.4980 
  118.7500    54.0450    18.0470    14.8810    26.5960    25.0950   -20.0560     2.5430 
  118.8750    48.9890    21.9450    17.9820    31.6410    25.0900   -20.0040     2.5580 
  119.0000    43.0350    25.8430    21.3750    28.1800    25.0950   -19.9710     2.5540 
  119.1250    39.5540    28.3830    23.9360    26.3190    25.1130   -19.9420     2.5420 
  119.2500    39.2690    29.1970    25.1490    27.0550    25.1410   -19.9250     2.5270 
  119.3750    40.4760    28.5930    25.1320    27.8220    25.1580   -19.9260     2.5110 
  119.5000    41.9230    27.1330    24.2810    27.6020    25.1550   -19.9520     2.4940 
  119.6250    43.3840    25.2840    22.9210    23.4250    25.1320   -19.9980     2.4710 
  119.7500    44.7510    23.5320    21.4560    19.1970    25.1000   -20.0470     2.4420 
  119.8750    44.7820    22.2270    20.2080    16.7710    25.0730   -20.1000     2.4220 
  120.0000    43.3030    21.5710    19.4440    16.3740    25.0320   -20.1350     2.4220 
  120.1250    41.7550    21.6760    19.3790    16.6700    24.9940   -20.1490     2.4480 
  120.2500    40.9530    22.3040    19.8490    16.9000    24.9680   -20.1540     2.4850 
  120.3750    41.5100    23.2820    20.6830    18.0460    24.9850   -20.1490     2.5190 
  120.5000    41.9300    24.3660    21.6460    20.6620    25.0470   -20.1350     2.5380 
  120.6250    41.2420    25.1820    22.4330    21.4810    25.0790   -20.1130     2.5360 
  120.7500    40.2600    25.5260    22.8960    20.8560    25.0850   -20.0930     2.5280 
  120.8750    40.1440    25.3990    23.0460    20.9730    25.0730   -20.0730     2.5220 
  121.0000    41.4460    25.0130    23.0110    20.2500    25.0550   -20.0560     2.5180 
  121.1250    42.8230    24.7300    23.0060    20.7960    25.0670   -20.0680     2.5120 
  121.2500    44.2630    24.7820    23.2040    22.0450    25.0820   -20.1080     2.5110 
  121.3750    45.7760    25.1920    23.6570    23.9420    25.0890   -20.1750     2.5170 
  121.5000    47.3110    25.8360    24.3110    24.8550    25.0890   -20.2640     2.5290 
  121.6250    47.6380    26.5040    25.0370    24.8880    25.0890   -20.3930     2.5410 
  121.7500    46.6980    26.9740    25.6220    24.8430    25.0890   -20.5630     2.5510 
  121.8750    45.6570    27.0550    25.8730    24.5000    25.0890   -20.7780     2.5600 
  122.0000    45.4640    26.6450    25.6770    23.3670    25.0830   -21.0570     2.5650 
  122.1250    45.9290    25.8170    25.0410    21.8760    25.0400   -21.3710     2.5570 
  122.2500    46.6550    24.9520    24.2440    19.4830    24.9510   -21.6950     2.5410 
  122.3750    47.8730    24.3000    23.4760    18.4710    24.8630   -22.0320     2.5220 
  122.5000    48.8810    23.9760    22.8850    18.7670    24.8620   -22.3880     2.5060 
  122.6250    49.1890    24.0180    22.5930    19.7790    24.9010   -22.7630     2.4990 
  122.7500    49.2730    24.2470    22.5130    20.7660    24.9830   -23.1480     2.4990 
  122.8750    50.2630    24.5030    22.5480    20.8090    25.0620   -23.5320     2.4970 
  123.0000    52.3770    24.6980    22.6140    20.3370    25.1110   -23.8950     2.4800 
  123.1250    53.2950    24.8260    22.7010    20.7190    25.1550   -24.2220     2.4440 
  123.2500    51.4760    24.9560    22.8630    20.4340    25.1990   -24.4840     2.4090 
  123.3750    49.5420    25.1730    23.1800    19.8410    25.1900   -24.6460     2.3890 
  123.5000    49.8840    25.5650    23.7070    20.2590    25.0640   -24.6760     2.3870 
  123.6250    50.9380    26.1260    24.4000    21.7970    24.8460   -24.5190     2.4020 
  123.7500    49.5660    26.6410    25.0400    24.4320    24.8700   -24.2100     2.4210 
  123.8750    47.5770    26.9060    25.4430    25.9310    25.0130   -23.7720     2.4320 
  124.0000    47.8360    26.8200    25.5030    25.4580    25.1620   -23.2180     2.4290 
  124.1250    49.0760    26.3920    25.2090    23.2190    25.2550   -22.5710     2.4290 
  124.2500    49.2360    25.8880    24.8110    22.6170    25.2790   -21.8990     2.4460 
  124.3750    49.2400    25.5190    24.4960    23.9210    25.2560   -21.2550     2.4710 
  124.5000    49.4700    25.3720    24.3560    24.7980    25.2340   -20.6970     2.4810 
  124.6250    49.3870    25.4210    24.4070    23.7280    25.2170   -20.2650     2.4620 
  124.7500    48.5050    25.5290    24.5340    23.1070    25.1930   -19.9340     2.4370 
  124.8750    48.0280    25.5990    24.6370    22.8100    25.1640   -19.6810     2.4240 
  125.0000    47.7860    25.5490    24.6190    21.8830    25.1520   -19.5010     2.4310 
  125.1250    47.3450    25.2820    24.4030    22.4720    25.1600   -19.3940     2.4510 
  125.2500    47.5540    24.8520    24.0630    22.8070    25.1900   -19.3300     2.4620 
  125.3750    48.4680    24.3800    23.6830    21.9690    25.1830   -19.2840     2.4610 
  125.5000    49.0630    24.0510    23.3610    20.8290    25.1650   -19.2320     2.4570 
  125.6250    48.3810    24.0450    23.1880    20.5570    25.1600   -19.1700     2.4550 
  125.7500    47.0350    24.2050    23.1110    21.6350    25.1720   -19.1040     2.4490 
  125.8750    45.3490    24.3270    23.0510    22.2980    25.2000   -19.0470     2.4440 
  126.0000    43.7450    24.2910    22.9570    22.4710    25.2210   -19.0000     2.4410 
  126.1250    42.9250    24.1040    22.8400    22.9540    25.2280   -18.9540     2.4420 
  126.2500    42.7320    23.8850    22.7630    22.4350    25.2280   -18.9180     2.4460 
  126.3750    43.3080    23.6750    22.7550    21.4120    25.2280   -18.9040     2.4570 
