~V
VERS. 2.00: Ver 2.00
~W
STRT.M 50.0000:
STOP.M 236.0000:
STEP.M 0.1250:
NULL. -999.2500:
UWI. F10180:
~C
DEPT.M :
SP.MV :
GR.API :
RML.OHMM :
RI. :
RXO.OHMM :
CALI.CM :
DEN.GM/CC :
~A
# ...
  185.0000    -8.2470   100.7920    10.8580     8.1590    12.8060    25.4470     2.4140 
  185.1250    -8.5620    94.6550    11.5370     8.2310    12.5660    25.3710     2.3960 
  185.2500    -8.8580    94.0930    12.0570     8.2770    11.0740    25.2700     2.3840 
  185.3750    -9.0610    97.9200    12.1500     8.2630    10.3450    25.1490     2.3800 
  185.5000    -9.1500   100.2210    11.8400     8.2000    10.1020    25.0650     2.3820 
  185.6250    -9.2140    98.7320    11.3140     8.1300     9.5210    25.0460     2.3900 
  185.7500    -9.2200    95.7530    10.9020     8.1290     9.8470    25.1500     2.4010 
  185.8750    -9.1450    95.7770    11.0320     8.3300    11.8440    25.2600     2.4070 
  186.0000    -9.1130    97.5090    11.7610     8.7600    14.6020    25.3070     2.4020 
  186.1250    -9.0660    98.1150    12.9500     9.3840    18.4440    25.3130     2.3850 
  186.2500    -8.9850    96.0650    14.2440    10.0720    20.3150    25.3200     2.3660 
  186.3750    -8.9450    92.0290    15.0590    10.5830    29.7020    25.2960     2.3550 
  186.5000    -8.8810    90.4940    15.1300    10.7690    27.8690    25.2660     2.3580 
  186.6250    -8.7070    92.7470    14.5280    10.6060    18.9730    25.2220     2.3750 
  186.7500    -8.4550    96.3520    13.5800    10.1850    12.1360    25.1590     2.4000 
  186.8750    -8.1530    98.9020    12.6540     9.6490    10.2520    25.2100     2.4250 
  187.0000    -7.7570   101.5610    11.8700     9.1260    10.2290    25.3140     2.4420 
  187.1250    -7.3050   105.6170    11.1630     8.6410    10.2380    25.3110     2.4510 
  187.2500    -6.8030   108.1170    10.4740     8.1770    10.1360    25.2130     2.4530 
  187.3750    -6.2230   104.9770     9.8480     7.7140    10.1120    25.1400     2.4510 
  187.5000    -5.6620   101.2420     9.3390     7.2690     9.6550    25.0970     2.4510 
  187.6250    -5.2020    99.4030     8.9430     6.8960     8.8920    25.0600     2.4540 
  187.7500    -4.8090    96.4490     8.6140     6.6680     8.1440    25.0250     2.4560 
  187.8750    -4.4320    91.3670     8.3660     6.6960     8.0970    25.0630     2.4540 
  188.0000    -4.1780    88.9000     8.2890     6.9790     8.5250    25.1460     2.4490 
  188.1250    -4.0610    90.7870     8.5070     7.4730     9.3170    25.2100     2.4460 
  188.2500    -3.9700    93.5560     9.0440     8.0500    10.0640    25.2120     2.4490 
  188.3750    -3.8780    92.3150     9.6850     8.4610    10.9320    25.1840     2.4570 
  188.5000    -3.8090    89.4690    10.0490     8.5480    11.2500    25.1160     2.4660 
  188.6250    -3.6650    87.3890     9.9710     8.2890    10.6120    25.0790     2.4690 
  188.7500    -3.4800    85.2620     9.5770     7.8020     9.1320    25.0990     2.4640 
  188.8750    -3.3100    80.7020     9.1960     7.2830     7.5430    25.0970     2.4490 
  189.0000    -3.0230    74.6160     9.0500     6.8840     7.0250    25.0460     2.4290 
  189.1250    -2.6610    71.5540     9.1380     6.6400     6.9660    25.0880     2.4100 
  189.2500    -2.3180    71.7560     9.3320     6.5200     7.1370    25.2200     2.3990 
  189.3750    -2.0060    71.9600     9.4240     6.4590     7.1490    25.3740     2.3980 
  189.5000    -1.7650    74.7400     9.2810     6.3920     6.9400    25.3660     2.4040 
  189.6250    -1.6440    80.7430     8.8640     6.3020     6.5430    25.1890     2.4170 
  189.7500    -1.5870    85.2570     8.2220     6.2020     6.1070    24.9510     2.4320 
  189.8750    -1.6370    84.8190     7.4810     6.1210     5.9480    24.7860     2.4420 
  190.0000    -1.8250    84.4820     6.8370     6.0750     6.0650    24.6980     2.4410 
  190.1250    -2.0680    85.5690     6.4370     6.0630     6.2170    24.6710     2.4300 
  190.2500    -2.3180    84.9030     6.3530     6.0740     6.4420    24.8280     2.4120 
  190.3750    -2.6290    84.1040     6.5810     6.1040     6.8280    24.8360     2.3990 
  190.5000    -2.9190    87.2060     6.9160     6.1600     7.1170    24.8840     2.3960 
  190.6250    -3.1740    92.5860     7.2100     6.2720     7.2820    24.8960     2.4010 
  190.7500    -3.4260    96.3580     7.3960     6.4840     7.6530    24.9020     2.4080 
  190.8750    -3.6800    94.3720     7.5130     6.8490     8.6030    24.9060     2.4120 
  191.0000    -3.9230    88.3630     7.6890     7.3360     9.9260    24.9090     2.4120 
  191.1250    -4.1210    82.5060     8.0030     7.8800    11.3390    24.9090     2.4090 
  191.2500    -4.3190    80.1680     8.4570     8.3810    11.3470    24.9110     2.4040 
  191.3750    -4.5220    81.9800     8.9690     8.7140    11.6140    24.9300     2.3990 
  191.5000    -4.6850    83.9890     9.4270     8.8870    12.0200    24.9520     2.3990 
  191.6250    -4.8380    85.9040     9.8050     8.9750    12.0670    24.9620     2.4030 
  191.7500    -4.9970    88.3460    10.1380     9.0800    11.4900    24.9630     2.4100 
  191.8750    -5.0730    89.9350    10.5060     9.2910    12.0950    24.9660     2.4170 
  192.0000    -5.1280    88.8550    10.9500     9.5860    14.1150    24.9660     2.4190 
  192.1250    -5.2190    86.4540    11.4520     9.9080    16.5380    24.9640     2.4180 
  192.2500    -5.2860    85.1600    11.9100    10.1850    16.4940    24.9530     2.4140 
  192.3750    -5.3130    84.5750    12.1290    10.3560    12.7800    24.8660     2.4100 
  192.5000    -5.3970    83.0220    12.0830    10.4720    11.5880    24.6400     2.4100 
  192.6250    -5.4960    82.8300    11.9240    10.6490    12.7830    24.3200     2.4100 
  192.7500    -5.6420    83.6150    11.9500    11.0550    15.5560    24.0500     2.4090 
  192.8750    -5.9190    81.9390    12.6100    11.9750    13.8780    23.9800     2.3990 
  193.0000    -6.1790    79.3630    14.0150    13.5200    13.3220    24.1650     2.3820 
  193.1250    -6.4340    79.6710    16.1590    15.7990    17.3140    24.4450     2.3610 
  193.2500    -6.7630    83.9890    18.9240    18.8310    25.5700    24.6950     2.3410 
  193.3750    -7.1170    87.8260    22.1850    22.4690    33.8200    24.8650     2.3270 
  193.5000    -7.3940    87.3030    25.4780    25.9770    39.0860    24.9400     2.3200 
  193.6250    -7.6660    83.4810    28.1080    28.5340    41.0530    24.9610     2.3190 
  193.7500    -7.9310    80.6470    29.2920    29.5280    39.9390    24.9380     2.3270 
  193.8750    -8.1060    83.5060    28.5230    28.7720    42.8780    24.8780     2.3380 
  194.0000    -8.3010    86.3010    26.7810    27.2660    39.7750    24.8260     2.3460 
  194.1250    -8.5510    84.5440    24.9970    25.8440    32.2030    24.8240     2.3430 
  194.2500    -8.8040    79.6760    23.8410    25.2020    24.9030    24.7660     2.3300 
  194.3750    -9.0490    76.3270    23.8630    26.1130    32.5820    24.6030     2.3110 
  194.5000    -9.3240    75.3000    25.2030    28.8500    40.0030    24.2540     2.2880 
  194.6250    -9.6550    74.2670    28.3250    34.0240    36.0840    23.7650     2.2600 
  194.7500    -9.9590    71.5630    33.9850    42.4880    33.2310    23.4890     2.2290 
  194.8750   -10.2440    67.4080    44.5330    55.9090    62.0460    23.8860     2.2140 
  195.0000   -10.5500    65.1880    61.3610    73.8560   114.8910    24.4830     2.2320 
  195.1250   -10.7900    65.6710    82.2940    95.2420   163.9200    24.8230     2.2860 
  195.2500   -10.9790    65.7470   107.9870   117.3990   203.1480    24.8900     2.3530 
  195.3750   -11.1990    62.9840   134.1580   135.7050   238.8280    24.8810     2.3950 
  195.5000   -11.3990    61.0200   154.7130   147.9410   223.9290    24.8710     2.4010 
  195.6250   -11.5380    61.3780   166.8220   154.1160   194.4010    24.8930     2.3770 
  195.7500   -11.6840    62.5970   171.3220   155.7190   203.1180    24.8970     2.3430 
  195.8750   -11.8400    63.3190   170.0760   153.9830   208.6050    24.8480     2.3090 
  196.0000   -12.0570    64.1230   165.7670   150.3770   204.3450    24.8120     2.2770 
  196.1250   -12.3840    63.5590   159.8970   145.4360   190.3210    24.8370     2.2480 
