~V
VERS. 2.00: Ver 2.00
~W
STRT.M 50.0000:
STOP.M 233.0000:
STEP.M 0.1250:
NULL. -999.2500:
UWI. F10166:
~C
DEPT.M :
SP.MV :
DEN.GM/CC :
GR.API :
RML.OHMM :
RI. :
RXO.OHMM :
CALI.CM :
~A
# ...
  162.5000   -20.5360     2.1580    58.8990   142.2290   120.3050   137.2000    26.0230 
  162.6250   -20.6460     2.1600    59.7710   124.0340   107.6590   114.9940    26.0240 
  162.7500   -20.7350     2.1680    60.3680   103.3850    90.6740    91.0980    26.0280 
  162.8750   -20.8060     2.1790    60.6520    86.2470    75.4620    67.6880    26.0340 
  163.0000   -20.8480     2.1890    62.0710    73.7140    64.1290    51.4270    26.0370 
  163.1250   -20.8540     2.1950    64.5460    65.2600    56.7050    45.0340    26.0340 
  163.2500   -20.8190     2.1970    65.8220    58.8300    51.3410    43.7700    26.0280 
  163.3750   -20.7530     2.1960    65.4530    53.3290    46.9840    42.7110    26.0240 
  163.5000   -20.6720     2.1970    64.8200    48.1200    42.9560    38.0790    26.0240 
  163.6250   -20.5770     2.2020    65.8370    43.3850    39.2750    31.9420    26.0240 
  163.7500   -20.4890     2.2100    68.4470    39.8000    36.4490    27.1580    26.0130 
  163.8750   -20.4080     2.2170    70.7400    38.1020    35.0920    23.7850    25.9940 
  164.0000   -20.3500     2.2200    71.0820    38.8450    35.7400    23.7660    25.9760 
  164.1250   -20.2980     2.2150    67.8230    42.6090    39.1230    31.7340    25.9710 
  164.2500   -20.2700     2.2040    63.5660    48.1400    44.4050    47.0100    25.9720 
  164.3750   -20.2480     2.1930    61.1390    53.4550    49.9270    59.1680    25.9740 
  164.5000   -20.2450     2.1850    61.4850    55.8100    53.0520    59.9320    25.9660 
  164.6250   -20.2720     2.1840    64.4090    52.7550    51.0750    52.3820    25.9330 
  164.7500   -20.3500     2.1880    67.6900    46.6000    45.7510    37.2220    25.8850 
  164.8750   -20.4740     2.1930    69.7970    40.0850    39.5690    22.9820    25.8150 
  165.0000   -20.6440     2.1970    70.9650    35.0210    34.3970    16.2550    25.7230 
  165.1250   -20.8750     2.2010    71.9690    32.0200    31.0520    16.2850    25.6480 
  165.2500   -21.1620     2.2090    73.5610    30.2970    28.9680    17.1150    25.5490 
  165.3750   -21.5050     2.2250    75.7140    29.5280    27.8560    15.2460    25.2750 
  165.5000   -21.8890     2.2530    78.9830    29.8080    27.7180    12.1350    24.7740 
  165.6250   -22.3300     2.2800    81.6260    32.2100    29.3010    10.8040    24.2900 
  165.7500   -22.7890     2.2890    79.6650    37.7410    33.4520    11.6580    24.0950 
  165.8750   -23.2770     2.2770    73.6790    47.9650    41.4670    14.4260    24.2180 
  166.0000   -23.7690     2.2500    67.1840    63.8110    54.4200    18.9300    24.5740 
  166.1250   -24.2560     2.2220    64.3410    85.3230    72.6910    25.4080    25.0970 
  166.2500   -24.7220     2.2050    63.1160   107.8510    92.1780    36.7690    25.6030 
  166.3750   -25.1610     2.1980    60.4830   125.9580   108.2730    58.2110    25.9340 
  166.5000   -25.5560     2.1990    57.5740   136.1710   118.0770    90.8220    26.0480 
  166.6250   -25.8720     2.2010    58.0460   138.4620   121.2490   110.5120    26.0360 
  166.7500   -26.1300     2.2000    61.3660   136.8450   120.8310   106.8850    26.0240 
  166.8750   -26.3040     2.1920    63.3510   132.8820   118.1310    99.6210    26.0250 
  167.0000   -26.4140     2.1800    63.2840   127.8540   114.2830    94.8940    26.0330 
  167.1250   -26.4170     2.1760    62.0510   123.4790   110.8390    89.4100    26.0390 
  167.2500   -26.3500     2.1860    61.1800   120.5090   108.6960    83.5100    26.0410 
  167.3750   -26.2140     2.2050    61.5690   118.1640   107.4300    79.0640    26.0360 
  167.5000   -26.0340     2.2180    62.4860   114.2200   105.2770    79.9820    26.0300 
  167.6250   -25.8230     2.2130    61.2440   104.9070    98.7960    87.2190    26.0250 
  167.7500   -25.6040     2.2020    60.3530    90.3580    87.2930    89.0590    26.0250 
  167.8750   -25.4040     2.2010    63.3170    73.4000    72.6280    76.3260    26.0290 
  168.0000   -25.2280     2.2200    68.8690    58.0250    58.3690    52.9120    26.0350 
  168.1250   -25.1020     2.2560    72.8760    48.0040    48.3370    35.2050    26.0400 
  168.2500   -25.0260     2.2870    75.5990    43.7070    43.2830    27.5100    26.0410 
  168.3750   -24.9950     2.3080    77.3310    45.5110    43.6320    28.1460    26.0410 
  168.5000   -24.9870     2.3240    75.7150    54.0160    50.1340    37.4090    26.0410 
  168.6250   -25.0160     2.3360    69.3630    71.9000    65.9370    57.0290    26.0410 
  168.7500   -25.0380     2.3300    62.7090    99.6560    92.1970    82.1160    26.0360 
  168.8750   -25.0610     2.2970    57.7510   138.5370   130.6010   115.1070    26.0170 
  169.0000   -25.0630     2.2420    54.1260   187.5350   180.8180   161.6970    25.9920 
  169.1250   -25.0730     2.1820    52.0850   245.6460   232.0700   249.7130    25.9750 
  169.2500   -25.0570     2.1380    52.6050   293.2750   272.8400   353.9680    25.9710 
  169.3750   -25.0440     2.1180    53.9910   313.2540   287.3330   395.6230    25.9720 
  169.5000   -25.0400     2.1160    53.7460   296.1770   268.3070   318.7090    25.9720 
  169.6250   -25.0230     2.1240    52.9800   248.2560   224.3990   200.7790    25.9720 
  169.7500   -25.0010     2.1340    54.3520   195.5480   178.8420   140.8040    25.9700 
  169.8750   -24.9520     2.1460    58.3390   151.1940   141.6130   112.5070    25.9670 
  170.0000   -24.8770     2.1650    61.9460   119.4080   115.1750    93.0480    25.9640 
  170.1250   -24.7700     2.1910    61.3300   101.1580   100.1160    79.6480    25.9590 
  170.2500   -24.6600     2.2190    58.4920    92.6400    93.5390    73.0570    25.9440 
  170.3750   -24.5560     2.2390    56.9930    93.0260    95.0260    71.0490    25.9210 
  170.5000   -24.4600     2.2430    57.7130   102.4410   104.7340    75.7120    25.9010 
  170.6250   -24.3740     2.2270    58.6640   123.0340   124.2010   102.5850    25.8950 
  170.7500   -24.2860     2.2010    58.4760   151.4920   149.9870   174.9190    25.8980 
  170.8750   -24.1850     2.1740    56.7050   180.9420   175.5230   298.3830    25.9020 
  171.0000   -24.0510     2.1520    53.2570   199.1040   189.4300   367.8180    25.9000 
  171.1250   -23.9160     2.1390    51.4550   191.3810   179.0890   318.7340    25.8960 
  171.2500   -23.7710     2.1380    54.2130   165.4800   153.5030   207.1990    25.8940 
  171.3750   -23.6470     2.1460    60.0400   134.1150   124.8360   115.8220    25.8940 
  171.5000   -23.5560     2.1600    65.2210   107.4010   101.4070    75.8840    25.8940 
  171.6250   -23.5240     2.1760    68.0030    90.4070    86.7700    64.6700    25.8940 
  171.7500   -23.5280     2.1880    68.4520    80.6400    78.3960    60.5420    25.8940 
  171.8750   -23.5640     2.1920    66.2230    76.2190    74.6510    57.5170    25.8940 
  172.0000   -23.6140     2.1900    63.2470    75.6210    74.1790    56.2830    25.8930 
  172.1250   -23.6660     2.1820    62.3400    77.9280    76.1130    58.8320    25.8950 
  172.2500   -23.7270     2.1740    62.4300    81.5590    79.0910    63.0450    25.8980 
  172.3750   -23.8010     2.1690    61.8050    85.5540    82.3110    67.7580    25.8950 
  172.5000   -23.8900     2.1710    60.8650    89.0410    85.0480    71.8860    25.8830 
  172.6250   -23.9790     2.1790    63.1670    91.0630    86.5110    72.4020    25.8710 
  172.7500   -24.0700     2.1870    66.7060    91.5550    86.6920    70.5830    25.8670 
  172.8750   -24.1500     2.1930    67.8830    90.6600    85.7410    69.4940    25.8680 
  173.0000   -24.2220     2.1950    65.1580    88.5980    83.8380    69.4580    25.8680 
  173.1250   -24.2630     2.1960    61.2250    85.3480    80.9320    68.0410    25.8680 
  173.2500   -24.2850     2.1970    60.0580    81.3560    77.4100    64.8870    25.8680 
  173.3750   -24.3000     2.2000    60.2310    77.2570    73.9010    60.6710    25.8680 
  173.5000   -24.3150     2.2020    59.5720    74.0500    71.3910    54.9810    25.8680 
  173.6250   -24.3720     2.1970    59.0920    73.0040    71.7510    50.3220    25.8670 
