~V
VERS. 2.00: Ver 2.00
~W
STRT.M 56.0000:
STOP.M 221.0000:
STEP.M 0.1250:
NULL. -999.2500:
UWI. F10169:
~C
DEPT.M :
GR.API :
RML.OHMM :
RI. :
RXO.OHMM :
CALI.CM :
SP.MV :
DEN.GM/CC :
~A
# ...
  202.2500    87.3970     8.0060     6.9750     7.0710    25.1810   -13.5560     2.3490 
  202.3750    86.1460     8.8840     7.6780     8.5120    25.2230   -13.9100     2.3320 
  202.5000    83.8870     9.9440     8.5780    10.2570    25.2750   -14.2360     2.3210 
  202.6250    81.3980    11.0870     9.6060    12.1130    25.3070   -14.4840     2.3100 
  202.7500    78.9050    12.2290    10.6840    13.4930    25.3140   -14.5610     2.2950 
  202.8750    77.6120    13.3840    11.7740    14.2050    25.3140   -14.5720     2.2830 
  203.0000    77.7030    14.6570    12.9360    15.2360    25.3140   -14.5370     2.2760 
  203.1250    77.1070    16.1470    14.2650    17.9050    25.3140   -14.4160     2.2710 
  203.2500    74.9190    17.8970    15.8420    20.7970    25.3130   -14.2700     2.2620 
  203.3750    73.8690    19.7840    17.5880    22.0020    25.3090   -14.1330     2.2550 
  203.5000    74.7190    21.7370    19.4400    24.5800    25.2940   -13.9540     2.2560 
  203.6250    74.9210    23.7640    21.3710    26.7250    25.2640   -13.8180     2.2660 
  203.7500    71.2900    26.0660    23.5110    26.8710    25.2370   -13.7370     2.2750 
  203.8750    65.9180    28.8500    26.0520    26.3630    25.1880   -13.6470     2.2790 
  204.0000    61.9890    32.1800    29.1260    30.8060    25.1040   -13.5990     2.2780 
  204.1250    61.4880    35.7340    32.5660    38.9590    25.0290   -13.5990     2.2810 
  204.2500    63.5640    38.4240    35.5660    44.0980    24.9910   -13.6580     2.2890 
  204.3750    65.2880    39.1770    37.0890    43.0730    24.9990   -13.7510     2.2910 
  204.5000    65.2390    37.5660    36.5130    39.4800    25.0180   -13.8810     2.2780 
  204.6250    64.4220    34.3570    34.2320    35.2790    25.0220   -14.0500     2.2530 
  204.7500    65.2040    31.2400    31.5890    30.6650    25.0000   -14.2590     2.2350 
  204.8750    66.7080    29.4530    29.8860    25.4150    24.9460   -14.4840     2.2340 
  205.0000    67.2510    29.3850    29.6640    22.5020    24.8690   -14.7080     2.2430 
  205.1250    66.8380    30.9270    31.0130    23.5860    24.8210   -14.9230     2.2490 
  205.2500    68.0080    33.5360    33.6500    32.5980    24.7970   -15.1080     2.2440 
  205.3750    71.5750    35.7760    36.2530    38.7260    24.7690   -15.2590     2.2380 
  205.5000    73.5570    36.1960    37.3120    38.9500    24.7210   -15.3640     2.2370 
  205.6250    70.4520    33.7980    35.5320    35.5330    24.6620   -15.4240     2.2420 
  205.7500    65.2350    28.8540    30.8120    29.6090    24.6250   -15.4570     2.2490 
  205.8750    64.3330    23.6730    25.5360    24.3470    24.6300   -15.5120     2.2520 
  206.0000    67.5140    19.6340    21.2210    21.5720    24.6490   -15.5940     2.2530 
  206.1250    71.2780    17.3210    18.5110    16.4900    24.6440   -15.6980     2.2590 
  206.2500    73.4350    17.1880    17.8370    12.6640    24.5900   -15.8160     2.2720 
  206.3750    73.0550    18.9180    18.9520    15.6660    24.5140   -15.9360     2.2810 
  206.5000    70.3780    22.4850    21.9480    23.8340    24.4720   -16.0380     2.2740 
  206.6250    67.4600    27.8030    26.9100    32.6710    24.5140   -16.1190     2.2550 
  206.7500    66.2220    34.6120    33.8310    36.0350    24.6620   -16.1410     2.2390 
  206.8750    65.6420    41.5360    41.3020    36.7750    24.7890   -16.1100     2.2340 
  207.0000    63.9310    47.1070    47.6990    38.7830    24.8130   -16.0380     2.2340 
  207.1250    62.0450    50.0850    51.5700    52.5570    24.7820   -15.9060     2.2270 
  207.2500    61.6210    49.3770    51.6140    64.9690    24.8440   -15.7060     2.2170 
  207.3750    61.7180    45.9110    48.6450    64.5150    24.9200   -15.4630     2.2120 
  207.5000    61.3290    40.9910    43.8940    52.2550    25.0160   -15.2070     2.2160 
  207.6250    60.6360    36.2690    39.0180    40.1220    25.1160   -14.9230     2.2280 
  207.7500    60.0030    33.3160    35.6550    35.5620    25.1600   -14.6270     2.2450 
  207.8750    59.7940    32.2720    34.1540    35.1960    25.1660   -14.3370     2.2630 
  208.0000    60.6250    32.6770    34.2430    37.0180    25.1460   -14.0430     2.2810 
  208.1250    62.2590    33.3510    34.8950    37.6010    25.0580   -13.7690     2.3050 
  208.2500    62.5380    32.1330    33.9150    37.5720    24.8910   -13.5410     2.3460 
  208.3750    62.1110    28.2370    30.1740    40.8550    24.7630   -13.3670     2.4040 
  208.5000    62.6840    22.5710    24.4260    40.4620    24.8390   -13.2570     2.4650 
  208.6250    64.2190    16.9170    18.5230    25.5220    25.0250   -13.2080     2.5010 
  208.7500    66.0710    12.7900    14.0780    12.5260    25.1630   -13.2430     2.4840 
  208.8750    67.7940    10.1620    11.1160     7.8450    25.2790   -13.3060     2.4340 
  209.0000    67.6660     8.7250     9.3500     7.2000    25.3710   -13.4000     2.3760 
  209.1250    65.3550     8.1060     8.4430     7.6050    25.4330   -13.4950     2.3300 
  209.2500    63.4650     8.0040     8.1590     7.9720    25.4540   -13.5390     2.3100 
  209.3750    64.0690     8.0620     8.1470     7.9160    25.4510   -13.5160     2.3050 
  209.5000    64.9340     8.1470     8.2540     7.3550    25.4130   -13.4150     2.3090 
  209.6250    64.6240     8.2290     8.4040     7.0230    25.3120   -13.2750     2.3200 
  209.7500    64.9200     8.3510     8.5930     7.2630    25.1810   -13.0860     2.3370 
  209.8750    65.3490     8.5210     8.8120     8.2950    25.1000   -12.8450     2.3530 
  210.0000    64.5810     8.6920     9.0160     9.6170    25.0760   -12.5170     2.3610 
  210.1250    63.2000     8.7750     9.1210     9.7240    25.0700   -12.1460     2.3630 
  210.2500    63.6260     8.6770     9.0220     8.5470    25.0650   -11.7920     2.3670 
  210.3750    64.0960     8.4520     8.7610     8.1060    25.0620   -11.4780     2.3730 
  210.5000    63.1390     8.1950     8.4320     8.1090    25.0260   -11.2410     2.3790 
  210.6250    62.1070     8.0150     8.1460     7.8630    24.9730   -11.0780     2.3820 
  210.7500    62.6400     8.0030     8.0060     7.4580    24.9530   -10.9620     2.3790 
  210.8750    63.1410     8.1080     7.9850     7.7700    24.9620   -10.8860     2.3670 
  211.0000    62.4530     8.2260     8.0030     8.6910    24.9870   -10.8500     2.3470 
  211.1250    62.2560     8.2400     7.9540     9.1980    24.9890   -10.8030     2.3220 
  211.2500    62.2560     8.0550     7.7510     8.5860    24.9590   -10.7740     2.3080 
  211.3750    62.2560     7.7510     7.4510     7.8170    24.9280   -10.8280     2.3090 
  211.5000    62.2560     7.4480     7.1460     7.0900    24.8980   -10.9040     2.3190 
  211.6250    62.2560     7.2680     6.9370     6.4600    24.8810   -10.9860     2.3290 
  211.7500    62.2560     7.3230     6.9220     6.5250    24.8850   -11.1190     2.3350 
  211.8750    62.2560     7.5530     7.0720     7.2410    24.8990   -11.3130     2.3360 
  212.0000    62.2560     7.8710     7.3270     7.9460    24.8990   -11.5660     2.3340 
  212.1250    62.2560     8.1740     7.6060     7.8090    24.8860   -11.9140     2.3300 
  212.2500    62.2560     8.3660     7.8140     7.6210    24.8770   -12.2860     2.3320 
  212.3750    62.2560     8.4470     7.9190     7.9030    24.8760   -12.5760     2.3380 
  212.5000    62.2560     8.4590     7.9340     7.9770    24.8760   -12.8520     2.3480 
  212.6250    62.2560     8.4570     7.8980     7.9100    24.8790   -13.1040     2.3540 
  212.7500    62.2560     8.4740     7.8470     7.7260    24.8940   -13.2670     2.3480 
  212.8750    62.2560     8.4870     7.7850     7.8580    24.9190   -13.3700     2.3350 
  213.0000    62.2560     8.4650     7.6980     7.8760    24.9330   -13.4580     2.3240 
  213.1250    62.2560     8.3930     7.5800     7.7000    24.9220   -13.5250     2.3220 
  213.2500    62.2560     8.2850     7.4450     7.3880    24.8760   -13.5770     2.3280 
  213.3750    62.2560     8.1800     7.3260     7.2960    24.8350   -13.6720     2.3390 
