~V
VERS. 2.00: Ver 2.00
~W
STRT.M 45.0000:
STOP.M 252.0000:
STEP.M 0.1250:
NULL. -999.2500:
UWI. F10190:
~C
DEPT.M :
GR.API :
RML.OHMM :
RI. :
RXO.OHMM :
CALI.CM :
SP.MV :
DEN.GM/CC :
~A
# ...
  123.7500    60.2640    18.5440    17.4720    18.0610    24.9070   -22.9080     2.1800 
  123.8750    59.5210    19.4760    18.8540    19.4160    25.0000   -22.6800     2.1580 
  124.0000    59.4960    18.9510    18.6520    19.3330    25.0370   -22.3030     2.1460 
  124.1250    59.8290    17.2500    17.0940    17.8700    24.8920   -21.8870     2.1710 
  124.2500    59.7430    14.7890    14.6570    15.4660    24.5740   -21.4840     2.2370 
  124.3750    62.6820    12.1620    12.0130    11.5800    24.2380   -21.0750     2.3170 
  124.5000    68.2690    10.1110     9.8860     8.5880    24.1230   -20.6370     2.3600 
  124.6250    70.3490     8.9970     8.5570     6.8860    24.1170   -20.1930     2.3730 
  124.7500    68.9260     8.9910     8.1270     6.5180    24.1170   -19.8090     2.3890 
  124.8750    66.1350    10.1910     8.6560     7.0190    24.0960   -19.5550     2.4260 
  125.0000    60.0960    12.8470    10.4170    10.4830    24.1020   -19.4330     2.4840 
  125.1250    51.5950    16.5160    13.2350    17.0050    24.1280   -19.3480     2.5420 
  125.2500    45.8960    20.4890    16.7410    21.7220    24.1640   -19.2850     2.5840 
  125.3750    46.2220    23.6660    20.0670    22.5350    24.2410   -19.2560     2.5990 
  125.5000    48.7400    24.8340    21.9490    21.7750    24.3470   -19.2870     2.5960 
  125.6250    48.8630    24.4610    22.3740    20.6210    24.4450   -19.3540     2.5890 
  125.7500    48.3430    23.3990    21.9050    19.2080    24.4890   -19.4170     2.5800 
  125.8750    50.3680    22.4200    21.2080    19.1000    24.4860   -19.4450     2.5640 
  126.0000    52.6020    21.9180    20.6990    19.0100    24.4360   -19.4520     2.5340 
  126.1250    53.0470    21.7460    20.3950    19.5820    24.3670   -19.4420     2.5000 
  126.2500    52.7580    21.7570    20.2320    20.5800    24.3330   -19.3920     2.4730 
  126.3750    53.1900    21.8480    20.1550    20.6550    24.3240   -19.2870     2.4620 
  126.5000    54.2590    21.9540    20.1270    21.4730    24.3410   -19.1200     2.4680 
  126.6250    54.3420    22.0440    20.1230    20.3700    24.3470   -18.9240     2.4780 
  126.7500    53.1390    22.1350    20.1550    19.1950    24.3490   -18.7080     2.4870 
  126.8750    49.4460    22.2470    20.2450    19.3730    24.3490   -18.4570     2.4930 
  127.0000    45.5720    22.3500    20.3750    19.7080    24.3490   -18.1500     2.4950 
  127.1250    45.3490    22.3710    20.4590    19.1290    24.3490   -17.8460     2.4950 
  127.2500    46.6820    22.2560    20.4260    19.3470    24.3490   -17.5890     2.4970 
  127.3750    46.4880    22.0120    20.2570    20.7540    24.3420   -17.4070     2.5070 
  127.5000    45.3240    21.7620    20.0490    19.8870    24.3210   -17.3050     2.5210 
  127.6250    45.2770    21.7090    19.9990    18.8560    24.2880   -17.2210     2.5310 
  127.7500    45.0530    21.9980    20.2520    16.9060    24.2430   -17.1510     2.5350 
  127.8750    44.4830    22.6470    20.8440    16.0510    24.1330   -17.1260     2.5360 
  128.0000    45.9430    23.4770    21.6590    18.3430    23.9710   -17.2040     2.5350 
  128.1250    48.2260    24.0620    22.3400    21.4830    23.8280   -17.3700     2.5340 
  128.2500    49.3590    24.0370    22.5550    21.8930    23.7740   -17.5960     2.5300 
  128.3750    49.5970    23.2760    22.1400    19.5670    23.7670   -17.8650     2.5190 
  128.5000    49.3480    21.9810    21.1890    17.7950    23.7860   -18.1230     2.4980 
  128.6250    48.2650    20.7060    20.1460    16.5510    23.8660   -18.3740     2.4770 
  128.7500    47.7630    19.7660    19.2950    16.2510    24.0480   -18.6120     2.4670 
  128.8750    49.3520    19.2520    18.7600    16.4140    24.2800   -18.8290     2.4690 
  129.0000    51.3830    19.0790    18.5390    16.6800    24.4300   -19.0270     2.4470 
  129.1250    52.3900    18.9980    18.4400    18.0200    24.4170   -19.1740     2.3990 
  129.2500    52.6150    18.8990    18.3520    20.7350    24.3460   -19.2560     2.3650 
  129.3750    51.3910    18.7480    18.2220    23.1360    24.2480   -19.2620     2.3810 
  129.5000    48.9670    18.5610    18.0490    17.7710    24.1260   -19.2060     2.4400 
  129.6250    47.4800    18.3980    17.8820    15.3880    24.0420   -19.1280     2.4870 
  129.7500    48.0590    18.3070    17.7650    14.9660    24.0550   -19.0180     2.4940 
  129.8750    49.5870    18.3230    17.7330    15.2610    24.1150   -18.8660     2.4750 
  130.0000    50.3350    18.4840    17.8280    15.9840    24.1850   -18.6430     2.4490 
  130.1250    50.2690    18.7520    18.0370    16.5560    24.2970   -18.3800     2.4170 
  130.2500    49.7000    19.1010    18.3500    16.5390    24.4380   -18.1320     2.3830 
  130.3750    49.1460    19.5220    18.7560    16.1420    24.5180   -17.9320     2.3690 
  130.5000    48.3020    20.0340    19.2700    15.1800    24.4690   -17.7380     2.4020 
  130.6250    47.2940    20.5930    19.8430    14.5960    24.3310   -17.5440     2.4590 
  130.7500    47.4140    21.1250    20.4140    15.5540    24.2040   -17.4100     2.5050 
  130.8750    48.4620    21.5530    20.9140    17.8280    24.1450   -17.3700     2.5150 
  131.0000    49.8700    21.7970    21.2640    20.0790    24.1290   -17.3860     2.4900 
  131.1250    50.0320    21.8860    21.4650    19.6580    24.0860   -17.4010     2.4520 
  131.2500    48.5780    21.8690    21.5440    18.8040    24.0070   -17.4020     2.4110 
  131.3750    46.5470    21.8070    21.5580    18.8230    23.9880   -17.3830     2.3780 
  131.5000    46.5550    21.7550    21.5650    19.5600    24.1050   -17.4360     2.3630 
  131.6250    49.5860    21.7470    21.6090    19.5890    24.1810   -17.5590     2.3630 
  131.7500    53.1220    21.8190    21.7240    18.4740    24.1760   -17.6790     2.3680 
  131.8750    54.7690    21.9850    21.9230    17.5690    24.1570   -17.7490     2.3720 
  132.0000    53.2340    22.2320    22.1910    17.1260    24.1420   -17.8040     2.3850 
  132.1250    51.2820    22.4850    22.4710    16.6840    24.0530   -17.8650     2.4130 
  132.2500    51.4760    22.6690    22.7060    16.9460    23.9120   -17.9260     2.4440 
  132.3750    52.8340    22.7050    22.8270    17.8850    23.8560   -17.9870     2.4520 
  132.5000    53.2680    22.5340    22.7540    18.2410    24.0510   -18.0220     2.4330 
  132.6250    53.4820    22.2510    22.5430    18.8370    24.3530   -17.9930     2.4200 
  132.7500    52.8710    21.9650    22.2860    20.1080    24.6390   -17.9180     2.4230 
  132.8750    50.6560    21.7810    22.0870    21.2070    24.9910   -17.8220     2.4240 
  133.0000    48.0400    21.8150    22.0820    21.6570    25.3780   -17.6940     2.4100 
  133.1250    48.7890    22.0670    22.3000    20.5610    25.5800   -17.5350     2.4030 
  133.2500    52.0430    22.4990    22.7270    20.0720    25.4960   -17.3720     2.4200 
  133.3750    53.9790    23.0350    23.2900    20.4970    25.3360   -17.1930     2.4490 
  133.5000    54.5830    23.5520    23.8560    21.7680    25.2220   -16.9900     2.4550 
  133.6250    55.1940    23.9270    24.2800    23.1550    25.1410   -16.8000     2.4360 
  133.7500    54.5950    24.0770    24.4660    23.7570    25.0930   -16.6000     2.4080 
  133.8750    52.2630    23.9630    24.3800    23.2500    25.0760   -16.3880     2.3860 
  134.0000    50.4120    23.5450    23.9970    22.1790    25.0800   -16.2290     2.3840 
  134.1250    51.0500    22.9320    23.4300    21.3360    25.1200   -16.1620     2.4010 
  134.2500    52.2810    22.2240    22.7690    20.6520    25.2370   -16.1360     2.4280 
  134.3750    51.4460    21.5520    22.1260    20.2230    25.3970   -16.1310     2.4480 
  134.5000    50.3850    21.1060    21.6660    19.3790    25.4490   -16.1500     2.4470 
  134.6250    50.9220    20.9740    21.4810    17.7440    25.3680   -16.2050     2.4370 
  134.7500    51.8460    21.1810    21.6010    17.2650    25.2560   -16.3420     2.4350 
  134.8750    51.7630    21.6560    21.9770    17.9580    25.1770   -16.5650     2.4410 
