~V
VERS. 2.00: Ver 2.00
~W
STRT.M 50.0000:
STOP.M 222.0000:
STEP.M 0.1250:
NULL. -999.2500:
UWI. F10145:
~C
DEPT.M :
DEN.GM/CC :
GR.API :
RML.OHMM :
RI. :
RXO.OHMM :
CALI.CM :
SP.MV :
~A
# ...
  140.0000     2.3240    94.6160     7.6430     7.0140     7.9710    23.7790     0.2820 
  140.1250     2.3320    91.6270     7.5770     7.0440     8.0900    23.7830     0.2690 
  140.2500     2.3460    91.8190     7.3010     6.9310     8.1570    23.7850     0.3270 
  140.3750     2.3610    91.5620     6.8110     6.6340     8.0990    23.7810     0.4680 
  140.5000     2.3700    93.1880     6.2200     6.1920     7.2260    23.7720     0.6890 
  140.6250     2.3730   100.3670     5.7800     5.7450     5.9620    23.7610     0.9050 
  140.7500     2.3740   106.1560     5.6960     5.4790     5.2710    23.7480     1.0490 
  140.8750     2.3790   106.3870     6.0790     5.5320     5.1500    23.7320     1.1390 
  141.0000     2.3890   101.0840     6.9240     5.9870     5.7410    23.7230     1.2070 
  141.1250     2.3920    92.4120     8.1280     6.8910     8.0770    23.7480     1.2050 
  141.2500     2.3820    85.0160     9.3620     8.0090    12.2150    23.8100     1.1420 
  141.3750     2.3590    83.2400    10.3560     9.0810    14.5530    23.8690     1.0110 
  141.5000     2.3320    84.5640    10.9600     9.8640    13.3120    23.9180     0.7990 
  141.6250     2.3170    85.0700    11.2450    10.2490    10.8340    23.9250     0.5080 
  141.7500     2.3210    88.1420    11.6160    10.5200    10.6020    23.9130     0.2300 
  141.8750     2.3400    91.4270    12.4270    11.0070    11.9600    23.9020    -0.0240 
  142.0000     2.3600    87.4820    13.9080    12.0040    14.2730    23.9030    -0.2940 
  142.1250     2.3640    78.7990    16.1410    13.7640    19.3950    23.9580    -0.6040 
  142.2500     2.3490    76.2510    18.6580    16.0370    22.7700    23.9940    -0.9150 
  142.3750     2.3210    79.3730    20.9160    18.4090    25.5980    24.0310    -1.1720 
  142.5000     2.2910    82.2470    22.3540    20.3150    27.6150    24.0390    -1.3680 
  142.6250     2.2700    81.5960    22.4870    21.1120    28.0790    24.0140    -1.5230 
  142.7500     2.2590    80.3060    21.7350    20.9510    25.8800    23.9930    -1.6910 
  142.8750     2.2550    80.8360    20.6230    20.2190    22.6240    23.9890    -1.8600 
  143.0000     2.2570    83.2060    19.6590    19.4040    20.3330    23.9970    -1.9700 
  143.1250     2.2620    83.6020    19.1900    18.9180    19.7250    23.9920    -1.9790 
  143.2500     2.2670    81.1530    19.0830    18.7870    20.0220    23.9950    -1.9700 
  143.3750     2.2700    79.6780    19.1050    18.8710    20.5440    24.0240    -1.9940 
  143.5000     2.2710    80.5830    18.9930    18.9300    20.9890    24.1170    -2.0600 
  143.6250     2.2700    80.6260    18.4830    18.6480    20.2130    24.2600    -2.1070 
  143.7500     2.2690    79.1960    17.6020    17.9460    18.1580    24.3970    -2.0960 
  143.8750     2.2700    77.5350    16.4930    16.9090    16.6720    24.4690    -2.0360 
  144.0000     2.2740    76.6600    15.4150    15.7700    16.5690    24.4830    -1.9700 
  144.1250     2.2810    78.1290    14.7750    14.9050    15.9220    24.4350    -1.9600 
  144.2500     2.2890    82.1560    14.8290    14.5720    14.5380    24.3170    -1.9730 
  144.3750     2.2970    83.2090    15.7950    14.9640    13.6330    24.1600    -1.9620 
  144.5000     2.3100    80.5460    17.8230    16.2430    14.4120    24.0140    -1.8850 
  144.6250     2.3370    79.1750    21.1830    18.7500    18.5650    23.9270    -1.7610 
  144.7500     2.3690    79.1400    25.6250    22.4010    25.9600    23.8510    -1.6750 
  144.8750     2.3920    76.7350    30.9140    27.1100    33.7990    23.7830    -1.6430 
  145.0000     2.3920    71.8520    36.6370    32.5580    43.5140    23.6970    -1.6270 
  145.1250     2.3590    70.5660    42.1390    38.1550    50.6460    23.7030    -1.5510 
  145.2500     2.3130    70.1860    46.8800    43.2370    53.2090    23.7580    -1.4260 
  145.3750     2.2710    68.0150    50.5850    47.4270    54.1760    23.8320    -1.3360 
  145.5000     2.2430    68.1080    53.2430    50.6210    55.4380    23.8870    -1.3360 
  145.6250     2.2280    72.4370    54.9360    52.8570    56.5470    23.9480    -1.3910 
  145.7500     2.2160    76.0720    55.9620    54.5010    56.9960    23.9860    -1.4200 
  145.8750     2.2030    76.2230    56.0590    55.4330    57.1640    23.9940    -1.3950 
  146.0000     2.1920    74.7590    54.4570    54.9680    57.6930    23.9890    -1.3550 
  146.1250     2.1880    73.8080    49.7540    51.5450    58.3400    23.9830    -1.3500 
  146.2500     2.1960    71.1210    42.4100    45.1800    56.7910    23.9750    -1.3450 
  146.3750     2.2110    69.1440    33.7040    36.8540    48.7700    23.9580    -1.2720 
  146.5000     2.2300    72.2740    25.4520    28.3700    32.2400    23.9320    -1.0830 
  146.6250     2.2480    80.4120    19.4880    21.7660    18.4480    23.9050    -0.7890 
  146.7500     2.2620    88.9260    15.9150    17.4470    11.8220    23.8200    -0.4980 
  146.8750     2.2730    94.5760    14.4590    15.2320    10.7310    23.6780    -0.2600 
  147.0000     2.2770    94.9680    14.6940    14.7520    10.5550    23.5700    -0.0740 
  147.1250     2.2720    90.1860    16.3510    15.8920    13.2430    23.6210     0.0830 
  147.2500     2.2590    85.5280    18.7220    18.0880    19.5920    23.8640     0.2070 
  147.3750     2.2420    83.1620    21.2700    20.8820    25.4180    24.1570     0.2930 
  147.5000     2.2270    82.3300    23.4210    23.6220    27.9080    24.3180     0.2880 
  147.6250     2.2190    84.1750    24.5570    25.4450    28.2150    24.2820     0.1520 
  147.7500     2.2170    85.9430    24.7380    26.1250    27.4400    24.1830    -0.0130 
  147.8750     2.2170    83.8210    24.2260    25.8080    26.0350    24.1280    -0.1630 
  148.0000     2.2180    79.3370    23.4100    24.9050    24.8760    24.1060    -0.2550 
  148.1250     2.2200    78.6710    22.6470    23.8580    24.4840    24.1010    -0.3550 
  148.2500     2.2250    80.1960    22.0880    22.9530    24.0320    24.1020    -0.5200 
  148.3750     2.2320    81.5210    21.7590    22.2680    23.5540    24.0950    -0.7290 
  148.5000     2.2400    82.9230    21.6660    21.8300    23.3060    24.0750    -0.9090 
  148.6250     2.2470    83.3600    21.8950    21.7410    23.2820    24.0610    -1.0170 
  148.7500     2.2530    81.9960    22.4890    22.0420    23.2220    24.0280    -1.0990 
  148.8750     2.2540    79.5630    23.5350    22.8300    23.5460    23.9870    -1.1920 
  149.0000     2.2490    76.9910    25.0690    24.1650    25.4130    24.0280    -1.3420 
  149.1250     2.2360    74.0580    26.9880    26.0490    30.3580    24.2440    -1.4880 
  149.2500     2.2190    73.0120    28.7340    28.0130    35.4130    24.3810    -1.5460 
  149.3750     2.2060    74.6060    29.5750    29.3470    36.7720    24.4050    -1.5460 
  149.5000     2.2080    76.7740    28.8010    29.2180    36.4750    24.3810    -1.5100 
  149.6250     2.2350    78.8440    25.9420    26.9000    35.9480    24.3610    -1.4810 
  149.7500     2.2810    78.7210    22.0370    23.2750    33.7080    24.3210    -1.4710 
  149.8750     2.3300    77.1230    18.1880    19.4170    27.0110    24.2600    -1.4570 
  150.0000     2.3640    77.4680    15.3130    16.2810    18.4150    24.1840    -1.3740 
  150.1250     2.3670    81.9070    14.0440    14.5670    12.8500    24.1270    -1.2300 
  150.2500     2.3470    87.3330    14.6780    14.0610    13.4400    24.0510    -1.0960 
  150.3750     2.3150    90.7410    16.1590    14.5190    17.4680    23.9620    -0.9810 
  150.5000     2.2870    90.3460    17.3010    15.5710    21.1860    23.9800    -0.9220 
  150.6250     2.2710    86.3830    18.1550    16.6910    22.0330    24.0680    -0.9230 
  150.7500     2.2650    82.6520    18.4060    17.3860    20.7800    24.1440    -0.9020 
  150.8750     2.2660    82.1420    18.0520    17.4780    19.0810    24.1860    -0.7940 
  151.0000     2.2670    84.3000    17.3080    17.0630    17.8070    24.2300    -0.6560 
  151.1250     2.2670    85.7700    16.4410    16.3590    17.2880    24.2250    -0.5530 
