~V
VERS. 2.00: Ver 2.00
~W
STRT.M 50.0000:
STOP.M 236.0000:
STEP.M 0.1250:
NULL. -999.2500:
UWI. F10144:
~C
DEPT.M :
DEN.GM/CC :
GR.API :
RML.OHMM :
RI. :
RXO.OHMM :
CALI.CM :
SP.MV :
~A
# ...
  128.7500     2.4610    52.3960    17.4480    14.7070    14.4600    24.8230   -23.2800 
  128.8750     2.4520    54.6390    17.2450    14.5750    16.0900    24.8230   -23.2270 
  129.0000     2.4540    52.8640    16.7470    14.2450    17.7710    24.8210   -23.0830 
  129.1250     2.4710    50.3040    16.0610    13.7690    16.7830    24.8210   -22.8170 
  129.2500     2.4920    49.1200    15.4550    13.3110    15.4990    24.8210   -22.4680 
  129.3750     2.5020    49.5060    15.1160    12.9930    15.7670    24.8200   -22.0810 
  129.5000     2.4970    49.3170    15.1400    12.8920    14.9170    24.8160   -21.7130 
  129.6250     2.4820    47.9920    15.5380    13.0390    15.1460    24.8130   -21.4220 
  129.7500     2.4680    46.8380    16.0580    13.2980    15.5170    24.8130   -21.2130 
  129.8750     2.4650    46.0520    16.4580    13.5210    15.2410    24.8150   -21.0750 
  130.0000     2.4700    44.7360    16.5360    13.5670    15.2270    24.8140   -20.9950 
  130.1250     2.4770    41.9620    16.1630    13.3320    15.1230    24.8120   -20.9570 
  130.2500     2.4770    40.4760    15.5440    12.9200    13.7710    24.8120   -20.9220 
  130.3750     2.4720    42.4020    14.9090    12.4660    12.6000    24.8140   -20.8830 
  130.5000     2.4660    45.6350    14.4690    12.1050    11.8310    24.8140   -20.8340 
  130.6250     2.4620    46.4640    14.4050    11.9540    11.8600    24.8120   -20.8000 
  130.7500     2.4680    45.5640    14.6480    11.9920    12.2600    24.8100   -20.7970 
  130.8750     2.4810    44.8680    15.0660    12.1540    13.3380    24.8050   -20.8380 
  131.0000     2.4970    44.5500    15.4430    12.3130    14.0630    24.8020   -20.9210 
  131.1250     2.5090    45.1610    15.4720    12.2850    14.1970    24.8050   -21.0420 
  131.2500     2.5080    46.7250    15.0770    12.0060    14.3010    24.8060   -21.1850 
  131.3750     2.4980    49.3030    14.3200    11.4970    14.3320    24.8020   -21.3240 
  131.5000     2.4840    53.4160    13.3890    10.8620    14.2010    24.8020   -21.4450 
  131.6250     2.4730    59.2490    12.5540    10.2550    11.6880    24.8100   -21.5220 
  131.7500     2.4710    64.0800    11.9840     9.7870    10.3730    24.8160   -21.5440 
  131.8750     2.4750    64.3490    11.7320     9.5100     9.8460    24.8160   -21.5160 
  132.0000     2.4790    59.9570    11.7700     9.4240     9.8280    24.8140   -21.4450 
  132.1250     2.4810    53.7740    12.0470     9.5200    10.1900    24.8190   -21.3490 
  132.2500     2.4800    49.8650    12.4470     9.7280    10.7050    24.8280   -21.2550 
  132.3750     2.4770    49.0060    12.9330    10.0180    10.9960    24.8310   -21.1680 
  132.5000     2.4760    48.8820    13.4810    10.3610    11.1010    24.8260   -21.0920 
  132.6250     2.4790    47.1550    13.9820    10.6820    11.5020    24.8200   -21.0340 
  132.7500     2.4960    45.1460    14.2190    10.8470    12.1550    24.8340   -20.9930 
  132.8750     2.5240    45.1940    13.9560    10.7120    12.7030    24.8750   -20.9690 
  133.0000     2.5510    48.8100    13.0780    10.1880    12.6230    24.9090   -20.9570 
  133.1250     2.5580    55.3650    11.6720     9.2890    10.6010    24.9260   -20.9810 
  133.2500     2.5200    62.4490    10.1930     8.2750     7.8830    25.0040   -21.0480 
  133.3750     2.4460    70.1510     8.9590     7.3420     6.4680    25.2010   -21.1680 
  133.5000     2.3560    78.4850     8.1260     6.6160     6.3950    25.4300   -21.3660 
  133.6250     2.2710    84.8210     7.7110     6.1670     6.0750    25.4060   -21.6650 
  133.7500     2.2150    86.2140     7.4950     5.9010     5.6710    25.1320   -22.0390 
  133.8750     2.1910    82.6140     7.3390     5.7410     5.4980    24.8150   -22.4560 
  134.0000     2.1890    77.6210     7.1710     5.6320     5.4490    24.6710   -22.8750 
  134.1250     2.1950    74.6310     7.0380     5.5690     5.2650    24.8030   -23.2270 
  134.2500     2.1950    74.8490     7.0640     5.5930     5.1820    25.0310   -23.4640 
  134.3750     2.1920    77.0630     7.3490     5.7560     5.4230    25.1840   -23.5570 
  134.5000     2.1990    78.5070     7.8930     6.0720     6.2150    25.1690   -23.4990 
  134.6250     2.2310    77.3850     8.5420     6.4710     7.3330    25.0680   -23.2980 
  134.7500     2.2920    76.5580     8.9820     6.7670     8.7910    25.0260   -23.0270 
  134.8750     2.3570    77.8050     8.9610     6.8010     9.6820    25.0280   -22.7320 
  135.0000     2.3930    79.5000     8.4140     6.5090     8.7930    25.0300   -22.4390 
  135.1250     2.3880    79.9360     7.5310     5.9540     6.4110    25.0320   -22.1510 
  135.2500     2.3530    79.3080     6.7070     5.3700     4.9030    25.0310   -21.8610 
  135.3750     2.3180    79.1080     6.1260     4.8910     4.4980    25.0130   -21.5600 
  135.5000     2.2980    79.6760     5.8300     4.5770     4.6220    24.9800   -21.2380 
  135.6250     2.2900    81.3250     5.7850     4.4530     4.4730    24.9540   -20.9050 
  135.7500     2.2870    82.2040     5.8470     4.4420     4.3770    24.9460   -20.6010 
  135.8750     2.2830    80.8240     5.9340     4.4880     4.3400    24.9470   -20.3660 
  136.0000     2.2810    79.2700     6.0020     4.5460     4.3390    24.9460   -20.2330 
  136.1250     2.2840    80.2040     6.0360     4.5880     4.3630    24.9480   -20.2340 
  136.2500     2.2930    82.8530     6.0430     4.6070     4.3280    24.9810   -20.3280 
  136.3750     2.3020    84.7790     6.0230     4.6000     4.2650    25.0500   -20.4730 
  136.5000     2.3080    84.7560     5.9670     4.5620     4.2600    25.1220   -20.6350 
  136.6250     2.3070    85.6420     5.8600     4.4850     4.3370    25.1810   -20.7620 
  136.7500     2.3060    88.9350     5.7240     4.3840     4.2900    25.2400   -20.8350 
  136.8750     2.3040    92.7690     5.6010     4.2830     4.1470    25.2950   -20.8520 
  137.0000     2.2920    92.5780     5.5450     4.2150     3.9980    25.3210   -20.8450 
  137.1250     2.2640    85.8810     5.6310     4.2280     4.0080    25.3290   -20.8690 
  137.2500     2.2230    79.9130     5.8670     4.3320     4.1950    25.2600   -20.9710 
  137.3750     2.1850    79.3340     6.2380     4.5230     4.5760    25.0570   -21.1660 
  137.5000     2.1680    81.6690     6.6920     4.7740     5.1530    24.8070   -21.4510 
  137.6250     2.1780    82.2190     7.1320     5.0410     5.6040    24.6630   -21.8130 
  137.7500     2.2100    80.6350     7.4690     5.2720     5.7160    24.5960   -22.1900 
  137.8750     2.2400    77.8670     7.6710     5.4440     5.7450    24.5330   -22.5400 
  138.0000     2.2560    73.4450     7.7700     5.5620     5.8620    24.5180   -22.8200 
  138.1250     2.2580    70.3980     7.8560     5.6650     5.9550    24.6260   -22.9770 
  138.2500     2.2510    70.9360     8.0120     5.7970     6.1860    24.7410   -23.0220 
  138.3750     2.2430    74.6530     8.2590     5.9730     6.6740    24.7830   -22.9700 
  138.5000     2.2410    78.4140     8.5560     6.1780     7.4060    24.7540   -22.8340 
  138.6250     2.2440    80.0180     8.7820     6.3540     7.8620    24.7190   -22.6250 
  138.7500     2.2490    80.1260     8.8190     6.4380     7.7740    24.7080   -22.3600 
  138.8750     2.2510    80.1410     8.6130     6.3900     7.2180    24.7090   -22.0560 
  139.0000     2.2510    82.1690     8.1980     6.2150     6.8170    24.7150   -21.7190 
  139.1250     2.2510    84.9600     7.6750     5.9480     6.3150    24.7210   -21.3540 
  139.2500     2.2590    85.5370     7.1710     5.6640     5.6810    24.7280   -20.9770 
  139.3750     2.2710    83.9130     6.7380     5.4020     5.1880    24.7290   -20.5910 
  139.5000     2.2750    82.1430     6.3840     5.1760     5.1000    24.7180   -20.2000 
  139.6250     2.2690    81.6530     6.1140     4.9980     4.9440    24.7010   -19.8280 
  139.7500     2.2540    81.5600     5.9170     4.8600     4.4270    24.6870   -19.5010 
  139.8750     2.2400    83.3280     5.7990     4.7670     4.1020    24.6740   -19.2460 
