~V
VERS. 2.00: Ver 2.00
~W
STRT.M 50.0000:
STOP.M 232.0000:
STEP.M 0.1250:
NULL. -999.2500:
UWI. F10160:
~C
DEPT.M :
SP.MV :
DEN.GM/CC :
GR.API :
RML.OHMM :
RI. :
RXO.OHMM :
CALI.CM :
~A
# ...
  162.5000   -23.0380     2.1860    49.3380    98.7910    85.7310    64.5620    28.6320 
  162.6250   -22.9980     2.1910    51.3850   106.0340    92.0300    70.3510    28.4580 
  162.7500   -22.9020     2.1920    54.5220   111.8280    97.0680    76.9840    28.3760 
  162.8750   -22.7500     2.1880    56.5750   115.7660   100.4920    83.4550    28.3700 
  163.0000   -22.5260     2.1830    56.5950   117.5850   102.0740    88.6270    28.3830 
  163.1250   -22.2490     2.1850    53.9780   117.1870   101.7280    91.4550    28.3770 
  163.2500   -21.9620     2.1970    51.4960   115.6320   100.3760    92.4260    28.3500 
  163.3750   -21.6870     2.2140    51.9610   113.5590    98.5730    92.1650    28.3180 
  163.5000   -21.4170     2.2330    55.1260   111.1420    96.4710    91.2040    28.2970 
  163.6250   -21.1450     2.2480    57.4620   107.8350    93.5960    89.7360    28.2840 
  163.7500   -20.8590     2.2500    57.0790   103.3260    89.6750    87.9750    28.2570 
  163.8750   -20.5740     2.2370    54.8950    97.8970    84.9540    86.0280    28.2210 
  164.0000   -20.3140     2.2200    52.0530    92.5250    80.2830    84.0100    28.1990 
  164.1250   -20.0770     2.2110    49.6040    88.8540    77.0900    82.1030    28.1590 
  164.2500   -19.8580     2.2090    48.8490    87.6930    76.0810    80.5040    27.9170 
  164.3750   -19.6700     2.2040    50.2470    89.3130    77.4900    79.4070    27.4490 
  164.5000   -19.5380     2.1890    52.4650    93.2810    80.9400    78.9370    27.0590 
  164.6250   -19.4780     2.1620    52.3290    98.5050    85.4820    79.2900    27.1940 
  164.7500   -19.4560     2.1380    51.6680   103.2110    89.5750    80.3380    27.6420 
  164.8750   -19.4540     2.1240    52.4000   106.4450    92.3870    81.9390    28.0000 
  165.0000   -19.4530     2.1240    53.7120   108.2570    93.9620    83.8580    28.0800 
  165.1250   -19.4600     2.1370    53.4150   109.7540    95.2640    85.8040    27.8900 
  165.2500   -19.4630     2.1460    52.9670   112.1860    97.3790    87.5670    27.5450 
  165.3750   -19.4590     2.1470    54.0520   115.8910   100.6010    89.0690    27.1550 
  165.5000   -19.4360     2.1500    56.1120   120.4900   104.6000    90.3230    26.8750 
  165.6250   -19.3890     2.1530    57.6780   124.9730   108.4980    91.3850    26.8010 
  165.7500   -19.3330     2.1550    57.5820   128.2230   111.3240    92.3860    26.8690 
  165.8750   -19.2830     2.1550    56.0980   129.4890   112.4250    93.3970    27.0190 
  166.0000   -19.2400     2.1550    54.4470   128.4460   111.5190    94.4110    27.1800 
  166.1250   -19.1950     2.1520    55.2920   125.0500   108.5650    95.1600    27.3100 
  166.2500   -19.1700     2.1490    56.7230   120.3910   104.5140    95.2660    27.4250 
  166.3750   -19.1840     2.1410    55.9290   115.1100    99.9220    94.4120    27.5060 
  166.5000   -19.2350     2.1380    53.8210   109.5810    95.1140    92.4950    27.5120 
  166.6250   -19.3040     2.1370    54.4420   104.0950    90.3440    89.4860    27.4560 
  166.7500   -19.3530     2.1360    56.7650    98.9720    85.8890    85.3270    27.3850 
  166.8750   -19.3590     2.1380    57.0960    94.0770    81.6320    79.2460    27.2960 
  167.0000   -19.3220     2.1420    54.5660    88.1760    76.5010    70.6230    27.2090 
  167.1250   -19.2550     2.1540    53.3480    78.3010    67.9140    59.3600    27.1670 
  167.2500   -19.1760     2.1720    55.7050    64.2200    55.6690    47.1770    27.1260 
  167.3750   -19.1080     2.1920    60.5450    48.4280    41.9370    35.7190    27.0420 
  167.5000   -19.0940     2.2170    66.0350    34.5040    29.8290    26.3200    26.9230 
  167.6250   -19.1650     2.2830    71.3650    25.1240    21.6730    19.9730    26.7990 
  167.7500   -19.2700     2.3010    77.6850    19.3600    16.6610    15.9250    26.6210 
  167.8750   -19.3780     2.3150    84.9570    16.2150    13.9260    13.6500    26.3330 
  168.0000   -19.4530     2.3220    88.8620    14.8260    12.7180    12.6410    25.9800 
  168.1250   -19.4660     2.3230    86.3190    14.7610    12.6620    12.3570    25.7170 
  168.2500   -19.4410     2.3220    81.9350    15.4260    13.2400    12.3170    25.5980 
  168.3750   -19.3910     2.3240    77.3980    16.5170    14.1890    12.4830    25.5730 
  168.5000   -19.3440     2.3270    72.6000    17.7600    15.2690    12.8330    25.5810 
  168.6250   -19.3470     2.3280    69.2330    18.8980    16.2590    13.2930    25.6290 
  168.7500   -19.4110     2.3230    69.0790    19.8030    17.0460    13.7480    25.6970 
  168.8750   -19.5190     2.3160    70.0470    20.4600    17.6170    14.2000    25.7370 
  169.0000   -19.6350     2.3090    69.6210    21.0210    18.1050    14.7980    25.7390 
  169.1250   -19.7160     2.3060    69.0630    21.9220    18.8890    16.2970    25.7600 
  169.2500   -19.7410     2.3050    69.1520    23.6430    20.3860    18.4130    25.7830 
  169.3750   -19.7100     2.3010    70.4940    26.6940    23.0380    20.2200    25.6540 
  169.5000   -19.6280     2.2920    73.4890    31.5070    27.2230    25.7960    25.2830 
  169.6250   -19.5220     2.2810    73.5740    38.4500    33.2610    33.8390    24.8400 
  169.7500   -19.4410     2.2760    69.1980    46.3690    40.1470    41.3480    24.5730 
  169.8750   -19.4010     2.2790    66.0900    53.5870    46.4230    48.8090    24.5030 
  170.0000   -19.4050     2.2930    68.8730    58.2460    50.4740    53.6480    24.5330 
  170.1250   -19.4400     2.3030    72.3740    58.8170    50.9710    54.9090    24.5890 
  170.2500   -19.4670     2.2950    71.0170    56.4970    48.9540    51.7270    24.6460 
  170.3750   -19.4690     2.2670    67.5390    52.4880    45.4680    47.0520    24.6430 
  170.5000   -19.4430     2.2290    66.3030    47.9510    41.5220    44.3860    24.5410 
  170.6250   -19.3850     2.1980    67.3420    43.9770    38.0670    41.1690    24.4550 
  170.7500   -19.3070     2.1860    68.8550    41.2200    35.6700    37.7300    24.5210 
  170.8750   -19.2460     2.2000    68.8650    40.1540    34.7430    33.7590    24.7470 
  171.0000   -19.2220     2.2320    65.4860    41.1190    35.5820    33.5280    25.0340 
  171.1250   -19.2630     2.2610    61.8760    44.6430    38.6460    38.6400    25.3320 
  171.2500   -19.3550     2.2700    60.9330    50.2280    43.5020    45.3510    25.7360 
  171.3750   -19.4820     2.2540    61.1170    57.4030    49.7410    56.5630    26.2330 
  171.5000   -19.6250     2.2190    59.8440    65.2840    56.5950    77.0810    26.6440 
  171.6250   -19.7750     2.1850    57.7580    72.4340    62.8120    78.8950    26.7340 
  171.7500   -19.9310     2.1740    57.3620    77.9190    67.5820    82.5340    26.4900 
  171.8750   -20.0680     2.1930    58.6980    81.4890    70.6860    82.6570    25.8840 
  172.0000   -20.1770     2.2280    59.5230    83.3650    72.3170    80.8100    24.9820 
  172.1250   -20.2540     2.2500    58.3800    83.7110    72.6180    78.3880    24.1840 
  172.2500   -20.3190     2.2460    58.6720    82.8020    71.8280    75.8640    23.8020 
  172.3750   -20.3770     2.2200    61.5800    80.2790    69.6340    73.2590    23.7240 
  172.5000   -20.4270     2.1900    64.6160    75.8820    65.8100    70.5460    23.6780 
  172.6250   -20.4470     2.1810    63.6600    69.9590    60.6600    67.8130    23.5330 
  172.7500   -20.4410     2.2000    61.2210    64.0120    55.4890    65.1910    23.3200 
  172.8750   -20.4220     2.2370    61.0230    59.1390    51.2510    62.6540    23.0930 
  173.0000   -20.3970     2.2750    63.5510    56.0120    48.5320    60.1060    22.9310 
  173.1250   -20.3660     2.2950    65.3200    55.1530    47.7850    57.5770    22.9240 
  173.2500   -20.3230     2.2980    64.9110    55.9930    48.5150    55.2990    23.0690 
  173.3750   -20.2810     2.2950    65.7430    58.0670    50.3190    53.5850    23.3300 
  173.5000   -20.2470     2.2980    67.7720    60.8260    52.7180    52.7160    23.6540 
  173.6250   -20.2330     2.3160    67.6390    63.7140    55.2300    53.0210    23.9610 
