~V
VERS. 2.00: Ver 2.00
~W
STRT.M 62.0000:
STOP.M 275.0000:
STEP.M 0.1250:
NULL. -999.2500:
UWI. F10141:
~C
DEPT.M :
GR.API :
RML.OHMM :
RI. :
RXO.OHMM :
CALI.CM :
DEN.GM/CC :
SP.MV :
~A
# ...
  107.0000    65.0930    10.5960     9.6500     8.7970    24.3300     2.1900   -17.2190 
  107.1250    61.6960    10.3950     9.4540     9.3280    24.4460     2.1760   -17.2130 
  107.2500    60.1300    10.3820     9.3830     9.6950    24.4280     2.1650   -17.2190 
  107.3750    61.1520    10.5520     9.4580     9.8760    24.3860     2.1640   -17.2080 
  107.5000    62.3160    10.8210     9.6420    10.2530    24.3700     2.1730   -17.1830 
  107.6250    63.3080    11.0540     9.8490    10.8240    24.3520     2.1800   -17.1610 
  107.7500    64.3370    11.1880     9.9990    11.0450    24.3400     2.1810   -17.1520 
  107.8750    64.7040    11.2440    10.0840    10.8900    24.2710     2.1740   -17.1330 
  108.0000    63.8890    11.2660    10.1210    10.6630    24.1200     2.1640   -17.0570 
  108.1250    62.4700    11.2690    10.1220    10.6500    23.9960     2.1610   -16.8870 
  108.2500    60.5030    11.2520    10.1000    10.9240    23.9160     2.1700   -16.7100 
  108.3750    57.8940    11.2120    10.0630    11.3230    23.9380     2.1870   -16.5530 
  108.5000    57.3580    11.1700    10.0270    11.3700    24.0330     2.2030   -16.4040 
  108.6250    58.8170    11.1960    10.0370    10.9410    24.1410     2.2080   -16.2390 
  108.7500    60.4280    11.3260    10.1210    10.6890    24.1950     2.2030   -16.0950 
  108.8750    62.1400    11.5360    10.2690    10.9230    24.2530     2.1950   -15.9830 
  109.0000    63.1060    11.7420    10.4310    11.8880    24.3750     2.1940   -15.9060 
  109.1250    63.2350    11.8250    10.5240    13.0880    24.5070     2.2060   -15.8500 
  109.2500    64.0740    11.7720    10.5260    13.1630    24.5920     2.2240   -15.7830 
  109.3750    65.9090    11.6590    10.4710    12.3220    24.5810     2.2370   -15.7270 
  109.5000    67.2730    11.6090    10.4350    11.6800    24.4630     2.2390   -15.7020 
  109.6250    67.3450    11.7220    10.4930    12.1110    24.3480     2.2280   -15.7520 
  109.7500    68.1280    11.9000    10.6000    12.8580    24.4120     2.2070   -15.8250 
  109.8750    69.3880    11.9810    10.6600    13.4490    24.5730     2.1750   -15.9200 
  110.0000    69.8710    11.8470    10.5850    13.5550    24.6540     2.1290   -16.0180 
  110.1250    68.6320    11.5110    10.3690    13.0410    24.6490     2.0860   -16.1310 
  110.2500    65.3690    11.1930    10.1480    11.9740    24.6900     2.0800   -16.2780 
  110.3750    61.4530    11.0690    10.0410    10.5900    24.7810     2.1350   -16.4520 
  110.5000    59.9100    11.2150    10.1140     9.8920    24.7370     2.2430   -16.6500 
  110.6250    61.1030    11.5690    10.3500     9.8200    24.4740     2.3580   -16.8130 
  110.7500    63.5980    11.8880    10.5900    10.1680    24.2150     2.4210   -16.9170 
  110.8750    65.7830    11.9960    10.6950    10.4460    24.1360     2.4150   -16.9990 
  111.0000    67.0940    11.8270    10.5910    10.5100    24.1790     2.3600   -17.0850 
  111.1250    67.0950    11.4270    10.2830    10.3510    24.1460     2.2960   -17.1480 
  111.2500    66.3990    10.9850     9.9090     9.9510    24.1240     2.2530   -17.1730 
  111.3750    66.3370    10.6200     9.5690     9.5510    24.1170     2.2300   -17.1550 
  111.5000    66.9290    10.3910     9.3280     9.8850    24.0990     2.2160   -17.0920 
  111.6250    67.0860    10.3370     9.2340     9.9720    24.0750     2.2020   -17.0410 
  111.7500    67.3350    10.4310     9.2760     9.9450    24.0210     2.1890   -17.0470 
  111.8750    68.0460    10.6590     9.4410     9.9650    23.9800     2.1800   -17.0830 
  112.0000    68.4420    10.9700     9.6940    10.1760    23.9830     2.1760   -17.1340 
  112.1250    66.1810    11.2550     9.9540    10.3550    24.0660     2.1760   -17.2200 
  112.2500    62.1140    11.4170    10.1380    10.4390    24.2200     2.1750   -17.3450 
  112.3750    59.6310    11.4270    10.2060    10.4720    24.4050     2.1710   -17.5010 
  112.5000    61.0120    11.3230    10.1760    10.5610    24.5230     2.1640   -17.6470 
  112.6250    65.1460    11.1970    10.1000    10.6520    24.5460     2.1590   -17.7340 
  112.7500    68.6870    11.1340    10.0450    10.8370    24.5510     2.1600   -17.8220 
  112.8750    69.8160    11.1570    10.0350    11.1950    24.5480     2.1670   -17.8990 
  113.0000    69.0190    11.2280    10.0560    11.4540    24.5510     2.1810   -17.9410 
  113.1250    67.2040    11.2620    10.0570    11.3770    24.5600     2.1960   -17.9190 
  113.2500    64.5210    11.2050    10.0010    11.0070    24.5460     2.2080   -17.8680 
  113.3750    63.0550    11.0660     9.8930    10.7590    24.4590     2.2170   -17.8060 
  113.5000    63.7890    10.9260     9.7840    10.6390    24.2710     2.2240   -17.7590 
  113.6250    64.2090    10.9430     9.7870    10.5840    24.0810     2.2310   -17.6980 
  113.7500    62.6730    11.1860     9.9560    10.4390    24.0470     2.2350   -17.5940 
  113.8750    62.0090    11.6330    10.2920    10.4220    24.1500     2.2300   -17.4800 
  114.0000    64.1020    12.1760    10.7280    10.8860    24.3400     2.2140   -17.3800 
  114.1250    64.0830    12.6090    11.1230    11.7890    24.5500     2.1880   -17.3330 
  114.2500    59.8670    12.7860    11.3440    12.0860    24.5740     2.1650   -17.3100 
  114.3750    55.8850    12.6820    11.3430    11.3570    24.4820     2.1540   -17.2920 
  114.5000    56.2430    12.3830    11.1570    10.7540    24.3600     2.1580   -17.2680 
  114.6250    60.1970    12.0300    10.8770    10.6760    24.3100     2.1690   -17.2520 
  114.7500    62.6360    11.7330    10.6060    10.5590    24.3380     2.1760   -17.2360 
  114.8750    61.1030    11.5150    10.3860    10.6360    24.4140     2.1730   -17.2040 
  115.0000    58.1040    11.3500    10.2170    10.6130    24.4760     2.1620   -17.1550 
  115.1250    57.8620    11.2200    10.0970    10.4760    24.4500     2.1520   -17.0500 
  115.2500    59.6560    11.1350    10.0250    10.3610    24.3440     2.1500   -16.8920 
  115.3750    62.0370    11.1300    10.0210    10.4000    24.2430     2.1560   -16.6920 
  115.5000    64.7850    11.2280    10.1000    10.5650    24.2020     2.1670   -16.4960 
  115.6250    67.7040    11.4300    10.2620    10.8630    24.2170     2.1770   -16.3430 
  115.7500    69.3030    11.6480    10.4450    10.9870    24.2940     2.1810   -16.2180 
  115.8750    71.6060    11.7920    10.5790    10.7340    24.4560     2.1810   -16.1150 
  116.0000    74.4610    11.7840    10.5980    10.4380    24.6140     2.1760   -16.0600 
  116.1250    72.0280    11.5610    10.4460    10.5230    24.6210     2.1670   -16.1060 
  116.2500    66.8000    11.1970    10.1700    10.3150    24.5750     2.1570   -16.2040 
  116.3750    63.6230    10.7790     9.8330     9.7630    24.5830     2.1480   -16.3240 
  116.5000    64.5130    10.4090     9.5140     9.4490    24.5600     2.1420   -16.4250 
  116.6250    65.0740    10.2080     9.3100     9.4940    24.4250     2.1430   -16.5040 
  116.7500    64.0040    10.2160     9.2600     9.6070    24.3030     2.1470   -16.5690 
  116.8750    64.3970    10.4540     9.3860     9.8480    24.2910     2.1550   -16.5870 
  117.0000    66.9630    10.8960     9.6790    10.3650    24.3470     2.1650   -16.5450 
  117.1250    70.2680    11.4710    10.1080    11.5600    24.4340     2.1710   -16.4250 
  117.2500    72.5920    12.0190    10.5580    13.2280    24.5010     2.1700   -16.3030 
  117.3750    73.0710    12.4120    10.9300    14.4310    24.5310     2.1610   -16.2430 
  117.5000    71.7090    12.5670    11.1430    13.9820    24.5540     2.1490   -16.2640 
  117.6250    69.4680    12.4600    11.1390    13.1890    24.6270     2.1370   -16.3240 
  117.7500    68.1930    12.2300    11.0010    12.5350    24.6800     2.1290   -16.3970 
  117.8750    67.8520    11.9830    10.8080    12.2900    24.7270     2.1220   -16.5240 
  118.0000    67.4860    11.7880    10.6220    12.0870    24.7940     2.1180   -16.6640 
  118.1250    68.0500    11.6720    10.4800    11.6710    24.8900     2.1160   -16.8130 
