~V
VERS. 2.00: Ver 2.00
~W
STRT.M 62.0000:
STOP.M 235.0000:
STEP.M 0.1250:
NULL. -999.2500:
UWI. F10157:
~C
DEPT.M :
SP.MV :
DEN.GM/CC :
GR.API :
RML.OHMM :
RI. :
RXO.OHMM :
CALI.CM :
~A
# ...
  152.0000    -5.5370     2.5010    54.0160    20.2520    16.6730    13.7960    25.3400 
  152.1250    -5.6010     2.5010    54.8950    19.8350    16.4000    12.7940    25.3810 
  152.2500    -5.6130     2.4990    56.3440    19.6490    16.2510    12.6190    25.4390 
  152.3750    -5.6130     2.4950    56.2870    19.7430    16.3020    13.1130    25.4400 
  152.5000    -5.5960     2.4880    55.2750    19.9980    16.5000    14.1550    25.4400 
  152.6250    -5.5990     2.4790    55.6690    20.1760    16.7050    15.5320    25.4390 
  152.7500    -5.6020     2.4690    57.0310    20.1190    16.7850    14.8960    25.4390 
  152.8750    -5.6250     2.4580    57.3270    19.8150    16.7090    12.7430    25.3270 
  153.0000    -5.6510     2.4470    56.2550    19.3730    16.5360    10.8470    25.2700 
  153.1250    -5.6900     2.4400    56.2700    18.9790    16.3980    10.1470    25.2400 
  153.2500    -5.7130     2.4400    57.3400    18.7230    16.3760    10.3950    25.2140 
  153.3750    -5.7450     2.4460    57.8600    18.5620    16.4500     9.9280    25.1870 
  153.5000    -5.7970     2.4550    57.9760    18.3790    16.5180     9.1800    25.1610 
  153.6250    -5.8980     2.4620    58.7080    18.0290    16.4280     9.4250    25.1250 
  153.7500    -6.0300     2.4660    60.3480    17.4980    16.1420    10.2080    25.0840 
  153.8750    -6.1850     2.4660    60.9860    16.8490    15.6960     9.5400    25.0410 
  154.0000    -6.3640     2.4620    59.1490    16.1980    15.1840     7.0660    25.0000 
  154.1250    -6.5740     2.4510    56.7290    15.6680    14.7050     5.5240    24.9670 
  154.2500    -6.8160     2.4340    54.7730    15.2640    14.2830     4.5120    24.9450 
  154.3750    -7.0690     2.4150    53.6000    14.9460    13.8990     3.9250    24.9340 
  154.5000    -7.3380     2.4020    53.0740    14.6800    13.5340     3.8300    24.9330 
  154.6250    -7.6160     2.3950    52.3980    14.5430    13.2540     4.0670    24.9250 
  154.7500    -7.9270     2.3800    50.6790    14.7520    13.2170     4.4010    24.9050 
  154.8750    -8.2520     2.3460    48.3040    15.7030    13.6880     5.0710    24.8740 
  155.0000    -8.6000     2.2920    47.8280    17.9690    15.0480     6.2000    24.8350 
  155.1250    -8.9120     2.2310    51.7900    22.7380    18.1840     8.2420    25.0560 
  155.2500    -9.2000     2.1790    56.7210    30.4740    23.6700    12.0590    25.0980 
  155.3750    -9.4390     2.1430    59.1630    41.5180    32.1440    17.6660    25.1420 
  155.5000    -9.6510     2.1260    58.1850    55.3130    43.5490    22.8090    25.1780 
  155.6250    -9.7940     2.1250    57.7320    69.5170    56.1660    24.2380    25.1970 
  155.7500    -9.9040     2.1340    60.4640    80.7870    66.6580    24.1000    25.2000 
  155.8750    -9.9810     2.1530    61.9850    87.7810    73.4170    26.1950    25.2000 
  156.0000   -10.0400     2.1750    59.3430    91.5870    77.0980    29.5130    25.2000 
  156.1250   -10.0850     2.1910    57.6430    94.5160    79.5880    31.1530    25.2070 
  156.2500   -10.1420     2.1960    59.9140    98.3030    82.6140    29.5860    25.2200 
  156.3750   -10.2080     2.1920    61.8960   103.2760    86.6630    28.9420    25.2370 
  156.5000   -10.2780     2.1810    58.5640   109.1700    91.6760    30.9450    25.2620 
  156.6250   -10.3720     2.1700    55.1420   115.2440    97.1900    35.5260    25.2960 
  156.7500   -10.4820     2.1590    55.9960   120.4390   102.2990    40.0090    25.3290 
  156.8750   -10.5940     2.1510    57.5730   123.9650   106.2830    42.2330    25.3480 
  157.0000   -10.6790     2.1460    56.5220   125.5110   108.7620    44.7600    25.3530 
  157.1250   -10.7500     2.1430    54.6400   125.2270   109.6930    46.9680    25.3510 
  157.2500   -10.7760     2.1420    56.5980   124.1780   109.8570    50.4550    25.3490 
  157.3750   -10.7630     2.1410    60.3920   122.9940   109.7510    57.8300    25.3500 
  157.5000   -10.7020     2.1380    62.4060   122.1070   109.7430    77.6180    25.4400 
  157.6250   -10.6210     2.1360    61.6370   121.7920   110.1180   104.7420    25.4400 
  157.7500   -10.5200     2.1360    59.9620   121.8120   110.7770   120.4790    25.4390 
  157.8750   -10.4210     2.1360    58.7510   121.7700   111.4120   110.2350    25.4390 
  158.0000   -10.3280     2.1350    58.8300   121.2500   111.6190    85.7990    25.4390 
  158.1250   -10.2650     2.1300    58.9940   120.1500   111.1650    77.3050    25.4390 
  158.2500   -10.2020     2.1230    56.8460   119.1930   110.6130    87.2480    25.4390 
  158.3750   -10.1360     2.1120    53.5010   119.3430   110.8360   102.8830    25.4390 
  158.5000   -10.0510     2.1000    52.0690   121.5960   112.8400   104.1600    25.4380 
  158.6250    -9.9180     2.0880    53.7470   127.1060   117.9040    95.2170    25.4380 
  158.7500    -9.7630     2.0780    55.0570   135.0100   125.4720    93.8050    25.4380 
  158.8750    -9.5990     2.0700    54.6040   143.4730   134.0040   112.3920    25.4380 
  159.0000    -9.4690     2.0670    53.2220   149.4250   140.7090   155.9210    25.4380 
  159.1250    -9.3660     2.0730    53.1310   148.3710   141.2480   174.4050    25.4380 
  159.2500    -9.3260     2.0870    53.6430   140.3230   135.0040   163.2590    25.4380 
  159.3750    -9.3120     2.1000    53.5870   127.7400   123.7110   135.9610    25.4380 
  159.5000    -9.3250     2.1010    54.5160   114.6490   110.9970   109.5940    25.4380 
  159.6250    -9.3030     2.0850    57.9120   105.3020   101.1810   101.5910    25.4390 
  159.7500    -9.2610     2.0650    60.0140   101.0190    96.0670    98.5270    25.4390 
  159.8750    -9.1650     2.0510    58.1110   102.4620    96.5240    82.9090    25.4390 
  160.0000    -9.0390     2.0460    53.3090   110.0850   103.2000    74.7500    25.4390 
  160.1250    -8.8910     2.0470    50.4570   120.9810   121.6370   106.7060    25.4390 
  160.2500    -8.7670     2.0460    50.5260   142.0970   141.4390   162.2040    25.4390 
  160.3750    -8.6540     2.0420    52.0170   166.8530   163.7770   220.9800    25.4390 
  160.5000    -8.5570     2.0410    52.3090   189.9400   183.3580   253.5760    25.4380 
  160.6250    -8.4690     2.0470    50.8040   200.9240   190.0750   239.2560    25.4360 
  160.7500    -8.3900     2.0600    48.2200   194.5760   180.1450   241.5890    25.4320 
  160.8750    -8.3290     2.0770    45.7470   171.3430   155.5950   233.9790    25.4270 
  161.0000    -8.2770     2.0970    44.9800   138.1190   123.9140   200.9720    25.4220 
  161.1250    -8.2180     2.1210    48.4400   105.0850    94.3470   152.8340    25.4160 
  161.2500    -8.1590     2.1450    55.4980    78.8230    71.4400    97.2290    25.4100 
  161.3750    -8.1160     2.1620    63.5880    60.7110    55.7670    53.5990    25.4040 
  161.5000    -8.0660     2.1640    68.5030    49.7340    46.2980    31.1240    25.3980 
  161.6250    -8.0150     2.1500    67.2930    44.9410    42.3800    28.3940    25.3930 
  161.7500    -7.9360     2.1300    64.4510    44.1700    42.2600    34.2020    25.3890 
  161.8750    -7.8440     2.1170    63.8470    46.9810    45.5860    45.1800    25.3850 
  162.0000    -7.7360     2.1150    64.7220    53.3370    52.2850    55.2680    25.3810 
  162.1250    -7.6460     2.1250    63.3940    63.9190    62.8450    68.6020    25.3790 
  162.2500    -7.5280     2.1430    61.7620    77.7350    76.1690    98.5880    25.3770 
  162.3750    -7.3940     2.1590    61.7760    93.4630    90.8680   121.5810    25.3750 
  162.5000    -7.2430     2.1560    61.9390   108.8200   104.6680   124.6210    25.3740 
  162.6250    -7.0870     2.1120    60.2420   120.4790   114.3950   124.5680    25.3730 
  162.7500    -6.9370     2.0370    58.0160   127.7400   119.9220   125.6960    25.3720 
  162.8750    -6.7920     1.9580    57.5490   131.8340   122.9520   127.2950    25.3720 
  163.0000    -6.6570     1.9040    59.5990   135.3670   126.1340   127.6990    25.3720 
  163.1250    -6.5400     1.9090    61.5950   140.9350   131.4400   123.4570    25.3690 
