~V
VERS. 2.00: Ver 2.00
~W
STRT.M 55.0000:
STOP.M 215.0000:
STEP.M 0.1250:
NULL. -999.2500:
UWI. F10125:
~C
DEPT.M :
GR.API :
RML.OHMM :
RI. :
RXO.OHMM :
CALI.CM :
DEN.GM/CC :
SP.MV :
~A
# ...
  111.2500    67.2960     9.6730     7.3950    10.6160    24.9520     2.1530   -27.2230 
  111.3750    65.4650     9.6280     7.3740    10.5260    24.9870     2.1560   -27.1030 
  111.5000    65.8160     9.7350     7.4150    10.4950    25.2170     2.1630   -26.9660 
  111.6250    66.9330    10.0480     7.5640    10.8850    25.5770     2.1810   -26.8270 
  111.7500    66.3650    10.4650     7.7960    11.0310    25.8990     2.2170   -26.6970 
  111.8750    65.2390    10.8460     8.0560    10.9050    25.9800     2.2680   -26.5990 
  112.0000    64.8300    11.0410     8.2520    10.5050    25.8670     2.3090   -26.5320 
  112.1250    63.6750    10.9050     8.2650    10.3500    25.7710     2.2960   -26.5040 
  112.2500    61.7610    10.5290     8.1010    10.1250    25.6710     2.2420   -26.4950 
  112.3750    62.3000    10.0490     7.8230    10.1010    25.6420     2.1870   -26.5400 
  112.5000    66.2080     9.6130     7.5200    10.0910    25.6590     2.1560   -26.6160 
  112.6250    68.6720     9.3430     7.2870    10.0480    25.6110     2.1530   -26.7030 
  112.7500    68.7600     9.2280     7.1550    10.0090    25.5210     2.1620   -26.7800 
  112.8750    67.5670     9.2310     7.1170     9.9110    25.4390     2.1750   -26.8390 
  113.0000    65.3700     9.3030     7.1440     9.6550    25.3050     2.1880   -26.8830 
  113.1250    63.7220     9.4120     7.2060     9.4570    25.0960     2.1930   -26.9150 
  113.2500    63.5760     9.5490     7.2730     9.5370    25.1430     2.1890   -26.9560 
  113.3750    64.1450     9.7140     7.3430     9.8720    25.4470     2.1800   -26.9650 
  113.5000    64.2710     9.8950     7.4200    10.1590    25.7390     2.1710   -26.9550 
  113.6250    64.7390    10.0610     7.5030    10.3160    25.8690     2.1650   -26.9290 
  113.7500    63.2130    10.1910     7.5830    10.4000    25.8750     2.1620   -26.8820 
  113.8750    58.4110    10.2850     7.6570    10.6100    25.8490     2.1630   -26.8430 
  114.0000    54.4980    10.3590     7.7250    10.8070    25.8380     2.1680   -26.8020 
  114.1250    55.9980    10.4470     7.7980    10.1970    25.8740     2.1760   -26.7420 
  114.2500    59.7840    10.5720     7.8860     9.6430    25.9530     2.1820   -26.6270 
  114.3750    63.6200    10.7310     8.0000     9.6760    25.9880     2.1810   -26.4850 
  114.5000    65.6870    10.8990     8.1350     9.9100    25.7760     2.1750   -26.3180 
  114.6250    65.0780    11.0310     8.2650    10.1860    25.3890     2.1660   -26.1420 
  114.7500    64.4570    11.1010     8.3590    10.3540    25.0790     2.1560   -25.9940 
  114.8750    65.4400    11.1020     8.4000    10.4380    25.0580     2.1450   -25.8180 
  115.0000    66.6560    11.0490     8.3920    10.6400    25.3180     2.1350   -25.6270 
  115.1250    65.3560    10.9600     8.3510    10.8040    25.6060     2.1300   -25.4380 
  115.2500    63.5780    10.8530     8.3060    10.8150    25.7030     2.1320   -25.2510 
  115.3750    61.0120    10.7250     8.2630    10.8000    25.6300     2.1430   -25.0560 
  115.5000    58.6630    10.5720     8.2100    10.7250    25.4610     2.1640   -24.8880 
  115.6250    59.5020    10.3830     8.1150    10.3790    25.2300     2.1860   -24.6750 
  115.7500    63.6150    10.1560     7.9700     9.9820    25.0240     2.2030   -24.4170 
  115.8750    67.4270     9.8850     7.7760     9.7060    24.9110     2.2190   -24.1360 
  116.0000    69.1450     9.5740     7.5490     9.3300    24.9720     2.2380   -23.8240 
  116.1250    72.1310     9.2690     7.3290     8.9050    25.0280     2.2530   -23.4650 
  116.2500    76.3750     9.0670     7.1750     8.6270    25.0040     2.2590   -23.1250 
  116.3750    77.7010     9.0540     7.1330     8.4830    25.0250     2.2640   -22.8580 
  116.5000    75.1030     9.2630     7.2220     8.4720    25.0120     2.2740   -22.6020 
  116.6250    73.0330     9.6600     7.4410     8.1410    24.5770     2.2830   -22.4310 
  116.7500    71.7520    10.0750     7.7100     8.3410    23.7150     2.2790   -22.3330 
  116.8750    70.3150    10.3550     7.9380     9.2610    22.6850     2.2590   -22.2810 
  117.0000    69.4090    10.3970     8.0440     9.6010    22.1320     2.2300   -22.2720 
  117.1250    67.8380    10.1860     7.9850     9.3020    22.3220     2.2010   -22.2960 
  117.2500    63.8220     9.8790     7.8370     9.0600    22.7540     2.1820   -22.3140 
  117.3750    60.3500     9.6030     7.6740     9.1260    23.0800     2.1770   -22.2720 
  117.5000    63.4160     9.4690     7.5710     9.3450    23.3670     2.1880   -22.1850 
  117.6250    69.5460     9.7020     7.6600     9.7230    23.8230     2.2090   -22.0270 
  117.7500    70.8270    10.4570     8.0360    10.1780    24.2910     2.2300   -21.8240 
  117.8750    68.1460    11.8050     8.7710    10.6710    24.6330     2.2560   -21.5840 
  118.0000    66.9090    13.5460     9.8130    11.0990    24.9060     2.3000   -21.2990 
  118.1250    67.7450    14.9260    10.7890    11.7480    24.9990     2.3730   -20.9720 
  118.2500    66.5140    15.0800    11.0950    14.3740    24.9780     2.4440   -20.5990 
  118.3750    64.9580    13.6330    10.3640    18.4910    25.0520     2.4660   -20.2220 
  118.5000    68.5950    11.0130     8.7840    16.3100    25.2180     2.4260   -19.8630 
  118.6250    80.5780     8.2600     6.9880     8.9620    25.3480     2.3650   -19.5620 
  118.7500    93.5160     6.1530     5.5120     5.4370    25.3870     2.3260   -19.3070 
  118.8750   101.7190     4.8530     4.4970     4.6300    25.3800     2.3060   -19.1160 
  119.0000   105.1350     4.2800     3.9340     4.7630    25.2070     2.2880   -19.0200 
  119.1250   104.9900     4.3470     3.8100     4.6340    24.5110     2.2590   -19.0320 
  119.2500   103.2880     4.8010     3.9760     4.5040    23.5210     2.2260   -19.1620 
  119.3750   102.5580     5.5500     4.3750     4.7630    23.0690     2.1970   -19.3760 
  119.5000   102.0880     6.5330     4.9700     5.6770    23.4790     2.1740   -19.6720 
  119.6250    94.5920     7.6690     5.7320     7.0310    24.3200     2.1580   -20.0180 
  119.7500    82.5540     8.7580     6.5300     7.9780    24.9630     2.1480   -20.3640 
  119.8750    74.9280     9.6070     7.2210     8.4930    25.2460     2.1470   -20.7100 
  120.0000    75.2250    10.0830     7.6710     8.6900    25.2640     2.1500   -21.0070 
  120.1250    75.5980    10.1220     7.7760     8.8500    25.1930     2.1590   -21.2600 
  120.2500    70.7920     9.8950     7.6400     8.8210    25.0520     2.1750   -21.4210 
  120.3750    64.6080     9.5330     7.3690     8.9260    24.8660     2.1960   -21.5000 
  120.5000    61.5370     9.1920     7.0780     9.0720    24.7350     2.2180   -21.4760 
  120.6250    64.2790     9.1680     6.9400     9.0290    24.7280     2.2340   -21.3440 
  120.7500    69.9630     9.7200     7.0900     8.7670    24.7580     2.2410   -21.1330 
  120.8750    77.7840    11.0480     7.6470     8.4150    25.0290     2.2440   -20.8450 
  121.0000    84.6410    13.1510     8.6640     8.4810    25.3380     2.2590   -20.5040 
  121.1250    84.1490    15.5890    10.0410     9.7490    25.3440     2.3110   -20.0890 
  121.2500    78.5150    17.2590    11.1950    12.0900    25.1560     2.3860   -19.6640 
  121.3750    74.0480    17.1580    11.4510    14.5520    24.9550     2.4460   -19.2350 
  121.5000    74.5990    15.0600    10.5060    16.1580    24.7750     2.4490   -18.8240 
  121.6250    79.1790    11.8760     8.7610    12.1140    24.5050     2.3960   -18.4650 
  121.7500    85.2630     9.0900     7.0900     7.5690    24.1870     2.3390   -18.1490 
  121.8750    90.8630     7.2470     5.8460     5.6410    23.5250     2.2930   -17.8790 
  122.0000    92.6870     6.3540     5.1040     5.2590    22.4180     2.2530   -17.6700 
  122.1250    90.9800     6.2420     4.8570     5.2100    20.7460     2.2160   -17.5400 
  122.2500    91.7690     6.4810     4.9060     5.1990    18.7140     2.1990   -17.4680 
  122.3750    93.7310     6.8320     5.1150     5.4290    17.1120     2.2090   -17.4320 
