~V
VERS. 2.00: Ver 2.00
~W
STRT.M 54.0000:
STOP.M 236.0000:
STEP.M 0.1250:
NULL. -999.2500:
UWI. F10195:
~C
DEPT.M :
GR.API :
RML.OHMM :
RI. :
RXO.OHMM :
CALI.CM :
SP.MV :
DEN.GM/CC :
~A
# ...
   87.7500    58.9850     9.1040     6.4330     8.7630    29.2970   -29.7040     2.1360 
   87.8750    62.0860     9.0000     6.3060     8.8270    28.9910   -29.3690     2.1340 
   88.0000    62.7950     8.8530     6.1830     9.1770    28.6520   -29.0010     2.1390 
   88.1250    62.0040     8.6310     6.0450     9.3750    28.2320   -28.6390     2.1460 
   88.2500    62.9440     8.3310     5.8760     8.6560    27.5710   -28.3190     2.1580 
   88.3750    65.6380     8.0350     5.7120     7.4400    26.7590   -28.1020     2.1840 
   88.5000    68.6380     7.8390     5.6100     6.6350    26.2450   -28.0180     2.2150 
   88.6250    70.8460     7.8350     5.6260     6.6840    26.0830   -28.0720     2.2280 
   88.7500    71.6840     8.1660     5.8310     7.4360    26.3140   -28.2750     2.1980 
   88.8750    69.4760     8.8560     6.2320     8.5050    26.8990   -28.5840     2.1490 
   89.0000    64.9830     9.9120     6.8550     9.1800    27.6120   -28.9670     2.0960 
   89.1250    61.7510    11.2320     7.6930    10.4550    28.0160   -29.4140     2.0410 
   89.2500    62.0200    12.5230     8.6490    17.5780    27.7270   -29.9100     2.0150 
   89.3750    62.8840    13.3770     9.4480    35.8880    27.2840   -30.4030     2.0460 
   89.5000    63.7720    13.5010     9.8270    49.7400    26.5940   -30.8870     2.1310 
   89.6250    66.5270    12.8600     9.6610    37.1420    26.1000   -31.3610     2.2200 
   89.7500    69.7010    11.7370     9.0360    21.6460    26.2440   -31.8210     2.2360 
   89.8750    69.7050    10.6880     8.3240    14.6090    26.8750   -32.2370     2.2080 
   90.0000    66.9180     9.9910     7.7390    12.7140    27.6270   -32.5940     2.1870 
   90.1250    64.0210     9.7240     7.3880    12.6240    28.2510   -32.8750     2.1890 
   90.2500    63.6280     9.8350     7.3150    12.8180    28.7220   -33.0460     2.2010 
   90.3750    64.0840    10.0700     7.3970    12.9630    29.2880   -33.0890     2.2090 
   90.5000    63.7130    10.2560     7.5220    13.2390    30.0110   -32.9850     2.2080 
   90.6250    63.0510    10.2840     7.5950    13.4270    30.7280   -32.7290     2.2020 
   90.7500    62.8790    10.1260     7.5740    13.4810    31.1340   -32.2970     2.1960 
   90.8750    62.2910     9.8860     7.5060    13.5180    31.5010   -31.7640     2.1950 
   91.0000    60.4430     9.6480     7.4350    13.6420    32.0150   -31.1630     2.1920 
   91.1250    59.6350     9.4820     7.3990    13.5480    32.6270   -30.4760     2.1790 
   91.2500    62.0930     9.4260     7.4230    12.9790    32.8750   -29.6920     2.1580 
   91.3750    64.9460     9.4230     7.4830    12.5120    32.6500   -28.8250     2.1390 
   91.5000    65.5950     9.4120     7.5400    12.3940    32.1390   -27.8760     2.1320 
   91.6250    64.8980     9.3460     7.5500    12.3490    31.7320   -26.8630     2.1370 
   91.7500    63.6260     9.1920     7.4630    11.4880    31.5100   -25.8300     2.1310 
   91.8750    61.3910     8.9810     7.2950     9.7350    31.1980   -24.8340     2.1040 
   92.0000    60.7510     8.7620     7.0890     8.3200    30.4290   -23.9110     2.0710 
   92.1250    63.4820     8.5940     6.9000     8.0310    29.4080   -23.1100     2.0600 
   92.2500    67.3930     8.5200     6.7760     8.3150    28.0330   -22.4930     2.0900 
   92.3750    71.4010     8.5070     6.7150     7.8780    27.0320   -22.0750     2.1400 
   92.5000    75.7370     8.5180     6.6990     7.3880    26.7170   -21.8670     2.1820 
   92.6250    77.8010     8.4950     6.6860     7.3600    26.7950   -21.8770     2.1900 
   92.7500    75.1050     8.3650     6.6040     7.3490    26.6280   -22.1240     2.1750 
   92.8750    73.1450     8.1790     6.4630     7.0730    26.2130   -22.5080     2.1710 
   93.0000    73.6840     8.1220     6.3700     7.0980    25.9180   -22.9840     2.1810 
   93.1250    73.9390     8.4920     6.5100     7.4580    25.8030   -23.5370     2.1950 
   93.2500    73.0230     9.7810     7.1960     7.8030    25.6590   -24.1760     2.2290 
   93.3750    73.1200    12.0480     8.5390     8.8250    25.2940   -24.9040     2.2980 
   93.5000    71.9470    15.1100    10.5800    12.9110    24.7000   -25.7420     2.3900 
   93.6250    67.7790    18.2610    13.0430    24.4300    23.9740   -26.6800     2.4760 
   93.7500    63.4020    19.8860    14.8720    33.7720    23.7240   -27.6800     2.5120 
   93.8750    63.2820    19.2050    15.1080    30.2430    24.2470   -28.7280     2.4810 
   94.0000    65.0730    16.7310    13.8230    20.4190    25.5220   -29.8080     2.3850 
   94.1250    64.8140    13.8290    11.9180    15.2360    27.0460   -30.8490     2.2660 
   94.2500    62.1030    11.7530    10.2970    14.0170    28.0650   -31.7720     2.1850 
   94.3750    58.8240    10.6060     9.1960    14.0000    28.6570   -32.5360     2.1530 
   94.5000    56.5310    10.1190     8.5450    14.0240    29.1580   -33.0900     2.1560 
   94.6250    56.6980     9.9540     8.1990    13.5580    29.7540   -33.4550     2.1730 
   94.7500    60.2420     9.8710     8.0420    12.6220    30.2300   -33.6500     2.1890 
   94.8750    62.7500     9.7950     7.9800    11.8250    30.5490   -33.7420     2.2000 
   95.0000    62.0040     9.7910     8.0180    11.6010    30.7460   -33.7560     2.2050 
   95.1250    60.3440     9.9440     8.1840    11.7700    30.9200   -33.7600     2.2030 
   95.2500    60.4340    10.3130     8.5070    12.3850    31.3050   -33.8300     2.1960 
   95.3750    60.6980    10.7920     8.9070    13.1520    32.0160   -33.9550     2.1860 
   95.5000    59.6340    11.2520     9.2810    13.5670    32.7480   -34.1450     2.1710 
   95.6250    56.6680    11.5480     9.5150    13.7770    32.9030   -34.4010     2.1490 
   95.7500    55.3530    11.5300     9.4950    13.8160    32.2780   -34.7110     2.1350 
   95.8750    57.4250    11.2560     9.2750    13.5530    31.6860   -35.0450     2.1390 
   96.0000    60.6510    10.8270     8.9310    13.4820    31.6400   -35.3880     2.1480 
   96.1250    60.9580    10.3640     8.5470    13.4190    32.0360   -35.7130     2.1370 
   96.2500    56.8760     9.9830     8.2120    13.0630    32.6610   -35.9600     2.0830 
   96.3750    53.6220     9.7340     7.9730    12.6080    33.2300   -36.1440     1.9970 
   96.5000    53.4200     9.6340     7.8470    12.1710    33.2680   -36.2630     1.9000 
   96.6250    55.0850     9.6840     7.8280    11.8860    32.4260   -36.2810     1.8280 
   96.7500    56.2040     9.8780     7.9100    12.0170    31.2430   -36.1820     1.8160 
   96.8750    57.2390    10.1350     8.0460    12.5710    29.8800   -35.9940     1.8630 
   97.0000    58.1930    10.3700     8.1880    12.9350    28.2010   -35.7420     1.9640 
   97.1250    58.0450    10.5060     8.2810    13.1780    26.9970   -35.4630     2.0930 
   97.2500    57.0060    10.4990     8.2800    13.4010    26.9550   -35.1910     2.1840 
   97.3750    56.8920    10.4040     8.2130    12.9980    27.6910   -34.9350     2.1990 
   97.5000    58.0300    10.2670     8.1140    12.1400    28.6840   -34.6970     2.1700 
   97.6250    60.5460    10.1230     8.0170    11.5190    29.4780   -34.4740     2.1440 
   97.7500    62.2340     9.9980     7.9460    11.7560    30.0340   -34.2190     2.1390 
   97.8750    61.1760     9.9050     7.9020    11.7590    30.4500   -33.8940     2.1370 
   98.0000    58.3310     9.8680     7.8960    11.8450    30.7200   -33.4820     2.1260 
   98.1250    56.0490     9.9040     7.9350    11.7770    30.7980   -32.9480     2.1070 
   98.2500    55.5740    10.0080     8.0180    11.7640    30.5780   -32.2250     2.0930 
   98.3750    57.5020    10.1020     8.1020    11.8620    30.1190   -31.3340     2.0880 
   98.5000    62.1160    10.1130     8.1400    11.6970    29.5190   -30.2920     2.0920 
   98.6250    66.2530     9.9950     8.0960    11.3240    29.0450   -29.1030     2.0970 
   98.7500    68.1900     9.7450     7.9440    10.0070    28.6210   -27.7970     2.0880 
   98.8750    70.0850     9.4420     7.7190     8.2260    27.6960   -26.4540     2.0790 
