~V
VERS. 2.00: Ver 2.00
~W
STRT.M 49.0000:
STOP.M 290.0000:
STEP.M 0.1250:
NULL. -999.2500:
UWI. F10103:
~C
DEPT.M :
DEN.GM/CC :
SP.MV :
GR.API :
RML.OHMM :
RI. :
RXO.OHMM :
CALI.CM :
~A
# ...
  172.7500     2.2350    -5.2460    79.6460     3.7250     3.2410     3.4770    24.2250 
  172.8750     2.2310    -5.1810    76.8380     3.7130     3.2540     3.5400    24.0370 
  173.0000     2.2340    -5.0840    72.7770     3.6740     3.2480     3.6250    23.7990 
  173.1250     2.2430    -4.9670    72.8790     3.6070     3.2200     3.7280    23.7110 
  173.2500     2.2550    -4.8580    75.9120     3.5240     3.1760     3.6110    23.8340 
  173.3750     2.2640    -4.7610    78.0940     3.4540     3.1290     3.4890    23.9640 
  173.5000     2.2670    -4.6770    79.7440     3.4140     3.0940     3.4610    24.0190 
  173.6250     2.2630    -4.6100    80.6070     3.4070     3.0750     3.5000    24.0410 
  173.7500     2.2570    -4.5720    78.9890     3.4210     3.0740     3.5320    24.0890 
  173.8750     2.2520    -4.5670    76.3070     3.4330     3.0830     3.5220    24.2020 
  174.0000     2.2520    -4.5800    74.9900     3.4370     3.0970     3.4740    24.3750 
  174.1250     2.2570    -4.6070    76.3880     3.4380     3.1150     3.3980    24.4680 
  174.2500     2.2680    -4.6310    77.6910     3.4540     3.1410     3.3480    24.5070 
  174.3750     2.2810    -4.6450    76.6970     3.4890     3.1750     3.3850    24.5140 
  174.5000     2.2900    -4.6720    74.3280     3.5400     3.2140     3.4720    24.5500 
  174.6250     2.2920    -4.7140    72.3610     3.5980     3.2520     3.5260    24.5820 
  174.7500     2.2820    -4.7620    70.2210     3.6580     3.2850     3.5310    24.5940 
  174.8750     2.2650    -4.8210    68.3660     3.7240     3.3170     3.5600    24.5820 
  175.0000     2.2490    -4.9030    68.1410     3.7980     3.3530     3.6320    24.5510 
  175.1250     2.2420    -5.0030    68.8030     3.8790     3.3960     3.7450    24.5040 
  175.2500     2.2470    -5.1300    69.3020     3.9590     3.4460     3.9230    24.4790 
  175.3750     2.2610    -5.2890    69.8540     4.0360     3.5040     4.1460    24.4590 
  175.5000     2.2770    -5.4670    72.1130     4.1330     3.5850     4.3900    24.4370 
  175.6250     2.2880    -5.6660    75.6100     4.3020     3.7220     4.7620    24.4220 
  175.7500     2.2930    -5.8780    76.6150     4.7200     3.9960     5.3740    24.4130 
  175.8750     2.2930    -6.0720    75.2590     5.4010     4.4490     6.3980    24.4040 
  176.0000     2.2890    -6.2470    71.7440     6.3720     5.1110     7.9340    24.3870 
  176.1250     2.2790    -6.4070    67.6370     7.6270     5.9550     9.7570    24.3640 
  176.2500     2.2660    -6.5420    63.7700     8.6670     6.8830    10.9160    24.3550 
  176.3750     2.2530    -6.6500    61.7850     9.4670     7.7030    12.2170    24.3600 
  176.5000     2.2460    -6.7440    61.7300     9.8560     8.2510    12.6050    24.3730 
  176.6250     2.2480    -6.8330    61.7180     9.7790     8.4270    11.7770    24.3920 
  176.7500     2.2600    -6.9160    62.5880     9.2940     8.2100    10.9140    24.4150 
  176.8750     2.2770    -7.0280    64.8660     8.6960     7.8170     9.9790    24.4230 
  177.0000     2.2940    -7.1560    66.7220     8.1820     7.4060     8.6010    24.4130 
  177.1250     2.3080    -7.2990    66.5340     7.8760     7.0990     7.3740    24.3630 
  177.2500     2.3160    -7.4740    66.2610     7.8610     6.9900     7.1560    24.2650 
  177.3750     2.3200    -7.6640    67.6060     8.0550     7.0530     7.5060    24.1480 
  177.5000     2.3210    -7.8570    69.0910     8.3740     7.2450     8.0110    24.0680 
  177.6250     2.3230    -8.0460    70.7720     8.7150     7.5000     8.4800    24.0220 
  177.7500     2.3290    -8.2310    72.6530     8.9640     7.7320     8.6910    24.0020 
  177.8750     2.3400    -8.4000    73.4040     9.0830     7.8830     8.4200    23.9830 
  178.0000     2.3560    -8.5950    71.0970     9.0960     7.9510     8.0520    23.9530 
  178.1250     2.3720    -8.7990    66.8620     9.0870     7.9840     8.1610    23.8950 
  178.2500     2.3830    -8.9820    66.2500     9.1890     8.0820     8.7270    23.8170 
  178.3750     2.3870    -9.1410    68.8530     9.4810     8.3200     9.6490    23.7510 
  178.5000     2.3820    -9.2950    70.9090    10.0090     8.7510    11.1140    23.7090 
  178.6250     2.3690    -9.4610    69.4540    10.7860     9.4000    12.8700    23.6800 
  178.7500     2.3520    -9.6530    66.4280    11.8180    10.2980    14.5100    23.6930 
  178.8750     2.3360    -9.8490    66.0740    13.0100    11.3750    16.1370    23.7950 
  179.0000     2.3230   -10.0350    68.9050    14.3000    12.5860    18.9750    23.9830 
  179.1250     2.3170   -10.2300    71.8250    15.6190    13.8780    20.7940    24.1990 
  179.2500     2.3180   -10.4300    71.2310    16.8880    15.1860    21.1960    24.3560 
  179.3750     2.3210   -10.6360    69.5050    18.0600    16.4510    22.2230    24.4090 
  179.5000     2.3230   -10.8350    68.4040    19.1070    17.6340    24.0350    24.4150 
  179.6250     2.3210   -11.0240    67.0750    20.2190    18.7020    25.0100    24.4080 
  179.7500     2.3120   -11.1890    66.0550    21.2620    19.6080    24.6870    24.3850 
  179.8750     2.2960   -11.3250    68.0510    22.3870    20.3740    24.2930    24.3430 
  180.0000     2.2770   -11.4360    69.7700    23.7300    21.0100    24.3910    24.2880 
  180.1250     2.2580   -11.5290    66.2160    24.3530    21.5240    24.3640    24.2310 
  180.2500     2.2440   -11.6250    60.6700    24.6450    21.9030    24.3590    24.1500 
  180.3750     2.2380   -11.7400    60.0930    24.8170    22.1700    24.5930    24.0410 
  180.5000     2.2370   -11.8820    62.7690    24.8640    22.3330    24.0130    23.9110 
  180.6250     2.2370   -12.0510    63.2820    24.8380    22.4300    22.0120    23.7860 
  180.7500     2.2330   -12.2350    61.3560    24.9100    22.5900    20.1310    23.6300 
  180.8750     2.2230   -12.4470    62.7560    25.2810    22.9850    19.5030    23.4050 
  181.0000     2.2100   -12.6700    67.2930    26.1180    23.7770    19.6050    23.0900 
  181.1250     2.1970   -12.8970    69.4080    27.7950    25.1000    20.6080    22.7170 
  181.2500     2.1890   -13.1290    67.1230    30.3550    27.1420    22.5940    22.4370 
  181.3750     2.1880   -13.3630    66.3890    33.7750    29.7900    24.8850    22.2830 
  181.5000     2.1920   -13.5830    67.7970    38.0530    32.9340    26.8160    22.2340 
  181.6250     2.1990   -13.7800    68.5620    41.8240    36.3690    28.1990    22.2580 
  181.7500     2.2040   -13.9750    66.9270    45.1000    39.7240    30.1470    22.3460 
  181.8750     2.2030   -14.1630    64.6110    47.6750    42.5610    31.5370    22.4700 
  182.0000     2.1960   -14.3470    61.3830    49.1900    44.5080    32.0760    22.6030 
  182.1250     2.1860   -14.5330    58.5980    49.5130    45.3650    31.9240    22.7040 
  182.2500     2.1780   -14.7250    59.5080    48.7630    45.1140    30.4990    22.7930 
  182.3750     2.1800   -14.9140    62.2560    47.7210    44.4120    28.3890    22.8540 
  182.5000     2.1920   -15.1210    63.5720    47.0180    43.8300    26.9370    22.8210 
  182.6250     2.2110   -15.3600    61.7120    47.1050    43.8410    27.7060    22.7630 
  182.7500     2.2260   -15.6180    57.3970    48.3120    44.8460    30.1730    22.7750 
  182.8750     2.2280   -15.8810    54.9130    50.3690    46.7080    33.6960    22.9080 
  183.0000     2.2170   -16.1410    54.4650    53.0650    49.2880    36.0460    23.1470 
  183.1250     2.2010   -16.4140    55.3700    56.1910    52.4040    38.7050    23.4280 
  183.2500     2.1920   -16.7180    58.0380    59.6420    55.9310    43.4710    23.6700 
  183.3750     2.1900   -17.0240    60.8570    63.3410    59.7160    50.2850    23.9460 
  183.5000     2.1950   -17.3210    60.2520    67.3230    63.7510    57.5570    24.2890 
  183.6250     2.2000   -17.6060    55.0960    71.6020    68.0380    61.9390    24.6110 
  183.7500     2.2030   -17.8800    51.0440    76.1230    72.5380    64.4530    24.7630 
  183.8750     2.2030   -18.1580    51.3680    80.6720    77.0540    66.5350    24.8070 
