~V
VERS. 2.00: Ver 2.00
~W
STRT.M 51.0000:
STOP.M 246.0000:
STEP.M 0.1250:
NULL. -999.2500:
UWI. F10182:
~C
DEPT.M :
SP.MV :
GR.API :
RML.OHMM :
RI. :
RXO.OHMM :
DEN.GM/CC :
CALI.CM :
~A
   51.0000     0.0000  -999.2500  -999.2500  -999.2500  -999.2500  -999.2500  -999.2500 
   51.1250     0.0000  -999.2500  -999.2500  -999.2500  -999.2500  -999.2500  -999.2500 
   51.2500     0.0000  -999.2500  -999.2500  -999.2500  -999.2500  -999.2500  -999.2500 
   51.3750     0.0000  -999.2500  -999.2500  -999.2500  -999.2500  -999.2500  -999.2500 
   51.5000     0.0000  -999.2500  -999.2500  -999.2500  -999.2500  -999.2500  -999.2500 
   51.6250    35.1570  -999.2500  -999.2500  -999.2500  -999.2500  -999.2500  -999.2500 
   51.7500    34.9630  -999.2500  -999.2500  -999.2500  -999.2500  -999.2500  -999.2500 
   51.8750    34.7790  -999.2500  -999.2500  -999.2500  -999.2500  -999.2500  -999.2500 
   52.0000    34.6170  -999.2500  -999.2500  -999.2500  -999.2500  -999.2500  -999.2500 
   52.1250    34.5560  -999.2500  -999.2500  -999.2500  -999.2500  -999.2500  -999.2500 
   52.2500    34.6760  -999.2500  -999.2500  -999.2500  -999.2500  -999.2500  -999.2500 
   52.3750    34.9740  -999.2500  -999.2500  -999.2500  -999.2500  -999.2500  -999.2500 
   52.5000    35.4490  -999.2500  -999.2500  -999.2500  -999.2500  -999.2500  -999.2500 
   52.6250    36.1340  -999.2500  -999.2500  -999.2500  -999.2500  -999.2500  -999.2500 
   52.7500    36.8760  -999.2500  -999.2500  -999.2500  -999.2500  -999.2500  -999.2500 
   52.8750    37.5310  -999.2500  -999.2500  -999.2500  -999.2500  -999.2500  -999.2500 
   53.0000    38.0340  -999.2500  -999.2500  -999.2500  -999.2500  -999.2500  -999.2500 
   53.1250    38.3270  -999.2500  -999.2500  -999.2500  -999.2500  -999.2500  -999.2500 
   53.2500    38.4650  -999.2500  -999.2500  -999.2500  -999.2500  -999.2500  -999.2500 
   53.3750    38.4840  -999.2500  -999.2500  -999.2500  -999.2500  -999.2500  -999.2500 
   53.5000    38.3780  -999.2500  -999.2500  -999.2500  -999.2500  -999.2500  -999.2500 
   53.6250    38.1740  -999.2500  -999.2500  -999.2500  -999.2500  -999.2500  -999.2500 
   53.7500    37.8910    42.1060     8.7290     1.6070     1.6730  -999.2500  -999.2500 
   53.8750    37.6170    42.1060     8.7290     1.6070     1.6730  -999.2500    25.3240 
   54.0000    37.4220    42.1060     8.7290     1.6070     1.6730  -999.2500    25.3240 
   54.1250    37.2240    42.5480     8.6200     1.6140     1.7850  -999.2500    25.3270 
   54.2500    36.9690    42.8930     8.4700     1.6240     1.9110  -999.2500    25.3330 
   54.3750    36.6440    43.3520     8.3040     1.6330     1.9150  -999.2500    25.3310 
   54.5000    36.2470    45.8340     8.1360     1.6430     1.8380  -999.2500    25.3270 
   54.6250    35.7670    50.6080     7.9800     1.6550     1.8680  -999.2500    25.3200 
   54.7500    35.3080    54.7640     7.8480     1.6740     2.1040  -999.2500    25.3160 
   54.8750    34.9270    57.0670     7.7330     1.6990     2.1890  -999.2500    25.3230 
   55.0000    34.6320    57.8350     7.6280     1.7280     2.2170     2.0950    25.3280 
   55.1250    34.5270    56.7630     7.5180     1.7570     2.2920     2.0950    25.3290 
   55.2500    34.5720    54.8620     7.3950     1.7800     2.2250     2.0950    25.3260 
   55.3750    34.6530    53.8270     7.2630     1.8000     2.1380     2.0840    25.3230 
   55.5000    34.6460    52.4810     7.1290     1.8170     2.1040     2.0600    25.3210 
   55.6250    34.3690    48.7200     7.0020     1.8320     2.0870     2.0460    25.3130 
   55.7500    33.8360    44.5780     6.8850     1.8480     2.2090     2.0510    25.2890 
   55.8750    33.0740    43.1390     6.7730     1.8610     2.3580     2.0660    25.2560 
   56.0000    32.1340    43.6320     6.6500     1.8650     2.4770     2.0750    25.2370 
   56.1250    30.9840    46.0020     6.4700     1.8470     2.6000     2.0650    25.2300 
   56.2500    29.7120    49.7850     6.1000     1.7680     2.6150     2.0390    25.2150 
   56.3750    28.4040    53.2810     5.4690     1.6030     2.5900     2.0120    25.2080 
   56.5000    27.2360    55.7010     4.5780     1.3450     2.7000     1.9950    25.2060 
   56.6250    26.3270    56.0410     3.5340     1.0220     2.9100     1.9860    25.2090 
   56.7500    25.5370    54.6320     2.5170     0.7000     2.9700     1.9870    25.2080 
   56.8750    24.6650    53.9090     1.6590     0.4370     2.6870     2.0270    25.1860 
   57.0000    23.4480    55.2860     1.0230     0.2520     1.9510     2.1560    25.1240 
   57.1250    21.4660    56.9860     0.6120     0.1390     1.2480     2.3660    24.9930 
   57.2500    18.7010    57.4060     0.4180     0.0890     1.5820     2.5270    24.8680 
   57.3750    15.3080    58.6750     0.3640     0.0850     3.1790     2.5570    24.7690 
   57.5000    11.3780    61.6010     0.4320     0.1350     5.0420     2.4770    24.5590 
   57.6250     6.8710    63.7200     0.6370     0.2750     6.0890     2.3460    24.1380 
   57.7500     1.9670    62.6880     1.0470     0.5960     5.8650     2.2230    23.6950 
   57.8750    -3.0780    60.5870     1.6640     1.1530     5.8810     2.1490    23.4390 
   58.0000    -7.9680    60.1030     2.4780     1.9910     6.1320     2.1410    23.3450 
   58.1250   -12.2600    60.7870     3.4420     3.1000     6.7680     2.1790    23.3310 
   58.2500   -15.8710    58.3190     4.5200     4.4230     7.1050     2.2090    23.4120 
   58.3750   -18.8960    52.3150     5.6380     5.7870     7.5410     2.1990    23.6440 
   58.5000   -21.3810    47.1260     6.6920     7.0150     8.0680     2.1560    23.9850 
   58.6250   -23.1520    46.8320     7.4760     7.8770     8.4320     2.1060    24.4320 
   58.7500   -24.3250    49.3650     7.6710     8.0830     7.5260     2.0790    24.9650 
   58.8750   -25.0030    50.3170     7.3950     7.8000     6.5290     2.0710    25.2400 
   59.0000   -25.2910    49.9320     6.9280     7.3000     5.9200     2.0590    25.4080 
   59.1250   -25.2580    50.4250     6.5560     6.8560     5.6180     2.0290    25.6340 
   59.2500   -25.0450    52.4520     6.4750     6.6660     5.5760     1.9860    25.6210 
   59.3750   -24.6770    54.3900     6.6410     6.7130     6.0590     1.9570    25.1840 
   59.5000   -24.2320    55.7840     6.9860     6.9420     6.6770     1.9640    24.7380 
   59.6250   -23.7390    57.0280     7.4190     7.2720     7.2370     2.0120    24.4950 
   59.7500   -23.2330    60.5050     7.7950     7.5790     7.6480     2.0780    23.6880 
   59.8750   -22.7230    65.6850     8.0010     7.7540     8.0540     2.1270    23.0270 
   60.0000   -22.2400    70.3480     8.0000     7.7540     8.3400     2.1500    22.8380 
   60.1250   -21.7630    73.3660     7.8480     7.6070     8.1660     2.1570    22.8690 
   60.2500   -21.3110    73.2300     7.6690     7.4020     7.7890     2.1600    22.8800 
   60.3750   -20.9140    68.7070     7.5770     7.2440     7.7810     2.1640    22.8850 
   60.5000   -20.5470    60.9330     7.6050     7.1750     8.1450     2.1680    22.9020 
   60.6250   -20.2920    56.0760     7.7290     7.1920     8.4620     2.1700    22.9420 
   60.7500   -20.0790    58.8210     7.8890     7.2620     8.5430     2.1670    22.9610 
   60.8750   -19.9160    63.6200     8.0160     7.3280     8.4310     2.1630    22.9650 
   61.0000   -19.7690    64.6560     8.0850     7.3640     8.3550     2.1600    22.9650 
   61.1250   -19.6190    62.7560     8.1070     7.3640     8.3890     2.1600    22.9630 
   61.2500   -19.4390    62.9930     8.1090     7.3420     8.6300     2.1600    22.9210 
   61.3750   -19.2260    63.5300     8.1250     7.3240     8.6920     2.1590    22.8330 
   61.5000   -18.9980    62.6810     8.1700     7.3240     8.5990     2.1590    22.7420 
   61.6250   -18.7040    62.7430     8.2500     7.3560     8.5300     2.1600    22.6880 
   61.7500   -18.3920    65.5490     8.3690     7.4240     8.4870     2.1630    22.6860 
   61.8750   -18.0350    67.9070     8.4960     7.5040     8.4360     2.1680    22.7160 
   62.0000   -17.6460    67.1120     8.5850     7.5580     8.5470     2.1780    22.7880 
   62.1250   -17.2520    66.3770     8.5730     7.5370     8.7860     2.1910    22.9460 
