~V
VERS. 2.00: Ver 2.00
~W
STRT.M 63.0000:
STOP.M 308.0000:
STEP.M 0.1250:
NULL. -999.2500:
UWI. F10102:
~C
DEPT.M :
DEN.GM/CC :
SP.MV :
GR.API :
RML.OHMM :
RI. :
RXO.OHMM :
CALI.CM :
~A
# ...
  153.0000     2.5340    -9.8060    73.5330    19.5570    19.2590    18.3950    24.7580 
  153.1250     2.5410    -9.4300    71.5370    19.4490    19.0980    17.7820    24.8640 
  153.2500     2.5520    -8.9460    68.7980    19.3670    18.9440    18.2270    24.9270 
  153.3750     2.5610    -8.5150    67.2490    19.3720    18.8640    18.2880    24.8980 
  153.5000     2.5610    -8.1790    67.2990    19.5000    18.9220    17.4730    24.8020 
  153.6250     2.5540    -7.9580    67.1930    19.7440    19.1550    17.6780    24.6920 
  153.7500     2.5410    -7.8800    66.1670    20.0260    19.5230    19.5390    24.5800 
  153.8750     2.5280    -7.8930    64.6650    20.1560    19.8420    22.3850    24.4960 
  154.0000     2.5190    -8.0240    63.1200    19.9970    19.8900    21.3110    24.3890 
  154.1250     2.5190    -8.2900    62.5890    19.5070    19.5560    18.9920    24.2530 
  154.2500     2.5260    -8.5450    63.6380    18.7630    18.8780    16.7560    24.0940 
  154.3750     2.5350    -8.8640    66.3280    17.9400    18.0250    15.1850    23.9700 
  154.5000     2.5400    -9.2330    68.9530    17.2340    17.2370    14.5880    23.9220 
  154.6250     2.5360    -9.5130    69.1390    16.7370    16.6290    14.5880    23.9900 
  154.7500     2.5260    -9.7290    67.3420    16.4610    16.2370    14.3600    24.1330 
  154.8750     2.5190    -9.8620    66.5480    16.3790    16.0630    14.1990    24.2050 
  155.0000     2.5170    -9.8770    67.0650    16.3840    15.9880    14.3340    24.0840 
  155.1250     2.5200    -9.8830    66.0280    16.4300    15.9410    14.3000    23.9280 
  155.2500     2.5240    -9.9630    62.7020    16.5090    15.9090    14.8740    23.8610 
  155.3750     2.5300   -10.0740    58.2450    16.6550    15.9400    14.4210    23.9030 
  155.5000     2.5380   -10.3240    55.9210    16.8780    16.0560    13.1450    23.9370 
  155.6250     2.5440   -10.6890    58.6020    17.1730    16.2640    12.3620    23.8830 
  155.7500     2.5440   -11.0240    64.7150    17.5150    16.5370    14.0910    23.7740 
  155.8750     2.5300   -11.3920    68.2570    17.9030    16.8100    17.9060    23.7880 
  156.0000     2.5070   -11.7540    67.6080    18.4050    17.0810    19.4380    23.9310 
  156.1250     2.4850   -11.9960    66.6760    19.1900    17.4730    19.1740    24.1320 
  156.2500     2.4770   -12.0840    68.3040    20.4800    18.2070    21.0640    24.4000 
  156.3750     2.4950   -11.8970    71.7040    22.5850    19.6470    20.6010    24.6430 
  156.5000     2.5340   -11.3900    73.7810    25.3480    21.8310    23.0290    24.7470 
  156.6250     2.5820   -10.6570    73.2220    28.3930    24.5760    30.2380    24.7640 
  156.7500     2.6230    -9.8210    70.4120    31.0760    27.2980    41.0830    24.7910 
  156.8750     2.6430    -8.8920    68.4640    32.6000    29.0030    44.7050    24.8260 
  157.0000     2.6430    -8.0250    68.9680    33.1230    29.5930    35.6810    24.8450 
  157.1250     2.6310    -7.2770    70.9980    33.2670    29.6810    28.2720    24.8190 
  157.2500     2.6190    -6.6280    72.4040    33.7800    30.1420    25.0340    24.7550 
  157.3750     2.6170    -6.1720    71.0090    35.0140    31.5790    27.4250    24.7140 
  157.5000     2.6270    -5.7440    69.0540    36.1230    33.3370    34.7260    24.7150 
  157.6250     2.6440    -5.2740    67.2930    35.8750    34.1340    46.0620    24.7000 
  157.7500     2.6600    -4.8900    64.4880    33.3170    32.5700    53.7690    24.6200 
  157.8750     2.6650    -4.5920    61.2830    28.2950    27.9650    41.4700    24.4690 
  158.0000     2.6560    -4.2920    60.1150    22.5140    22.2790    21.8850    24.4440 
  158.1250     2.6350    -4.0980    62.7210    17.2620    17.0520    14.4000    24.5240 
  158.2500     2.6000    -4.0270    64.8740    13.2300    13.0000    12.5040    24.5800 
  158.3750     2.5530    -3.9730    63.6050    10.6600    10.3250    10.2840    24.4920 
  158.5000     2.5040    -4.0360    62.2980     9.0420     8.5720     7.7920    24.3950 
  158.6250     2.4650    -4.1820    61.6780     8.0800     7.4920     6.2780    24.3210 
  158.7500     2.4440    -4.2730    61.5940     7.5320     6.8670     6.0040    24.3590 
  158.8750     2.4410    -4.3520    62.5860     7.2280     6.5460     6.5010    24.5210 
  159.0000     2.4420    -4.3900    65.1780     6.9840     6.3420     7.0680    24.6600 
  159.1250     2.4380    -4.2720    69.0950     6.7160     6.1470     7.1570    24.6570 
  159.2500     2.4240    -4.0450    73.5610     6.3990     5.9030     5.8970    24.5870 
  159.3750     2.4020    -3.7660    76.9730     6.0740     5.6200     5.2090    24.4920 
  159.5000     2.3840    -3.4600    78.2950     5.8170     5.3750     4.8360    24.4260 
  159.6250     2.3820    -3.2220    77.7980     5.6720     5.2190     4.6030    24.4270 
  159.7500     2.4030    -3.1020    75.7850     5.6380     5.1670     4.4570    24.5030 
  159.8750     2.4470    -3.1750    72.9890     5.6750     5.2000     4.9440    24.5690 
  160.0000     2.4900    -3.3640    73.6190     5.7050     5.2410     5.8980    24.6000 
  160.1250     2.5120    -3.5580    78.5790     5.6900     5.2360     6.2250    24.6130 
  160.2500     2.5020    -3.7430    84.2430     5.6240     5.1670     5.7670    24.6160 
  160.3750     2.4650    -3.9840    89.6450     5.5370     5.0520     4.9780    24.5610 
  160.5000     2.4210    -4.2150    95.6800     5.4710     4.9400     4.5970    24.4940 
  160.6250     2.3850    -4.4460    99.1330     5.4330     4.8550     4.4570    24.4550 
  160.7500     2.3660    -4.7170    98.4010     5.4050     4.7880     4.3270    24.4050 
  160.8750     2.3640    -4.8160    96.7850     5.3430     4.7040     4.1990    24.2940 
  161.0000     2.3710    -4.7970    94.9340     5.2380     4.5840     4.0700    24.1840 
  161.1250     2.3780    -4.8440    90.5210     5.1110     4.4390     3.8590    24.1450 
  161.2500     2.3830    -4.9020    86.1910     5.0020     4.3010     3.6610    24.1820 
  161.3750     2.3850    -4.9240    85.1420     4.9560     4.2110     3.6510    24.1650 
  161.5000     2.3860    -4.9820    83.7210     4.9670     4.1720     3.7630    24.1210 
  161.6250     2.3900    -5.0360    80.5480     5.0150     4.1740     3.8670    24.0890 
  161.7500     2.3950    -5.0440    78.6230     5.0700     4.1920     3.9630    24.0970 
  161.8750     2.4020    -5.1320    79.6410     5.1140     4.2020     4.0210    24.2250 
  162.0000     2.4070    -5.2870    81.5330     5.1480     4.1990     4.0090    24.4970 
  162.1250     2.4100    -5.3780    83.7350     5.1910     4.1980     3.9630    24.7710 
  162.2500     2.4080    -5.4320    85.7750     5.2630     4.2170     4.0120    24.8950 
  162.3750     2.4000    -5.5420    87.5630     5.3810     4.2800     4.2160    24.8880 
  162.5000     2.3910    -5.6630    90.1770     5.5300     4.3780     4.4200    24.8530 
  162.6250     2.3820    -5.7810    91.6790     5.6850     4.4950     4.4360    24.8200 
  162.7500     2.3760    -5.8150    89.5910     5.8120     4.6050     4.4230    24.7990 
  162.8750     2.3720    -5.7610    84.7400     5.8740     4.6730     4.5050    24.7810 
  163.0000     2.3670    -5.7000    83.1170     5.8830     4.6910     4.5720    24.7380 
  163.1250     2.3620    -5.6630    85.3790     5.8780     4.6770     4.6870    24.6730 
  163.2500     2.3580    -5.7040    87.3180     5.9220     4.6740     4.6760    24.6310 
  163.3750     2.3620    -5.7190    86.1430     6.1030     4.7600     4.5020    24.5800 
  163.5000     2.3770    -5.6910    84.0260     6.4300     4.9660     4.4360    24.5540 
  163.6250     2.4010    -5.6590    83.1660     6.8680     5.2850     4.8370    24.5700 
  163.7500     2.4260    -5.6600    83.0380     7.3220     5.6600     5.6510    24.6250 
  163.8750     2.4390    -5.5660    83.2230     7.6210     5.9530     6.4610    24.6140 
  164.0000     2.4360    -5.4350    83.8000     7.6770     6.0510     6.4680    24.5840 
  164.1250     2.4200    -5.3970    83.6060     7.4980     5.9240     5.9400    24.6440 
