~V
VERS. 2.00: Ver 2.00
~W
STRT.M 59.0000:
STOP.M 216.0000:
STEP.M 0.1250:
NULL. -999.2500:
UWI. F10129:
~C
DEPT.M :
GR.API :
RML.OHMM :
RI. :
RXO.OHMM :
CALI.CM :
DEN.GM/CC :
SP.MV :
~A
# ...
  115.2500    87.0230     6.0410     5.2500     5.5470    24.9750     2.2280    -5.8400 
  115.3750    86.5460     6.0210     5.2190     5.4210    24.9830     2.2370    -5.2520 
  115.5000    89.4550     6.0540     5.2600     5.1990    24.9830     2.2520    -4.8150 
  115.6250    94.3400     6.1420     5.3510     5.0200    24.9440     2.2620    -4.6040 
  115.7500    96.6700     6.2940     5.4840     5.1840    24.8660     2.2630    -4.5280 
  115.8750    94.1890     6.5000     5.6500     5.5430    24.7700     2.2550    -4.5240 
  116.0000    89.0440     6.7160     5.8180     5.6440    24.6600     2.2450    -4.5600 
  116.1250    85.7680     6.8430     5.9140     5.5690    24.5670     2.2380    -4.5980 
  116.2500    85.7350     6.8330     5.8920     5.5930    24.4990     2.2390    -4.6390 
  116.3750    87.3040     6.6860     5.7440     5.6600    24.4400     2.2460    -4.7430 
  116.5000    87.5690     6.4620     5.5110     5.3850    24.4230     2.2600    -4.8870 
  116.6250    88.9900     6.2690     5.2810     5.1440    24.4580     2.2740    -5.0320 
  116.7500    93.4270     6.2000     5.1420     5.0800    24.5180     2.2840    -5.2330 
  116.8750    95.6070     6.3130     5.1420     5.1780    24.5320     2.2850    -5.5410 
  117.0000    91.9150     6.6440     5.3130     5.5720    24.4660     2.2740    -5.9900 
  117.1250    86.2860     7.2300     5.7000     6.2670    24.2710     2.2520    -6.5680 
  117.2500    84.3190     7.9770     6.2480     7.0930    24.1780     2.2290    -7.2150 
  117.3750    84.0230     8.7630     6.8780     7.6930    24.6860     2.2190    -7.8760 
  117.5000    81.6810     9.4200     7.4650     8.9130    25.6510     2.2290    -8.5640 
  117.6250    78.3130     9.7190     7.8170    10.6040    26.7180     2.2540    -9.2710 
  117.7500    76.7580     9.6490     7.8730    11.1440    25.8610     2.2700    -9.8760 
  117.8750    77.2390     9.3130     7.6770     8.9890    25.0750     2.2660   -10.2810 
  118.0000    79.6190     8.9110     7.3790     7.1930    24.7170     2.2420   -10.4900 
  118.1250    83.1970     8.6810     7.1680     6.7170    24.6310     2.2120   -10.6390 
  118.2500    85.2150     8.6640     7.1150     6.5450    24.5770     2.1920   -10.7910 
  118.3750    83.5690     8.7600     7.1830     6.6220    24.5470     2.1870   -10.9030 
  118.5000    80.3670     8.7810     7.2440     7.0080    24.4870     2.1930   -10.9080 
  118.6250    82.3490     8.5190     7.1110     7.3310    24.3030     2.2070   -10.6960 
  118.7500    89.0770     8.0040     6.7620     6.9060    24.1500     2.2260   -10.2480 
  118.8750    94.7330     7.3700     6.2860     5.8550    24.1510     2.2430    -9.6590 
  119.0000    96.5170     6.7930     5.8210     5.0610    24.2250     2.2520    -9.0660 
  119.1250    96.0800     6.4420     5.5010     5.0400    24.2750     2.2490    -8.4980 
  119.2500    96.1420     6.3090     5.3390     5.3150    24.3070     2.2410    -7.8970 
  119.3750    96.7220     6.3390     5.3110     5.1790    24.3220     2.2370    -7.2870 
  119.5000    98.4370     6.4580     5.3690     5.0930    24.4000     2.2410    -6.7480 
  119.6250   103.1800     6.5890     5.4540     5.0760    24.6200     2.2530    -6.4390 
  119.7500   106.1760     6.6740     5.5130     5.1600    24.7890     2.2640    -6.3690 
  119.8750   103.5800     6.6780     5.5130     5.2240    24.8740     2.2720    -6.4360 
  120.0000    97.6420     6.5840     5.4380     5.4660    24.9210     2.2760    -6.5000 
  120.1250    96.3340     6.4250     5.3040     5.8620    24.9290     2.2800    -6.5060 
  120.2500   100.3490     6.3230     5.2010     5.5210    24.9270     2.2880    -6.5060 
  120.3750   104.6340     6.4040     5.2190     4.9850    24.9570     2.3010    -6.4820 
  120.5000   104.2270     6.7640     5.4170     4.9240    24.9860     2.3180    -6.4080 
  120.6250    96.7860     7.4510     5.8390     5.9370    24.9800     2.3340    -6.2990 
  120.7500    87.5450     8.2720     6.3930     7.8520    24.9370     2.3470    -6.1700 
  120.8750    82.0530     8.9860     6.9270     8.3630    24.8860     2.3580    -6.0360 
  121.0000    80.6970     9.3410     7.2360     7.9090    24.8490     2.3720    -5.9320 
  121.1250    82.8490     9.1380     7.1180     7.5320    24.8430     2.3900    -5.8520 
  121.2500    89.9890     8.6040     6.7250     8.4900    24.8600     2.4020    -5.7880 
  121.3750    99.8030     8.0450     6.2920     7.7360    24.8700     2.3980    -5.7680 
  121.5000   104.5490     7.8020     6.0630     6.1070    24.8170     2.3740    -5.8210 
  121.6250    99.8270     8.2660     6.3080     5.7910    24.7820     2.3360    -5.9480 
  121.7500    93.0720     9.4770     7.0890     7.2740    24.8200     2.3020    -6.1540 
  121.8750    89.1760    11.4110     8.4730    10.9220    24.9630     2.2790    -6.3990 
  122.0000    86.6860    13.8810    10.4390    15.4920    25.1360     2.2660    -6.6240 
  122.1250    84.5430    16.4590    12.7850    17.8300    25.3080     2.2540    -6.8610 
  122.2500    82.7490    18.5350    14.9200    17.7010    25.4120     2.2330    -7.0780 
  122.3750    80.3210    19.6210    16.2810    18.1330    25.4770     2.2040    -7.2360 
  122.5000    76.9650    19.4340    16.4820    18.5020    25.5030     2.1730    -7.3360 
  122.6250    74.3260    17.8160    15.3170    18.8160    25.4820     2.1520    -7.3810 
  122.7500    75.9570    15.4290    13.3730    18.2470    25.4040     2.1490    -7.3490 
  122.8750    81.1990    12.8740    11.1610    14.4310    25.2770     2.1660    -7.2620 
  123.0000    86.7120    10.6340     9.1430    13.3040    25.1500     2.2010    -7.2050 
  123.1250    92.4670     9.0320     7.6880     8.8460    25.0300     2.2400    -7.1660 
  123.2500   100.5790     8.0190     6.7690     7.3000    24.9680     2.2670    -7.1530 
  123.3750   108.1690     7.5590     6.3200     6.3270    24.9530     2.2730    -7.1940 
  123.5000   108.9210     7.5200     6.2290     5.7830    24.9950     2.2610    -7.2380 
  123.6250   102.8560     7.6760     6.3560     5.9380    25.0800     2.2410    -7.2130 
  123.7500    97.4010     7.7860     6.4920     6.2400    25.1590     2.2290    -7.1630 
  123.8750    96.1940     7.7440     6.5250     6.4280    25.1920     2.2320    -7.1320 
  124.0000    99.7250     7.5240     6.4130     6.2120    25.1880     2.2470    -7.0750 
  124.1250   105.1810     7.1590     6.1650     5.7940    25.1320     2.2670    -6.9260 
  124.2500   106.6150     6.7640     5.8750     5.3990    25.0930     2.2830    -6.7350 
  124.3750   103.3460     6.4200     5.6150     5.2110    25.0740     2.2940    -6.5440 
  124.5000   100.6050     6.1870     5.4360     5.1470    25.0740     2.2990    -6.3890 
  124.6250   100.4500     6.1380     5.3830     5.0350    25.1030     2.3000    -6.2880 
  124.7500   100.6810     6.2790     5.4670     4.9400    25.1010     2.2990    -6.2060 
  124.8750   100.9070     6.6040     5.7040     5.2060    25.0650     2.2980    -6.1190 
  125.0000   101.8770     7.0510     6.0650     5.8130    25.0400     2.3030    -6.0620 
  125.1250   100.5060     7.4680     6.4420     6.4910    25.0510     2.3170    -6.0610 
  125.2500    96.7990     7.6850     6.6700     6.7160    25.0330     2.3350    -6.0300 
  125.3750    95.7200     7.6130     6.6340     7.9880    24.9970     2.3500    -5.9450 
  125.5000    98.6750     7.2780     6.3290     9.7340    24.9680     2.3540    -5.8530 
  125.6250   103.3970     6.8270     5.8870     6.8360    24.9310     2.3430    -5.7860 
  125.7500   105.4660     6.4860     5.5030     5.3610    24.8790     2.3230    -5.7160 
  125.8750   104.0920     6.3930     5.2930     4.9420    24.7870     2.3010    -5.6850 
  126.0000   101.9900     6.6140     5.3320     5.1950    24.6930     2.2820    -5.7030 
  126.1250   100.5980     7.1680     5.6790     5.6280    24.5780     2.2770    -5.7910 
  126.2500    97.9500     7.9040     6.2210     6.0170    24.4010     2.2930    -5.9450 
  126.3750    91.1070     8.7310     6.8710     6.4300    24.2630     2.3310    -6.0930 
