~V
VERS. 2.00: Ver 2.00
~W
STRT.M 55.0000:
STOP.M 239.0000:
STEP.M 0.1250:
NULL. -999.2500:
UWI. F10186:
~C
DEPT.M :
GR.API :
RML.OHMM :
RI. :
RXO.OHMM :
CALI.CM :
DEN.GM/CC :
SP.MV :
~A
# ...
   77.5000    50.7260    17.7690    15.2940    41.9550    23.5010     2.3300   -13.3190 
   77.6250    49.5180    15.4060    13.5720    40.8400    22.7680     2.3340   -13.3420 
   77.7500    50.7520    12.8850    11.5470    24.1040    22.1820     2.2970   -13.3040 
   77.8750    54.4100    10.9070     9.8070    12.9940    21.8380     2.2460   -13.1790 
   78.0000    57.5110     9.7570     8.6230     9.3510    21.6740     2.2050   -13.0260 
   78.1250    59.6700     9.4390     8.0640     8.6160    21.5670     2.1890   -12.9060 
   78.2500    61.3690     9.5370     7.8780     8.6200    21.4410     2.1900   -12.7820 
   78.3750    61.5510     9.7770     7.8900     8.7390    21.3070     2.1990   -12.6580 
   78.5000    59.3670     9.9590     7.9480     8.7470    21.2390     2.2080   -12.5440 
   78.6250    58.3560     9.9640     7.9430     8.6940    21.2980     2.2120   -12.4140 
   78.7500    59.3640     9.8470     7.8670     8.7030    21.4230     2.2090   -12.3390 
   78.8750    59.9390     9.6810     7.7550     8.7450    21.4950     2.2000   -12.3380 
   79.0000    58.4950     9.5310     7.6470     8.7080    21.5040     2.1890   -12.3790 
   79.1250    54.5090     9.4290     7.5690     8.5890    21.4930     2.1790   -12.4330 
   79.2500    51.2130     9.3640     7.5220     8.7530    21.5070     2.1750   -12.4710 
   79.3750    50.0090     9.3440     7.5120     9.2030    21.5190     2.1750   -12.4450 
   79.5000    50.5160     9.4270     7.5730     9.4530    21.5220     2.1790   -12.3490 
   79.6250    52.6020     9.7550     7.7950     9.4920    21.5210     2.1850   -12.2170 
   79.7500    54.2260    10.3650     8.2130     9.7480    21.5200     2.1940   -12.0560 
   79.8750    54.3340    11.1990     8.8120    10.4310    21.5270     2.2100   -11.7890 
   80.0000    52.3870    12.0690     9.4920    11.5390    21.5430     2.2370   -11.3960 
   80.1250    51.0520    12.6330    10.0350    13.1180    21.5730     2.2680   -10.9200 
   80.2500    51.6950    12.7020    10.2660    14.6520    21.5880     2.2860   -10.4260 
   80.3750    53.3140    12.2510    10.1070    14.6360    21.6150     2.2830    -9.8810 
   80.5000    56.0220    11.4440     9.6140    12.3840    21.6960     2.2620    -9.2540 
   80.6250    57.4850    10.5480     8.9350    10.1530    21.8240     2.2360    -8.5690 
   80.7500    57.1650     9.7630     8.2520     9.2520    21.9160     2.2210    -7.8050 
   80.8750    57.1910     9.1100     7.6220     8.8340    21.9510     2.2200    -6.9850 
   81.0000    60.4490     8.5410     7.0540     8.3430    22.0660     2.2340    -6.1230 
   81.1250    68.4120     7.9990     6.5440     7.4740    22.5240     2.2550    -5.2320 
   81.2500    77.0310     7.4900     6.0940     6.4560    23.1920     2.2780    -4.3840 
   81.3750    82.7720     7.0840     5.7440     5.8950    23.6770     2.3000    -3.6720 
   81.5000    86.3940     6.8600     5.5410     5.8390    23.8580     2.3200    -3.0710 
   81.6250    87.4740     6.8860     5.5430     6.0560    23.8840     2.3310    -2.5420 
   81.7500    85.2670     7.0800     5.6980     6.1190    23.8760     2.3300    -2.1530 
   81.8750    80.0580     7.3460     5.9400     6.0850    23.7200     2.3160    -1.9330 
   82.0000    74.6090     7.5630     6.1770     6.1850    23.4280     2.2940    -1.8140 
   82.1250    72.0400     7.5890     6.2890     6.4930    23.2320     2.2790    -1.6950 
   82.2500    72.6730     7.4080     6.2360     6.6880    23.3130     2.2770    -1.5580 
   82.3750    77.1020     7.0530     6.0260     6.3780    23.6360     2.2860    -1.4020 
   82.5000    84.1470     6.6050     5.7120     5.7230    24.0180     2.3000    -1.2220 
   82.6250    89.7020     6.1730     5.3740     5.4720    24.3260     2.3100    -1.0480 
   82.7500    92.1350     5.8350     5.0840     5.3150    24.3930     2.3160    -0.8770 
   82.8750    91.9130     5.6250     4.8760     5.0750    24.2440     2.3220    -0.6970 
   83.0000    90.1640     5.5510     4.7650     4.7160    24.0000     2.3300    -0.5510 
   83.1250    87.8450     5.6150     4.7590     4.5450    23.8480     2.3400    -0.4760 
   83.2500    85.4770     5.7510     4.8170     4.5000    23.8390     2.3460    -0.4530 
   83.3750    84.2070     5.9010     4.9020     4.6300    23.8540     2.3470    -0.5080 
   83.5000    85.6100     6.0090     4.9750     4.7530    23.8100     2.3450    -0.6850 
   83.6250    87.3810     6.0250     4.9990     4.9300    23.8270     2.3430    -0.9030 
   83.7500    85.2490     5.9820     4.9850     5.0670    23.9520     2.3410    -1.1270 
   83.8750    81.7180     5.9420     4.9640     5.0650    24.1100     2.3340    -1.4520 
   84.0000    80.7840     5.9930     4.9910     4.9800    24.1790     2.3170    -1.9180 
   84.1250    82.8900     6.2610     5.1540     5.0320    24.0520     2.2870    -2.5070 
   84.2500    83.6120     6.7670     5.4850     5.2050    23.6960     2.2510    -3.1990 
   84.3750    80.6550     7.4900     5.9890     5.6120    23.1390     2.2200    -3.9560 
   84.5000    75.8280     8.3230     6.6150     6.3710    22.5930     2.2060    -4.6830 
   84.6250    73.3860     9.0430     7.2250     7.4030    22.4800     2.2160    -5.4230 
   84.7500    74.3430     9.4610     7.6560     8.2550    22.6200     2.2400    -6.1900 
   84.8750    75.4990     9.4950     7.8110     9.3100    22.6630     2.2640    -6.9260 
   85.0000    74.7110     9.2000     7.6900    10.6940    22.4290     2.2770    -7.5820 
   85.1250    73.0620     8.7500     7.3850    10.1860    22.2230     2.2690    -8.1570 
   85.2500    72.0240     8.3820     7.0870     8.0330    22.1490     2.2490    -8.6440 
   85.3750    70.1670     8.1970     6.8970     7.0850    22.1530     2.2260    -9.0570 
   85.5000    67.1290     8.1990     6.8480     7.2260    22.1600     2.2080    -9.4680 
   85.6250    64.9090     8.3440     6.9340     7.7020    22.2150     2.1970    -9.8630 
   85.7500    64.2450     8.5270     7.0820     7.9150    22.2740     2.1930   -10.1880 
   85.8750    65.4940     8.6910     7.2400     7.8390    22.2690     2.1920   -10.4310 
   86.0000    67.6690     8.8160     7.3780     7.7920    22.1840     2.1940   -10.6340 
   86.1250    69.0070     8.9120     7.4870     7.9420    22.1370     2.1960   -10.7880 
   86.2500    69.9050     8.9990     7.5770     8.1000    22.1240     2.1990   -10.8590 
   86.3750    71.0490     9.0780     7.6520     8.2690    22.1330     2.2030   -10.8670 
   86.5000    72.0600     9.1370     7.7060     8.3700    22.1600     2.2080   -10.8650 
   86.6250    71.2960     9.1490     7.7230     8.4660    22.2300     2.2100   -10.8430 
   86.7500    69.6230     9.0990     7.6950     8.5270    22.3150     2.2100   -10.7800 
   86.8750    67.4920     8.9760     7.6170     8.5710    22.3870     2.2090   -10.6760 
   87.0000    64.5980     8.7850     7.4910     8.5750    22.4390     2.2070   -10.5420 
   87.1250    63.3970     8.5650     7.3350     8.5180    22.4560     2.2050   -10.4630 
   87.2500    66.2400     8.3960     7.2000     8.4450    22.4560     2.2030   -10.4440 
   87.3750    69.7110     8.3450     7.1310     8.3210    22.4360     2.2030   -10.4170 
   87.5000    69.6480     8.4530     7.1570     8.2580    22.3820     2.2070   -10.3470 
   87.6250    68.3520     8.7340     7.2980     8.5510    22.3090     2.2130   -10.3410 
   87.7500    68.1310     9.0990     7.5000     9.1550    22.2440     2.2180   -10.4140 
   87.8750    67.7670     9.4590     7.7100     9.4810    22.2060     2.2190   -10.4870 
   88.0000    66.5450     9.7170     7.8630     9.5510    22.1840     2.2140   -10.5420 
   88.1250    66.5990     9.7640     7.8850     9.6110    22.1490     2.2050   -10.6110 
   88.2500    67.1580     9.6100     7.7800     9.7470    22.0950     2.1970   -10.6640 
   88.3750    65.7890     9.3330     7.5970     9.9240    22.0460     2.1920   -10.6760 
   88.5000    62.8760     9.1120     7.4450    10.0350    22.0050     2.1910   -10.6760 
   88.6250    61.7660     9.3470     7.5700    10.0100    21.9900     2.1930   -10.6260 
