~V
VERS. 2.00: Ver 2.00
~W
STRT.M 52.0000:
STOP.M 326.0000:
STEP.M 0.1250:
NULL. -999.2500:
UWI. F10108:
~C
DEPT.M :
DEN.GM/CC :
SP.MV :
GR.API :
RML.OHMM :
RI. :
RXO.OHMM :
CALI.CM :
~A
# ...
  220.7500     2.2310   -22.0510    53.9920    80.1540    79.4850    46.4330    25.2790 
  220.8750     2.2280   -22.2210    54.7690    75.6890    74.7810    37.5240    25.3960 
  221.0000     2.2280   -22.3920    53.7150    73.7900    72.5390    40.4270    25.4570 
  221.1250     2.2290   -22.5500    52.0890    75.2410    73.5010    51.1750    25.4440 
  221.2500     2.2300   -22.7210    53.4630    79.7410    77.4010    63.0550    25.4200 
  221.3750     2.2290   -22.9010    55.6870    87.2180    84.2140    68.8940    25.4310 
  221.5000     2.2250   -23.0850    53.7520    97.2290    93.5500    74.8190    25.4680 
  221.6250     2.2200   -23.2460    48.7130   108.8040   104.4990    87.1450    25.4640 
  221.7500     2.2160   -23.3880    46.7700   119.9340   115.0600    99.2440    25.4020 
  221.8750     2.2120   -23.5140    49.4460   128.9690   123.5910   109.1550    25.3180 
  222.0000     2.2100   -23.6200    52.7540   134.7820   128.9640   117.6440    25.2540 
  222.1250     2.2090   -23.7120    52.9760   136.8170   130.5710   119.7540    25.2420 
  222.2500     2.2060   -23.7710    51.0800   136.7780   130.0090   114.5630    25.2240 
  222.3750     2.2020   -23.7580    49.6870   136.0350   128.5780   109.8890    25.1710 
  222.5000     2.2000   -23.6820    49.4740   135.6530   127.3520   108.0460    25.0980 
  222.6250     2.2040   -23.5740    48.7480   136.5180   127.2620   106.5500    25.0620 
  222.7500     2.2120   -23.4500    47.2130   138.7830   128.5360   101.7990    25.0810 
  222.8750     2.2210   -23.3370    45.6900   142.3950   131.1680    95.7840    25.1310 
  223.0000     2.2270   -23.2210    46.3350   146.8360   134.7430    93.4550    25.1630 
  223.1250     2.2270   -23.0760    48.8450   150.6090   138.0390    98.1910    25.1480 
  223.2500     2.2230   -22.9350    50.5110   151.8350   139.3410   107.4190    25.1020 
  223.3750     2.2170   -22.8300    49.7120   149.1220   137.2870   110.8390    25.0670 
  223.5000     2.2110   -22.7670    47.8610   142.3540   131.5490   109.7080    25.0660 
  223.6250     2.2070   -22.7340    48.8430   133.2750   123.3310   104.2440    25.0930 
  223.7500     2.2040   -22.7040    51.2270   125.5620   115.8710    94.0330    25.0900 
  223.8750     2.1990   -22.6510    51.9650   121.6100   111.4970    80.4240    25.0300 
  224.0000     2.1920   -22.5950    49.4630   122.3220   111.3200    70.8980    24.9240 
  224.1250     2.1830   -22.5400    46.2110   127.4830   115.4530    75.8410    24.8360 
  224.2500     2.1770   -22.4680    45.7860   134.3520   121.5040    87.7310    24.8160 
  224.3750     2.1790   -22.3780    47.6590   140.6290   127.3980   109.8310    24.8720 
  224.5000     2.1890   -22.2760    50.1010   144.3050   131.2340   125.1810    24.9400 
  224.6250     2.2030   -22.1590    51.1000   143.8130   131.4080   122.1130    24.9480 
  224.7500     2.2150   -22.0380    50.7570   140.4530   128.8470   109.4270    24.9500 
  224.8750     2.2190   -21.9180    49.8770   135.7140   124.7780   100.7770    25.0000 
  225.0000     2.2170   -21.7780    49.6260   130.9140   120.4200    98.7730    25.1090 
  225.1250     2.2110   -21.6570    50.0240   126.8830   116.6420    99.5710    25.2240 
  225.2500     2.2060   -21.5530    49.7750   123.6350   113.5880   100.8730    25.2870 
  225.3750     2.2020   -21.4720    48.7460   121.0510   111.1970    98.9570    25.2910 
  225.5000     2.1990   -21.3950    48.2990   118.7850   109.1990    93.2370    25.2620 
  225.6250     2.1930   -21.3090    49.0210   115.7610   106.6760    88.3740    25.2580 
  225.7500     2.1890   -21.2190    50.2110   110.6380   102.3500    86.4930    25.2770 
  225.8750     2.1950   -21.1150    49.6420   102.3890    95.1600    92.0080    25.2760 
  226.0000     2.2180   -21.0230    47.2970    90.9760    84.9120    98.9080    25.2310 
  226.1250     2.2660   -20.9450    44.9280    77.6380    72.6020    95.6950    25.1440 
  226.2500     2.3240   -20.8930    44.7370    64.9630    60.7400    76.4380    25.0920 
  226.3750     2.3720   -20.8340    46.6700    54.6360    51.0380    55.8800    25.1110 
  226.5000     2.3930   -20.7770    49.9430    47.5130    44.3440    44.8190    25.1910 
  226.6250     2.3740   -20.7270    52.8900    44.1720    41.1180    41.9590    25.2670 
  226.7500     2.3340   -20.6940    53.0650    43.5690    40.3620    40.0160    25.2960 
  226.8750     2.2890   -20.7040    52.7060    45.0120    41.5090    39.1840    25.2930 
  227.0000     2.2500   -20.7360    54.3390    47.6470    43.8980    42.0230    25.2930 
  227.1250     2.2250   -20.7790    55.4340    50.4350    46.6990    49.3550    25.3120 
  227.2500     2.2140   -20.8110    54.7230    52.4400    48.9750    53.3040    25.2830 
  227.3750     2.2120   -20.8600    54.8240    53.2250    50.1880    54.7450    25.1730 
  227.5000     2.2150   -20.9110    57.1400    52.7910    50.1810    54.8450    25.0220 
  227.6250     2.2180   -20.9710    58.1120    51.4950    49.1320    52.8090    24.8960 
  227.7500     2.2220   -21.0230    57.2880    50.0940    47.7620    50.3750    24.8620 
  227.8750     2.2270   -21.0640    57.1190    48.9710    46.4720    48.6700    24.9210 
  228.0000     2.2330   -21.1080    58.0580    48.2540    45.4400    47.3790    25.0280 
  228.1250     2.2400   -21.1450    59.4660    47.8810    44.6590    47.2210    25.0880 
  228.2500     2.2440   -21.1840    60.9610    47.5440    43.9040    47.6110    25.0960 
  228.3750     2.2460   -21.2050    62.2900    47.0010    42.9760    47.9720    25.1040 
  228.5000     2.2450   -21.2090    62.7260    46.1240    41.7650    48.1650    25.1480 
  228.6250     2.2420   -21.1780    61.6350    45.0340    40.3690    47.4010    25.2020 
  228.7500     2.2400   -21.1350    61.5200    44.2590    39.2370    44.9020    25.2110 
  228.8750     2.2400   -21.0950    61.7330    44.4290    38.9080    41.0170    25.1510 
  229.0000     2.2410   -21.0560    60.0370    46.1090    39.8870    38.5780    25.0400 
  229.1250     2.2390   -21.0150    57.0470    49.8720    42.7660    41.6020    24.9300 
  229.2500     2.2330   -20.9720    57.0330    55.1140    47.1550    49.7040    24.8480 
  229.3750     2.2240   -20.9440    59.1510    60.9970    52.4540    62.6200    24.7430 
  229.5000     2.2160   -20.9390    58.8680    66.3040    57.6330    73.7060    24.5510 
  229.6250     2.2150   -20.9690    56.8280    69.3050    61.0610    71.0290    24.2700 
  229.7500     2.2200   -20.9980    55.8570    69.5120    61.9960    59.3970    23.9830 
  229.8750     2.2310   -21.0120    55.5460    67.0560    60.3570    46.7320    23.7720 
  230.0000     2.2460   -21.0220    56.2120    62.7080    56.7540    37.2380    23.6850 
  230.1250     2.2630   -21.0460    60.7190    57.4190    52.0340    31.6260    23.7230 
  230.2500     2.2790   -21.0790    65.8550    52.1290    47.1590    28.4370    23.8110 
  230.3750     2.2930   -21.1060    65.5230    47.2530    42.5600    26.6150    23.9100 
  230.5000     2.3010   -21.1290    60.3710    43.0940    38.5560    26.6700    24.0390 
  230.6250     2.3020   -21.1410    57.4280    40.1590    35.6170    27.8920    24.2630 
  230.7500     2.2980   -21.1730    59.0570    38.6000    33.8680    29.6350    24.5250 
  230.8750     2.2890   -21.2260    61.8550    38.6590    33.5000    31.1800    24.7210 
  231.0000     2.2750   -21.3000    62.8000    40.4800    34.6380    33.7150    24.7810 
  231.1250     2.2600   -21.3710    61.6920    44.2760    37.5490    38.2970    24.7100 
  231.2500     2.2480   -21.4750    59.4860    49.3660    41.7610    45.6880    24.6060 
  231.3750     2.2440   -21.6170    57.2190    55.1010    46.8060    56.4110    24.5330 
  231.5000     2.2480   -21.7790    56.3770    60.6670    51.9800    67.6530    24.5070 
  231.6250     2.2560   -21.9630    55.7460    65.0330    56.2750    75.4300    24.4930 
  231.7500     2.2610   -22.1580    53.3870    67.8980    59.2050    78.7000    24.4460 
  231.8750     2.2620   -22.3530    51.2540    69.3040    60.6940    79.9360    24.3830 
