~V
VERS. 2.00: Ver 2.00
~W
STRT.M 55.0000:
STOP.M 288.0000:
STEP.M 0.1250:
NULL. -999.2500:
UWI. F10106:
~C
DEPT.M :
DEN.GM/CC :
SP.MV :
GR.API :
RML.OHMM :
RI. :
RXO.OHMM :
CALI.CM :
~A
# ...
  178.7500     2.5100    -6.8650    59.8690    20.4550    19.8300    21.9880    23.9770 
  178.8750     2.4950    -6.9230    58.8220    20.7660    20.2280    21.8220    24.0680 
  179.0000     2.4800    -6.9600    59.0690    20.7190    20.2580    22.0810    24.1440 
  179.1250     2.4680    -6.9660    57.2020    20.3480    19.9290    22.2340    24.2160 
  179.2500     2.4650    -6.9420    55.0730    19.7950    19.3860    21.8880    24.2610 
  179.3750     2.4720    -6.8940    55.6710    19.1230    18.6930    21.0620    24.2630 
  179.5000     2.4900    -6.8280    58.4000    18.3820    17.9080    20.4450    24.2100 
  179.6250     2.5160    -6.7690    56.8270    17.6440    17.1020    19.3960    24.0980 
  179.7500     2.5430    -6.7340    52.3000    17.0040    16.3710    17.7720    23.9720 
  179.8750     2.5670    -6.7100    49.7130    16.5400    15.7980    16.0850    23.8580 
  180.0000     2.5820    -6.6870    50.9250    16.2960    15.4360    14.9830    23.7870 
  180.1250     2.5850    -6.6740    53.0380    16.2710    15.3100    15.1470    23.7860 
  180.2500     2.5800    -6.6710    53.5110    16.3360    15.3190    15.8310    23.8080 
  180.3750     2.5740    -6.6680    52.0630    16.3820    15.3700    16.7680    23.8330 
  180.5000     2.5710    -6.6680    50.8210    16.3110    15.3690    17.5170    23.8830 
  180.6250     2.5740    -6.6570    51.9780    16.0590    15.2300    18.1270    23.9790 
  180.7500     2.5780    -6.6330    53.6680    15.7000    14.9770    18.3670    24.1110 
  180.8750     2.5830    -6.6030    53.3260    15.3120    14.6600    18.0990    24.1970 
  181.0000     2.5880    -6.5710    49.4840    14.9340    14.3090    17.4250    24.2220 
  181.1250     2.5920    -6.5270    44.0340    14.4920    13.8630    16.3700    24.2170 
  181.2500     2.5930    -6.4670    40.8320    13.8170    13.1920    15.6610    24.2090 
  181.3750     2.5910    -6.3970    41.8150    12.7380    12.1490    15.0790    24.1940 
  181.5000     2.5840    -6.3280    46.2920    11.1940    10.6780    13.9460    24.1780 
  181.6250     2.5640    -6.2500    52.2940     9.3070     8.8840    11.8390    24.1720 
  181.7500     2.5290    -6.1610    59.2160     7.4710     7.1300     9.1750    24.2080 
  181.8750     2.4820    -6.0580    66.8850     5.9690     5.6690     6.5320    24.3100 
  182.0000     2.4300    -5.9550    72.6750     4.9460     4.6250     4.5530    24.4150 
  182.1250     2.3850    -5.8650    75.5710     4.4580     4.0590     3.9770    24.4170 
  182.2500     2.3520    -5.7790    78.3160     4.3030     3.8150     3.9490    24.2810 
  182.3750     2.3310    -5.7020    81.3390     4.3600     3.8010     4.1190    24.0790 
  182.5000     2.3180    -5.6330    84.3110     4.5040     3.9250     4.3020    23.9050 
  182.6250     2.3120    -5.5800    86.5320     4.6340     4.1010     4.4500    23.8630 
  182.7500     2.3110    -5.5290    88.1940     4.6890     4.2440     4.4660    23.9240 
  182.8750     2.3170    -5.4930    88.0240     4.6370     4.3180     4.3800    24.0010 
  183.0000     2.3290    -5.4660    86.9590     4.5440     4.3210     4.3080    24.0040 
  183.1250     2.3440    -5.4500    87.2630     4.4850     4.2770     4.2500    23.8860 
  183.2500     2.3560    -5.4630    88.0000     4.4330     4.2340     4.2260    23.7380 
  183.3750     2.3620    -5.4920    86.2010     4.4140     4.2180     4.3090    23.6460 
  183.5000     2.3600    -5.5100    82.6310     4.4450     4.2340     4.5100    23.6340 
  183.6250     2.3530    -5.5120    79.9310     4.5230     4.2770     4.7920    23.6660 
  183.7500     2.3430    -5.5080    78.7530     4.6330     4.3340     4.9970    23.6620 
  183.8750     2.3290    -5.5040    78.4650     4.7440     4.4000     5.0270    23.5950 
  184.0000     2.3100    -5.5100    78.4810     4.8520     4.4710     4.9650    23.4770 
  184.1250     2.2850    -5.5330    79.7250     4.9560     4.5400     5.0170    23.4370 
  184.2500     2.2610    -5.5560    80.8900     5.0490     4.5970     5.1930    23.5990 
  184.3750     2.2450    -5.5750    82.2390     5.1150     4.6300     5.4030    23.8780 
  184.5000     2.2410    -5.6030    83.0850     5.1340     4.6260     5.4830    24.0890 
  184.6250     2.2530    -5.6380    82.0710     5.0800     4.5680     5.3650    24.1310 
  184.7500     2.2710    -5.6870    82.3660     4.9650     4.4640     5.1550    24.1110 
  184.8750     2.2880    -5.7420    84.0280     4.8080     4.3260     4.9300    24.1080 
  185.0000     2.3000    -5.7720    83.5700     4.6370     4.1720     4.7220    24.1270 
  185.1250     2.3040    -5.7680    79.3430     4.4850     4.0280     4.5340    24.1370 
  185.2500     2.3050    -5.7490    77.7730     4.3740     3.9140     4.3890    24.1330 
  185.3750     2.3030    -5.7060    79.8900     4.3170     3.8440     4.3280    24.1190 
  185.5000     2.3010    -5.6300    82.4400     4.3230     3.8280     4.3160    24.1000 
  185.6250     2.2990    -5.5400    82.2990     4.4020     3.8780     4.3600    24.0800 
  185.7500     2.2960    -5.4510    80.9540     4.5290     3.9780     4.4630    24.0560 
  185.8750     2.2910    -5.3670    80.4090     4.6800     4.1060     4.6160    24.0270 
  186.0000     2.2840    -5.3220    81.3140     4.8190     4.2370     4.8040    23.9890 
  186.1250     2.2770    -5.3070    82.0010     4.8980     4.3290     4.9240    23.9570 
  186.2500     2.2740    -5.3020    80.7920     4.9010     4.3610     4.9210    23.9350 
  186.3750     2.2730    -5.3120    79.4500     4.8320     4.3290     4.7630    23.9270 
  186.5000     2.2720    -5.3530    80.1790     4.7220     4.2520     4.5360    23.9220 
  186.6250     2.2640    -5.4010    82.4580     4.6230     4.1690     4.3990    23.9060 
  186.7500     2.2510    -5.4310    83.8750     4.5820     4.1230     4.3840    23.8730 
  186.8750     2.2380    -5.4420    82.1600     4.6140     4.1340     4.4670    23.8120 
  187.0000     2.2300    -5.4280    78.3160     4.7080     4.1980     4.6280    23.7470 
  187.1250     2.2360    -5.4010    78.0700     4.8260     4.2900     4.8010    23.6880 
  187.2500     2.2540    -5.3830    82.8350     4.9120     4.3650     4.9140    23.6260 
  187.3750     2.2810    -5.3740    88.4900     4.9330     4.3940     4.9230    23.5500 
  187.5000     2.3110    -5.3640    91.9100     4.8790     4.3610     4.8080    23.5350 
  187.6250     2.3340    -5.3880    90.5730     4.7580     4.2650     4.5740    23.6090 
  187.7500     2.3440    -5.4550    86.2920     4.6210     4.1460     4.3350    23.7200 
  187.8750     2.3430    -5.5450    81.1940     4.5120     4.0380     4.2360    23.8110 
  188.0000     2.3360    -5.6590    77.2390     4.4650     3.9760     4.2430    23.8510 
  188.1250     2.3350    -5.7780    75.8060     4.5230     3.9990     4.2890    23.8320 
  188.2500     2.3420    -5.8710    75.9990     4.6770     4.1060     4.3580    23.7920 
  188.3750     2.3560    -5.9360    76.8810     4.9120     4.2920     4.5080    23.7780 
  188.5000     2.3740    -5.9850    75.9520     5.1990     4.5340     4.7400    23.8110 
  188.6250     2.3920    -6.0090    74.9750     5.4880     4.7960     5.0020    23.8610 
  188.7500     2.4060    -6.0060    78.2250     5.7280     5.0310     5.1720    23.8440 
  188.8750     2.4100    -5.9950    83.9240     5.8950     5.2110     5.1970    23.7440 
  189.0000     2.3990    -5.9840    86.6190     5.9920     5.3300     5.1550    23.6090 
  189.1250     2.3670    -6.0160    84.7640     6.0480     5.4030     5.2270    23.4670 
  189.2500     2.3180    -6.1000    82.0060     6.1190     5.4750     5.3950    23.3290 
  189.3750     2.2560    -6.2270    78.3290     6.2360     5.5780     5.6200    23.2280 
  189.5000     2.1940    -6.3960    72.1290     6.4080     5.7250     6.0010    23.2050 
  189.6250     2.1510    -6.6120    67.5970     6.6190     5.9150     6.4210    23.1900 
  189.7500     2.1370    -6.8650    67.9570     6.8220     6.1120     6.7470    23.1190 
  189.8750     2.1540    -7.1350    71.5840     6.9760     6.2810     6.9250    23.0570 
