~V
VERS. 2.00: Ver 2.00
~W
STRT.M 44.0000:
STOP.M 255.0000:
STEP.M 0.1250:
NULL. -999.2500:
UWI. F10191:
~C
DEPT.M :
DEN.GM/CC :
SP.MV :
GR.API :
RML.OHMM :
RI. :
RXO.OHMM :
CALI.CM :
~A
# ...
  122.7500     2.3000   -28.4610    61.7990    14.3670    12.0620    11.7800    24.0010 
  122.8750     2.2430   -28.0820    61.3590    13.2730    11.5100    10.9950    24.3130 
  123.0000     2.1980   -27.6610    60.5370    12.0420    10.6700     9.7850    24.4960 
  123.1250     2.1700   -27.2640    61.5230    10.9100     9.7590     8.7590    24.4470 
  123.2500     2.1560   -26.8490    64.2310     9.9230     8.8980     7.7360    24.2250 
  123.3750     2.1590   -26.4340    68.0970     9.1050     8.1310     6.8460    23.9170 
  123.5000     2.1880   -26.1350    72.9390     8.4780     7.4940     6.3920    23.6450 
  123.6250     2.2420   -25.9250    78.8170     8.0470     7.0170     6.2290    23.4640 
  123.7500     2.3020   -25.7140    83.3380     7.7180     6.6530     5.8450    23.3300 
  123.8750     2.3480   -25.6130    83.8410     7.4450     6.3700     5.3790    23.2640 
  124.0000     2.3690   -25.5860    81.5760     7.2110     6.1450     5.0650    23.3030 
  124.1250     2.3530   -25.5600    80.9460     7.0400     5.9690     5.1030    23.4180 
  124.2500     2.3130   -25.6500    79.9480     6.9830     5.8560     5.4750    23.5310 
  124.3750     2.2650   -25.7810    75.9980     7.1490     5.8800     5.9460    23.6260 
  124.5000     2.2230   -25.8670    70.6700     7.6860     6.1650     6.2860    23.6640 
  124.6250     2.2040   -25.9600    67.4960     8.8220     6.9220     6.6720    23.6240 
  124.7500     2.2130   -26.0800    64.4860    10.4520     8.1440     7.7460    23.5450 
  124.8750     2.2510   -26.1550    59.6870    12.3340     9.7180    10.5680    23.4260 
  125.0000     2.3120   -26.2210    55.5460    14.0360    11.3350    16.2740    23.2560 
  125.1250     2.3700   -26.2590    55.2190    15.0010    12.4910    18.1340    23.0820 
  125.2500     2.4070   -26.2300    57.9260    15.4070    13.1320    14.4300    22.9310 
  125.3750     2.4310   -26.2100    61.4330    15.8450    13.5970    11.5600    22.8360 
  125.5000     2.4500   -26.1660    62.6190    16.9870    14.3850    13.1450    22.8600 
  125.6250     2.4610   -26.0510    59.7540    19.3890    16.0280    20.7940    23.0590 
  125.7500     2.4760   -25.9310    53.8520    22.6630    18.4610    27.5350    23.3790 
  125.8750     2.5130   -25.7830    48.0320    26.0280    21.2640    28.7280    23.6760 
  126.0000     2.5660   -25.6100    45.2410    28.3180    23.5690    25.8710    23.7960 
  126.1250     2.5980   -25.4230    45.2860    28.4080    24.2730    22.7730    23.7750 
  126.2500     2.5890   -25.2070    46.4420    27.1070    23.6900    21.4230    23.7750 
  126.3750     2.5470   -24.9830    47.5500    25.4290    22.5270    19.9620    23.8310 
  126.5000     2.4950   -24.7800    48.7210    24.0540    21.3870    18.1690    23.8980 
  126.6250     2.4580   -24.5650    50.1820    23.2980    20.6280    16.8600    23.9110 
  126.7500     2.4510   -24.3770    51.1380    23.0720    20.2820    16.6260    23.8820 
  126.8750     2.4760   -24.2490    50.4830    23.3300    20.3510    17.2430    23.8510 
  127.0000     2.5170   -24.0970    47.7160    24.0060    20.8010    18.1730    23.8570 
  127.1250     2.5560   -24.0160    46.3070    25.0090    21.5730    18.6520    23.9170 
  127.2500     2.5830   -24.0140    46.8800    26.1210    22.4880    20.2580    24.0000 
  127.3750     2.5990   -24.0040    47.5000    27.1880    23.4330    22.8830    24.0420 
  127.5000     2.6060   -24.0050    47.9810    28.0410    24.2830    24.1340    24.0330 
  127.6250     2.5980   -24.1200    47.3540    28.3690    24.7860    25.5580    23.9810 
  127.7500     2.5830   -24.2430    46.0140    28.0460    24.7760    25.0630    23.9400 
  127.8750     2.5670   -24.3480    45.1290    27.0630    24.1830    24.6820    23.9190 
  128.0000     2.5560   -24.5180    46.0990    25.6130    23.1180    24.2440    23.8990 
  128.1250     2.5550   -24.6570    47.6320    24.0830    21.8650    20.7610    23.8650 
  128.2500     2.5620   -24.7470    48.1790    22.8790    20.7900    18.1190    23.8510 
  128.3750     2.5720   -24.8730    48.5740    22.1840    20.0850    17.8740    23.8500 
  128.5000     2.5780   -24.9940    48.3120    21.9930    19.8040    17.8150    23.8530 
  128.6250     2.5810   -25.0120    46.3950    22.1450    19.8990    17.6410    23.8530 
  128.7500     2.5870   -25.0180    45.0240    22.2780    20.0910    18.1490    23.8530 
  128.8750     2.5930   -24.9880    45.2030    22.1420    20.1470    18.2150    23.8520 
  129.0000     2.5930   -24.8840    46.8350    21.6480    19.9200    17.5300    23.8430 
  129.1250     2.5780   -24.7530    47.8650    20.8900    19.3970    15.7740    23.8230 
  129.2500     2.5500   -24.5540    47.8070    20.1230    18.7740    14.4180    23.8260 
  129.3750     2.5110   -24.2970    47.1640    19.4840    18.1830    14.0470    23.9130 
  129.5000     2.4610   -24.0540    46.2030    19.0240    17.7010    14.4710    24.1150 
  129.6250     2.4020   -23.7880    45.4850    18.7540    17.3710    15.3750    24.5250 
  129.7500     2.3470   -23.4710    44.8810    18.6090    17.1650    15.8090    25.0110 
  129.8750     2.3170   -23.1990    44.8680    18.5840    17.0940    15.5460    25.3990 
  130.0000     2.3220   -22.9370    45.4140    18.7120    17.1980    15.1630    25.5610 
  130.1250     2.3600   -22.7070    45.5430    19.0640    17.5630    15.3340    25.4510 
  130.2500     2.3990   -22.5860    44.7090    19.6150    18.1590    16.2720    25.2580 
  130.3750     2.4220   -22.4790    42.3880    20.3220    18.9400    18.6650    25.2130 
  130.5000     2.4340   -22.3510    39.2810    21.0940    19.8100    22.1230    25.2820 
  130.6250     2.4610   -22.3450    39.5080    21.7660    20.6020    23.6210    25.2720 
  130.7500     2.4980   -22.3970    43.6760    22.2230    21.1880    21.6660    25.1680 
  130.8750     2.5170   -22.4440    48.6090    22.4250    21.5110    19.8470    25.0540 
  131.0000     2.4930   -22.5650    50.4770    22.3980    21.5740    18.7830    25.0910 
  131.1250     2.4310   -22.6910    49.9560    22.2110    21.4210    18.1430    25.2970 
  131.2500     2.3690   -22.7840    49.1600    22.0190    21.2130    18.6500    25.5840 
  131.3750     2.3290   -22.9420    47.9810    21.9270    21.0660    19.0920    25.8910 
  131.5000     2.3070   -23.1320    46.6760    21.9780    21.0510    19.3620    26.1310 
  131.6250     2.2940   -23.2480    46.7830    22.1640    21.2020    19.7370    26.1800 
  131.7500     2.2900   -23.3890    48.5450    22.3710    21.4290    20.7530    26.1270 
  131.8750     2.3040   -23.5290    50.4370    22.4990    21.6370    21.6840    26.0590 
  132.0000     2.3300   -23.6270    50.9040    22.5150    21.7680    20.5520    25.9930 
  132.1250     2.3540   -23.7200    49.1830    22.5060    21.8590    19.5810    25.7820 
  132.2500     2.3800   -23.7700    46.8770    22.5950    22.0060    18.6850    25.3180 
  132.3750     2.4020   -23.7610    45.8140    22.8060    22.2470    18.1550    24.9130 
  132.5000     2.4000   -23.6940    46.6840    23.0860    22.5510    18.8830    24.9040 
  132.6250     2.3580   -23.6050    48.6350    23.3000    22.8150    21.2260    25.3600 
  132.7500     2.3000   -23.4830    49.7120    23.3250    22.9160    22.9320    25.9260 
  132.8750     2.2450   -23.3290    50.0820    23.1210    22.7990    22.1360    26.3210 
  133.0000     2.2110   -23.1440    50.2180    22.7620    22.5120    20.7280    26.4210 
  133.1250     2.2120   -22.9900    49.0190    22.4000    22.1840    19.2870    26.1690 
  133.2500     2.2300   -22.8880    45.6780    22.1720    21.9550    18.4270    25.8760 
  133.3750     2.2610   -22.7680    43.1690    22.1390    21.8900    18.4360    25.6260 
  133.5000     2.3160   -22.6990    44.2030    22.2770    21.9850    19.1980    25.2040 
  133.6250     2.3890   -22.7230    47.8730    22.4820    22.1680    20.0610    24.7860 
  133.7500     2.4400   -22.7170    51.0510    22.6240    22.3170    20.7320    24.6420 
  133.8750     2.4460   -22.7570    51.9580    22.6410    22.3620    21.1360    24.7830 
