~V
VERS. 2.00: Ver 2.00
~W
STRT.M 50.0000:
STOP.M 230.0000:
STEP.M 0.1250:
NULL. -999.2500:
UWI. F10167:
~C
DEPT.M :
DEN.GM/CC :
GR.API :
RML.OHMM :
RI. :
RXO.OHMM :
CALI.CM :
SP.MV :
~A
# ...
   61.2500     1.8150    44.4680    13.1390     0.3150     3.1070    25.5760   213.5080 
   61.3750     1.8210    44.7740    11.9470     0.3220     3.2060    25.5480   208.9110 
   61.5000     1.8180    44.3560    11.4090     0.3290     3.1000    25.5350   203.1370 
   61.6250     1.8070    43.1350    11.5310     0.3340     2.9510    25.5240   196.3220 
   61.7500     1.7930    42.2710    11.9620     0.3390     2.7990    25.4960   188.7570 
   61.8750     1.7810    41.9190    12.4220     0.3440     2.5690    25.4570   180.4070 
   62.0000     1.7710    41.8230    12.9080     0.3480     2.3960    25.4160   171.4510 
   62.1250     1.7650    42.3120    13.6930     0.3500     2.3310    25.4000   161.9390 
   62.2500     1.7620    44.2210    13.9720     0.3440     2.3140    25.3950   152.4720 
   62.3750     1.7610    46.1350    12.2830     0.3250     2.2630    25.3950   143.6090 
   62.5000     1.7610    46.6180     8.3380     0.2890     2.1920    25.3950   135.3470 
   62.6250     1.7740    46.6180     4.0740     0.2360     2.1990    25.3930   127.5080 
   62.7500     1.8230    46.8740     1.4710     0.1820     2.1710    25.3750   119.8110 
   62.8750     1.9170    47.1670     0.4570     0.1370     1.9830    25.3350   111.8870 
   63.0000     2.0460    47.6290     0.1760     0.1090     1.6960    25.2850   102.9620 
   63.1250     2.1660    49.1830     0.1570     0.1070     1.4870    25.2640    92.2240 
   63.2500     2.2420    51.7250     0.2600     0.1400     1.4810    25.3100    80.1590 
   63.3750     2.2670    54.6120     0.5110     0.2400     1.9210    25.5440    67.5660 
   63.5000     2.2600    58.7130     0.9930     0.4590     3.5770    25.9270    55.0010 
   63.6250     2.2490    66.0920     1.8340     0.9060     4.9980    25.9300    42.7290 
   63.7500     2.2460    73.8940     2.8860     1.5840     6.0950    25.1410    30.9790 
   63.8750     2.2500    78.8660     3.8950     2.4350     6.3470    24.2740    20.1320 
   64.0000     2.2560    82.1210     4.6250     3.3290     6.7200    23.7800    10.8540 
   64.1250     2.2650    86.2130     5.0200     4.1120     6.7570    23.6830     4.3200 
   64.2500     2.2760    89.0430     5.3170     4.7570     6.6240    23.5840    -0.0060 
   64.3750     2.2820    87.6150     5.6470     5.2770     6.6100    23.3330    -3.1180 
   64.5000     2.2790    82.9950     6.0060     5.6730     7.0050    22.9180    -5.5980 
   64.6250     2.2680    79.0220     6.2750     5.8850     7.4130    22.6340    -7.5020 
   64.7500     2.2560    76.4010     6.3770     5.9130     7.6850    22.5650    -9.0380 
   64.8750     2.2450    76.0590     6.3260     5.7890     7.5410    22.7120   -10.2690 
   65.0000     2.2360    77.1540     6.2440     5.6180     7.0330    22.9000   -11.2900 
   65.1250     2.2300    76.7170     6.3950     5.6220     7.0110    23.0620   -12.0760 
   65.2500     2.2410    74.1140     7.0160     6.0290     7.5050    23.1770   -12.6320 
   65.3750     2.2830    70.5570     8.3660     7.1180     8.2450    23.2890   -13.0220 
   65.5000     2.3620    68.0920    10.7540     9.2020    10.3770    23.4830   -13.3900 
   65.6250     2.4680    65.2620    14.5330    12.5990    16.5430    23.8390   -13.8900 
   65.7500     2.5620    60.9990    18.7170    16.4690    26.2110    24.2200   -14.5290 
   65.8750     2.6130    58.0760    21.5430    19.3810    35.3800    24.3610   -15.2680 
   66.0000     2.6020    59.3660    21.4430    19.9300    37.9040    24.2440   -16.0680 
   66.1250     2.5280    62.8350    18.1950    17.5600    29.9200    23.7680   -17.0160 
   66.2500     2.4260    63.5300    14.1330    14.0760    17.7710    23.0900   -18.0540 
   66.3750     2.3220    62.5690    10.7590    10.8470    10.6310    22.6470   -19.0720 
   66.5000     2.2390    63.0210     8.6140     8.5280     8.3470    22.5670   -19.9770 
   66.6250     2.1840    64.0500     7.6810     7.2480     7.9620    22.6210   -20.7140 
   66.7500     2.1450    62.9850     7.3710     6.6000     7.8540    22.6400   -21.3690 
   66.8750     2.1150    63.1490     7.3770     6.3680     7.8070    22.6210   -21.9580 
   67.0000     2.0900    66.6940     7.5270     6.3830     7.8640    22.5830   -22.4260 
   67.1250     2.0770    69.8040     7.6970     6.5170     7.9600    22.5180   -22.7240 
   67.2500     2.0780    70.2030     7.8210     6.6650     7.8600    22.4730   -22.9960 
   67.3750     2.0910    69.5100     7.8850     6.7860     7.7760    22.5140   -23.3400 
   67.5000     2.1120    68.0180     7.8910     6.8610     7.7500    22.6270   -23.7450 
   67.6250     2.1320    65.0950     7.8440     6.8790     7.7270    22.7070   -24.1200 
   67.7500     2.1460    62.1130     7.7760     6.8560     7.6890    22.7380   -24.4260 
   67.8750     2.1540    60.1740     7.7110     6.8080     7.6800    22.7550   -24.6990 
   68.0000     2.1570    58.7600     7.6710     6.7520     7.6900    22.7910   -24.9810 
   68.1250     2.1550    58.3060     7.6690     6.7060     7.7070    22.8730   -25.2220 
   68.2500     2.1510    59.0440     7.6920     6.6740     7.7320    22.9630   -25.3390 
   68.3750     2.1480    59.4820     7.7290     6.6530     7.7430    23.0430   -25.3610 
   68.5000     2.1490    59.1730     7.7740     6.6440     7.7490    23.0010   -25.3290 
   68.6250     2.1570    60.1280     7.8370     6.6570     7.7700    22.7600   -25.2300 
   68.7500     2.1680    62.2750     7.9250     6.6980     7.7990    22.4250   -25.0680 
   68.8750     2.1770    65.4520     8.0310     6.7660     7.8320    22.1690   -24.8680 
   69.0000     2.1810    68.2140     8.1300     6.8510     7.8460    22.0650   -24.6870 
   69.1250     2.1780    68.5290     8.1770     6.9200     7.8460    22.0470   -24.5750 
   69.2500     2.1700    67.4310     8.1520     6.9440     7.8340    22.0380   -24.4930 
   69.3750     2.1570    67.6500     8.0570     6.9100     7.7960    22.0420   -24.4100 
   69.5000     2.1410    69.8930     7.9200     6.8260     7.7770    22.0610   -24.3870 
   69.6250     2.1310    71.9460     7.7940     6.7210     7.8130    22.0720   -24.5220 
   69.7500     2.1350    74.1040     7.7150     6.6360     7.8770    22.0700   -24.7830 
   69.8750     2.1560    76.1990     7.6950     6.5910     7.8810    22.0820   -25.1210 
   70.0000     2.1860    75.1970     7.7230     6.5880     7.9280    22.1780   -25.4840 
   70.1250     2.2070    70.5560     7.7710     6.6200     8.2010    22.3910   -25.8150 
   70.2500     2.2080    67.4940     7.8100     6.6620     8.4590    22.5450   -26.1500 
   70.3750     2.1890    66.4530     7.8290     6.7010     8.3880    22.5990   -26.5040 
   70.5000     2.1650    64.7180     7.8300     6.7300     8.2280    22.6020   -26.8410 
   70.6250     2.1530    63.2350     7.8160     6.7430     8.2400    22.5900   -27.0710 
   70.7500     2.1570    63.1470     7.7950     6.7430     8.2220    22.5490   -27.1610 
   70.8750     2.1690    62.4690     7.7670     6.7310     8.2030    22.4840   -27.1230 
   71.0000     2.1800    60.0160     7.7300     6.7070     8.2080    22.4100   -26.9670 
   71.1250     2.1810    59.6160     7.6800     6.6660     8.1870    22.3380   -26.7330 
   71.2500     2.1780    62.6440     7.6200     6.6110     8.1260    22.2460   -26.4870 
   71.3750     2.1770    66.6060     7.5570     6.5440     8.0950    22.1520   -26.2170 
   71.5000     2.1820    69.8270     7.4980     6.4720     8.0650    22.0760   -25.8550 
   71.6250     2.1940    72.2110     7.4570     6.4030     8.0060    22.0450   -25.4170 
   71.7500     2.2090    74.1130     7.4330     6.3430     7.9240    22.0400   -25.0200 
   71.8750     2.2220    73.9430     7.4220     6.2910     7.8730    22.0470   -24.6370 
   72.0000     2.2290    71.6590     7.4060     6.2390     7.9380    22.0560   -24.2350 
   72.1250     2.2300    69.3640     7.3520     6.1670     8.0280    22.0730   -23.8430 
   72.2500     2.2280    67.4090     7.2510     6.0620     8.0840    22.1260   -23.4850 
   72.3750     2.2270    66.3610     7.1420     5.9350     8.0850    22.2010   -23.1800 
