~V
VERS. 2.00: Ver 2.00
~W
STRT.M 52.0000:
STOP.M 224.0000:
STEP.M 0.1250:
NULL. -999.2500:
UWI. F10155:
~C
DEPT.M :
SP.MV :
GR.API :
RML.OHMM :
RI. :
RXO.OHMM :
CALI.CM :
DEN.GM/CC :
~A
# ...
  175.7500   -11.2450    71.7810     6.0540     6.1940     4.7300    24.1880     2.4430 
  175.8750   -11.4000    68.5970     5.8500     5.8860     4.8360    24.3690     2.4430 
  176.0000   -11.5270    68.4100     5.7280     5.6470     4.9170    24.3910     2.4210 
  176.1250   -11.6940    67.9660     5.7150     5.5130     4.8490    24.4150     2.3820 
  176.2500   -11.9290    65.9980     5.8200     5.4940     4.7580    24.4190     2.3450 
  176.3750   -12.1910    62.6000     6.0290     5.5810     4.8150    24.4760     2.3290 
  176.5000   -12.4190    59.2570     6.3080     5.7510     5.1070    24.7090     2.3470 
  176.6250   -12.5800    58.6290     6.5790     5.9320     5.5490    24.9460     2.3840 
  176.7500   -12.6920    59.7730     6.7820     6.0670     5.9120    25.0840     2.4210 
  176.8750   -12.7580    59.0120     6.8790     6.1150     5.8380    25.1150     2.4450 
  177.0000   -12.7620    56.2100     6.8650     6.0620     5.4570    25.1340     2.4500 
  177.1250   -12.6660    55.4150     6.8040     5.9630     4.9560    25.2390     2.4420 
  177.2500   -12.4270    56.6160     6.7440     5.8620     4.6850    25.3950     2.4230 
  177.3750   -12.0790    58.0470     6.7160     5.7850     4.8280    25.4440     2.3960 
  177.5000   -11.7560    59.3500     6.7310     5.7480     5.1970    25.4240     2.3650 
  177.6250   -11.5880    58.7170     6.7800     5.7430     5.3630    25.3340     2.3390 
  177.7500   -11.6030    55.1310     6.8700     5.7760     5.2360    25.1220     2.3280 
  177.8750   -11.7760    53.6370     7.0150     5.8570     5.1180    24.6760     2.3330 
  178.0000   -12.0580    62.3940     7.2430     6.0090     5.1360    24.1080     2.3500 
  178.1250   -12.4020    74.9230     7.5210     6.2110     5.4410    24.0950     2.3660 
  178.2500   -12.8160    82.6510     7.8010     6.4230     5.8020    24.5600     2.3710 
  178.3750   -13.2990    83.3980     8.0200     6.5910     5.8600    25.1000     2.3650 
  178.5000   -13.8410    81.5110     8.1100     6.6480     5.9830    25.4110     2.3510 
  178.6250   -14.3730    84.0210     8.0950     6.6060     5.9510    25.5460     2.3400 
  178.7500   -14.9200    91.4570     8.0160     6.5010     5.8170    25.5130     2.3390 
  178.8750   -15.5140    99.7930     7.9330     6.3810     5.6870    25.3680     2.3480 
  179.0000   -16.1650   104.8550     7.9010     6.2940     5.7120    25.2590     2.3650 
  179.1250   -16.8720   108.2750     7.9340     6.2570     6.0020    25.2570     2.3800 
  179.2500   -17.6720   111.3220     8.0230     6.2680     6.2020    25.2600     2.3850 
  179.3750   -18.6250   111.0630     8.1510     6.3170     6.1880    25.2670     2.3800 
  179.5000   -19.7700   106.6270     8.2990     6.3930     5.9740    25.3270     2.3720 
  179.6250   -21.0410   102.8930     8.4550     6.4840     6.0270    25.3820     2.3680 
  179.7500   -22.3310   101.5730     8.6220     6.5910     6.3870    25.3740     2.3690 
  179.8750   -23.5360   100.9750     8.8020     6.7160     6.7500    25.3840     2.3700 
  180.0000   -24.6000    98.7090     9.0040     6.8650     6.9720    25.4360     2.3660 
  180.1250   -25.5200    95.3640     9.2260     7.0290     7.1790    25.4440     2.3560 
  180.2500   -26.2570    94.4480     9.4660     7.2050     7.3660    25.4170     2.3490 
  180.3750   -26.7260    96.7900     9.7240     7.3930     7.5540    25.3520     2.3480 
  180.5000   -26.8150    98.3190     9.9910     7.5930     7.7070    25.3110     2.3540 
  180.6250   -26.6210    95.4240    10.2390     7.7870     7.9020    25.2730     2.3640 
  180.7500   -26.2380    90.6270    10.4310     7.9490     8.2430    25.1850     2.3740 
  180.8750   -25.7700    88.9970    10.5360     8.0500     8.6200    25.0020     2.3820 
  181.0000   -25.2630    92.8540    10.5280     8.0570     8.4870    24.9340     2.3850 
  181.1250   -24.7060    97.1590    10.4520     7.9950     8.0350    24.9310     2.3840 
  181.2500   -24.0400    98.4260    10.3600     7.8950     7.6780    24.9480     2.3800 
  181.3750   -23.2390    96.0790    10.2910     7.7980     7.5770    24.9960     2.3790 
  181.5000   -22.2830    93.2870    10.2460     7.7190     7.5300    25.0490     2.3900 
  181.6250   -21.2350    93.8680    10.1560     7.6240     7.6000    25.0660     2.4140 
  181.7500   -20.0980    99.2080     9.9480     7.4560     7.6960    25.0790     2.4410 
  181.8750   -18.8360   104.5990     9.5750     7.1750     7.6440    25.1510     2.4510 
  182.0000   -17.4120   102.0760     9.0450     6.7760     7.1800    25.4170     2.4240 
  182.1250   -15.8700    94.5170     8.4780     6.3450     6.4900    25.8270     2.3700 
  182.2500   -14.3120    87.5070     7.9740     5.9560     5.9200    26.1120     2.3110 
  182.3750   -12.8770    81.9190     7.6000     5.6600     5.4590    26.2030     2.2720 
  182.5000   -11.6810    74.9800     7.3970     5.4940     5.2870    26.4000     2.2680 
  182.6250   -10.6590    67.2830     7.3070     5.4230     5.1940    26.6070     2.2870 
  182.7500    -9.7750    60.7490     7.2900     5.4190     5.1950    26.6780     2.3140 
  182.8750    -9.0410    57.5840     7.3180     5.4580     5.2240    26.5250     2.3360 
  183.0000    -8.4570    58.5260     7.3880     5.5330     5.2540    26.1810     2.3490 
  183.1250    -7.9760    60.1990     7.4880     5.6330     5.3280    25.9600     2.3540 
  183.2500    -7.5390    61.4980     7.6050     5.7500     5.3190    26.0250     2.3520 
  183.3750    -7.0890    63.5370     7.7040     5.8590     5.1210    26.2600     2.3480 
  183.5000    -6.6130    65.8850     7.7260     5.9120     4.9930    26.3000     2.3480 
  183.6250    -6.0940    69.1150     7.6580     5.8900     5.2500    26.1950     2.3540 
  183.7500    -5.5300    74.3870     7.5100     5.7940     5.2790    26.1190     2.3640 
  183.8750    -4.9210    79.4160     7.3180     5.6500     5.1090    26.3040     2.3750 
  184.0000    -4.3040    79.4590     7.1360     5.4950     5.0820    26.4740     2.3870 
  184.1250    -3.7640    78.9050     7.0050     5.3630     5.1180    26.5070     2.4030 
  184.2500    -3.3420    83.1520     6.9450     5.2730     5.0480    26.3180     2.4230 
  184.3750    -3.0350    90.1380     6.9600     5.2330     4.8290    26.0200     2.4440 
  184.5000    -2.8240    92.2740     7.0480     5.2480     4.6600    25.7170     2.4500 
  184.6250    -2.6930    88.9740     7.1710     5.2950     4.7590    25.5550     2.4320 
  184.7500    -2.6740    83.2540     7.3000     5.3550     4.9640    25.5470     2.3920 
  184.8750    -2.7780    79.3220     7.4060     5.4080     5.1030    25.5770     2.3440 
  185.0000    -3.0060    80.5750     7.4710     5.4340     5.1430    25.4570     2.3120 
  185.1250    -3.3020    85.4960     7.5040     5.4350     5.1410    25.0280     2.2960 
  185.2500    -3.6530    89.7380     7.5200     5.4220     5.2730    24.4860     2.2880 
  185.3750    -4.0830    90.4630     7.5360     5.4100     5.6360    24.2250     2.2720 
  185.5000    -4.6030    90.4270     7.5710     5.4180     5.7810    24.5200     2.2470 
  185.6250    -5.1610    92.9060     7.6360     5.4550     5.6930    24.8260     2.2270 
  185.7500    -5.7100    96.0780     7.7470     5.5290     5.6120    24.9550     2.2230 
  185.8750    -6.2190    96.8440     7.9160     5.6490     5.8970    24.9190     2.2380 
  186.0000    -6.6670    95.7740     8.1630     5.8340     6.3120    24.7610     2.2690 
  186.1250    -7.0400    96.1900     8.4570     6.0720     6.8400    24.5380     2.3050 
  186.2500    -7.3480    96.0050     8.7540     6.3370     7.0250    24.3580     2.3400 
  186.3750    -7.5840    92.8510     8.9860     6.5830     7.0230    24.3610     2.3730 
  186.5000    -7.7040    88.6480     9.0610     6.7300     7.1630    24.5290     2.3990 
  186.6250    -7.7060    87.1570     8.9710     6.7500     7.0210    24.6900     2.4150 
  186.7500    -7.6130    86.9280     8.7490     6.6520     6.7100    24.9450     2.4160 
  186.8750    -7.4650    87.9110     8.4670     6.4830     6.4490    25.2780     2.4010 
