~V
VERS. 2.00: Ver 2.00
~W
STRT.M 50.0000:
STOP.M 223.0000:
STEP.M 0.1250:
NULL. -999.2500:
UWI. F10135:
~C
DEPT.M :
SP.MV :
DEN.GM/CC :
GR.API :
RML.OHMM :
RI. :
RXO.OHMM :
CALI.CM :
~A
# ...
  117.5000   -17.4210     2.1880    89.3570     6.9500     6.0240     7.8310    26.0160 
  117.6250   -18.6380     2.1990    82.9110     7.2160     6.4250     7.9930    26.0160 
  117.7500   -19.7270     2.2190    77.9160     7.2950     6.6490     7.9580    26.0160 
  117.8750   -20.6060     2.2390    77.8010     7.2570     6.7210     8.0380    26.0160 
  118.0000   -21.2400     2.2510    80.0430     7.1910     6.6970     8.2990    26.0160 
  118.1250   -21.6120     2.2520    79.9790     7.2090     6.6570     8.6740    26.0160 
  118.2500   -21.8280     2.2440    77.9600     7.3820     6.6890     8.8230    26.0160 
  118.3750   -21.9900     2.2310    76.4570     7.7420     6.8530     8.9940    26.0160 
  118.5000   -22.1660     2.2160    74.7320     8.2610     7.1670     9.0640    26.0160 
  118.6250   -22.3690     2.2020    72.1080     8.8320     7.5980    10.1710    26.0160 
  118.7500   -22.6080     2.1910    70.9970     9.2970     8.0220    12.7690    26.0160 
  118.8750   -22.8560     2.1840    70.4700     9.5570     8.3400    15.3530    26.0160 
  119.0000   -23.0990     2.1800    70.2420     9.5930     8.4970    14.7710    26.0170 
  119.1250   -23.3930     2.1780    70.3770     9.4520     8.4840    12.1030    26.0180 
  119.2500   -23.6410     2.1770    71.0030     9.2640     8.3910    10.8850    26.0150 
  119.3750   -23.7660     2.1800    72.8580     9.0840     8.2690    11.8750    25.9990 
  119.5000   -23.7690     2.1850    75.5530     8.9170     8.1380    13.2540    25.9650 
  119.6250   -23.6830     2.1940    77.9320     8.7280     7.9830    12.6850    25.9470 
  119.7500   -23.5330     2.2030    79.6910     8.5040     7.7960    11.1300    25.9350 
  119.8750   -23.2960     2.2100    81.7390     8.2670     7.5890    10.5350    25.9150 
  120.0000   -23.0290     2.2150    82.9650     8.0650     7.3980    10.3150    25.8870 
  120.1250   -22.7600     2.2140    79.5690     7.9630     7.2830     9.9400    25.8550 
  120.2500   -22.4940     2.2090    75.4770     7.9690     7.2630     9.5760    25.7890 
  120.3750   -22.2230     2.2010    74.3850     8.0740     7.3370     9.5700    25.6920 
  120.5000   -21.9350     2.1900    73.7060     8.2580     7.4920     9.5630    25.6060 
  120.6250   -21.6210     2.1800    70.1580     8.5140     7.7190     9.6630    25.5370 
  120.7500   -21.2810     2.1730    66.3920     8.8240     7.9930    10.0300    25.5100 
  120.8750   -20.9260     2.1690    64.8120     9.1750     8.3080    10.6390    25.5020 
  121.0000   -20.5170     2.1720    65.8370     9.5570     8.6560    10.7580    25.5020 
  121.1250   -19.9720     2.1860    67.8080     9.9570     9.0300    10.1580    25.5070 
  121.2500   -19.2800     2.2110    68.8050    10.3610     9.4150    10.0360    25.5390 
  121.3750   -18.4650     2.2480    68.8790    10.7720     9.8050    10.4100    25.6150 
  121.5000   -17.5800     2.2930    69.9700    11.2060    10.2070    11.1690    25.6900 
  121.6250   -16.6710     2.3400    71.5090    11.6870    10.6430    11.6140    25.7220 
  121.7500   -15.7780     2.3840    70.9630    12.2080    11.1230    11.6380    25.7260 
  121.8750   -14.9130     2.4210    68.2360    12.7320    11.6370    11.7100    25.7250 
  122.0000   -14.0690     2.4490    65.1600    13.1950    12.1490    12.3370    25.7230 
  122.1250   -13.3150     2.4640    63.6310    13.4940    12.5770    12.9290    25.7230 
  122.2500   -12.7100     2.4690    62.6780    13.6050    12.8650    12.9430    25.7270 
  122.3750   -12.2200     2.4640    62.2350    13.5560    12.9920    12.7250    25.7490 
  122.5000   -11.8090     2.4570    62.7650    13.4480    13.0000    12.4370    25.7980 
  122.6250   -11.4850     2.4540    63.6590    13.4940    13.0270    12.6230    25.8710 
  122.7500   -11.2380     2.4590    63.9230    13.8560    13.2500    12.8570    25.9630 
  122.8750   -11.0400     2.4680    62.8960    14.5850    13.7890    13.3070    26.0690 
  123.0000   -10.8980     2.4730    61.0550    15.5170    14.6010    13.9310    26.1410 
  123.1250   -10.8410     2.4640    58.4270    16.1010    15.2960    15.0390    26.1600 
  123.2500   -10.8120     2.4390    56.8040    15.8010    15.3050    16.9760    26.1630 
  123.3750   -10.7820     2.4020    58.8940    14.4180    14.3100    19.6790    26.1630 
  123.5000   -10.7560     2.3610    65.6740    12.2640    12.4670    19.4950    26.1630 
  123.6250   -10.7680     2.3290    76.3690    10.1470    10.4090    13.2320    26.1630 
  123.7500   -10.8100     2.3150    87.4200     8.8090     8.8560     7.7550    26.1630 
  123.8750   -10.8480     2.3260    93.2930     8.5860     8.1530     6.0560    26.1630 
  124.0000   -10.8460     2.3590    89.4270     9.5450     8.4460     6.6720    26.1630 
  124.1250   -10.8020     2.4040    77.3920    11.7000     9.9430    10.4540    26.1630 
  124.2500   -10.7480     2.4400    65.3750    14.4490    12.3080    17.2000    26.1630 
  124.3750   -10.7400     2.4580    57.2790    17.1290    15.0500    22.7720    26.1630 
  124.5000   -10.7710     2.4590    54.1840    19.0130    17.4150    21.9220    26.1630 
  124.6250   -10.7960     2.4490    57.4670    19.4980    18.5440    19.0110    26.1630 
  124.7500   -10.7860     2.4400    62.6070    19.0720    18.6100    17.3680    26.1630 
  124.8750   -10.7630     2.4370    64.3760    18.3730    18.1330    16.7980    26.1630 
  125.0000   -10.7820     2.4450    61.5790    18.1110    17.6820    16.5890    26.1630 
  125.1250   -10.8430     2.4640    58.8690    18.7100    17.6100    16.9660    26.1630 
  125.2500   -10.9460     2.4900    59.0140    19.6130    17.7970    17.9070    26.1630 
  125.3750   -11.0360     2.5190    60.4520    20.1880    18.0070    19.6120    26.1630 
  125.5000   -11.0980     2.5420    61.2220    20.0950    17.9770    20.6250    26.1630 
  125.6250   -11.1970     2.5490    62.6170    19.2640    17.4450    19.5430    26.1630 
  125.7500   -11.3540     2.5360    65.5510    17.9230    16.4660    16.2030    26.1630 
  125.8750   -11.5520     2.5030    69.2410    16.2380    15.1590    14.6790    26.1630 
  126.0000   -11.7440     2.4530    71.7600    14.4490    13.6860    14.5450    26.1630 
  126.1250   -11.9490     2.3970    72.9800    12.8100    12.2370    13.4920    26.1600 
  126.2500   -12.1550     2.3440    75.0130    11.4580    10.9620    12.5260    26.1570 
  126.3750   -12.3560     2.3010    79.5760    10.4680     9.9560    10.1650    26.1580 
  126.5000   -12.5900     2.2710    85.7660     9.8460     9.2650     8.2610    26.1610 
  126.6250   -12.8200     2.2530    88.5560     9.5460     8.9010     7.8390    26.1630 
  126.7500   -12.9740     2.2410    87.5150     9.3470     8.6890     8.4010    26.1610 
  126.8750   -13.0680     2.2350    84.7560     9.0690     8.4650     8.8260    26.1510 
  127.0000   -13.1380     2.2340    83.1200     8.5800     8.0850     8.6300    26.1250 
  127.1250   -13.1260     2.2450    84.2640     7.8430     7.4640     7.9340    26.0920 
  127.2500   -13.0220     2.2640    88.7700     7.0430     6.7300     6.9420    26.0630 
  127.3750   -12.9080     2.2840    94.4410     6.3840     6.0520     5.9030    26.0350 
  127.5000   -12.8070     2.2970    98.4070     6.0580     5.6070     5.2460    26.0200 
  127.6250   -12.6760     2.2990   101.7130     6.2690     5.6140     4.9940    26.0160 
  127.7500   -12.5530     2.2980   104.9410     6.9400     6.0710     5.2140    26.0160 
  127.8750   -12.4580     2.3010   103.3600     7.9320     6.9190     6.4970    26.0150 
  128.0000   -12.3850     2.3090    94.3370     8.9660     7.9490     9.9230    26.0030 
  128.1250   -12.3340     2.3180    86.1690     9.5590     8.7200    17.5520    25.8970 
  128.2500   -12.3230     2.3190    85.0880     9.4860     8.9030    16.5830    25.6530 
  128.3750   -12.3480     2.3120    87.2030     8.7870     8.4340    10.6040    25.7110 
  128.5000   -12.3650     2.2990    89.0330     7.7510     7.5220     6.8120    25.8390 
  128.6250   -12.3540     2.2880    93.0850     6.7800     6.5350     5.9850    25.8620 
