~V
VERS. 2.00: Ver 2.00
~W
STRT.M 50.0000:
STOP.M 230.0000:
STEP.M 0.1250:
NULL. -999.2500:
UWI. F10167:
~C
DEPT.M :
DEN.GM/CC :
GR.API :
RML.OHMM :
RI. :
RXO.OHMM :
CALI.CM :
SP.MV :
~A
# ...
  162.5000     2.2520    80.8700    17.8210    15.1350    16.1220    24.6890    -1.0720 
  162.6250     2.2570    79.9900    18.6940    16.1200    16.7200    24.6890    -1.0750 
  162.7500     2.2580    77.5900    18.6190    16.3330    18.2310    24.6890    -1.0900 
  162.8750     2.2550    75.8160    17.5340    15.6240    19.9110    24.6890    -1.1680 
  163.0000     2.2510    75.6360    15.7450    14.1900    19.0530    24.6820    -1.2160 
  163.1250     2.2460    76.4960    13.8570    12.5150    13.9470    24.6780    -1.2570 
  163.2500     2.2430    77.8600    12.4600    11.1450    10.3230    24.6970    -1.3430 
  163.3750     2.2400    78.1640    11.8660    10.3640     9.2100    24.7510    -1.3950 
  163.5000     2.2330    76.4180    12.2310    10.3320     9.9090    24.7810    -1.4120 
  163.6250     2.2210    75.1720    13.8070    11.3270    11.4590    24.7910    -1.5280 
  163.7500     2.2060    75.6230    16.4160    13.3240    14.0240    24.8440    -1.6240 
  163.8750     2.1930    76.5220    19.9170    16.3600    19.0140    24.9840    -1.6300 
  164.0000     2.1820    75.6920    23.9500    20.2800    24.1660    25.0990    -1.6270 
  164.1250     2.1760    73.5090    27.7540    24.5520    27.5280    25.1420    -1.6180 
  164.2500     2.1720    72.0490    30.4190    28.1230    28.6570    25.1510    -1.5690 
  164.3750     2.1710    72.4640    31.1850    29.9770    29.5950    25.1470    -1.5290 
  164.5000     2.1740    73.8760    29.6980    29.4330    29.5460    25.1490    -1.5050 
  164.6250     2.1820    74.3970    26.0660    26.3070    27.4700    25.1350    -1.4120 
  164.7500     2.1950    74.0530    21.7200    22.0890    24.8490    25.1200    -1.3770 
  164.8750     2.2100    73.5770    17.8110    18.0100    19.8120    25.0730    -1.4230 
  165.0000     2.2230    75.4080    15.2340    14.9780    13.3150    24.9530    -1.4530 
  165.1250     2.2330    80.6030    14.8830    13.7210    10.1760    24.8440    -1.5570 
  165.2500     2.2380    83.4570    16.7550    14.2330    10.2370    24.8360    -1.7380 
  165.3750     2.2410    80.6950    21.0590    16.8560    14.8640    24.8940    -1.9230 
  165.5000     2.2410    75.7670    27.8720    22.0550    26.7260    24.8830    -2.1370 
  165.6250     2.2330    72.4210    37.0660    30.4410    41.2900    24.8540    -2.4270 
  165.7500     2.2160    69.7440    47.0490    40.6770    43.8340    24.8370    -2.6760 
  165.8750     2.1930    66.6040    56.3860    51.1400    42.3070    24.8370    -2.9060 
  166.0000     2.1700    63.7710    64.0490    60.2780    50.2390    24.8460    -3.2400 
  166.1250     2.1570    62.5940    69.6420    67.1090    48.3810    24.8660    -3.5720 
  166.2500     2.1550    64.1550    74.0290    72.3320    37.1300    24.8730    -3.8400 
  166.3750     2.1620    67.9250    77.7020    76.3650    37.7050    24.8350    -4.1650 
  166.5000     2.1740    70.0560    80.5530    79.2350    49.6740    24.7650    -4.5020 
  166.6250     2.1880    68.3480    81.7070    80.4470    66.3000    24.7040    -4.8030 
  166.7500     2.2050    67.2880    81.1500    80.1430    64.9870    24.6640    -5.2060 
  166.8750     2.2260    68.6640    79.4100    78.6210    60.8740    24.6350    -5.6470 
  167.0000     2.2480    70.3540    77.4180    76.5600    56.8600    24.6170    -6.0050 
  167.1250     2.2630    70.5660    76.3720    75.1790    54.5690    24.5710    -6.3620 
  167.2500     2.2650    69.8670    77.0590    75.4570    50.6450    24.4520    -6.7190 
  167.3750     2.2560    68.5800    79.5850    77.8570    48.3140    24.3180    -6.9710 
  167.5000     2.2410    67.5340    83.7390    82.1790    50.7580    24.2750    -7.2230 
  167.6250     2.2290    68.6660    91.1330    87.5740    59.6000    24.3690    -7.4840 
  167.7500     2.2230    71.1740   100.5230    92.5160    67.2510    24.4540    -7.6190 
  167.8750     2.2220    71.4660   108.1830    95.9870    70.5220    24.5560    -7.7300 
  168.0000     2.2240    69.0670   111.0130    97.5490    74.3960    24.7250    -7.8560 
  168.1250     2.2250    67.0240   109.5470    97.3210    80.6830    24.9840    -7.8550 
  168.2500     2.2260    65.0600   107.7110    96.4320    83.6480    25.2620    -7.8560 
  168.3750     2.2270    63.9290   106.3450    95.5370    83.8460    25.4540    -7.9430 
  168.5000     2.2260    66.4180   105.3080    94.8480    84.6630    25.5380    -7.9760 
  168.6250     2.2230    71.2190   104.1490    94.0640    87.4440    25.5770    -7.9640 
  168.7500     2.2190    72.2570   102.3990    92.7620    88.8430    25.6080    -8.0160 
  168.8750     2.2190    67.9890   100.0180    90.8120    88.0120    25.6320    -8.0490 
  169.0000     2.2270    64.0300    97.4830    88.5110    81.6620    25.6470    -8.0190 
  169.1250     2.2410    66.5060    96.0580    86.8270    68.7920    25.5950    -8.0410 
  169.2500     2.2550    72.0900    96.9430    86.8700    61.3500    25.5110    -8.1170 
  169.3750     2.2620    75.8770   101.2850    89.7600    65.0000    25.4760    -8.1690 
  169.5000     2.2590    74.8370   110.0720    96.5490    73.5180    25.4910    -8.2400 
  169.6250     2.2420    70.0370   124.9810   109.0080    89.3160    25.5280    -8.3160 
  169.7500     2.2160    64.4070   145.1910   126.6100   108.9340    25.7180    -8.3000 
  169.8750     2.1840    58.7660   169.1620   148.2080   113.7730    26.0870    -8.3120 
  170.0000     2.1520    53.6350   192.8370   170.5060   110.4260    26.5730    -8.4040 
  170.1250     2.1290    49.9800   207.6520   186.3690   112.6550    27.0200    -8.4750 
  170.2500     2.1220    48.0850   209.1420   191.1760   130.5760    27.3290    -8.5170 
  170.3750     2.1330    48.9420   197.9850   184.3270   155.3260    27.3220    -8.5650 
  170.5000     2.1560    52.1740   180.1480   169.9290   160.0660    27.0450    -8.5550 
  170.6250     2.1790    56.0320   164.2260   155.1910   140.8800    26.6150    -8.5340 
  170.7500     2.1930    58.5910   154.8520   145.6040   125.0740    26.3510    -8.5890 
  170.8750     2.1970    60.0210   152.2850   142.5030   133.9600    26.2550    -8.5630 
  171.0000     2.1950    58.8360   154.1360   144.3800   139.4340    26.2590    -8.4580 
  171.1250     2.1930    55.4960   155.8720   147.3710   144.0080    26.2650    -8.4420 
  171.2500     2.1940    54.1330   153.2490   146.9540   131.9370    26.2460    -8.3720 
  171.3750     2.1980    55.5420   144.8270   141.0240   121.6590    26.2230    -8.2160 
  171.5000     2.2050    57.5200   132.0570   130.1330   114.3740    26.2060    -8.1780 
  171.6250     2.2110    59.3390   118.7040   117.2170   105.0310    26.1830    -8.2090 
  171.7500     2.2160    61.8580   108.3340   106.1320    90.5560    26.1640    -8.1140 
  171.8750     2.2160    62.9150   102.4430    98.7760    78.9810    26.1620    -8.0420 
  172.0000     2.2120    61.2040   101.4180    95.8490    75.0290    26.1690    -8.0620 
  172.1250     2.2060    58.8690   105.9800    98.1640    82.4000    26.1640    -7.9830 
  172.2500     2.2000    57.7030   115.0820   104.7480    95.2020    26.1090    -7.9220 
  172.3750     2.1920    56.4120   128.0870   114.9960   104.0770    26.0320    -7.9710 
  172.5000     2.1840    54.2680   144.4070   127.7040   104.2240    25.9680    -7.9150 
  172.6250     2.1810    52.4120   160.9010   141.0610   114.4090    26.0140    -7.7560 
  172.7500     2.1830    52.4190   171.5950   153.3670   141.4250    26.1260    -7.7690 
  172.8750     2.1880    53.2210   176.0750   164.2730   149.8190    26.1390    -7.7430 
  173.0000     2.1900    52.3040   180.2620   174.5720   127.8990    25.9740    -7.5650 
  173.1250     2.1830    48.8480   190.8180   185.7330   105.3250    25.8180    -7.4150 
  173.2500     2.1690    45.7110   204.7190   197.6790   113.1960    25.6600    -7.1990 
  173.3750     2.1540    44.8950   216.6910   208.2120   137.6660    25.4360    -6.9310 
  173.5000     2.1430    47.5910   222.4820   213.5460   138.8170    25.1060    -6.7640 
  173.6250     2.1400    52.2940   216.0840   208.5030   110.0960    24.6500    -6.5950 
