~V
VERS. 2.00: Ver 2.00
~W
STRT.M 57.0000:
STOP.M 247.0000:
STEP.M 0.1250:
NULL. -999.2500:
UWI. F10194:
~C
DEPT.M :
SP.MV :
DEN.GM/CC :
GR.API :
RML.OHMM :
RI. :
RXO.OHMM :
CALI.CM :
~A
# ...
  237.0000    -6.1090     2.4150    69.3550     7.7370     6.9110     8.4520    23.4550 
  237.1250    -6.2660     2.3860    69.6630     7.8530     7.0590     9.1640    23.7620 
  237.2500    -6.3610     2.3260    69.6630     7.9000     7.1400     9.6590    24.1060 
  237.3750    -6.3430     2.2290    69.6630     7.8970     7.1590     9.2610    24.6120 
  237.5000    -6.3040     2.1240    69.6630     7.8720     7.1410     7.8680    25.0950 
  237.6250    -6.3130     2.0560    69.6630     7.8510     7.1180     6.5300    25.2620 
  237.7500    -6.3890     2.0540    69.6630     7.8520     7.1140     5.9450    25.2500 
  237.8750    -6.5300     2.1240    69.6630     7.8920     7.1540     6.1160    25.2440 
  238.0000    -6.7020     2.2300    69.6630     7.9780     7.2490     6.7100    25.2430 
  238.1250    -6.8640     2.3200    69.6630     8.1040     7.3920     7.3590    25.3280 
  238.2500    -6.9750     2.3680    69.6630     8.2510     7.5700     7.8680    25.3500 
  238.3750    -6.9970     2.3820    69.6630     8.3890     7.7550     8.2860    25.1670 
  238.5000    -6.9570     2.3860    69.6630     8.4870     7.9170     8.6400    24.9170 
  238.6250    -6.9260     2.3930    69.6630     8.5240     8.0270     8.8640    24.8050 
  238.7500    -6.8940     2.4070    69.6630     8.4940     8.0730     8.8980    24.8330 
  238.8750    -6.8440     2.4180    69.6630     8.4020     8.0520     8.7310    24.8030 
  239.0000    -6.8300     2.4120    69.6630     8.2720     7.9800     8.4700    24.6610 
  239.1250    -6.8000     2.3900    69.6630     8.1310     7.8880     8.2320    24.4970 
  239.2500    -6.7460     2.3690    69.6630     8.0050     7.8010     8.0770    24.3420 
  239.3750    -6.7550     2.3600    69.6630     7.9200     7.7460     8.1140    24.2650 
  239.5000    -6.8450     2.3530    69.6630     7.8860     7.7340     8.3520    24.2670 
  239.6250    -6.9370     2.3400    69.6630     7.9010     7.7690     8.6670    24.2830 
  239.7500    -6.9630     2.3240    69.6630     7.9520     7.8450     8.9810    24.2680 
  239.8750    -6.9490     2.3220    69.6630     8.0200     7.9530     9.1680    24.1680 
  240.0000    -6.8840     2.3410    69.6630     8.0900     8.0740     9.2970    23.9960 
  240.1250    -6.7900     2.3690    69.6630     8.1610     8.1910     9.4340    23.8680 
  240.2500    -6.6950     2.3940    69.6630     8.2480     8.2920     9.5500    23.8060 
  240.3750    -6.5850     2.4060    69.6630     8.3820     8.3760     9.6320    23.7510 
  240.5000    -6.4490     2.4050    69.6630     8.5770     8.4510     9.7040    23.7190 
  240.6250    -6.3320     2.3990    69.6630     8.8210     8.5290     9.8830    23.7810 
  240.7500    -6.2930     2.3990    69.6630     9.0790     8.6130    10.3770    23.9330 
  240.8750    -6.3040     2.4150    69.6630     9.2950     8.6940    11.1670    23.9690 
  241.0000    -6.3040     2.4440    69.6630     9.4420     8.7610    11.9070    23.8540 
  241.1250    -6.2890     2.4710    69.6630     9.5280     8.8060    12.5090    23.7640 
  241.2500    -6.3240     2.4870    69.6630     9.5760     8.8300    13.2910    23.7670 
  241.3750    -6.4220     2.4980    69.6630     9.6110     8.8380    14.4910    23.7750 
  241.5000    -6.5090     2.5070    69.6630     9.6460     8.8390    15.6550    23.7340 
  241.6250    -6.5090     2.5070    69.6630     9.6830     8.8380    16.3690    23.7050 
  241.7500    -6.4150     2.4850    69.6630     9.7150     8.8370    16.7380    23.7300 
  241.8750    -6.2500     2.4390    69.6630     9.7350     8.8340    16.0420    23.7760 
  242.0000    -6.0910     2.3990    69.6630     9.7360     8.8310    15.5400    23.8490 
  242.1250    -5.9710     2.3930    69.6630     9.7190     8.8280    16.2420    23.9160 
  242.2500    -5.8140     2.4200    69.6630     9.6870     8.8260    17.8950    24.0090 
  242.3750    -5.5380     2.4590    69.6630     9.6520     8.8260    19.0000    23.7150 
  242.5000    -5.1440     2.4890    69.6630     9.6250     8.8290    18.6470    23.3400 
  242.6250    -4.7280     2.5020    69.6630     9.6120     8.8320    17.3100    23.1770 
  242.7500    -4.3810     2.4920    69.6630     9.6090     8.8340    16.5690    23.1920 
  242.8750    -4.1270     2.4590    69.6630     9.6100     8.8340    15.9180    23.3350 
  243.0000    -3.9370     2.4210    69.6630     9.6110     8.8340    14.0370    23.6370 
  243.1250    -3.8480     2.3990    69.6630     9.6110     8.8340    11.8570    24.1770 
  243.2500    -3.9170     2.3980    69.6630     9.6110     8.8340    10.6870    25.0500 
  243.3750    -4.1100     2.4140    69.6630     9.6110     8.8340    10.3880    24.7820 
  243.5000    -4.3950     2.4370    69.6630     9.6110     8.8340    10.4410    23.9460 
  243.6250    -4.7620     2.4570    69.6630     9.6110     8.8340    10.8640    23.5100 
  243.7500    -5.1770     2.4630    69.6630     9.6110     8.8340    11.6850    23.3520 
  243.8750    -5.5680     2.4530    69.6630     9.6110     8.8340    12.5420    23.2900 
  244.0000    -5.8860     2.4370    69.6630     9.6110     8.8340    13.1470    23.2510 
  244.1250    -6.0890     2.4290    69.6630     9.6110     8.8340    13.2650    23.1970 
  244.2500    -6.1350     2.4320    69.6630     9.6110     8.8340    12.8600    23.0420 
  244.3750    -6.1370     2.4410    69.6630     9.6110     8.8340    12.1660    22.7970 
  244.5000    -6.1780     2.4430    69.6630     9.6110     8.8340    11.6820    22.6150 
  244.6250    -6.2190     2.4290    69.6630     9.6110     8.8340    11.5570    22.5430 
  244.7500    -6.2350     2.3950    69.6630     9.6110     8.8340    11.8780    22.5220 
  244.8750    -6.2840     2.3370    69.6630     9.6110     8.8340    12.3770    22.5010 
  245.0000  -999.2500     2.2720    69.6630     9.6110     8.8340    12.4620    22.4250 
  245.1250  -999.2500     2.2110    69.6630     9.6110     8.8340    11.7100    22.1690 
  245.2500  -999.2500     2.1520    69.6630     9.6110     8.8340    10.4350    21.6860 
  245.3750  -999.2500     2.0830    69.6630     9.6110     8.8340     9.0500    21.2140 
  245.5000  -999.2500     2.0050    69.6630     9.6110     8.8340     7.7340    20.7940 
  245.6250  -999.2500     1.9200    69.6630     9.6110     8.8340     6.6430    20.1040 
  245.7500  -999.2500     1.8280    69.6630     9.6110     8.8340     5.8470    18.8090 
  245.8750  -999.2500     1.7470    69.6630     9.6110     8.8340     5.4010    17.3190 
  246.0000  -999.2500     1.6960    69.6630     9.6110     8.8340     5.2330    16.4030 
  246.1250  -999.2500     1.6770    69.6630     9.6110     8.8340     5.1920    16.1130 
  246.2500  -999.2500     1.6720    69.6630     9.6110     8.8340     5.1870    16.0690 
  246.3750  -999.2500     1.6710    69.6630     9.6110     8.8340     5.1870    16.0670 
  246.5000  -999.2500     1.6720    69.6630     9.6110     8.8340     5.1870    16.0670 
  246.6250  -999.2500     1.6730    69.6630     9.6110     8.8340     5.1870    16.0670 
  246.7500  -999.2500     1.6740    69.6630     9.6110     8.8340     5.1860    16.0670 
  246.8750  -999.2500     1.6760    69.6630     9.6110     8.8340     5.1860    16.0670 
  247.0000  -999.2500     1.6770    69.6630     9.6110     8.8340     5.1850    16.0670 
