~V
VERS. 2.00: Ver 2.00
~W
STRT.M 52.0000:
STOP.M 236.0000:
STEP.M 0.1250:
NULL. -999.2500:
UWI. F10181:
~C
DEPT.M :
GR.API :
RML.OHMM :
RI. :
RXO.OHMM :
CALI.CM :
DEN.GM/CC :
SP.MV :
~A
# ...
  220.7500    61.1460     9.0730     8.4400     7.6600    24.0340     2.3670    -4.8890 
  220.8750    62.9700     9.1570     8.5790     7.9860    24.0340     2.3800    -4.9420 
  221.0000    63.4410     9.2190     8.6780     8.2740    24.0240     2.4000    -5.0410 
  221.1250    64.3740     9.2820     8.7480     8.6030    23.9910     2.4260    -5.1020 
  221.2500    65.6780     9.3370     8.7890     9.0170    23.9380     2.4520    -5.1410 
  221.3750    65.6000     9.3600     8.7840     9.1450    23.8990     2.4720    -5.1900 
  221.5000    63.3650     9.3350     8.7220     9.1520    23.8970     2.4800    -5.2050 
  221.6250    60.9200     9.2680     8.6070     9.0770    23.9450     2.4700    -5.1950 
  221.7500    60.7060     9.2030     8.4850     8.8670    24.0230     2.4500    -5.2170 
  221.8750    61.7190     9.1860     8.3980     8.3830    24.0730     2.4270    -5.2630 
  222.0000    62.6510     9.2460     8.3780     8.0160    24.0910     2.4080    -5.2900 
  222.1250    62.5670     9.3930     8.4470     8.1040    24.0920     2.4010    -5.3630 
  222.2500    63.0650     9.5850     8.5730     8.5740    24.0940     2.4020    -5.4210 
  222.3750    65.1560     9.7870     8.7280     9.1690    24.0840     2.4100    -5.4470 
  222.5000    67.8450     9.9750     8.8870    10.0430    24.0540     2.4190    -5.5400 
  222.6250    68.3290    10.1370     9.0360    10.8150    23.9970     2.4270    -5.6770 
  222.7500    67.7980    10.2790     9.1730    11.6240    23.9600     2.4320    -5.7990 
  222.8750    68.7950    10.4040     9.3000    12.3320    23.9280     2.4350    -5.8980 
  223.0000    70.3810    10.5100     9.4150    12.6560    23.9020     2.4370    -5.9610 
  223.1250    69.6600    10.5960     9.5130    13.0970    23.8830     2.4400    -6.0020 
  223.2500    67.8470    10.6760     9.5970    13.7420    23.8610     2.4470    -6.0580 
  223.3750    68.0210    10.7630     9.6750    14.3350    23.8450     2.4540    -6.1330 
  223.5000    70.7340    10.8630     9.7510    14.6310    23.8420     2.4610    -6.1800 
  223.6250    71.5590    10.9530     9.8070    13.9760    23.7940     2.4630    -6.1860 
  223.7500    69.4840    10.9880     9.8130    14.0190    23.7120     2.4570    -6.1770 
  223.8750    67.4600    10.9220     9.7330    14.6410    23.7190     2.4430    -6.1720 
  224.0000    67.3180    10.7400     9.5510    15.7650    23.8500     2.4210    -6.2100 
  224.1250    67.3160    10.4730     9.2860    16.5780    23.9370     2.3980    -6.2530 
  224.2500    66.7640    10.2360     9.0330    15.9770    23.9510     2.3840    -6.3170 
  224.3750    67.4670    10.1300     8.8780    15.8420    23.9300     2.3830    -6.3720 
  224.5000    69.0200    10.2140     8.8810    15.8780    23.9050     2.3980    -6.3990 
  224.6250    68.5890    10.5030     9.0740    15.7290    23.8890     2.4250    -6.4390 
  224.7500    67.3690    10.8780     9.3720    15.6530    23.8710     2.4520    -6.4780 
  224.8750    67.4500    11.2390     9.6960    15.0420    23.8540     2.4730    -6.5180 
  225.0000    68.1170    11.5100     9.9710    13.7640    23.8440     2.4820    -6.5210 
  225.1250    67.9240    11.6610    10.1500    12.0440    23.8420     2.4810    -6.4980 
  225.2500    67.4920    11.7560    10.2670    10.5830    23.8420     2.4780    -6.4720 
  225.3750    67.4920    11.8570    10.3690    10.1750    23.8460     2.4770    -6.4640 
  225.5000    67.4920    12.0070    10.4960    10.5890    23.8510     2.4790    -6.4900 
  225.6250    67.4920    12.2180    10.6730    11.7350    23.8520     2.4840    -6.5200 
  225.7500    67.4920    12.4550    10.8770    13.3840    23.8490     2.4880    -6.5440 
  225.8750    67.4920    12.6850    11.0800    16.1150    23.8470     2.4910    -6.5550 
  226.0000    67.4920    12.8810    11.2570    19.6720    23.8460     2.4950    -6.5560 
  226.1250    67.4920    13.0140    11.3830    19.5760    23.8490     2.4990    -6.5670 
  226.2500    67.4920    13.0820    11.4560    15.6180    23.8490     2.5030    -6.5810 
  226.3750    67.4920    13.0770    11.4720    14.0180    23.8470     2.5040    -6.5800 
  226.5000    67.4920    12.9940    11.4220    13.8790    23.8450     2.5030    -6.5860 
  226.6250    67.4920    12.8230    11.2890    14.1420    23.8460     2.4980    -6.6080 
  226.7500    67.4920    12.5930    11.0940    14.1030    23.8580     2.4900    -6.6290 
  226.8750    67.4920    12.3390    10.8650    13.7090    23.8860     2.4800    -6.6820 
  227.0000    67.4920    12.1050    10.6420    13.1770    23.9060     2.4700    -6.7450 
  227.1250    67.4920    11.9520    10.4770    12.9280    23.9130     2.4640    -6.8540 
  227.2500    67.4920    11.8890    10.3880    12.7730    23.9120     2.4670    -6.9670 
  227.3750    67.4920    11.9010    10.3700    12.8720    23.9180     2.4770    -7.0850 
  227.5000    67.4920    11.9570    10.4030    12.2340    23.9240     2.4900    -7.1780 
  227.6250    67.4920    12.0200    10.4650    11.2850    23.9290     2.5010    -7.2550 
  227.7500    67.4920    12.0810    10.5410    10.4400    23.9310     2.5050    -7.3090 
  227.8750    67.4920    12.1670    10.6430     9.8540    23.9310     2.5060    -7.3440 
  228.0000    67.4920    12.3200    10.7980     9.5250    23.9310     2.5040    -7.4090 
  228.1250    67.4920    12.5840    11.0390     9.7120    23.9330     2.5040    -7.4120 
  228.2500    67.4920    12.9280    11.3480     9.9190    23.9360     2.5030    -7.4240 
  228.3750    67.4920    13.2980    11.6890    10.1100    23.9360     2.5010    -7.4320 
  228.5000    67.4920    13.6260    12.0120    10.2760    23.9320     2.4970    -7.4570 
  228.6250    67.4920    13.8350    12.2510    10.4580    23.9290     2.4930    -7.4670 
  228.7500    67.4920    13.9310    12.3880    10.8230    23.9300     2.4890    -7.5400 
  228.8750    67.4920    13.9460    12.4260    11.4400    23.9310     2.4890    -7.6490 
  229.0000    67.4920    13.9230    12.3870    11.9680    23.9320     2.4930    -7.7320 
  229.1250    67.4920    13.9040    12.2910    12.0090    23.9350     2.5000    -7.8480 
  229.2500    67.4920    13.8980    12.1750    12.0480    23.9380     2.5060    -7.9480 
  229.3750    67.4920    13.8980    12.0620    12.4300    23.9370     2.5100    -8.0260 
  229.5000    67.4920    13.8950    11.9710    12.9870    23.9400     2.5110    -8.0850 
  229.6250    67.4920    13.8850    11.9210    13.5620    23.9420     2.5070    -8.1720 
  229.7500    67.4920    13.8780    11.9030    14.5030    23.9420     2.5020    -8.2440 
  229.8750    67.4920    13.8810    11.9060    14.7690    23.9370     2.4970    -8.2740 
  230.0000    67.4920    13.8940    11.9160    13.4920    23.9340     2.4910    -8.3050 
  230.1250    67.4920    13.9100    11.9240    12.4510    23.9360     2.4870    -8.3360 
  230.2500    67.4920    13.9220    11.9320    12.0210    23.9370     2.4860    -8.3740 
  230.3750    67.4920    13.9270    11.9400    11.8240    23.9380     2.4860    -8.4080 
  230.5000    67.4920    13.9230    11.9480    11.9070    23.9290     2.4890    -8.4200 
  230.6250    67.4920    13.9120    11.9580    12.2240    23.9080     2.4920    -8.3940 
  230.7500    67.4920    13.9010    11.9670    12.2860    23.8790     2.4940    -8.3710 
  230.8750    67.4920    13.8940    11.9750    12.1400    23.8660     2.4930    -8.4030 
  231.0000    67.4920    13.8910    11.9820    11.9430    23.8640     2.4930    -8.4560 
  231.1250    67.4920    13.8920    11.9860    11.7640    23.8640     2.4950    -8.4990 
  231.2500    67.4920    13.8930    11.9880    11.5830    23.8660     2.4980    -8.5260 
  231.3750    67.4920    13.8930    11.9880    11.8030    23.8660     2.5000    -8.5720 
  231.5000    67.4920    13.8930    11.9880    12.5480    23.8670     2.4980    -8.6210 
  231.6250    67.4920    13.8930    11.9880    13.7930    23.8710     2.4930    -8.7040 
  231.7500    67.4920    13.8930    11.9880    15.6100    23.9060     2.4880    -8.8830 
  231.8750    67.4920    13.8930    11.9880    17.1090    23.9550     2.4860    -9.0380 
