~V
VERS. 2.00: Ver 2.00
~W
STRT.M 57.0000:
STOP.M 247.0000:
STEP.M 0.1250:
NULL. -999.2500:
UWI. F10194:
~C
DEPT.M :
SP.MV :
DEN.GM/CC :
GR.API :
RML.OHMM :
RI. :
RXO.OHMM :
CALI.CM :
~A
# ...
  225.7500   -22.3880     2.4550    64.2760    37.4070    33.4770    48.4210    23.3360 
  225.8750   -21.5780     2.4990    62.3550    36.5580    33.9740    47.0110    23.3140 
  226.0000   -20.5570     2.5010    63.5360    32.9160    31.7860    42.8050    23.2920 
  226.1250   -19.3880     2.4650    67.6800    28.0600    28.0070    37.6790    23.2830 
  226.2500   -18.1710     2.4100    73.2850    23.3690    23.8150    31.7780    23.3040 
  226.3750   -17.0380     2.3650    78.1080    19.8050    20.2470    25.9360    23.3870 
  226.5000   -16.0850     2.3430    81.5160    17.5110    17.6990    20.8260    23.5470 
  226.6250   -15.3440     2.3390    84.3210    16.1520    16.0420    17.9010    23.7860 
  226.7500   -14.7650     2.3430    86.7890    15.3040    14.9480    17.1490    23.8980 
  226.8750   -14.2380     2.3530    88.6070    14.4880    14.0050    16.6520    23.7960 
  227.0000   -13.7180     2.3760    91.4310    13.3720    12.8810    15.2210    23.6860 
  227.1250   -13.2160     2.4090    96.4750    11.8990    11.4750    13.2210    23.6770 
  227.2500   -12.7510     2.4370   100.3340    10.2620     9.9120    11.6340    23.7080 
  227.3750   -12.3320     2.4470    99.5120     8.8430     8.4900    10.1090    23.7360 
  227.5000   -11.9170     2.4430    97.6790     7.9270     7.4660     8.5550    23.7530 
  227.6250   -11.4960     2.4390    99.1890     7.5950     6.9440     7.7920    23.7620 
  227.7500   -11.0950     2.4420   102.2330     7.7970     6.9190     8.3040    23.7740 
  227.8750   -10.7570     2.4540   102.4010     8.4080     7.3430     9.8650    23.7980 
  228.0000   -10.4830     2.4670    99.1230     9.1950     8.0450    11.7560    23.8300 
  228.1250   -10.2660     2.4670    93.4220     9.9220     8.8120    12.7430    23.9020 
  228.2500   -10.1060     2.4500    86.5470    10.4250     9.4610    11.8540    24.0650 
  228.3750    -9.9880     2.4300    82.0900    10.6130     9.8350    10.6220    24.2100 
  228.5000    -9.8930     2.4250    81.6890    10.5560     9.9300    10.1680    24.2040 
  228.6250    -9.7920     2.4380    83.7210    10.3980     9.8430    10.1970    24.0710 
  228.7500    -9.6490     2.4540    86.1300    10.2380     9.6700    10.2800    23.9170 
  228.8750    -9.4870     2.4530    88.0150    10.1290     9.4780     9.9770    23.8080 
  229.0000    -9.3240     2.4280    88.7900    10.0660     9.2960     9.1850    23.8010 
  229.1250    -9.1610     2.3890    87.4930    10.0350     9.1390     8.1250    23.9410 
  229.2500    -9.0460     2.3520    84.2960    10.0360     9.0280     7.1610    24.1420 
  229.3750    -9.0010     2.3250    80.9740    10.0890     8.9980     6.6730    24.2170 
  229.5000    -9.0000     2.3130    79.3380    10.2060     9.0570     7.2250    24.0600 
  229.6250    -8.9850     2.3190    79.7040    10.3740     9.1820     8.8850    23.7220 
  229.7500    -8.8980     2.3420    80.4480    10.5630     9.3380    11.1060    23.4280 
  229.8750    -8.7610     2.3660    80.1920    10.7150     9.4620    13.2100    23.3170 
  230.0000    -8.6080     2.3800    79.5470    10.7820     9.5040    14.7760    23.3340 
  230.1250    -8.4280     2.3850    79.4340    10.7490     9.4410    15.3990    23.4280 
  230.2500    -8.2260     2.3800    79.5420    10.6260     9.2830    14.4980    23.5580 
  230.3750    -7.9960     2.3650    78.5130    10.3910     9.0630    12.7070    23.6670 
  230.5000    -7.7040     2.3470    76.3960    10.0920     8.8340    11.2270    23.7430 
  230.6250    -7.3930     2.3310    74.9600     9.7910     8.6480    10.4800    23.8020 
  230.7500    -7.1590     2.3150    75.5490     9.4510     8.5360    10.6680    23.8290 
  230.8750    -7.0140     2.3000    77.6440     9.3460     8.5140    12.8950    23.7950 
  231.0000    -6.9690     2.2970    79.6610     9.4380     8.5590    18.0080    23.7190 
  231.1250    -7.0330     2.3190    81.0760     9.5390     8.6290    24.9620    23.6270 
  231.2500    -7.1070     2.3610    81.5190     9.5970     8.6840    31.9940    23.5640 
  231.3750    -7.1390     2.3950    80.1590     9.5670     8.6780    34.4880    23.5490 
  231.5000    -7.1850     2.4030    77.6830     9.4370     8.5950    27.0210    23.5000 
  231.6250    -7.2750     2.3970    75.5010     9.2350     8.4450    16.7590    23.4130 
  231.7500    -7.3850     2.3990    73.3540     8.9970     8.2480    11.5170    23.3390 
  231.8750    -7.4480     2.4130    71.1600     8.7660     8.0330    10.2630    23.2990 
  232.0000    -7.4010     2.4280    70.9500     8.5660     7.8240    10.1320    23.2820 
  232.1250    -7.2750     2.4330    72.9250     8.4000     7.6380     9.8340    23.2760 
  232.2500    -7.1560     2.4290    73.7490     8.2590     7.4770     9.1630    23.2750 
  232.3750    -7.0350     2.4220    72.1720     8.1360     7.3440     8.2730    23.2760 
  232.5000    -6.9070     2.4220    71.0750     8.0310     7.2370     7.5730    23.2780 
  232.6250    -6.8100     2.4280    72.1890     7.9440     7.1520     7.2500    23.2810 
  232.7500    -6.7510     2.4360    74.2430     7.8800     7.0860     7.1910    23.2850 
  232.8750    -6.7240     2.4340    75.8230     7.8440     7.0400     7.2010    23.2900 
  233.0000    -6.6820     2.4250    76.1830     7.8330     7.0100     7.1700    23.2960 
  233.1250    -6.5800     2.4150    74.8000     7.8450     6.9990     7.1160    23.3060 
  233.2500    -6.4220     2.4060    72.3570     7.8830     7.0070     7.1710    23.3160 
  233.3750    -6.3190     2.3990    70.5000     7.9490     7.0380     7.4100    23.3010 
  233.5000    -6.2970     2.3930    69.8980     8.0370     7.0870     7.7340    23.2590 
  233.6250    -6.2850     2.3950    70.4600     8.1310     7.1440     8.0280    23.2320 
  233.7500    -6.2670     2.4080    71.4220     8.2110     7.1970     8.3040    23.2510 
  233.8750    -6.2780     2.4260    71.6980     8.2590     7.2320     8.5430    23.2990 
  234.0000    -6.4030     2.4330    71.7480     8.2740     7.2450     8.6260    23.3650 
  234.1250    -6.6310     2.4240    72.5480     8.2710     7.2400     8.4000    23.4170 
  234.2500    -6.8720     2.4050    73.5360     8.2590     7.2240     7.9990    23.4090 
  234.3750    -7.0480     2.3840    73.0310     8.2370     7.1980     7.7570    23.4170 
  234.5000    -7.1490     2.3620    70.9210     8.1850     7.1560     7.6740    23.4920 
  234.6250    -7.2070     2.3430    68.8590     8.0780     7.0830     7.5000    23.5330 
  234.7500    -7.2320     2.3280    68.2550     7.8980     6.9650     7.1390    23.4770 
  234.8750    -7.1990     2.3180    68.7810     7.6560     6.8040     6.6860    23.3750 
  235.0000    -7.0640     2.3100    69.0840     7.4020     6.6200     6.2950    23.3160 
  235.1250    -6.8740     2.3070    68.4290     7.1930     6.4520     6.0520    23.3000 
  235.2500    -6.7510     2.3050    67.4380     7.0710     6.3270     5.9540    23.2810 
  235.3750    -6.6550     2.3030    67.7020     7.0440     6.2660     5.9930    23.2480 
  235.5000    -6.4940     2.3070    69.6140     7.0760     6.2590     6.0880    23.1680 
  235.6250    -6.3120     2.3170    71.7270     7.1130     6.2760     6.1950    23.0610 
  235.7500    -6.1240     2.3290    72.3960     7.1120     6.2820     6.3450    22.9890 
  235.8750    -5.9090     2.3340    71.8710     7.0470     6.2470     6.4790    22.9980 
  236.0000    -5.7220     2.3360    71.3500     6.9360     6.1700     6.4940    23.0750 
  236.1250    -5.5950     2.3380    70.7340     6.8230     6.0750     6.3910    23.1480 
  236.2500    -5.5310     2.3450    69.7540     6.7510     6.0010     6.2750    23.1570 
  236.3750    -5.5990     2.3620    69.4260     6.7670     5.9960     6.2720    23.1220 
  236.5000    -5.7620     2.3860    69.5400     6.8820     6.0800     6.4410    23.1060 
  236.6250    -5.8710     2.4100    69.0640     7.0760     6.2460     6.8210    23.1480 
  236.7500    -5.9110     2.4240    68.4100     7.3160     6.4680     7.2850    23.2160 
  236.8750    -5.9830     2.4260    68.6140     7.5510     6.7040     7.8030    23.3010 
