~V
VERS. 2.00: Ver 2.00
~W
STRT.M 44.0000:
STOP.M 255.0000:
STEP.M 0.1250:
NULL. -999.2500:
UWI. F10191:
~C
DEPT.M :
DEN.GM/CC :
SP.MV :
GR.API :
RML.OHMM :
RI. :
RXO.OHMM :
CALI.CM :
~A
# ...
   66.5000     2.5940   -35.8950    78.9610    17.0040    12.1580    17.5150    26.8530 
   66.6250     2.6080   -36.6120    71.2570    18.2830    13.3830    29.2090    26.8520 
   66.7500     2.5370   -37.4270    64.6150    17.8990    13.4700    26.8190    26.8430 
   66.8750     2.4110   -38.3470    62.0640    16.1890    12.4820    16.8170    26.8160 
   67.0000     2.2930   -39.3370    62.3370    14.0500    10.9700    11.6990    26.7690 
   67.1250     2.2300   -40.3230    62.0550    12.3710     9.5860    10.5550    26.7720 
   67.2500     2.2060   -41.2540    61.0260    11.4000     8.6280    10.3670    26.7890 
   67.3750     2.2010   -42.0840    60.2000    11.0900     8.1400    10.2930    26.8350 
   67.5000     2.2030   -42.7730    60.9800    11.2490     8.0390    10.1190    26.9180 
   67.6250     2.2060   -43.3040    63.3400    11.6310     8.1880     9.7280    27.0760 
   67.7500     2.2040   -43.7010    63.1310    11.9720     8.3780     9.1150    27.2210 
   67.8750     2.1930   -43.9190    60.0080    12.1500     8.5050     8.9580    27.3160 
   68.0000     2.1800   -44.0550    56.5560    12.1220     8.5160     9.1660    27.4120 
   68.1250     2.1700   -44.1650    56.4210    11.9110     8.4030     9.2360    27.5100 
   68.2500     2.1630   -44.2600    59.1840    11.6490     8.2340     9.1040    27.5730 
   68.3750     2.1560   -44.3770    62.7280    11.4220     8.0610     9.0370    27.6010 
   68.5000     2.1510   -44.5190    64.6480    11.2710     7.9180     9.1290    27.6070 
   68.6250     2.1490   -44.5780    63.3400    11.1900     7.8150     9.5540    27.5820 
   68.7500     2.1490   -44.5920    62.5250    11.1140     7.7220     9.9490    27.5090 
   68.8750     2.1530   -44.5460    64.2890    11.0490     7.6390    10.0550    27.4030 
   69.0000     2.1670   -44.4150    66.2890    11.1190     7.6410     9.9440    27.3210 
   69.1250     2.1990   -44.2200    66.0930    11.6030     7.8970     9.8120    27.2950 
   69.2500     2.2380   -43.9940    63.3200    12.5710     8.4580     9.9020    27.3070 
   69.3750     2.2810   -43.7320    59.2050    13.9390     9.2860    10.6360    27.3680 
   69.5000     2.3290   -43.4750    55.9830    15.3690    10.1960    13.3100    27.4880 
   69.6250     2.3640   -43.2430    58.1140    16.1090    10.7510    17.6630    27.5750 
   69.7500     2.3510   -43.0110    62.6600    15.7580    10.6670    17.3420    27.5450 
   69.8750     2.2910   -42.8340    64.3320    14.4660     9.9840    12.3330    27.4430 
   70.0000     2.2250   -42.7060    62.4090    12.8330     9.0150     9.8580    27.3670 
   70.1250     2.1900   -42.6190    61.4250    11.5610     8.1520     9.4340    27.3300 
   70.2500     2.1760   -42.5570    63.2500    10.8900     7.5930     9.3150    27.3030 
   70.3750     2.1730   -42.5030    67.0100    10.7690     7.3710     9.3430    27.2920 
   70.5000     2.1790   -42.4190    69.9720    10.9900     7.4170     9.5630    27.2990 
   70.6250     2.1920   -42.2930    69.4740    11.3100     7.6110     9.6680    27.3170 
   70.7500     2.2010   -42.1930    67.7830    11.5590     7.8140     9.7390    27.3100 
   70.8750     2.2000   -42.1220    66.7560    11.6910     7.9690     9.9900    27.2380 
   71.0000     2.1900   -42.0410    63.8770    11.7130     8.0520    10.3090    27.1720 
   71.1250     2.1790   -41.9280    58.2730    11.6840     8.0690    10.3380    27.1480 
   71.2500     2.1710   -41.7780    57.5460    11.6890     8.0650    10.5630    27.1460 
   71.3750     2.1690   -41.5920    63.7370    11.7350     8.0530    10.7860    27.1460 
   71.5000     2.1760   -41.3700    68.0850    11.7570     8.0070    10.7940    27.1460 
   71.6250     2.1910   -41.0930    64.9450    11.6020     7.8490    10.7060    27.1590 
   71.7500     2.2140   -40.7620    63.7250    11.2040     7.5450    10.5350    27.2280 
   71.8750     2.2440   -40.3990    68.8170    10.5900     7.1050     9.8720    27.3800 
   72.0000     2.2780   -40.0630    76.2170     9.9080     6.6090     8.3050    27.5600 
   72.1250     2.3020   -39.8160    82.0380     9.4110     6.2100     7.1370    27.6300 
   72.2500     2.3110   -39.6940    84.6980     9.2240     6.0010     7.0870    27.5990 
   72.3750     2.3020   -39.6960    84.6900     9.3640     6.0190     7.7170    27.4470 
   72.5000     2.2770   -39.7950    81.1090     9.7710     6.2480     8.1340    27.1920 
   72.6250     2.2400   -39.9900    75.2030    10.3410     6.6390     9.0990    27.0440 
   72.7500     2.2030   -40.1850    69.2580    10.9130     7.0630    10.2160    26.9950 
   72.8750     2.1760   -40.3170    64.2920    11.4050     7.4370    10.5420    26.9910 
   73.0000     2.1640   -40.3560    60.6360    11.7670     7.7090    10.5990    26.9910 
   73.1250     2.1690   -40.2480    58.3760    11.9070     7.8250    10.8110    26.9910 
   73.2500     2.1810   -39.9900    58.9500    11.8100     7.7890    11.2200    26.9910 
   73.3750     2.1920   -39.5950    61.6470    11.4880     7.6090    11.2660    26.9910 
   73.5000     2.1980   -39.1050    63.7450    11.0100     7.3180    11.0520    26.9910 
   73.6250     2.2020   -38.5730    66.5260    10.5040     6.9720    10.1150    26.9870 
   73.7500     2.2080   -38.1220    69.7770    10.1310     6.6700     8.8280    26.9590 
   73.8750     2.2140   -37.8050    71.6810     9.9960     6.4840     8.3320    26.8890 
   74.0000     2.2150   -37.6280    71.7530    10.1280     6.4570     8.8190    26.8140 
   74.1250     2.2140   -37.6050    71.8470    10.4960     6.6110     9.3230    26.7830 
   74.2500     2.2210   -37.6250    72.3360    10.9420     6.8690     9.9570    26.7780 
   74.3750     2.2330   -37.7040    72.5730    11.3390     7.1540    10.6970    26.7780 
   74.5000     2.2400   -37.8170    73.0080    11.5900     7.3880    11.2350    26.7780 
   74.6250     2.2330   -37.9090    75.1920    11.6410     7.4980    11.1740    26.7780 
   74.7500     2.2180   -37.9880    75.7060    11.5640     7.5010    10.8430    26.7780 
   74.8750     2.2080   -38.0030    73.2860    11.4230     7.4350    10.6390    26.7770 
   75.0000     2.2040   -37.8910    70.0950    11.2890     7.3470    10.6500    26.7750 
   75.1250     2.2030   -37.6620    70.9370    11.2400     7.2910    10.5400    26.7940 
   75.2500     2.2010   -37.4720    73.3190    11.2910     7.2810    10.1310    26.8300 
   75.3750     2.1970   -37.2650    74.1780    11.4240     7.3090     9.4850    26.8280 
   75.5000     2.1920   -37.0850    74.4610    11.5910     7.3500     8.6850    26.7520 
   75.6250     2.1830   -36.9960    74.5730    11.7080     7.3650     8.8760    26.7090 
   75.7500     2.1760   -36.8870    72.8170    11.7260     7.3280     9.1020    26.6960 
   75.8750     2.1750   -36.8130    69.0170    11.6250     7.2330     9.4380    26.6960 
   76.0000     2.1830   -36.8290    66.5990    11.4250     7.0910     9.8890    26.6950 
   76.1250     2.1930   -36.8760    67.5460    11.1720     6.9310    10.2120    26.6730 
   76.2500     2.2010   -36.9050    70.5220    10.9440     6.7940    10.2570    26.6110 
   76.3750     2.2070   -36.9570    73.3050    10.8020     6.7120    10.1620    26.5330 
   76.5000     2.2170   -36.9630    74.0150    10.8220     6.7270    10.1010    26.4910 
   76.6250     2.2370   -36.9510    71.3930    11.1300     6.9170    10.3590    26.4880 
   76.7500     2.2580   -36.9720    67.7190    11.7000     7.2870    10.6270    26.5240 
   76.8750     2.2820   -36.9250    65.6680    12.4380     7.8050    11.3260    26.6390 
   77.0000     2.3190   -36.7920    64.3280    13.1580     8.3760    13.6810    26.8180 
   77.1250     2.3610   -36.6620    61.5140    13.5540     8.8170    17.5090    26.8690 
   77.2500     2.3670   -36.4960    60.1010    13.5140     9.0010    18.1440    26.7410 
   77.3750     2.3200   -36.2150    63.0600    13.1170     8.9150    14.0990    26.6060 
   77.5000     2.2510   -35.8820    68.3440    12.5960     8.6580    11.4910    26.5530 
   77.6250     2.1950   -35.4630    69.5450    12.2070     8.3690    10.9540    26.5390 
