~V
VERS. 2.00: Ver 2.00
~W
STRT.M 58.0000:
STOP.M 213.0000:
STEP.M 0.1250:
NULL. -999.2500:
UWI. F10138:
~C
DEPT.M :
GR.API :
RML.OHMM :
RI. :
RXO.OHMM :
CALI.CM :
DEN.GM/CC :
SP.MV :
~A
# ...
   69.2500    62.8560     8.5550     6.5790     8.7350    28.6250     2.0820   -33.9450 
   69.3750    65.4810     8.4640     6.5320     8.5770    28.6310     2.0710   -33.9580 
   69.5000    63.8930     8.4010     6.4900     8.2550    28.6260     2.0690   -33.9580 
   69.6250    59.6820     8.4040     6.4850     8.1080    28.5200     2.0780   -33.9440 
   69.7500    57.8680     8.4740     6.5310     8.1630    28.0550     2.0950   -33.9480 
   69.8750    59.0460     8.6020     6.6250     8.5940    27.6150     2.1120   -33.9340 
   70.0000    60.0220     8.7670     6.7490     9.4090    27.5240     2.1260   -33.8890 
   70.1250    58.7550     8.9160     6.8680     9.6620    27.5290     2.1310   -33.7550 
   70.2500    58.3430     8.9790     6.9360     9.5580    27.5860     2.1270   -33.4850 
   70.3750    61.0500     8.8760     6.8970     9.6970    27.7510     2.1160   -33.0860 
   70.5000    64.0270     8.5590     6.7120     9.9990    28.0010     2.1040   -32.5560 
   70.6250    64.8420     8.0350     6.3700     9.6730    28.4960     2.1020   -31.8510 
   70.7500    64.9030     7.4700     5.9780     8.5720    29.0570     2.1120   -31.0310 
   70.8750    65.9160     7.0130     5.6380     7.2320    29.4350     2.1320   -30.1340 
   71.0000    68.9730     6.7720     5.4330     6.5370    29.4160     2.1530   -29.1780 
   71.1250    71.2140     6.8170     5.4260     6.6770    28.7980     2.1600   -28.2110 
   71.2500    69.2740     7.0470     5.5700     7.2030    27.9410     2.1510   -27.2720 
   71.3750    65.1550     7.3480     5.8040     7.9850    27.0470     2.1350   -26.3190 
   71.5000    65.8570     7.5800     6.0370     8.9200    26.7410     2.1220   -25.3420 
   71.6250    71.2860     7.6070     6.1510     8.8770    26.5870     2.1240   -24.3680 
   71.7500    74.4950     7.4420     6.1060     8.5460    26.5010     2.1390   -23.3750 
   71.8750    76.1740     7.1270     5.9060     8.3010    26.7510     2.1610   -22.3560 
   72.0000    78.1870     6.7280     5.5930     7.5390    27.1110     2.1840   -21.3420 
   72.1250    82.4560     6.3030     5.2180     6.6650    27.2770     2.2050   -20.3740 
   72.2500    90.4830     5.8950     4.8370     6.5370    27.3160     2.2260   -19.5090 
   72.3750   101.4750     5.5280     4.4770     5.8200    27.3120     2.2510   -18.8370 
   72.5000   111.0470     5.2150     4.1610     4.8040    27.2750     2.2780   -18.3910 
   72.6250   112.1920     4.9660     3.9130     4.3300    27.2210     2.2990   -18.2300 
   72.7500   109.4850     4.7960     3.7350     4.3460    27.2030     2.3100   -18.3200 
   72.8750   108.1270     4.7850     3.6660     4.3720    27.1420     2.3110   -18.6560 
   73.0000   108.5460     5.0540     3.7730     4.3950    27.0540     2.3080   -19.2250 
   73.1250   106.7000     5.7840     4.1770     4.6190    26.9780     2.3200   -20.0450 
   73.2500    99.1940     6.9440     4.8770     5.6330    26.8340     2.3530   -21.0450 
   73.3750    87.8590     8.4250     5.8440     8.8390    26.6290     2.3990   -22.2060 
   73.5000    75.8910     9.9070     6.9240    16.3630    26.3240     2.4320   -23.4640 
   73.6250    67.2770    10.7220     7.7110    20.7180    26.1860     2.4150   -24.7370 
   73.7500    63.3090    10.6270     7.9360    15.1790    26.0120     2.3520   -25.9710 
   73.8750    62.0730     9.8840     7.6500    10.5960    25.8900     2.2690   -27.1130 
   74.0000    61.1650     9.0400     7.1550     9.1360    25.8430     2.1960   -28.1180 
   74.1250    59.0950     8.5960     6.7940     9.1960    25.6750     2.1550   -28.9770 
   74.2500    56.6530     8.5850     6.6800     9.3530    25.2880     2.1400   -29.6760 
   74.3750    55.5960     8.8730     6.7800     9.6200    25.1080     2.1380   -30.1790 
   74.5000    57.4610     9.2680     6.9870     9.9350    25.0820     2.1410   -30.5080 
   74.6250    60.9420     9.5990     7.1900    10.2250    25.1030     2.1430   -30.7380 
   74.7500    64.1700     9.8130     7.3330    10.4830    25.1470     2.1460   -30.9400 
   74.8750    67.3970     9.9240     7.4130    10.5680    25.1620     2.1470   -31.0970 
   75.0000    69.0220     9.9760     7.4520    10.7310    25.1990     2.1480   -31.2140 
   75.1250    65.6830    10.0210     7.4830    10.9120    25.3650     2.1490   -31.2910 
   75.2500    61.3430    10.0920     7.5250    11.1830    25.4710     2.1540   -31.3380 
   75.3750    59.8510    10.1850     7.5750    11.6740    25.5180     2.1620   -31.3200 
   75.5000    60.5770    10.2650     7.6100    12.2920    25.6620     2.1720   -31.2660 
   75.6250    59.9340    10.2590     7.5810    12.2770    25.7410     2.1800   -31.1860 
   75.7500    60.0030    10.1500     7.4790    11.8320    25.6340     2.1830   -31.0760 
   75.8750    62.2960     9.9630     7.3190    11.2930    25.5650     2.1830   -30.9970 
   76.0000    64.0840     9.7630     7.1420    10.5860    25.8190     2.1820   -31.0010 
   76.1250    62.6220     9.6530     7.0130     9.9260    26.3280     2.1840   -31.0770 
   76.2500    61.2230     9.6760     6.9690     9.6220    26.3060     2.1870   -31.2320 
   76.3750    60.7550     9.8250     7.0250     9.7580    25.5120     2.1880   -31.5010 
   76.5000    58.5760    10.0510     7.1610    10.0650    24.8810     2.1870   -31.8770 
   76.6250    55.0230    10.2700     7.3310     9.4150    24.7760     2.1820   -32.2950 
   76.7500    54.0150    10.4180     7.4760     8.9050    24.7560     2.1780   -32.7270 
   76.8750    54.9580    10.4570     7.5600     9.3770    24.7120     2.1750   -33.1740 
   77.0000    54.1840    10.3820     7.5690    10.5090    24.6840     2.1690   -33.5780 
   77.1250    52.4750    10.2060     7.5000    11.1610    24.6340     2.1590   -33.8990 
   77.2500    52.9690     9.9920     7.3920    11.2730    24.6820     2.1430   -34.1070 
   77.3750    54.2360     9.7910     7.2750    11.1060    24.9040     2.1270   -34.2240 
   77.5000    54.3400     9.6530     7.1800    10.8590    25.0550     2.1150   -34.2950 
   77.6250    54.9630     9.6210     7.1450    11.1010    25.1060     2.1160   -34.3300 
   77.7500    57.5900     9.6740     7.1710    11.4570    25.1380     2.1250   -34.3090 
   77.8750    59.5550     9.7750     7.2490    11.6090    25.0930     2.1380   -34.2290 
   78.0000    59.4330     9.8840     7.3620    11.6040    24.7960     2.1490   -34.1400 
   78.1250    58.7510     9.9560     7.4880    11.6840    24.5350     2.1530   -34.0220 
   78.2500    58.6430     9.9730     7.6010    11.9970    24.6310     2.1530   -33.8460 
   78.3750    58.7770     9.9350     7.6850    12.2990    24.8930     2.1520   -33.5550 
   78.5000    58.5400     9.8580     7.7400    12.5840    25.2360     2.1490   -33.1180 
   78.6250    56.9280     9.7540     7.7780    12.6840    25.3930     2.1430   -32.5650 
   78.7500    55.0030     9.6270     7.8100    12.3430    25.6730     2.1330   -31.8960 
   78.8750    54.6950     9.4580     7.8130    11.6320    26.1450     2.1180   -31.0390 
   79.0000    56.3750     9.2400     7.7580    11.4350    26.5860     2.1020   -30.0090 
   79.1250    58.8260     8.9900     7.6180    11.0660    26.8040     2.0910   -28.9000 
   79.2500    61.5330     8.7350     7.4180    10.0370    26.9640     2.0920   -27.7490 
   79.3750    65.3530     8.4790     7.1730     8.4300    27.2990     2.1090   -26.5570 
   79.5000    68.5510     8.2040     6.8890     7.1860    27.4000     2.1400   -25.3740 
   79.6250    70.0520     7.8600     6.5410     7.0890    27.0380     2.1810   -24.2560 
   79.7500    73.9440     7.4170     6.1190     7.1720    26.7890     2.2180   -23.2450 
   79.8750    82.7810     6.8680     5.6240     6.3510    26.6630     2.2450   -22.3720 
   80.0000    92.7210     6.2580     5.0940     5.5680    26.5470     2.2600   -21.6420 
   80.1250    98.3120     5.7550     4.6310     5.1480    26.2830     2.2580   -21.1120 
   80.2500   100.3630     5.5940     4.3720     4.8660    26.3540     2.2460   -20.7740 
   80.3750   100.0820     6.0450     4.4770     4.7710    26.4370     2.2330   -20.6510 
