~V
VERS. 2.00: Ver 2.00
~W
STRT.M 59.0000:
STOP.M 202.0000:
STEP.M 0.1250:
NULL. -999.2500:
UWI. F10133:
~C
DEPT.M :
GR.API :
RML.OHMM :
RI. :
RXO.OHMM :
CALI.CM :
SP.MV :
DEN.GM/CC :
~A
   59.0000    50.8520     0.7180     0.2480    -0.2210    25.7770   209.1890     1.9120 
   59.1250    50.8520     0.7170     0.2480    -0.2210    25.7770   197.3760     1.9180 
   59.2500    50.7050     0.7090     0.2480    -0.2320    25.7780   185.9890     1.9290 
   59.3750    56.3500     0.7030     0.2290    -0.2400    25.7790   175.0330     1.9440 
   59.5000    56.5870     0.7040     0.2280    -0.2460    25.7760   164.4430     1.9590 
   59.6250    52.9100     0.7110     0.2390    -0.2430    25.7770   154.0960     1.9700 
   59.7500    50.7780     0.7090     0.2430    -0.2120    25.7780   143.7790     1.9730 
   59.8750    50.0950     0.6920     0.2250    -0.2050    25.7800   133.8140     1.9710 
   60.0000    49.7540     0.6630     0.1960    -0.2090    25.7830   124.5240     1.9760 
   60.1250    51.0800     0.6300     0.1630    -0.2040    25.7840   116.2100     2.0220 
   60.2500    51.2370     0.5990     0.1330    -0.1770    25.7840   108.2360     2.1250 
   60.3750    49.7720     0.5780     0.1110    -0.1480    25.7840   100.0300     2.2750 
   60.5000    49.6130     0.5740     0.1050     0.0220    25.7750    90.8190     2.4260 
   60.6250    51.6960     0.6160     0.1340     0.6710    25.7470    79.4600     2.5000 
   60.7500    53.0460     0.7380     0.2320     1.5330    25.7380    66.5540     2.4720 
   60.8750    55.2920     0.9980     0.4530     2.7440    25.7820    52.9890     2.3610 
   61.0000    62.1470     1.4590     0.8670     3.9000    25.7190    39.3290     2.2250 
   61.1250    71.5640     2.1840     1.5650     5.3160    25.2720    26.1220     2.1320 
   61.2500    77.4780     3.0600     2.4420     7.0330    24.7920    13.7020     2.0980 
   61.3750    80.0350     3.9440     3.3210     8.2140    24.5450     2.5510     2.1060 
   61.5000    81.1620     4.7010     4.0430     8.6680    24.4940    -6.6320     2.1300 
   61.6250    79.1990     5.2190     4.5210     8.8190    24.5630   -12.6320     2.1480 
   61.7500    75.6840     5.5250     4.8060     8.9720    24.6860   -16.0050     2.1580 
   61.8750    77.3360     5.6370     4.9050     9.1290    24.8440   -17.7530     2.1670 
   62.0000    88.1310     5.5900     4.8400     8.7250    25.0080   -18.5780     2.1800 
   62.1250   103.2590     5.4370     4.6710     7.8700    25.1550   -18.7740     2.1980 
   62.2500   111.9000     5.2730     4.5020     6.5360    25.2290   -18.5580     2.2200 
   62.3750   111.9400     5.1450     4.3810     5.5520    25.2600   -18.0580     2.2400 
   62.5000   106.6820     5.0730     4.3170     5.2310    25.2600   -17.4330     2.2550 
   62.6250   104.0220     5.0660     4.3100     5.5600    25.2470   -16.7910     2.2580 
   62.7500   107.1640     5.1170     4.3520     5.6460    25.2590   -16.2400     2.2510 
   62.8750   109.2560     5.2370     4.4610     5.0470    25.3200   -15.8320     2.2410 
   63.0000   104.9100     5.4260     4.6460     4.6790    25.3280   -15.6700     2.2390 
   63.1250    96.9280     5.6480     4.8790     5.0580    25.2150   -15.7580     2.2590 
   63.2500    93.8450     5.8120     5.0650     6.2420    25.0280   -15.9460     2.2950 
   63.3750    96.2820     5.8380     5.1060     7.8420    24.8540   -16.1380     2.3330 
   63.5000   102.2170     5.6960     4.9530     7.2430    24.8100   -16.2460     2.3530 
   63.6250   109.9850     5.4450     4.6640     5.1880    24.9860   -16.2730     2.3390 
   63.7500   116.2520     5.2620     4.4420     4.1870    25.2080   -16.2530     2.3070 
   63.8750   118.1460     5.2960     4.4450     3.9080    25.3080   -16.2220     2.2820 
   64.0000   114.1430     5.6410     4.7650     4.1850    25.2430   -16.2040     2.2870 
   64.1250   105.3430     6.3250     5.4510     6.3420    25.0680   -16.2450     2.3260 
   64.2500    96.1960     7.1110     6.2860    12.8290    24.9580   -16.4250     2.3690 
   64.3750    89.6560     7.7240     6.9610    23.2610    25.1090   -16.7240     2.3870 
   64.5000    86.2760     7.9220     7.1650    20.9670    25.5630   -17.1520     2.3690 
   64.6250    85.3070     7.5850     6.7620    11.5470    25.9510   -17.7170     2.3220 
   64.7500    88.3880     6.9910     6.1130     7.9990    26.0350   -18.3400     2.2800 
   64.8750    95.5220     6.3910     5.5010     6.8180    25.9180   -18.9400     2.2550 
   65.0000   102.8060     5.9710     5.0940     5.4400    25.7640   -19.5100     2.2490 
   65.1250   103.6070     5.8610     4.9950     5.0930    25.5890   -20.0440     2.2500 
   65.2500    99.5280     6.0250     5.1560     5.6740    25.3560   -20.4840     2.2520 
   65.3750    96.9430     6.4360     5.5530     6.2380    25.1880   -20.8690     2.2600 
   65.5000    96.8040     7.0390     6.1440     6.3420    25.0960   -21.2810     2.2820 
   65.6250    94.4910     7.7370     6.8430     6.9230    25.0110   -21.7120     2.3210 
   65.7500    88.4450     8.3540     7.4720     9.7980    24.9880   -22.2620     2.3570 
   65.8750    81.4540     8.7510     7.8740    14.1500    25.0760   -22.9900     2.3720 
   66.0000    75.4850     8.8450     7.9530    12.2770    25.3330   -23.8040     2.3560 
   66.1250    71.3010     8.6080     7.6930     9.2760    25.7960   -24.6950     2.3120 
   66.2500    71.0830     8.1960     7.2700     8.0960    26.2580   -25.5840     2.2660 
   66.3750    74.0490     7.7290     6.8020     8.2700    26.5400   -26.4720     2.2350 
   66.5000    76.1730     7.3220     6.3910     8.3280    26.5610   -27.3090     2.2230 
   66.6250    74.3350     7.1340     6.1820     8.0540    26.3990   -28.0520     2.2210 
   66.7500    73.0490     7.2610     6.2690     8.1180    26.2420   -28.6280     2.2210 
   66.8750    74.5890     7.7990     6.7520     8.2600    26.1750   -29.0750     2.2300 
   67.0000    74.8030     8.7740     7.6860     8.9850    26.1510   -29.4100     2.2640 
   67.1250    71.0460    10.0430     9.0070    13.6970    25.9990   -29.6120     2.3320 
   67.2500    69.7320    11.1190    10.2060    24.9760    25.8360   -29.8500     2.4060 
   67.3750    73.9410    11.5540    10.7020    29.7830    25.7470   -30.1660     2.4500 
   67.5000    80.3020    11.1520    10.2130    19.0670    25.8070   -30.5220     2.4380 
   67.6250    83.1440    10.0800     9.0180    11.6460    25.9900   -30.8890     2.3720 
   67.7500    81.0260     8.9380     7.8230     8.9870    26.2070   -31.3380     2.2960 
   67.8750    75.6830     8.0540     6.9310     8.4800    26.2850   -31.8240     2.2370 
   68.0000    69.6190     7.5280     6.4120     8.6320    26.1330   -32.3120     2.2080 
   68.1250    67.2660     7.3160     6.2240     9.0030    25.9400   -32.7370     2.2020 
   68.2500    68.3720     7.2260     6.1710     9.1830    25.9080   -32.9750     2.2010 
   68.3750    70.1120     7.1620     6.1490     9.2060    25.9160   -32.9800     2.2020 
   68.5000    70.4670     7.0860     6.1070     9.1500    25.9240   -32.8260     2.2010 
   68.6250    69.3100     6.9890     6.0350     9.1150    25.9510   -32.5510     2.2000 
   68.7500    69.1390     6.8770     5.9470     9.1120    26.0420   -32.1130     2.1980 
   68.8750    70.7760     6.7500     5.8500     8.9390    26.2140   -31.5380     2.1960 
   69.0000    73.3730     6.6160     5.7490     8.6930    26.3980   -30.9730     2.1950 
   69.1250    76.7980     6.5020     5.6520     8.4670    26.4940   -30.5050     2.1970 
   69.2500    80.0620     6.4330     5.5750     8.4310    26.4920   -30.1680     2.2020 
   69.3750    80.5740     6.4260     5.5340     8.3790    26.5220   -29.9820     2.2080 
   69.5000    76.4320     6.4830     5.5400     8.4640    26.6930   -29.9550     2.2120 
   69.6250    68.9720     6.5860     5.6030     8.7120    26.9820   -30.1370     2.2080 
   69.7500    64.3480     6.6800     5.6900     8.9230    27.2230   -30.4680     2.1930 
   69.8750    64.7540     6.7180     5.7600     8.9670    27.3860   -30.8180     2.1710 
   70.0000    67.4790     6.6720     5.7740     9.0270    27.5050   -31.0310     2.1500 
   70.1250    69.1260     6.5410     5.7100     9.1360    27.5880   -31.0970     2.1440 
