~V
VERS. 2.00: Ver 2.00
~W
STRT.M 50.0000:
STOP.M 284.0000:
STEP.M 0.1250:
NULL. -999.2500:
UWI. F10107:
~C
DEPT.M :
DEN.GM/CC :
SP.MV :
GR.API :
RML.OHMM :
RI. :
RXO.OHMM :
CALI.CM :
~A
# ...
   61.2500     2.0300    -9.6050    39.7440     6.0800     7.4590     5.9350    32.7140 
   61.3750     2.0280    -9.7490    38.7720     6.1200     7.4870     5.9260    32.8900 
   61.5000     2.0230    -9.8870    38.7200     6.1490     7.4970     5.9290    33.1260 
   61.6250     2.0160   -10.0370    38.9850     6.1490     7.4680     5.9490    33.4090 
   61.7500     2.0080   -10.1960    38.6330     6.1210     7.4050     6.0190    33.7300 
   61.8750     2.0000   -10.3390    37.7030     6.0720     7.3180     6.1570    34.0970 
   62.0000     1.9930   -10.4550    36.9380     6.0200     7.2260     6.2010    34.4490 
   62.1250     1.9860   -10.5380    37.6070     5.9880     7.1570     6.2300    34.6800 
   62.2500     1.9800   -10.5710    40.0680     5.9900     7.1260     6.2870    34.7830 
   62.3750     1.9790   -10.5470    44.0520     6.0310     7.1380     6.4050    34.8920 
   62.5000     1.9860   -10.4800    47.2900     6.1020     7.1840     6.6390    35.1200 
   62.6250     2.0070   -10.3340    46.9420     6.1890     7.2520     6.9710    35.4180 
   62.7500     2.0380   -10.1470    44.1050     6.2720     7.3190     7.3020    35.7880 
   62.8750     2.0730    -9.9530    41.6810     6.3420     7.3710     7.6240    36.1230 
   63.0000     2.1040    -9.7310    41.8930     6.3940     7.4010     7.8100    36.3000 
   63.1250     2.1250    -9.4910    43.5800     6.4230     7.4050     7.6390    36.3300 
   63.2500     2.1360    -9.2700    44.3280     6.4330     7.3900     7.2350    36.2580 
   63.3750     2.1370    -9.0650    43.1290     6.4220     7.3590     6.8050    35.9510 
   63.5000     2.1300    -8.8560    40.7270     6.3940     7.3170     6.2650    35.2010 
   63.6250     2.1130    -8.6520    39.3880     6.3610     7.2770     5.4780    33.7810 
   63.7500     2.0910    -8.4480    40.6220     6.3490     7.2650     4.7420    31.9150 
   63.8750     2.0690    -8.2140    43.3430     6.3880     7.3100     4.3050    30.2180 
   64.0000     2.0530    -7.9450    45.6120     6.5100     7.4440     4.4420    28.9610 
   64.1250     2.0520    -7.6520    47.5960     6.7460     7.6990     4.8840    27.4480 
   64.2500     2.0640    -7.3380    49.5510     7.0590     8.0340     5.3470    25.5550 
   64.3750     2.0840    -7.0220    49.9730     7.3920     8.3850     5.8420    23.9600 
   64.5000     2.1050    -6.7330    51.1900     7.6570     8.6550     6.5640    23.2480 
   64.6250     2.1200    -6.4900    55.2500     7.7130     8.6840     7.1730    23.0590 
   64.7500     2.1280    -6.2750    57.5820     7.5060     8.4180     7.3060    23.0400 
   64.8750     2.1370    -6.0900    56.1270     7.0390     7.8560     7.0690    23.0560 
   65.0000     2.1530    -5.9570    58.0100     6.3950     7.0840     6.7590    23.1210 
   65.1250     2.1820    -5.8890    70.1070     5.7610     6.2900     6.4250    23.2830 
   65.2500     2.2200    -5.8780    81.4930     5.3860     5.7160     5.9190    23.5610 
   65.3750     2.2610    -5.9330    85.1870     5.5330     5.6010     5.5670    23.8780 
   65.5000     2.3010    -6.0420    84.2780     6.5100     6.2100     6.0380    24.0550 
   65.6250     2.3420    -6.1940    82.7350     8.8930     8.0660     8.9970    24.0650 
   65.7500     2.3900    -6.3920    78.7220    12.6210    11.1960    16.7050    24.0000 
   65.8750     2.4460    -6.6650    71.1330    17.1830    15.2900    30.4090    23.8990 
   66.0000     2.5000    -6.9980    63.8020    21.4360    19.4270    54.1400    23.8050 
   66.1250     2.5270    -7.3660    58.5250    23.2860    21.7930    84.1080    23.7070 
   66.2500     2.5090    -7.7410    55.5170    21.7740    21.2590    87.2120    23.5540 
   66.3750     2.4460    -8.0770    55.0170    17.7340    18.0670    51.1690    23.3280 
   66.5000     2.3570    -8.3510    56.0830    13.5100    14.0650    22.2470    23.0490 
   66.6250     2.2740    -8.5700    57.4210    10.8720    11.1480    11.7700    22.8800 
   66.7500     2.2150    -8.7370    57.2900     9.5720     9.4630     8.5670    22.8470 
   66.8750     2.1840    -8.8310    56.4280     9.1620     8.6860     7.7670    22.8810 
   67.0000     2.1730    -8.8540    55.7630     9.2300     8.4620     7.6980    22.9260 
   67.1250     2.1750    -8.8150    55.4780     9.4540     8.5190     7.7870    22.9380 
   67.2500     2.1800    -8.7380    56.0640     9.6110     8.6070     7.8480    22.8540 
   67.3750     2.1860    -8.6500    57.2120     9.6410     8.6360     7.8900    22.7210 
   67.5000     2.1960    -8.5800    58.3570     9.5690     8.5930     7.7360    22.7110 
   67.6250     2.2080    -8.5190    57.2410     9.4520     8.5010     7.7330    22.9260 
   67.7500     2.2140    -8.4610    55.0280     9.3370     8.3990     8.0950    23.1290 
   67.8750     2.2070    -8.4030    53.0840     9.2310     8.2930     8.8500    23.1970 
   68.0000     2.1830    -8.3370    52.5550     9.1250     8.1770    10.1900    23.1490 
   68.1250     2.1430    -8.2390    55.4280     9.0180     8.0460    11.3590    23.2190 
   68.2500     2.1020    -8.1140    58.9120     8.9340     7.9220    11.1530    23.3380 
   68.3750     2.0690    -7.9660    59.7030     8.9150     7.8400     9.3420    23.3840 
   68.5000     2.0500    -7.7800    57.2650     8.9980     7.8330     8.2130    23.3750 
   68.6250     2.0530    -7.5530    54.6460     9.2010     7.9270     7.9520    23.2530 
   68.7500     2.0740    -7.2930    54.8960     9.4400     8.0690     7.8780    22.9140 
   68.8750     2.1120    -6.9960    58.0900     9.5980     8.1770     7.9580    22.4440 
   69.0000     2.1600    -6.7050    62.3560     9.5560     8.1560     8.4530    22.1780 
   69.1250     2.2080    -6.4520    64.1340     9.2110     7.9100     9.4690    22.2850 
   69.2500     2.2430    -6.2200    63.9790     8.6730     7.5020    10.5180    22.7420 
   69.3750     2.2590    -6.0150    64.1130     8.0960     7.0360    10.4690    23.3600 
   69.5000     2.2530    -5.8350    65.4030     7.6500     6.6400     7.9040    23.7460 
   69.6250     2.2330    -5.6740    68.3100     7.4800     6.4390     6.8470    23.7470 
   69.7500     2.2140    -5.5240    71.0730     7.5240     6.4120     6.6360    23.6090 
   69.8750     2.2070    -5.4000    71.6850     7.6730     6.4940     6.8920    23.5160 
   70.0000     2.2140    -5.2940    70.4550     7.7940     6.5890     7.1780    23.5160 
   70.1250     2.2300    -5.1800    70.2050     7.7470     6.5810     7.3720    23.5500 
   70.2500     2.2440    -5.0620    71.7570     7.5330     6.4410     7.2430    23.4870 
   70.3750     2.2510    -4.9290    75.2980     7.2120     6.2000     6.9610    23.4270 
   70.5000     2.2530    -4.7880    79.4840     6.8830     5.9270     6.6200    23.4950 
   70.6250     2.2510    -4.6520    80.6940     6.6630     5.7190     6.2210    23.6400 
   70.7500     2.2460    -4.5320    78.0850     6.5950     5.6240     6.0210    23.7660 
   70.8750     2.2380    -4.4330    72.7080     6.6840     5.6540     6.0050    23.8310 
   71.0000     2.2240    -4.3510    66.5510     6.8920     5.7910     6.1190    23.8240 
   71.1250     2.2090    -4.3060    61.4190     7.1520     5.9900     6.3060    23.6950 
   71.2500     2.2000    -4.2830    59.4500     7.3700     6.1750     6.6360    23.4900 
   71.3750     2.2030    -4.2770    60.5600     7.4880     6.2950     6.9820    23.3660 
   71.5000     2.2180    -4.2880    64.5840     7.4790     6.3180     7.0000    23.4260 
   71.6250     2.2400    -4.3160    71.6380     7.3550     6.2360     6.7000    23.6080 
   71.7500     2.2570    -4.3620    78.1390     7.1930     6.1030     6.3380    23.7220 
   71.8750     2.2630    -4.4370    80.0990     7.0470     5.9600     6.1800    23.7500 
   72.0000     2.2560    -4.5360    78.1150     6.9500     5.8370     6.1850    23.7090 
   72.1250     2.2400    -4.6480    76.4120     6.9060     5.7500     6.2160    23.6520 
   72.2500     2.2260    -4.7680    75.1300     6.8800     5.6800     6.2400    23.6320 
   72.3750     2.2210    -4.8980    73.2710     6.8380     5.6070     6.2420    23.6110 
