~V
VERS. 2.00: Ver 2.00
~W
STRT.M 50.0000:
STOP.M 222.0000:
STEP.M 0.1250:
NULL. -999.2500:
UWI. F10145:
~C
DEPT.M :
DEN.GM/CC :
GR.API :
RML.OHMM :
RI. :
RXO.OHMM :
CALI.CM :
SP.MV :
~A
# ...
  128.7500     2.5170    65.4400    16.0180    16.4590    16.0400    24.1640     3.5490 
  128.8750     2.5130    63.2010    15.3720    15.8310    15.3250    24.1110     3.6350 
  129.0000     2.5150    62.5810    14.8820    15.2670    14.3230    24.0580     3.6200 
  129.1250     2.5220    63.0930    14.6580    14.9000    14.2690    24.0790     3.5130 
  129.2500     2.5300    62.6690    14.6600    14.7390    15.2220    24.1030     3.4130 
  129.3750     2.5360    61.0420    14.8490    14.7660    15.4320    24.0910     3.3470 
  129.5000     2.5400    58.6360    15.1690    14.9340    14.4700    24.0290     3.2710 
  129.6250     2.5380    54.8520    15.5810    15.2050    14.1130    23.9720     3.1110 
  129.7500     2.5340    51.9750    16.0400    15.5350    14.6600    23.9350     2.8700 
  129.8750     2.5310    52.8480    16.5310    15.9150    15.2000    23.9770     2.5950 
  130.0000     2.5290    56.0710    17.0270    16.3340    16.0570    24.0770     2.3590 
  130.1250     2.5330    58.1390    17.4460    16.7350    17.0610    24.1620     2.1810 
  130.2500     2.5400    58.9550    17.6990    17.0280    18.0410    24.1170     1.9900 
  130.3750     2.5480    58.4600    17.7200    17.1290    18.6380    24.0520     1.7650 
  130.5000     2.5550    56.7180    17.5030    16.9940    19.0170    24.1050     1.5240 
  130.6250     2.5610    54.3390    17.0830    16.6150    18.1060    24.2490     1.3270 
  130.7500     2.5650    54.1840    16.5830    16.1090    17.4160    24.3760     1.2070 
  130.8750     2.5660    56.2760    16.0720    15.5580    16.8950    24.4220     1.1500 
  131.0000     2.5610    59.9740    15.5860    15.0230    16.7180    24.4250     1.1040 
  131.1250     2.5550    63.3880    15.1520    14.5440    16.1660    24.4080     1.0390 
  131.2500     2.5500    63.9080    14.7760    14.1190    15.4100    24.4480     0.9710 
  131.3750     2.5470    62.1740    14.4700    13.7510    14.2560    24.4810     0.8930 
  131.5000     2.5430    60.8540    14.2340    13.4430    13.2100    24.4930     0.8190 
  131.6250     2.5310    63.4020    14.0550    13.1920    12.9280    24.4930     0.7670 
  131.7500     2.5140    67.3490    13.8870    12.9620    13.2710    24.4930     0.7440 
  131.8750     2.4990    69.3930    13.7000    12.7250    13.4320    24.4930     0.7410 
  132.0000     2.4910    70.2860    13.4790    12.4670    13.7510    24.4930     0.7350 
  132.1250     2.4960    73.6170    13.2380    12.1960    13.3610    24.4930     0.7330 
  132.2500     2.5090    75.5020    13.0340    11.9470    11.9500    24.4900     0.7900 
  132.3750     2.5220    71.6450    12.9310    11.7600    11.3430    24.4760     0.9430 
  132.5000     2.5310    65.5350    12.9920    11.6770    12.5970    24.4480     1.1360 
  132.6250     2.5290    63.5240    13.3020    11.7610    13.4120    24.3840     1.2650 
  132.7500     2.5200    64.3010    13.8450    12.0210    12.7030    24.3000     1.3010 
  132.8750     2.5060    65.9620    14.6080    12.4780    12.9130    24.2210     1.2680 
  133.0000     2.4960    67.8060    15.5560    13.1410    14.9490    24.1530     1.2200 
  133.1250     2.5000    70.6970    16.6460    14.0130    15.3350    24.0460     1.1830 
  133.2500     2.5200    75.0820    17.7460    14.9840    16.4230    23.8390     1.0870 
  133.3750     2.5500    80.2080    18.7040    15.9170    17.7740    23.5560     0.8610 
  133.5000     2.5780    83.3220    19.3340    16.6340    18.5800    23.3010     0.5540 
  133.6250     2.5870    82.8610    19.3720    16.8840    18.1350    23.1470     0.3140 
  133.7500     2.5710    82.5430    18.8350    16.6450    16.9920    23.0530     0.1880 
  133.8750     2.5350    84.1950    17.8040    15.9490    15.8790    23.0480     0.1540 
  134.0000     2.4900    87.3120    16.4610    14.9240    14.4830    23.1620     0.1720 
  134.1250     2.4500    88.3490    15.0740    13.7500    13.8080    23.4710     0.1860 
  134.2500     2.4280    86.5620    13.7340    12.6150    13.7670    23.9330     0.2140 
  134.3750     2.4280    84.6190    12.3430    11.5850    13.1350    24.4230     0.3240 
  134.5000     2.4450    86.3950    10.9150    10.6520    12.3390    24.6570     0.5340 
  134.6250     2.4710    90.2680     9.6700     9.7710    11.7570    24.5840     0.7930 
  134.7500     2.4900    91.4960     8.6700     8.8940    10.5830    24.5040     1.0450 
  134.8750     2.4930    93.5720     7.8100     8.0240     8.8400    24.7350     1.2640 
  135.0000     2.4780   100.4530     7.0160     7.1920     7.3110    25.4260     1.4210 
  135.1250     2.4490   105.7300     6.3330     6.4430     6.5450    25.7340     1.5400 
  135.2500     2.4200   104.6110     5.7300     5.7820     6.1010    25.5000     1.7050 
  135.3750     2.3970   100.2350     5.2010     5.2120     5.6330    24.9980     1.9040 
  135.5000     2.3830    98.5640     4.7660     4.7430     5.2130    24.6150     2.0610 
  135.6250     2.3790    98.0680     4.4950     4.4190     4.8180    24.4360     2.0890 
  135.7500     2.3760    97.0430     4.4030     4.2470     4.4150    24.2800     1.9960 
  135.8750     2.3740    99.5030     4.4900     4.2430     4.3090    24.1220     1.8360 
  136.0000     2.3700   104.5200     4.7160     4.3920     4.6220    23.9310     1.6860 
  136.1250     2.3650   104.5560     5.0000     4.6490     5.2310    23.6580     1.5790 
  136.2500     2.3580    98.3930     5.2400     4.9060     5.8170    23.3820     1.4370 
  136.3750     2.3480    92.0460     5.3870     5.0950     6.1650    23.2390     1.2020 
  136.5000     2.3370    90.3600     5.4480     5.1840     5.8490    23.2240     0.8840 
  136.6250     2.3260    92.9860     5.4770     5.1920     5.5680    23.3490     0.5460 
  136.7500     2.3150    94.9460     5.5430     5.1930     5.6510    23.5260     0.2690 
  136.8750     2.3070    95.2360     5.6700     5.2330     6.1650    23.6780     0.0510 
  137.0000     2.3000    95.5340     5.8400     5.3160     6.7790    23.7570    -0.1190 
  137.1250     2.2950    97.1880     5.9980     5.4090     7.0760    23.7700    -0.2960 
  137.2500     2.2930    98.1320     6.0980     5.4650     7.0550    23.7740    -0.4980 
  137.3750     2.2960    97.7450     6.1330     5.4690     6.9100    23.7800    -0.6810 
  137.5000     2.3010    97.6670     6.1340     5.4440     6.6560    23.7950    -0.7790 
  137.6250     2.3080    97.9540     6.1710     5.4490     6.5310    23.8250    -0.7450 
  137.7500     2.3170    97.1880     6.2960     5.5240     6.7740    23.8400    -0.6760 
  137.8750     2.3290    96.4650     6.5190     5.6820     7.2020    23.8380    -0.6500 
  138.0000     2.3440    97.8960     6.8060     5.9010     7.6870    23.8210    -0.6890 
  138.1250     2.3570   101.8040     7.0820     6.1350     8.1420    23.8180    -0.6920 
  138.2500     2.3630   102.9460     7.2820     6.3350     8.4270    23.8180    -0.6210 
  138.3750     2.3590   100.1990     7.3960     6.4830     8.4090    23.8280    -0.4960 
  138.5000     2.3490    98.2880     7.4510     6.5860     8.2790    23.8410    -0.3720 
  138.6250     2.3390   100.0650     7.4980     6.6650     8.1540    23.8320    -0.3360 
  138.7500     2.3360   100.3960     7.5620     6.7390     8.2830    23.8120    -0.3420 
  138.8750     2.3390    96.1260     7.6280     6.8100     8.6410    23.7920    -0.2810 
  139.0000     2.3460    92.6670     7.6630     6.8670     8.9680    23.7820    -0.1260 
  139.1250     2.3490    95.0290     7.6330     6.8930     8.8530    23.7880     0.0420 
  139.2500     2.3480    98.1770     7.5570     6.8890     8.5050    23.7980     0.1460 
  139.3750     2.3430   100.0410     7.4700     6.8610     8.2710    23.7950     0.1720 
  139.5000     2.3370   102.5320     7.4100     6.8260     8.2910    23.7890     0.1460 
  139.6250     2.3320   106.5560     7.4110     6.8140     8.3380    23.7800     0.1670 
  139.7500     2.3280   107.5480     7.4720     6.8440     8.0960    23.7780     0.2460 
  139.8750     2.3240   102.0780     7.5670     6.9200     7.8620    23.7780     0.3010 
