~V
VERS. 2.00: Ver 2.00
~W
STRT.M 51.0000:
STOP.M 246.0000:
STEP.M 0.1250:
NULL. -999.2500:
UWI. F10182:
~C
DEPT.M :
SP.MV :
GR.API :
RML.OHMM :
RI. :
RXO.OHMM :
DEN.GM/CC :
CALI.CM :
~A
# ...
  231.0000   -13.7130    54.3030    11.8580     9.9250    10.7250     2.4150    24.2900 
  231.1250   -13.2860    56.0560    11.7130     9.7710    10.3770     2.3950    24.2900 
  231.2500   -12.9300    58.1370    11.6540     9.7210    10.3790     2.3940    24.2830 
  231.3750   -12.6340    59.4990    11.6670     9.7570    10.3360     2.4060    24.2810 
  231.5000   -12.3610    59.8980    11.7360     9.8480    10.3520     2.4240    24.2860 
  231.6250   -12.1350    58.9170    11.8330     9.9480    10.5240     2.4380    24.2910 
  231.7500   -11.9910    57.1510    11.9200    10.0180    10.6360     2.4450    24.3040 
  231.8750   -11.9520    57.2560    11.9760    10.0550    11.1410     2.4500    24.3100 
  232.0000   -11.9870    59.0600    12.0000    10.0720    11.4540     2.4570    24.3040 
  232.1250   -12.0000    58.9770    11.9920    10.0830    11.1200     2.4650    24.2890 
  232.2500   -11.9730    55.6090    11.9330    10.0900    10.4670     2.4790    24.2810 
  232.3750   -11.9370    53.4720    11.8290    10.0790    11.0400     2.4950    24.2340 
  232.5000   -11.9350    54.7160    11.7020    10.0340    12.8880     2.5090    24.1320 
  232.6250   -11.9580    56.6790    11.5820     9.9520    14.3430     2.5120    24.0620 
  232.7500   -11.9370    55.4180    11.5130     9.8410    13.6670     2.4970    24.1650 
  232.8750   -11.8710    54.6530    11.4930     9.7320    12.0000     2.4730    24.2460 
  233.0000   -11.7920    56.1110    11.5100     9.6490    10.9780     2.4510    24.2790 
  233.1250   -11.7630    57.0940    11.5500     9.6050    10.9920     2.4390    24.2940 
  233.2500   -11.7420    56.3180    11.5960     9.6080    11.0200     2.4410    24.3230 
  233.3750   -11.7260    56.5670    11.6220     9.6340    10.9330     2.4490    24.3580 
  233.5000   -11.7110    57.9660    11.5950     9.6560    11.2740     2.4590    24.3770 
  233.6250   -11.6810    57.5490    11.4960     9.6510    11.7520     2.4680    24.3810 
  233.7500   -11.6700    55.7900    11.3330     9.6070    12.4160     2.4760    24.3680 
  233.8750   -11.6860    55.8600    11.1650     9.5430    11.9600     2.4780    24.3340 
  234.0000   -11.7320    56.8760    11.0460     9.4800    11.1130     2.4720    24.3010 
  234.1250   -11.7330    57.0710    11.0150     9.4380    11.1070     2.4570    24.2870 
  234.2500   -11.7280    57.3510    11.0600     9.4330    11.8210     2.4380    24.2830 
  234.3750   -11.7370    59.1030    11.1220     9.4620    12.2030     2.4270    24.2820 
  234.5000   -11.7360    59.9790    11.1860     9.5280    11.6380     2.4260    24.2850 
  234.6250   -11.7570    58.1630    11.2790     9.6320    11.5070     2.4350    24.2910 
  234.7500   -11.7810    55.3930    11.4470     9.7740    12.2500     2.4520    24.2810 
  234.8750   -11.8090    54.6740    11.6730     9.9300    12.9490     2.4710    24.2540 
  235.0000   -11.8250    56.3460    11.8950    10.0680    13.0310     2.4870    24.2290 
  235.1250   -11.8400    59.4540    12.0330    10.1460    12.6540     2.4940    24.1930 
  235.2500   -11.8570    61.1360    12.0230    10.1160    12.3840     2.4910    24.2210 
  235.3750   -11.8710    60.6630    11.8980     9.9960    12.6860     2.4820    24.2470 
  235.5000   -11.8840    60.6630    11.6870     9.8110    12.2200     2.4740    24.2520 
  235.6250   -11.8650    60.6630    11.4230     9.5900    11.6270     2.4630    24.2910 
  235.7500   -11.8400    60.6630    11.1450     9.3570    10.8540     2.4410    24.3540 
  235.8750   -11.8010    60.6630    10.8840     9.1270    10.5340     2.4090    24.4150 
  236.0000   -11.7410    60.6630    10.6480     8.9080     9.6000     2.3770    24.4040 
  236.1250   -11.7070    60.6630    10.4460     8.7150     8.2070     2.3580    24.3940 
  236.2500   -11.6910    60.6630    10.3130     8.5860     7.3560     2.3660    24.4170 
  236.3750   -11.6610    60.6630    10.2780     8.5470     7.6130     2.3920    24.4580 
  236.5000   -11.6470    60.6630    10.3730     8.6170     8.9140     2.4220    24.4620 
  236.6250   -11.6350    60.6630    10.5860     8.7950     9.9780     2.4410    24.4320 
  236.7500   -11.6270    60.6630    10.8640     9.0460    10.6670     2.4410    24.3740 
  236.8750   -11.6460    60.6630    11.1150     9.2920    10.5930     2.4320    24.3610 
  237.0000   -11.6690    60.6630    11.2860     9.4750     9.5840     2.4240    24.3440 
  237.1250   -11.6970    60.6630    11.3630     9.5690     9.1430     2.4230    24.3400 
  237.2500   -11.7220    60.6630    11.3690     9.5740     9.7460     2.4330    24.3140 
  237.3750   -11.7390    60.6630    11.3680     9.5490     9.7740     2.4490    24.3360 
  237.5000   -11.7520    60.6630    11.3980     9.5370     9.8080     2.4650    24.3840 
  237.6250   -11.8140    60.6630    11.4700     9.5560    10.4980     2.4830    24.3820 
  237.7500   -11.8790    60.6630    11.5690     9.6100    12.5590     2.5030    24.3500 
  237.8750   -11.9300    60.6630    11.6800     9.6910    13.4560     2.5210    24.3070 
  238.0000   -11.9870    60.6630    11.8330     9.8130    14.5640     2.5290    24.2930 
  238.1250   -12.0250    60.6630    12.0790    10.0060    14.6630     2.5190    24.2700 
  238.2500   -12.0470    60.6630    12.4890    10.3240    14.9720     2.4940    24.1890 
  238.3750   -12.1060    60.6630    13.0330    10.7530    15.3050     2.4640    24.0950 
  238.5000   -12.1560    60.6630    13.6460    11.2550    15.7820     2.4400    24.1310 
  238.6250   -12.1980    60.6630    14.2200    11.7560    15.7510     2.4310    24.2310 
  238.7500   -12.2670    60.6630    14.6030    12.1360    14.9670     2.4400    24.2830 
  238.8750   -12.3230    60.6630    14.7630    12.3380    13.9960     2.4620    24.3050 
  239.0000   -12.3480    60.6630    14.7290    12.3620    13.3800     2.4880    24.3380 
  239.1250   -12.3910    60.6630    14.5920    12.2660    13.1570     2.5110    24.3690 
  239.2500   -12.4630    60.6630    14.4600    12.1400    13.0320     2.5240    24.3800 
  239.3750   -12.5360    60.6630    14.3790    12.0480    13.5080     2.5260    24.3730 
  239.5000   -12.5840    60.6630    14.3430    12.0020    14.5730     2.5170    24.3580 
  239.6250   -12.5960    60.6630    14.3290    11.9890    12.3550     2.5010    24.3290 
  239.7500   -12.6040    60.6630    14.3180    11.9880    12.9040     2.4820    24.3370 
  239.8750   -12.6220    60.6630    14.3060    11.9880    16.1250     2.4670    24.3600 
  240.0000   -12.6610    60.6630    14.2930    11.9840    21.2920     2.4590    24.3430 
  240.1250   -12.6940    60.6630    14.2790    11.9790    23.5200     2.4600    24.2500 
  240.2500   -12.7050    60.6630    14.2630    11.9730    19.0710     2.4630    24.2170 
  240.3750   -12.7030    60.6630    14.2490    11.9690    18.1970     2.4620    24.2370 
  240.5000   -12.7250    60.6630    14.2420    11.9650    16.9380     2.4560    24.2720 
  240.6250   -12.7460    60.6630    14.2420    11.9640    15.1030     2.4490    24.2870 
  240.7500   -12.7610    60.6630    14.2460    11.9640    12.7380     2.4470    24.2910 
  240.8750   -12.7750    60.6630    14.2520    11.9660    10.8640     2.4550    24.3130 
  241.0000   -12.7960    60.6630    14.2580    11.9680     9.9700     2.4690    24.3400 
  241.1250   -12.8180    60.6630    14.2670    11.9700     9.9680     2.4910    24.3560 
  241.2500   -12.8440    60.6630    14.2790    11.9720    11.2400     2.5180    24.3490 
  241.3750   -12.8690    60.6630    14.2790    11.9720    15.8370     2.5380    24.3650 
  241.5000   -12.8850    60.6630    14.2790    11.9720    28.9100     2.5410    24.3740 
  241.6250   -12.9040    60.6630    14.2790    11.9720    33.0920     2.5270    24.3660 
  241.7500   -12.9180    60.6630    14.2790    11.9720    25.7310     2.5020    24.3310 
  241.8750   -12.9230    60.6630    14.2790    11.9720    14.8760     2.4690    24.2630 
  242.0000   -12.9330    60.6630    14.2790    11.9720    14.1280     2.4270    24.2050 
  242.1250  -999.2500    60.6630    14.2790    11.9720    13.3020     2.3760    24.2790 
