~V
VERS. 2.00: Ver 2.00
~W
STRT.M 53.0000:
STOP.M 219.0000:
STEP.M 0.1250:
NULL. -999.2500:
UWI. F10171:
~C
DEPT.M :
SP.MV :
DEN.GM/CC :
GR.API :
RML.OHMM :
RI. :
RXO.OHMM :
CALI.CM :
~A
# ...
  143.0000   -20.5470     2.2180    72.2690     7.5380     6.2730     6.9910    24.9180 
  143.1250   -20.5840     2.2300    71.2550     7.4690     6.1020     6.5040    24.8800 
  143.2500   -20.6300     2.2420    71.0070     7.5550     6.0800     6.4280    24.8540 
  143.3750   -20.6330     2.2510    73.6180     7.7300     6.1660     6.3770    24.8490 
  143.5000   -20.6210     2.2600    77.5620     7.9520     6.3140     6.4380    24.8470 
  143.6250   -20.6310     2.2720    79.4380     8.2140     6.5120     6.7350    24.8470 
  143.7500   -20.6540     2.2840    77.1520     8.4820     6.7340     7.1620    24.8460 
  143.8750   -20.6310     2.2830    74.3110     8.6830     6.9240     7.5650    24.8410 
  144.0000   -20.6330     2.2630    74.9160     8.7920     7.0520     7.9980    24.8130 
  144.1250   -20.6940     2.2360    78.2800     8.8250     7.1230     7.7250    24.7380 
  144.2500   -20.7460     2.2190    81.6660     8.8350     7.1700     7.0690    24.6090 
  144.3750   -20.7600     2.2200    82.2200     8.8910     7.2430     6.9210    24.4790 
  144.5000   -20.8190     2.2250    80.6860     9.0180     7.3650     7.4370    24.3770 
  144.6250   -20.8790     2.2280    79.9610     9.2160     7.5430     8.2110    24.3130 
  144.7500   -20.8500     2.2330    81.2370     9.4810     7.7790     8.5290    24.3130 
  144.8750   -20.8300     2.2400    80.9820     9.8280     8.0910     8.2100    24.4030 
  145.0000   -20.7920     2.2490    78.1660    10.2090     8.4480     8.0060    24.5350 
  145.1250   -20.6660     2.2620    75.8490    10.5250     8.7790     8.7980    24.6620 
  145.2500   -20.5260     2.2740    75.6820    10.6220     8.9640    10.5510    24.7680 
  145.3750   -20.4190     2.2800    75.8910    10.2950     8.8190    11.6830    24.8570 
  145.5000   -20.2670     2.2820    76.7030     9.6160     8.3640    10.2950    24.9040 
  145.6250   -20.1320     2.2810    79.3550     8.7590     7.7070     8.1820    24.9190 
  145.7500   -20.0740     2.2770    83.1600     7.9480     7.0220     6.3570    24.9200 
  145.8750   -19.9970     2.2690    85.5510     7.3870     6.4840     5.7750    24.9080 
  146.0000   -19.9370     2.2640    85.5720     7.0660     6.1270     5.5540    24.8830 
  146.1250   -19.9510     2.2650    83.1000     6.9280     5.9290     5.5190    24.8590 
  146.2500   -19.9830     2.2700    80.0330     6.9070     5.8480     5.5580    24.8470 
  146.3750   -19.9800     2.2740    81.1570     6.9640     5.8540     5.5660    24.8460 
  146.5000   -20.0130     2.2750    83.1880     7.0680     5.9070     5.5420    24.8450 
  146.6250   -20.0700     2.2740    82.4950     7.2100     5.9970     5.5930    24.8520 
  146.7500   -20.0930     2.2700    80.5460     7.3740     6.1110     5.9010    24.8620 
  146.8750   -20.0970     2.2600    81.2930     7.5410     6.2400     6.2720    24.8700 
  147.0000   -20.1320     2.2510    83.2130     7.7440     6.4000     6.3390    24.8450 
  147.1250   -20.1630     2.2460    82.6870     8.0760     6.6550     6.3300    24.8210 
  147.2500   -20.1480     2.2450    79.4920     8.6630     7.0910     7.3500    24.8240 
  147.3750   -20.1920     2.2420    75.3540     9.7160     7.8670     8.9710    24.8270 
  147.5000   -20.2820     2.2400    71.0650    11.2850     9.0440    11.3970    24.8570 
  147.6250   -20.3260     2.2380    67.9370    13.4170    10.7000    15.1330    24.9380 
  147.7500   -20.3730     2.2350    67.8830    16.0820    12.8680    18.7890    25.0150 
  147.8750   -20.5060     2.2340    70.1140    19.2140    15.5850    21.7550    25.0360 
  148.0000   -20.6300     2.2500    69.7620    22.5120    18.6100    25.0400    25.0030 
  148.1250   -20.7440     2.2890    65.5790    25.6410    21.6550    29.1910    24.9380 
  148.2500   -20.9530     2.3400    61.1130    28.1510    24.2880    32.5390    24.8920 
  148.3750   -21.1620     2.3580    60.5370    29.3630    25.8280    34.7090    24.9260 
  148.5000   -21.3290     2.3180    61.9270    29.1960    26.1050    34.5270    24.9990 
  148.6250   -21.5550     2.2490    63.3890    27.6780    25.0770    29.6820    25.0450 
  148.7500   -21.8440     2.2020    64.9470    25.0680    22.9340    22.5430    25.0590 
  148.8750   -22.1040     2.2050    66.0150    21.8320    20.0870    18.7940    25.0590 
  149.0000   -22.3910     2.2240    66.2350    18.7210    17.2740    17.0770    25.0590 
  149.1250   -22.7100     2.2320    66.6400    16.2400    14.9610    14.5050    25.0570 
  149.2500   -22.9490     2.2240    67.4420    14.7410    13.4460    10.8850    25.0460 
  149.3750   -23.1570     2.2160    67.5060    14.5480    12.9990    11.2510    25.0190 
  149.5000   -23.4100     2.2180    66.0980    15.3530    13.4090    15.2020    24.9920 
  149.6250   -23.6500     2.2290    64.7510    16.8390    14.4890    20.9530    24.9870 
  149.7500   -23.8100     2.2490    64.8430    18.4950    15.9060    24.6890    25.0270 
  149.8750   -23.9030     2.2620    66.5490    19.5010    17.0390    23.2600    25.0500 
  150.0000   -23.9560     2.2490    68.0870    19.4740    17.4130    20.0160    25.0650 
  150.1250   -23.9780     2.2160    67.9160    18.5710    16.9910    17.7510    25.0830 
  150.2500   -23.9930     2.1850    67.5990    17.3340    16.1230    16.9270    25.1150 
  150.3750   -23.9590     2.1780    68.8390    16.3700    15.2860    15.8360    25.1180 
  150.5000   -23.8710     2.1870    69.6350    15.8890    14.7570    14.8820    25.0960 
  150.6250   -23.7320     2.1970    68.9950    15.8780    14.5940    14.2330    25.0700 
  150.7500   -23.5530     2.2020    69.2320    16.2040    14.7350    14.2880    25.0590 
  150.8750   -23.4270     2.2040    69.8320    16.6430    15.0240    15.6250    25.0590 
  151.0000   -23.2880     2.2120    68.2380    16.8900    15.2000    17.2890    25.0590 
  151.1250   -23.0990     2.2220    68.6180    16.7360    15.0750    17.1250    25.0590 
  151.2500   -22.9490     2.2280    72.5880    16.1080    14.5680    14.5280    25.0580 
  151.3750   -22.8610     2.2280    75.6090    15.0660    13.6990    12.8180    25.0460 
  151.5000   -22.7540     2.2300    75.0450    13.9000    12.6930    11.6380    25.0190 
  151.6250   -22.6930     2.2400    72.7200    12.8220    11.7230    10.8300    24.9940 
  151.7500   -22.6870     2.2530    71.3190    12.0090    10.9450    10.2930    24.9840 
  151.8750   -22.6420     2.2630    71.8290    11.6560    10.5360    10.1070    24.9840 
  152.0000   -22.6350     2.2670    72.8200    11.7480    10.5010     9.6040    24.9800 
  152.1250   -22.6780     2.2710    71.9030    12.2400    10.8190     9.8270    24.9680 
  152.2500   -22.6440     2.2810    68.7050    12.9620    11.3800    10.9890    24.9440 
  152.3750   -22.5600     2.2970    67.7110    13.5610    11.9260    12.5460    24.9360 
  152.5000   -22.4820     2.3110    68.7030    13.7180    12.1620    12.7880    24.9380 
  152.6250   -22.3040     2.3100    68.8220    13.3440    11.9590    12.0590    24.9460 
  152.7500   -22.0760     2.2900    66.9640    12.6050    11.3930    10.5590    24.9670 
  152.8750   -21.8810     2.2590    67.6310    11.8320    10.6940     9.7760    24.9810 
  153.0000   -21.6340     2.2350    72.0780    11.2570    10.0930     9.5960    24.9870 
  153.1250   -21.3090     2.2210    75.4710    10.9040     9.6500     9.7320    24.9890 
  153.2500   -21.0080     2.2130    74.4890    10.7170     9.3570     9.8330    24.9900 
  153.3750   -20.7400     2.2080    72.3660    10.7000     9.2310     9.9080    24.9870 
  153.5000   -20.4280     2.2030    72.4330    10.8900     9.2880     9.6410    24.9930 
  153.6250   -20.1400     2.2010    71.6490    11.3670     9.5800     9.5350    25.0160 
  153.7500   -19.9100     2.2020    68.2490    12.1720    10.1390    10.4500    25.0550 
  153.8750   -19.6750     2.2010    66.3760    13.2730    10.9730    13.2840    25.0910 
  154.0000   -19.4340     2.1970    65.7320    14.4190    11.9230    16.2810    25.1170 
  154.1250   -19.2700     2.1990    64.1780    15.3640    12.8120    16.4810    25.1270 
