~V
VERS. 2.00: Ver 2.00
~W
STRT.M 51.0000:
STOP.M 246.0000:
STEP.M 0.1250:
NULL. -999.2500:
UWI. F10182:
~C
DEPT.M :
SP.MV :
GR.API :
RML.OHMM :
RI. :
RXO.OHMM :
DEN.GM/CC :
CALI.CM :
~A
# ...
  129.7500    -4.1150    72.8750     9.5860     7.5840     8.3240     2.3830    23.8660 
  129.8750    -3.9950    67.9670    11.4270     8.9840    12.3540     2.4270    23.7520 
  130.0000    -3.9300    65.4350    12.9530    10.4530    16.0230     2.4580    23.8430 
  130.1250    -3.9250    62.2910    13.3330    11.2500    18.1810     2.4620    23.9940 
  130.2500    -3.9560    60.8390    12.1760    10.7610    16.7330     2.4330    24.0430 
  130.3750    -4.0340    63.6580    10.5090     9.6330    12.2110     2.3880    24.0460 
  130.5000    -4.1230    69.8870     9.1260     8.5160     7.9520     2.3410    24.0120 
  130.6250    -4.2200    76.0490     8.3580     7.7600     6.8560     2.2990    23.9120 
  130.7500    -4.2810    77.7260     8.1900     7.4460     7.0300     2.2690    23.7230 
  130.8750    -4.3090    76.1720     8.2740     7.3680     7.7680     2.2500    23.4690 
  131.0000    -4.3040    75.2900     8.3810     7.3630     8.6040     2.2440    23.1950 
  131.1250    -4.2710    76.4870     8.3330     7.2920     8.4330     2.2520    23.1600 
  131.2500    -4.2140    77.5490     8.0440     7.0670     7.2460     2.2600    23.4400 
  131.3750    -4.1570    77.4370     7.6760     6.7730     6.7390     2.2540    23.7230 
  131.5000    -4.1000    78.5360     7.4290     6.5340     6.7990     2.2310    23.8270 
  131.6250    -4.0690    79.9240     7.4770     6.4830     6.6600     2.1990    23.9050 
  131.7500    -4.0530    79.1930     8.0130     6.7940     6.1780     2.1700    24.2020 
  131.8750    -4.0730    76.8510     9.0150     7.5000     6.5870     2.1510    24.4650 
  132.0000    -4.1220    74.1090    10.4620     8.6430     9.1310     2.1440    24.3690 
  132.1250    -4.2160    72.0590    12.3070    10.2430    13.8340     2.1470    24.0670 
  132.2500    -4.3220    70.9490    14.5120    12.3460    16.4320     2.1550    23.9200 
  132.3750    -4.4330    68.9270    16.7890    14.6990    17.1890     2.1620    23.8330 
  132.5000    -4.5340    65.2510    18.6740    16.8670    19.0800     2.1590    23.7960 
  132.6250    -4.6190    63.5400    19.5180    18.1480    24.1060     2.1500    23.8310 
  132.7500    -4.7040    66.7110    18.5540    17.6360    28.4350     2.1480    23.9580 
  132.8750    -4.7570    71.0870    16.2610    15.7060    27.9590     2.1650    24.1520 
  133.0000    -4.7760    75.3470    13.4050    13.1090    20.9450     2.2010    24.2650 
  133.1250    -4.7490    80.4160    10.7990    10.6380    11.1650     2.2420    24.0510 
  133.2500    -4.7200    84.1640     9.0410     8.8580     7.8950     2.2670    23.7650 
  133.3750    -4.6860    83.8540     8.0220     7.7110     6.9240     2.2760    23.5360 
  133.5000    -4.6640    82.7740     7.5490     7.0620     6.7330     2.2780    23.4500 
  133.6250    -4.6400    83.0560     7.3880     6.7470     6.6200     2.2810    23.4670 
  133.7500    -4.6010    80.8830     7.3390     6.6230     6.7460     2.2860    23.5840 
  133.8750    -4.5720    78.6920     7.3070     6.5700     6.6620     2.2860    23.7960 
  134.0000    -4.5570    81.6770     7.3870     6.6260     6.4580     2.2830    24.0320 
  134.1250    -4.5780    87.0700     7.7760     6.9200     6.4410     2.2890    24.2770 
  134.2500    -4.5990    85.6050     8.7860     7.6960     7.6230     2.3310    24.4530 
  134.3750    -4.6240    78.9780    10.4160     9.0080     9.5150     2.4040    24.5100 
  134.5000    -4.6400    71.3460    12.5180    10.8220    12.7120     2.4840    24.4430 
  134.6250    -4.6470    64.1010    16.1170    12.8570    16.7700     2.5320    24.2790 
  134.7500    -4.6540    58.3640    17.6410    14.4150    22.0180     2.5280    24.1510 
  134.8750    -4.6610    54.7190    18.0250    15.0680    23.5290     2.5050    24.1120 
  135.0000    -4.6560    52.6070    17.5960    14.9360    20.9350     2.4930    24.1100 
  135.1250    -4.6170    51.0920    17.0610    14.5200    17.1190     2.5040    24.1550 
  135.2500    -4.5790    52.4950    17.1360    14.3890    16.2280     2.5210    24.1090 
  135.3750    -4.5310    55.2120    17.8900    14.7330    18.3220     2.5220    24.0650 
  135.5000    -4.4830    56.1300    19.1120    15.5030    20.6790     2.5010    24.0350 
  135.6250    -4.4380    54.3500    20.4610    16.5100    21.2010     2.4760    24.0370 
  135.7500    -4.4050    52.1290    21.5740    17.4930    21.7700     2.4750    24.1370 
  135.8750    -4.3770    51.2280    22.3870    18.2910    23.8330     2.5080    24.2150 
  136.0000    -4.3700    50.2240    23.0290    18.9200    24.3780     2.5620    24.1690 
  136.1250    -4.3820    48.0160    23.6860    19.4850    24.6270     2.6120    24.1260 
  136.2500    -4.3930    45.8980    24.4670    20.0860    25.6520     2.6340    24.1140 
  136.3750    -4.4100    46.0310    25.2740    20.7110    24.3320     2.6350    24.1150 
  136.5000    -4.4290    49.0900    25.9180    21.2600    23.0530     2.6240    24.0630 
  136.6250    -4.4540    52.1140    26.1690    21.5750    23.6990     2.6150    24.0860 
  136.7500    -4.4730    50.6510    25.7590    21.4340    25.2990     2.6050    24.2280 
  136.8750    -4.4880    47.2850    24.8430    20.8990    26.0940     2.5840    24.3050 
  137.0000    -4.5000    47.2820    23.6540    20.1120    24.9000     2.5480    24.3220 
  137.1250    -4.5100    52.1760    22.5010    19.2720    21.1480     2.5010    24.3230 
  137.2500    -4.5110    56.6630    21.8020    18.6660    18.6760     2.4630    24.2870 
  137.3750    -4.5160    56.0690    21.7360    18.4780    18.6790     2.4490    24.2170 
  137.5000    -4.5150    52.1240    22.3520    18.8090    19.3800     2.4620    24.1670 
  137.6250    -4.5320    49.6140    23.5840    19.6820    20.5450     2.4890    24.1540 
  137.7500    -4.5540    51.8470    25.2940    21.0790    21.4140     2.5100    24.1520 
  137.8750    -4.5900    55.2270    27.0540    22.6590    24.3180     2.5180    24.1660 
  138.0000    -4.6350    56.6170    28.4580    24.0470    27.8220     2.5210    24.2190 
  138.1250    -4.6790    55.1960    29.1620    24.8850    31.3830     2.5280    24.2930 
  138.2500    -4.7380    52.8290    28.9020    24.8600    30.3280     2.5410    24.3160 
  138.3750    -4.7780    50.7000    27.9890    24.2010    28.8590     2.5520    24.3060 
  138.5000    -4.8340    48.6360    26.7470    23.1920    26.2850     2.5510    24.2950 
  138.6250    -4.8730    47.7130    25.5120    22.1480    25.0160     2.5390    24.2890 
  138.7500    -4.9270    49.1620    24.5530    21.3270    24.2900     2.5240    24.2290 
  138.8750    -4.9720    51.1560    23.9440    20.7850    23.2210     2.5140    24.0950 
  139.0000    -5.0020    52.5840    23.7460    20.5470    22.9010     2.5100    23.9460 
  139.1250    -5.0170    53.3400    23.9410    20.6010    23.1810     2.5100    23.8430 
  139.2500    -5.0220    53.7910    24.4470    20.9270    22.7240     2.5110    23.7820 
  139.3750    -5.0420    52.1870    25.0710    21.4160    21.6440     2.5130    23.7820 
  139.5000    -5.0490    50.3750    25.7190    22.0110    21.7860     2.5150    23.8500 
  139.6250    -5.0620    50.9120    26.3210    22.6410    23.3980     2.5180    23.9610 
  139.7500    -5.0440    52.0470    26.7550    23.1580    25.1240     2.5120    24.0640 
  139.8750    -5.0220    50.2960    26.9240    23.4380    25.4150     2.4980    24.1100 
  140.0000    -4.9850    46.8070    26.7430    23.4020    24.9080     2.4860    24.0860 
  140.1250    -4.9650    45.5810    26.2140    23.0580    24.3610     2.4830    23.9750 
  140.2500    -4.9470    48.0010    25.4850    22.5020    22.9530     2.4940    23.8930 
  140.3750    -4.9120    51.5100    24.8670    21.9690    21.0210     2.5080    23.8690 
  140.5000    -4.8970    54.9330    24.6100    21.6570    21.0280     2.5120    23.9360 
  140.6250    -4.8630    56.1110    24.8920    21.7370    22.1960     2.5010    24.0120 
  140.7500    -4.8590    54.0090    25.8270    22.3570    23.1610     2.4840    24.0140 
  140.8750    -4.8460    51.1690    27.0890    23.3150    24.3870     2.4790    23.9820 
