~V
VERS. 2.00: Ver 2.00
~W
STRT.M 55.0000:
STOP.M 248.0000:
STEP.M 0.1250:
NULL. -999.2500:
UWI. F10184:
~C
DEPT.M :
SP.MV :
GR.API :
RML.OHMM :
RI. :
RXO.OHMM :
CALI.CM :
DEN.GM/CC :
~A
# ...
  167.5000    -6.1650    64.3570   135.6160   125.0150   132.0190    24.7940     2.2200 
  167.6250    -6.0460    65.9090   134.4660   123.5550   125.1900    24.7860     2.2160 
  167.7500    -5.9970    65.6930   129.6760   119.3170   116.3600    24.7900     2.2200 
  167.8750    -5.9070    66.0610   121.7500   112.4790   107.7650    24.7930     2.2310 
  168.0000    -5.8170    66.5680   112.6680   104.4150    99.2260    24.7860     2.2420 
  168.1250    -5.8890    64.3880   105.1370    97.2220    89.3110    24.7880     2.2460 
  168.2500    -5.9490    60.3550   100.4550    92.2050    80.4460    24.8000     2.2450 
  168.3750    -5.9120    60.3480    98.9940    89.9600    73.7280    24.8040     2.2460 
  168.5000    -5.9760    65.6170   100.5330    90.5880    72.7390    24.7960     2.2500 
  168.6250    -6.0820    69.2910   104.6650    93.9980    83.4530    24.7840     2.2560 
  168.7500    -6.1020    69.2070   109.9880    98.7810    97.9580    24.7900     2.2570 
  168.8750    -6.2080    68.5130   115.7610   103.9990   104.0280    24.7990     2.2540 
  169.0000    -6.2510    69.6730   121.7070   109.0950   101.5240    24.7950     2.2490 
  169.1250    -6.2220    71.3280   128.3090   114.2710   103.3360    24.7790     2.2430 
  169.2500    -6.2670    73.7180   136.2690   120.3410   108.1640    24.7640     2.2390 
  169.3750    -6.3110    77.7630   145.9380   127.8510   116.4880    24.7350     2.2340 
  169.5000    -6.2510    78.3690   156.7220   136.4810   128.6980    24.7070     2.2270 
  169.6250    -6.2090    71.8580   166.4740   144.5430   137.6070    24.7430     2.2200 
  169.7500    -6.1930    64.7880   172.9030   150.0920   143.4790    24.8120     2.2150 
  169.8750    -6.1460    60.9930   174.6640   151.9630   146.5570    24.8190     2.2150 
  170.0000    -6.1840    59.8630   171.7410   149.9950   147.4130    24.7440     2.2190 
  170.1250    -6.1480    58.4930   164.6920   144.4770   141.6880    24.6560     2.2210 
  170.2500    -6.0720    58.2380   155.2450   136.8510   131.7290    24.6330     2.2210 
  170.3750    -6.1010    60.5170   144.0130   127.6710   125.8270    24.6680     2.2170 
  170.5000    -6.1600    64.7970   131.8810   117.6280   122.7220    24.7540     2.2140 
  170.6250    -6.1280    69.5100   120.7540   108.1950   120.0970    24.8370     2.2150 
  170.7500    -6.1600    71.0760   111.9360   100.5190   114.5280    24.7210     2.2190 
  170.8750    -6.1470    69.1680   105.4040    94.7140   106.4320    24.3650     2.2260 
  171.0000    -6.1120    66.0420   100.0200    89.9850   100.3370    23.9410     2.2370 
  171.1250    -6.1890    64.9110    94.0010    84.9730   108.9790    23.8040     2.2470 
  171.2500    -6.1820    65.0810    86.5110    78.8760   119.0680    23.9770     2.2500 
  171.3750    -6.0830    64.4320    77.9760    71.8980    99.9400    24.1640     2.2490 
  171.5000    -6.0510    64.5270    69.5640    64.9080    63.4220    24.1330     2.2530 
  171.6250    -6.0770    66.9980    62.6720    59.0690    50.7930    23.7180     2.2650 
  171.7500    -6.0170    70.4090    57.6090    54.7420    48.1000    23.3840     2.2760 
  171.8750    -6.0450    72.2590    54.3490    52.0130    49.7070    23.2790     2.2780 
  172.0000    -6.0330    71.1130    52.5610    50.6960    50.4110    23.4190     2.2720 
  172.1250    -5.9610    68.4770    51.7890    50.4310    47.9450    23.7250     2.2670 
  172.2500    -5.9990    67.3860    51.3240    50.5010    45.6030    24.0860     2.2640 
  172.3750    -6.0100    67.4380    50.8930    50.5910    44.2080    24.3690     2.2610 
  172.5000    -5.9290    67.3980    50.2720    50.4410    45.6130    24.5420     2.2560 
  172.6250    -5.8740    68.8250    48.8380    49.3800    45.2230    24.5930     2.2540 
  172.7500    -5.8340    71.7580    46.0840    46.8560    44.4770    24.6080     2.2610 
  172.8750    -5.7450    71.8010    41.8440    42.6670    44.5110    24.6090     2.2770 
  173.0000    -5.7030    68.7730    36.5890    37.3190    40.0910    24.5990     2.2980 
  173.1250    -5.6420    71.3640    31.4350    31.9950    32.8430    24.5900     2.3160 
  173.2500    -5.6030    78.8810    27.4560    27.7860    22.3960    24.5850     2.3270 
  173.3750    -5.6550    83.8870    25.2550    25.2100    18.0840    24.5440     2.3350 
  173.5000    -5.7220    83.2900    25.1180    24.4620    17.5960    24.3810     2.3370 
  173.6250    -5.7480    80.8070    27.5440    25.9820    20.9760    24.1190     2.3280 
  173.7500    -5.8650    79.5880    32.1690    29.5860    26.6280    23.9790     2.3120 
  173.8750    -5.9740    77.5500    38.6650    35.2390    39.7960    24.0680     2.2920 
  174.0000    -6.0580    74.1840    46.1690    42.3920    56.3510    24.2710     2.2750 
  174.1250    -6.2450    70.5610    52.9280    49.5130    64.2280    24.4660     2.2650 
  174.2500    -6.3390    68.4950    57.3880    54.7200    62.3320    24.5730     2.2640 
  174.3750    -6.3950    69.1290    58.9970    57.0910    58.4960    24.5950     2.2680 
  174.5000    -6.5460    70.9830    58.3750    56.9460    56.9290    24.5660     2.2730 
  174.6250    -6.6700    72.5340    56.8840    55.4740    53.9310    24.5550     2.2740 
  174.7500    -6.7110    73.1470    55.8890    54.1890    52.0790    24.5440     2.2720 
  174.8750    -6.8120    72.7830    55.7800    53.6380    48.8920    24.5050     2.2700 
  175.0000    -6.8760    72.2750    56.3100    53.7430    50.5700    24.4740     2.2700 
  175.1250    -6.9290    72.3810    56.5930    53.8400    57.7100    24.4870     2.2740 
  175.2500    -7.0260    73.2560    55.6870    53.0720    63.6650    24.5120     2.2810 
  175.3750    -7.0940    73.4290    53.1010    50.9230    66.0710    24.4990     2.2860 
  175.5000    -7.1570    73.4210    49.0360    47.4190    58.5050    24.4890     2.2910 
  175.6250    -7.2520    74.4290    44.6070    43.3730    47.1820    24.5170     2.2980 
  175.7500    -7.3400    74.6460    41.4010    40.1850    39.2360    24.5700     2.3050 
  175.8750    -7.4560    72.2970    40.4710    38.8230    36.8780    24.6030     2.3080 
  176.0000    -7.6090    69.9640    42.4450    39.9240    36.5660    24.6130     2.3000 
  176.1250    -7.6790    71.1980    48.0640    44.4180    43.1350    24.6140     2.2830 
  176.2500    -7.8190    71.9300    56.2260    51.6820    65.3960    24.6420     2.2670 
  176.3750    -7.9970    69.6390    65.2760    60.4410    97.1320    24.7040     2.2550 
  176.5000    -8.0670    66.7300    72.6100    68.2300   111.5700    24.7270     2.2470 
  176.6250    -8.1960    67.5460    75.0060    71.6470    98.5180    24.6900     2.2460 
  176.7500    -8.3660    69.3580    73.2040    70.8470    83.6310    24.5960     2.2530 
  176.8750    -8.4210    67.9250    69.5280    67.7650    70.7480    24.4760     2.2660 
  177.0000    -8.5250    64.5800    66.7260    65.0130    62.4890    24.3570     2.2790 
  177.1250    -8.6790    63.6840    67.2950    65.1910    64.1690    24.3850     2.2860 
  177.2500    -8.7110    66.1290    71.3400    68.7160    70.7140    24.5450     2.2860 
  177.3750    -8.7750    68.0160    78.5840    75.4700    75.6360    24.7140     2.2810 
  177.5000    -8.9460    67.9230    88.3180    84.9380    88.4490    24.7820     2.2710 
  177.6250    -8.9890    67.8740    98.7320    95.8070   126.6710    24.7710     2.2540 
  177.7500    -9.0220    66.9040   105.5960   104.2650   153.3660    24.7620     2.2350 
  177.8750    -9.1110    64.7810   103.8960   105.3490   147.6120    24.7620     2.2210 
  178.0000    -9.0930    62.5590    91.3210    95.8320   133.0330    24.7550     2.2220 
  178.1250    -9.0970    62.9600    72.9880    77.8570   113.7120    24.7070     2.2400 
  178.2500    -9.1480    67.8380    58.4340    60.0660    80.9450    24.6360     2.2680 
  178.3750    -9.1020    75.3420    45.4020    46.9060    43.6050    24.6180     2.2970 
  178.5000    -9.0260    80.6750    38.9640    39.5780    25.8500    24.6530     2.3190 
  178.6250    -9.0470    80.7570    38.7380    38.1470    27.8280    24.7330     2.3210 
