~V
VERS. 2.00: Ver 2.00
~W
STRT.M 49.0000:
STOP.M 243.0000:
STEP.M 0.1250:
NULL. -999.2500:
UWI. F10196:
~C
DEPT.M :
SP.MV :
DEN.GM/CC :
GR.API :
RML.OHMM :
RI. :
RXO.OHMM :
CALI.CM :
~A
# ...
  229.0000   -12.7440     2.3300    66.0700     8.3420     7.7270     9.9830    24.4880 
  229.1250   -12.6860     2.3290    64.0600     8.4050     7.7980    10.3350    24.3280 
  229.2500   -12.5770     2.3310    63.7660     8.4580     7.8560    10.6580    24.2620 
  229.3750   -12.4470     2.3330    65.0370     8.5140     7.9150    10.2930    24.2310 
  229.5000   -12.3080     2.3350    66.2180     8.5890     7.9860     9.9440    24.1870 
  229.6250   -12.1840     2.3380    65.9200     8.7010     8.0840    10.0570    24.1620 
  229.7500   -12.0730     2.3370    64.3610     8.8520     8.2160    10.4950    24.1790 
  229.8750   -12.0360     2.3240    62.7510     8.9920     8.3480    10.5500    24.2380 
  230.0000   -12.0500     2.3080    62.3990     9.0600     8.4300    10.3190    24.2450 
  230.1250   -12.0660     2.3070    64.1850     9.0080     8.4140    10.0890    24.1300 
  230.2500   -12.1130     2.3320    66.5460     8.8180     8.2700    10.1170    24.0400 
  230.3750   -12.1870     2.3590    66.4930     8.5810     8.0630    10.2150    24.0520 
  230.5000   -12.2210     2.3630    65.7230     8.3880     7.8680     9.7980    24.0670 
  230.6250   -12.2350     2.3510    66.6940     8.3090     7.7510     9.0830    24.0250 
  230.7500   -12.2750     2.3440    68.3990     8.3950     7.7680     9.1420    23.8940 
  230.8750   -12.2440     2.3480    68.4170     8.5990     7.9010     9.9860    23.8180 
  231.0000   -12.1530     2.3550    69.4430     8.8670     8.1180    11.4200    23.8680 
  231.1250   -12.0570     2.3590    72.4110     9.1390     8.3680    11.3730    23.9710 
  231.2500   -11.8890     2.3570    71.4140     9.3500     8.5890    10.5180    24.0180 
  231.3750   -11.7300     2.3520    67.3830     9.4770     8.7420    10.6060    24.0150 
  231.5000   -11.6160     2.3480    66.7350     9.5190     8.8160    11.0220    24.0140 
  231.6250   -11.5370     2.3530    69.5000     9.4980     8.8230    10.6030    24.0340 
  231.7500   -11.4260     2.3630    68.1920     9.4620     8.7960    10.2570    24.0330 
  231.8750   -11.3070     2.3700    65.0680     9.4710     8.7900    10.3560    24.0040 
  232.0000   -11.1830     2.3690    65.8720     9.5600     8.8460    10.5640    23.9870 
  232.1250   -11.0770     2.3660    67.9930     9.7410     8.9890    10.7050    24.0480 
  232.2500   -11.0130     2.3680    66.5840    10.0100     9.2280    10.9380    24.0390 
  232.3750   -10.9300     2.3730    65.7050    10.3070     9.5090    11.2850    23.8870 
  232.5000   -10.8470     2.3780    67.5330    10.5830     9.7870    11.5110    23.6690 
  232.6250   -10.7640     2.3820    69.6900    10.7950    10.0180    11.6110    23.6560 
  232.7500   -10.7150     2.3880    70.2330    10.9110    10.1650    11.6450    23.8390 
  232.8750   -10.7330     2.3930    69.9190    10.9560    10.2420    11.9260    23.9870 
  233.0000   -10.8060     2.3930    68.4590    10.9480    10.2580    12.6120    24.0260 
  233.1250   -10.8790     2.3910    68.1000    10.8950    10.2250    13.6470    24.0200 
  233.2500   -10.9490     2.3940    68.1000    10.7820    10.1380    13.8820    24.0420 
  233.3750   -11.0580     2.4010    68.1000    10.6000    10.0020    12.9190    24.0780 
  233.5000   -11.1630     2.4070    68.1000    10.3370     9.8090    12.0260    24.1050 
  233.6250   -11.2010     2.4040    68.1000    10.0030     9.5570    11.2650    24.1060 
  233.7500   -11.2030     2.3930    68.1000     9.6160     9.2500    10.8200    24.0880 
  233.8750   -11.1910     2.3790    68.1000     9.2100     8.9120    10.3980    24.0720 
  234.0000   -11.1420     2.3670    68.1000     8.8050     8.5580     9.1710    24.0160 
  234.1250   -11.1020     2.3590    68.1000     8.4210     8.2050     7.6580    23.9180 
  234.2500   -11.0370     2.3570    68.1000     8.0850     7.8820     7.0570    23.8520 
  234.3750   -10.9360     2.3610    68.1000     7.8140     7.6080     7.0280    23.8280 
  234.5000   -10.7980     2.3680    68.1000     7.6240     7.3970     6.9630    23.7990 
  234.6250   -10.6790     2.3740    68.1000     7.5180     7.2590     7.0340    23.7320 
  234.7500   -10.5940     2.3750    68.1000     7.4900     7.1980     7.2550    23.6450 
  234.8750   -10.5560     2.3740    68.1000     7.4970     7.1870     7.3200    23.5880 
  235.0000   -10.5630     2.3710    68.1000     7.5150     7.2130     7.3170    23.5530 
  235.1250   -10.5920     2.3640    68.1000     7.5340     7.2620     7.5630    23.5170 
  235.2500   -10.7030     2.3570    68.1000     7.5560     7.3220     7.7740    23.4620 
  235.3750   -10.8380     2.3550    68.1000     7.5880     7.3810     7.5640    23.4400 
  235.5000   -11.0290     2.3570    68.1000     7.6330     7.4330     6.9860    23.4750 
  235.6250   -11.2490     2.3600    68.1000     7.6790     7.4760     6.5330    23.4220 
  235.7500   -11.4780     2.3620    68.1000     7.7180     7.5150     6.5520    23.2160 
  235.8750   -11.6550     2.3640    68.1000     7.7450     7.5520     6.7020    23.0930 
  236.0000   -11.8080     2.3680    68.1000     7.7600     7.5840     6.8610    23.1590 
  236.1250   -11.9190     2.3740    68.1000     7.7500     7.5970     6.9040    23.4110 
  236.2500   -11.9740     2.3790    68.1000     7.6860     7.5630     7.2680    23.6230 
  236.3750   -12.0040     2.3800    68.1000     7.5630     7.4750     7.6900    23.7640 
  236.5000   -11.9650     2.3780    68.1000     7.3960     7.3400     7.8330    23.7850 
  236.6250   -11.9240     2.3730    68.1000     7.2200     7.1820     7.4840    23.6770 
  236.7500   -11.8620     2.3640    68.1000     7.0890     7.0430     6.8520    23.4690 
  236.8750   -11.7520     2.3560    68.1000     7.0270     6.9510     6.5190    23.3380 
  237.0000   -11.6240     2.3520    68.1000     7.0370     6.9220     6.6020    23.3030 
  237.1250   -11.5380     2.3540    68.1000     7.1030     6.9520     7.0360    23.3650 
  237.2500   -11.4590     2.3610    68.1000     7.2010     7.0260     7.5830    23.5120 
  237.3750   -11.3810     2.3730    68.1000     7.2940     7.1090     8.2600    23.7010 
  237.5000   -11.2940     2.3850    68.1000     7.3660     7.1800     8.6680    23.8820 
  237.6250   -11.1330     2.3880    68.1000     7.4080     7.2230     8.7510    23.9780 
  237.7500   -10.9760     2.3810    68.1000     7.4170     7.2300     8.4880    23.9780 
  237.8750   -10.8670     2.3720    68.1000     7.4080     7.2200     8.1460    23.9450 
  238.0000   -10.7450     2.3730    68.1000     7.3910     7.2090     7.9950    23.9240 
  238.1250   -10.5640     2.3800    68.1000     7.3690     7.2050     8.3690    23.9920 
  238.2500   -10.4000     2.3810    68.1000     7.3500     7.2130     9.4560    24.0760 
  238.3750   -10.2120     2.3710    68.1000     7.3410     7.2240    10.3360    24.1280 
  238.5000   -10.0700     2.3540    68.1000     7.3420     7.2330    10.3690    24.3040 
  238.6250   -10.0190     2.3330    68.1000     7.3500     7.2360    10.1430    24.5570 
  238.7500    -9.9640     2.3180    68.1000     7.3610     7.2330    10.0210    24.5650 
  238.8750    -9.9030     2.3190    68.1000     7.3700     7.2290    10.0780    24.3860 
  239.0000    -9.8820     2.3410    68.1000     7.3720     7.2270    10.3370    24.2070 
  239.1250    -9.8960     2.3780    68.1000     7.3720     7.2270    10.9180    24.1370 
  239.2500    -9.8910     2.4120    68.1000     7.3720     7.2270    11.6290    24.1770 
  239.3750    -9.8950     2.4300    68.1000     7.3720     7.2270    12.0950    24.2140 
  239.5000    -9.8990     2.4330    68.1000     7.3720     7.2270    12.2150    24.2280 
  239.6250    -9.8880     2.4240    68.1000     7.3720     7.2270    12.1240    24.1980 
  239.7500    -9.9320     2.4110    68.1000     7.3720     7.2270    11.9820    24.0780 
  239.8750    -9.9790     2.3880    68.1000     7.3720     7.2270    12.2410    23.7900 
  240.0000   -10.0120     2.3960    68.1000     7.3720     7.2270    13.1030    23.4650 
  240.1250   -10.0270     2.4140    68.1000     7.3720     7.2270    14.1180    23.2670 
