~V
VERS. 2.00: Ver 2.00
~W
STRT.M 50.0000:
STOP.M 252.0000:
STEP.M 0.1250:
NULL. -999.2500:
UWI. F10101:
~C
DEPT.M :
DEN.GM/CC :
SP.MV :
GR.API :
RML.OHMM :
RI. :
RXO.OHMM :
CALI.CM :
~A
# ...
  162.5000     2.3560    -9.7610    85.5080     8.7010     7.4460     8.9620    24.3740 
  162.6250     2.3500    -9.7150    83.7720     8.2760     7.1430     8.4520    24.3440 
  162.7500     2.3460    -9.6880    87.1190     7.7180     6.6960     7.1410    24.2860 
  162.8750     2.3490    -9.6740    91.4420     7.1490     6.2000     6.1150    24.2250 
  163.0000     2.3570    -9.6330    94.0140     6.6940     5.7620     5.5250    24.1710 
  163.1250     2.3640    -9.6920    94.4940     6.4620     5.4910     5.3570    24.2180 
  163.2500     2.3660    -9.7520    93.4750     6.4040     5.3820     5.5300    24.3250 
  163.3750     2.3610    -9.8200    90.3170     6.4660     5.4080     5.7070    24.3930 
  163.5000     2.3550    -9.9990    86.5120     6.5940     5.5220     5.9160    24.3770 
  163.6250     2.3540   -10.1390    86.2340     6.7840     5.6980     6.1840    24.3370 
  163.7500     2.3560   -10.2580    89.3920     7.0710     5.9340     6.4830    24.3250 
  163.8750     2.3590   -10.4550    92.9570     7.5090     6.2700     6.9600    24.3240 
  164.0000     2.3590   -10.6460    93.9390     8.1460     6.7530     7.7300    24.3030 
  164.1250     2.3510   -10.8170    92.2570     9.0270     7.4430     8.6900    24.3240 
  164.2500     2.3410   -10.9970    90.0130    10.0660     8.2890     9.8060    24.3770 
  164.3750     2.3330   -11.1630    87.5180    11.1830     9.2250    11.1810    24.4060 
  164.5000     2.3270   -11.3300    85.4140    12.2940    10.1750    12.8960    24.4220 
  164.6250     2.3220   -11.5250    83.6300    13.3380    11.0780    14.7160    24.4190 
  164.7500     2.3180   -11.7050    82.3580    14.3610    11.9510    15.7750    24.4110 
  164.8750     2.3160   -11.9170    81.4890    15.4660    12.8630    16.1850    24.4070 
  165.0000     2.3170   -12.1470    80.7580    16.7860    13.9060    17.3480    24.3910 
  165.1250     2.3180   -12.3490    79.2200    18.4770    15.2060    18.8530    24.3520 
  165.2500     2.3180   -12.5960    78.4880    20.4930    16.7730    20.6490    24.3620 
  165.3750     2.3160   -12.8110    79.0630    22.7340    18.5870    22.9860    24.3490 
  165.5000     2.3110   -13.0140    78.9380    25.0240    20.5490    25.8630    24.3050 
  165.6250     2.3050   -13.2980    77.6880    27.1120    22.4750    27.9030    24.2980 
  165.7500     2.2990   -13.5570    77.7390    28.9260    24.2250    29.0970    24.3170 
  165.8750     2.2960   -13.7710    78.8730    30.5420    25.7970    30.1380    24.3470 
  166.0000     2.2970   -14.0270    78.1620    32.1530    27.3080    31.3610    24.3550 
  166.1250     2.3000   -14.2460    76.3210    33.9870    28.9580    32.5680    24.3350 
  166.2500     2.3040   -14.4850    77.1590    35.9550    30.7550    34.5580    24.2900 
  166.3750     2.3080   -14.7700    79.4060    37.7630    32.5090    37.4000    24.2510 
  166.5000     2.3130   -14.9790    79.7950    39.1510    33.9890    40.7380    24.2180 
  166.6250     2.3170   -15.1890    77.7710    40.2790    35.2020    43.9690    24.1800 
  166.7500     2.3180   -15.4680    76.2040    42.0150    36.7460    43.1900    24.1550 
  166.8750     2.3160   -15.7060    74.7960    45.3980    39.4740    38.8710    24.1970 
  167.0000     2.3090   -15.9560    73.0870    51.4020    44.3720    40.5250    24.2800 
  167.1250     2.2930   -16.2350    71.6110    62.7370    52.8640    63.4030    24.4420 
  167.2500     2.2730   -16.4870    69.4950    80.4340    64.4160   108.9700    24.6110 
  167.3750     2.2590   -16.7110    66.4320    94.9580    77.3980   138.0550    24.6890 
  167.5000     2.2580   -16.9940    65.6210   106.3370    88.6210   114.4270    24.6190 
  167.6250     2.2710   -17.2360    69.1570   109.7490    93.8140    94.7970    24.5210 
  167.7500     2.2860   -17.3930    71.1380   107.0140    93.5610    91.9700    24.4470 
  167.8750     2.2970   -17.5780    70.2300   101.7420    90.3350    90.0030    24.4010 
  168.0000     2.3010   -17.6830    71.4320    97.2160    86.9680    79.3140    24.4100 
  168.1250     2.2990   -17.7950    76.6010    95.6410    85.6450    74.8540    24.4360 
  168.2500     2.2950   -17.8570    77.4100    96.8890    86.6270    78.8140    24.4260 
  168.3750     2.2910   -17.8790    73.1700   100.5480    89.8100    83.3990    24.4300 
  168.5000     2.2860   -17.8970    70.2440   105.7900    94.7870    90.5700    24.4030 
  168.6250     2.2780   -17.8370    70.5450   111.1870   100.6230   101.0580    24.3900 
  168.7500     2.2720   -17.7990    69.9770   115.1160   105.6590   104.2010    24.3790 
  168.8750     2.2690   -17.7790    68.4560   116.8980   108.8870   103.1090    24.3780 
  169.0000     2.2670   -17.7440    67.1560   116.9440   110.2370   103.4820    24.3770 
  169.1250     2.2580   -17.7250    66.2480   116.1580   110.2630   104.2360    24.3800 
  169.2500     2.2470   -17.7230    65.9550   115.3050   109.8550   101.5750    24.3810 
  169.3750     2.2370   -17.7630    66.8740   114.7050   109.3710   100.5690    24.3810 
  169.5000     2.2310   -17.8180    68.3330   114.9630   109.3380   106.0210    24.3630 
  169.6250     2.2300   -17.9020    70.1480   117.6900   111.1210   110.3390    24.3060 
  169.7500     2.2360   -18.0650    72.7880   124.2390   116.1220   105.3250    24.2080 
  169.8750     2.2460   -18.2050    72.1510   136.3860   126.2600    96.3240    24.1000 
  170.0000     2.2520   -18.4220    67.2070   155.7690   143.4240   109.7860    23.9970 
  170.1250     2.2450   -18.6250    63.1930   184.0960   169.3910   150.4290    24.0000 
  170.2500     2.2340   -18.8610    62.2610   217.2150   200.0520   166.5180    24.1120 
  170.3750     2.2250   -19.0980    62.2680   248.4160   229.4100   157.4040    24.2510 
  170.5000     2.2210   -19.3370    61.4120   269.2620   250.2870   157.5230    24.3920 
  170.6250     2.2240   -19.5560    61.3720   273.3930   256.7400   165.9210    24.4960 
  170.7500     2.2280   -19.7430    62.0130   267.8910   253.9980   172.0770    24.5820 
  170.8750     2.2320   -19.8990    61.0880   258.5560   247.1620   177.7290    24.6370 
  171.0000     2.2350   -19.9970    59.9710   247.9660   239.0640   180.2240    24.6520 
  171.1250     2.2380   -20.1030    61.1980   235.9470   229.7830   178.0970    24.6400 
  171.2500     2.2410   -20.1370    62.1870   222.7060   219.2870   172.7420    24.6110 
  171.3750     2.2450   -20.1980    61.4140   208.9350   207.8800   162.0120    24.5610 
  171.5000     2.2490   -20.1370    60.8800   195.7460   196.3540   148.4540    24.5060 
  171.6250     2.2550   -20.1140    65.0870   184.9900   186.3400   150.4560    24.4560 
  171.7500     2.2640   -20.0330    70.7920   177.6600   179.0740   148.6300    24.3980 
  171.8750     2.2750   -19.9110    72.7980   174.5530   175.5270   145.5960    24.3340 
  172.0000     2.2840   -19.8070    69.7870   176.2990   176.4840   140.5600    24.2260 
  172.1250     2.2910   -19.5740    64.4340   184.4940   183.6110   148.8390    24.1400 
  172.2500     2.2960   -19.3620    60.8880   198.4300   196.3260   176.5400    24.1220 
  172.3750     2.2960   -19.0490    60.0390   216.7120   213.3550   196.9000    24.0980 
  172.5000     2.2840   -18.7760    59.3420   235.2270   230.9760   197.4250    24.0760 
  172.6250     2.2610   -18.5150    57.1530   245.0080   241.2030   220.6210    24.0850 
  172.7500     2.2390   -18.1780    55.9150   241.7900   239.6850   236.6010    24.1310 
  172.8750     2.2270   -17.8860    57.7680   228.1260   227.6380   210.2960    24.2210 
  173.0000     2.2260   -17.5430    61.1060   211.9870   211.5890   157.5730    24.3460 
  173.1250     2.2340   -17.2960    63.8700   203.2090   201.1450   123.4960    24.4430 
  173.2500     2.2450   -17.0550    65.4640   205.7230   201.6140   131.3530    24.4780 
  173.3750     2.2520   -16.8870    65.1430   221.1580   215.2880   173.1040    24.4830 
  173.5000     2.2520   -16.7560    62.7030   249.3640   242.0630   232.4520    24.4730 
  173.6250     2.2470   -16.5690    60.3360   285.9090   277.7680   281.8860    24.4330 
