~V
VERS. 2.00: Ver 2.00
~W
STRT.M 57.0000:
STOP.M 281.0000:
STEP.M 0.1250:
NULL. -999.2500:
UWI. F10139:
~C
DEPT.M :
SP.MV :
GR.API :
RML.OHMM :
RI. :
RXO.OHMM :
CALI.CM :
DEN.GM/CC :
~A
# ...
  169.5000   -18.2160    77.4250    11.5790    11.9810    12.4460    24.4840     2.1380 
  169.6250   -18.2010    79.1300    11.4970    11.9460    11.8480    24.5060     2.1770 
  169.7500   -18.2060    80.6990    11.5610    12.0070    11.6900    24.5190     2.2200 
  169.8750   -18.2510    79.4000    11.7350    12.1390    11.8310    24.5330     2.2530 
  170.0000   -18.3090    75.9450    11.9480    12.3010    12.3960    24.5550     2.2740 
  170.1250   -18.3530    74.9080    12.1060    12.4350    12.7700    24.5600     2.2850 
  170.2500   -18.4170    76.7490    12.1570    12.4880    12.7310    24.5650     2.2910 
  170.3750   -18.4960    79.3230    12.1030    12.4400    12.6750    24.5790     2.2940 
  170.5000   -18.5850    80.4240    12.0180    12.3430    13.0840    24.6000     2.2930 
  170.6250   -18.6910    80.0140    12.0990    12.3820    13.6630    24.6290     2.2880 
  170.7500   -18.7830    77.8100    12.5790    12.7700    13.3800    24.6410     2.2820 
  170.8750   -18.8660    76.1410    13.7510    13.7480    13.8040    24.6450     2.2780 
  171.0000   -18.9810    76.3220    15.8940    15.5810    15.3920    24.6520     2.2770 
  171.1250   -19.1920    74.6670    19.3060    18.6720    19.5450    24.6710     2.2800 
  171.2500   -19.4790    68.6510    25.3270    22.8090    25.0570    24.6940     2.2850 
  171.3750   -19.8300    61.2510    31.9300    27.5770    28.3280    24.7030     2.2900 
  171.5000   -20.2470    57.8130    36.5360    32.2910    36.4570    24.7040     2.2930 
  171.6250   -20.7330    60.3130    40.3770    36.3680    45.6100    24.7040     2.2950 
  171.7500   -21.2880    63.5510    44.4800    40.4350    40.9980    24.7050     2.2930 
  171.8750   -21.9520    64.4690    50.5120    45.9840    40.8460    24.7060     2.2880 
  172.0000   -22.6990    63.5670    60.4620    55.1120    50.3370    24.7080     2.2770 
  172.1250   -23.4730    62.8890    77.8280    71.6190    89.9280    24.7250     2.2620 
  172.2500   -24.1950    62.2600   104.1360    97.0760   121.2310    24.7680     2.2470 
  172.3750   -24.8720    61.2230   141.0330   132.6120   137.6120    24.8100     2.2340 
  172.5000   -25.5200    60.0690   187.5090   176.5290   161.0810    24.8320     2.2240 
  172.6250   -26.1250    58.5010   236.7220   222.3600   190.0160    24.8470     2.2170 
  172.7500   -26.6900    56.4530   278.1800   261.5200   197.7450    24.8430     2.2120 
  172.8750   -27.1910    54.2810   307.3680   290.0490   193.8890    24.7900     2.2070 
  173.0000   -27.6160    52.4830   325.6330   308.4250   196.6880    24.6980     2.2010 
  173.1250   -27.9470    51.7720   335.7310   318.4890   197.3730    24.6560     2.1970 
  173.2500   -28.2650    52.6960   340.8260   323.3900   192.6020    24.6340     2.1960 
  173.3750   -28.6080    54.8900   340.4160   323.0680   191.3220    24.6120     2.1980 
  173.5000   -28.8950    57.3470   333.7800   317.1500   208.5660    24.5910     2.2030 
  173.6250   -29.1120    58.6820   321.3940   306.0890   227.3960    24.5820     2.2070 
  173.7500   -29.3000    58.8080   307.2400   293.3800   210.8220    24.5780     2.2080 
  173.8750   -29.4730    59.0190   294.0300   281.4350   170.8330    24.5760     2.2060 
  174.0000   -29.6660    59.9010   283.1500   271.5480   158.7420    24.5760     2.2020 
  174.1250   -29.8900    60.9280   274.6210   263.8990   171.5000    24.5760     2.1960 
  174.2500   -30.1050    60.5270   267.1570   257.4740   179.4940    24.5740     2.1880 
  174.3750   -30.2790    59.1270   260.5240   252.1030   169.1800    24.5670     2.1790 
  174.5000   -30.5230    58.8730   255.3100   248.2150   155.0870    24.5560     2.1740 
  174.6250   -30.9270    59.6440   253.2680   247.2400   152.4630    24.5680     2.1740 
  174.7500   -31.3080    59.4170   254.8560   249.5720   149.2460    24.5790     2.1760 
  174.8750   -31.6490    57.8940   259.2650   254.6160   153.9460    24.5880     2.1760 
  175.0000   -31.9730    57.0730   263.5980   259.8400   167.7550    24.5820     2.1720 
  175.1250   -32.2470    58.0880   262.5810   260.3480   165.4060    24.5550     2.1640 
  175.2500   -32.3460    58.1790   254.1250   253.8170   158.7270    24.4840     2.1570 
  175.3750   -32.2470    57.5370   238.8550   240.3160   149.7470    24.3770     2.1520 
  175.5000   -32.0130    57.5960   219.8760   222.3380   140.4460    24.2780     2.1490 
  175.6250   -31.6270    58.0620   201.7920   204.1130   131.1190    24.2890     2.1470 
  175.7500   -31.2580    57.9920   187.6740   189.1950   121.0400    24.3390     2.1470 
  175.8750   -30.8540    58.0680   178.6670   179.0910   111.5110    24.3960     2.1520 
  176.0000   -30.3910    58.3550   174.9420   174.1580   110.6910    24.4610     2.1600 
  176.1250   -30.0040    58.0970   176.7340   174.7110   114.9560    24.5020     2.1680 
  176.2500   -29.7720    58.6580   182.1040   178.8420   122.8260    24.4560     2.1670 
  176.3750   -29.6480    61.3850   189.8000   185.3380   123.2990    24.3270     2.1560 
  176.5000   -29.5740    63.0580   198.7130   193.1570   117.8700    24.2680     2.1390 
  176.6250   -29.5690    61.2360   208.1300   201.6600   124.5440    24.3400     2.1230 
  176.7500   -29.6330    59.4870   217.7810   210.5080   133.5630    24.4250     2.1150 
  176.8750   -29.7270    60.0620   227.8930   219.8600   136.6120    24.4520     2.1160 
  177.0000   -29.7450    60.3550   238.3870   229.6840   145.5310    24.4480     2.1210 
  177.1250   -29.6300    58.1480   248.0010   238.9640   151.6640    24.4980     2.1250 
  177.2500   -29.4850    56.5850   255.2050   246.3150   151.6670    24.5470     2.1240 
  177.3750   -29.3790    57.2640   258.8810   250.7140   152.8510    24.5410     2.1200 
  177.5000   -29.3500    58.6740   257.8780   251.0840   152.8310    24.4680     2.1130 
  177.6250   -29.2670    58.9540   248.8950   244.3600   152.2910    24.3620     2.1070 
  177.7500   -29.0230    58.5460   231.2040   229.6050   146.7370    24.2750     2.1050 
  177.8750   -28.7850    56.8700   205.4130   206.9190   144.8050    24.1560     2.1080 
  178.0000   -28.6640    56.0040   175.0960   179.0070   144.9050    24.0290     2.1160 
  178.1250   -28.6380    58.2790   146.7890   151.5360   134.5790    23.9520     2.1290 
  178.2500   -28.5920    61.2190   125.0670   129.5740   110.8860    23.9300     2.1450 
  178.3750   -28.5060    62.7830   111.2140   115.0220    89.5510    23.9270     2.1630 
  178.5000   -28.3480    63.7310   104.4250   107.5200    71.9290    23.9270     2.1800 
  178.6250   -28.2160    65.3800   103.1540   105.7890    70.1630    23.9270     2.1900 
  178.7500   -28.1430    64.9240   103.6910   106.1820    83.9610    23.9280     2.1890 
  178.8750   -28.0260    61.9290   103.7270   106.3750   103.0610    23.9320     2.1780 
  179.0000   -27.8800    59.6490   101.9780   104.9620    96.9480    23.9410     2.1640 
  179.1250   -27.6970    60.8070    98.4280   101.6600    71.7830    23.9430     2.1540 
  179.2500   -27.5440    63.2970    94.9240    98.0600    59.8740    23.9370     2.1530 
  179.3750   -27.4840    63.6370    93.2530    95.8740    62.3260    23.9350     2.1590 
  179.5000   -27.4650    61.4680    94.8280    96.6190    75.7780    23.9330     2.1700 
  179.6250   -27.4350    58.9200   101.2660   102.0340    77.2980    23.8890     2.1800 
  179.7500   -27.4550    56.9860   112.3470   112.0540    69.4410    23.7500     2.1880 
  179.8750   -27.5630    56.0240   127.9230   126.6040    72.9150    23.5650     2.1870 
  180.0000   -27.6490    56.4680   146.8450   144.5310    85.2310    23.4550     2.1760 
  180.1250   -27.7130    58.2840   165.7190   162.5210    89.9040    23.4120     2.1560 
  180.2500   -27.8270    59.8410   178.8080   175.2070    85.6920    23.3210     2.1390 
  180.3750   -27.8670    60.6920   181.0210   177.8960    77.7720    23.1190     2.1320 
  180.5000   -27.8270    59.9430   171.4800   169.4580    74.5400    22.9730     2.1370 
  180.6250   -27.7630    58.2000   154.8970   153.5980    76.6910    23.0110     2.1480 
