~V
VERS. 2.00: Ver 2.00
~W
STRT.M 55.0000:
STOP.M 288.0000:
STEP.M 0.1250:
NULL. -999.2500:
UWI. F10106:
~C
DEPT.M :
DEN.GM/CC :
SP.MV :
GR.API :
RML.OHMM :
RI. :
RXO.OHMM :
CALI.CM :
~A
# ...
  235.0000     2.1330   -17.0460    47.9910    10.9230     9.9200     9.9350    24.1200 
  235.1250     2.1090   -17.0470    50.1230    11.0560    10.0080     9.9650    24.2240 
  235.2500     2.1130   -17.0130    52.8220    11.1970    10.1210    10.2480    24.2390 
  235.3750     2.1420   -16.9550    54.6060    11.3070    10.2230    10.7020    24.2350 
  235.5000     2.1840   -16.8690    55.4750    11.3610    10.2880    11.0680    24.2320 
  235.6250     2.2190   -16.7940    54.7940    11.3480    10.2950    11.1950    24.2450 
  235.7500     2.2300   -16.7440    51.9960    11.2860    10.2550    11.2290    24.2970 
  235.8750     2.2090   -16.7170    49.3270    11.1840    10.1690    11.0640    24.4070 
  236.0000     2.1650   -16.7130    49.0390    11.0510    10.0460    10.7650    24.5650 
  236.1250     2.1220   -16.7430    48.8310    10.8930     9.8910    10.5390    24.7500 
  236.2500     2.1030   -16.7930    46.2190    10.7240     9.7230    10.3870    24.9060 
  236.3750     2.1200   -16.8610    43.9140    10.5560     9.5560    10.2940    25.0010 
  236.5000     2.1640   -16.9380    43.5650    10.4020     9.4020    10.1760    25.0750 
  236.6250     2.2060   -17.0190    44.5250    10.2820     9.2790    10.0350    25.2380 
  236.7500     2.2150   -17.0930    45.2410    10.2070     9.1910     9.9240    25.4910 
  236.8750     2.1860   -17.1430    45.4560    10.1780     9.1410     9.8970    25.7750 
  237.0000     2.1390   -17.1800    44.7180    10.1920     9.1240     9.8720    25.9950 
  237.1250     2.1040   -17.1960    44.3720    10.2450     9.1390     9.7990    25.9490 
  237.2500     2.0960   -17.2110    45.9200    10.3260     9.1760     9.6880    25.5970 
  237.3750     2.1200   -17.2400    46.9380    10.4400     9.2410     9.6470    25.0590 
  237.5000     2.1640   -17.2890    45.7790    10.5860     9.3330     9.8180    24.5150 
  237.6250     2.2120   -17.3490    46.2420    10.7430     9.4440    10.0590    24.0940 
  237.7500     2.2450   -17.4300    49.9110    10.8800     9.5480    10.4080    23.8190 
  237.8750     2.2550   -17.5540    53.8580    10.9820     9.6320    10.7120    23.7480 
  238.0000     2.2410   -17.7000    53.8410    11.0760     9.7110    10.7310    23.9270 
  238.1250     2.2120   -17.8700    48.6920    11.2540     9.8480    10.4650    24.2600 
  238.2500     2.1870   -18.0380    44.4060    11.6030    10.1080    10.2740    24.4460 
  238.3750     2.1800   -18.1750    44.2950    12.1560    10.5280    10.5220    24.2720 
  238.5000     2.1970   -18.2950    46.1710    12.8530    11.0800    11.4340    23.8030 
  238.6250     2.2330   -18.3840    46.1780    13.4970    11.6340    12.7580    23.4410 
  238.7500     2.2710   -18.4420    43.9520    13.8600    12.0040    13.9070    23.3200 
  238.8750     2.2970   -18.4680    41.5000    13.7910    12.0450    14.4450    23.4340 
  239.0000     2.3040   -18.4940    40.2990    13.2710    11.7110    13.6530    23.7550 
  239.1250     2.2830   -18.5220    41.0600    12.4290    11.0650    11.9580    24.3020 
  239.2500     2.2440   -18.5480    41.9620    11.5870    10.3670    10.7450    24.9730 
  239.3750     2.1980   -18.5760    41.7840    10.9550     9.7970    10.2050    25.5990 
  239.5000     2.1610   -18.5880    42.7500    10.6370     9.4600    10.0740    25.9110 
  239.6250     2.1510   -18.5860    46.2880    10.6530     9.4020    10.1750    25.7120 
  239.7500     2.1660   -18.5830    48.9170    10.8270     9.5050    10.5900    25.2810 
  239.8750     2.1970   -18.5830    50.6430    11.0300     9.6700    11.0980    24.9020 
  240.0000     2.2250   -18.5760    52.6650    11.1570     9.8070    11.5730    24.8380 
  240.1250     2.2330   -18.5610    53.9980    11.1290     9.8350    11.6210    25.3290 
  240.2500     2.2180   -18.5460    54.7780    10.9740     9.7590    11.1510    26.0550 
  240.3750     2.1860   -18.5230    55.8850    10.7430     9.6110    10.6890    26.7470 
  240.5000     2.1440   -18.4930    55.6260    10.5040     9.4440    10.2640    27.2550 
  240.6250     2.0990   -18.4590    51.2420    10.3500     9.3360     9.9510    27.5470 
  240.7500     2.0600   -18.4200    47.7600    10.3270     9.3290     9.7440    27.6090 
  240.8750     2.0390   -18.3580    49.7520    10.4480     9.4400     9.8530    27.1970 
  241.0000     2.0490   -18.2740    53.9600    10.6840     9.6500    10.1090    26.2790 
  241.1250     2.0940   -18.1760    56.5730    10.9610     9.9030    10.4020    25.3740 
  241.2500     2.1500   -18.0790    58.6530    11.1730    10.1100    10.6000    25.0020 
  241.3750     2.1970   -17.9880    59.4400    11.2470    10.2020    10.5370    25.2930 
  241.5000     2.2200   -17.9010    55.9260    11.1550    10.1450    10.2580    25.9520 
  241.6250     2.2140   -17.8020    49.5590    10.9180     9.9410     9.7110    26.6330 
  241.7500     2.1880   -17.7110    45.9480    10.6470     9.6890     9.2670    27.1420 
  241.8750     2.1460   -17.6290    45.2210    10.4360     9.4760     9.0130    27.3640 
  242.0000     2.0980   -17.5460    44.6770    10.3600     9.3770     9.1350    27.2940 
  242.1250     2.0640   -17.4230    45.4070    10.4880     9.4650     9.5090    26.8150 
  242.2500     2.0620   -17.2620    49.3180    10.7820     9.7150     9.9850    25.9420 
  242.3750     2.0970   -17.0730    53.2300    11.1930    10.0950    10.5610    24.9160 
  242.5000     2.1580   -16.8560    54.4060    11.6510    10.5480    11.0760    24.0600 
  242.6250     2.2200   -16.6310    54.5720    12.0570    10.9910    11.5300    23.6530 
  242.7500     2.2600   -16.3680    55.5850    12.3490    11.3520    12.0110    23.5430 
  242.8750     2.2760   -16.0680    55.1680    12.5080    11.5970    12.4240    23.6280 
  243.0000     2.2740   -15.7530    51.9580    12.5540    11.7280    12.6920    23.7600 
  243.1250     2.2590   -15.4390    51.2610    12.5200    11.7700    12.5020    23.8260 
  243.2500     2.2330   -15.1450    54.1890    12.4540    11.7780    11.8900    23.8440 
  243.3750     2.1940   -14.8670    55.9340    12.4620    11.7640    11.3680    23.8590 
  243.5000     2.1530   -14.6120    55.0070    12.4810    11.7150    11.0070    23.9190 
  243.6250     2.1360   -14.3850    56.5090    12.5630    11.5880    10.4010    24.1050 
  243.7500     2.1550   -14.2260    61.4320    12.6860    11.3800     9.5480    24.2460 
  243.8750     2.2080   -14.1500    66.1910    12.5500    11.1140     8.7880    24.2030 
  244.0000     2.2770   -14.1470    69.1610    12.1580    10.8330     8.4840    24.0850 
  244.1250     2.3240   -14.2280    72.2750    11.8690    10.5990     8.4520    24.0480 
  244.2500     2.3290   -14.3530    74.2770    11.6900    10.4300     8.4120    24.2200 
  244.3750     2.2940   -14.5070    72.5190    11.5940    10.3190     8.4450    24.7220 
  244.5000     2.2410   -14.6600    66.9760    11.5330    10.2410     8.5060    25.5680 
  244.6250     2.1970   -14.7890    59.9240    11.4710    10.1770     8.3790    26.7380 
  244.7500     2.1710   -14.8400    54.2800    11.4290    10.1340     7.8980    27.8070 
  244.8750     2.1590   -14.7770    52.3590    11.5140    10.1790     7.3960    28.4110 
  245.0000     2.1500   -14.5870    53.6450    11.9490    10.4570     7.6400    28.4710 
  245.1250     2.1340   -14.2590    54.6570    13.2590    11.3530     8.6390    28.0200 
  245.2500     2.1230   -13.8200    53.5380    15.7610    13.1750    10.1980    27.2800 
  245.3750     2.1410   -13.2810    50.4280    19.6090    16.1890    14.0980    26.3710 
  245.5000     2.2100   -12.6610    47.3560    24.3980    20.2760    23.3430    25.4350 
  245.6250     2.3310   -11.9770    45.3550    28.7000    24.4940    38.0020    24.6130 
  245.7500     2.4590   -11.2790    44.2760    30.7690    27.2360    51.6640    23.9900 
  245.8750     2.5420   -10.6080    45.6910    29.4030    27.1110    60.3980    23.6340 
  246.0000     2.5450    -9.9930    50.5920    24.7700    23.7310    52.1000    23.4610 
  246.1250     2.4750    -9.4500    59.7160    18.9260    18.6170    22.2550    23.4610 
