~V
VERS. 2.00: Ver 2.00
~W
STRT.M 55.0000:
STOP.M 247.0000:
STEP.M 0.1250:
NULL. -999.2500:
UWI. F10183:
~C
DEPT.M :
SP.MV :
GR.API :
RML.OHMM :
RI. :
RXO.OHMM :
CALI.CM :
DEN.GM/CC :
~A
# ...
  100.0000   -10.8760    56.8210     8.1390     6.9020     8.2530    23.4190     2.1800 
  100.1250   -10.9770    56.5590     8.2480     6.9990     8.5440    23.4810     2.1590 
  100.2500   -11.0200    58.2950     8.3410     7.0930     8.8160    23.5280     2.1420 
  100.3750   -11.0760    63.2630     8.4010     7.1690     8.9680    23.5490     2.1330 
  100.5000   -11.1210    68.0660     8.4290     7.2220     9.0170    23.5580     2.1350 
  100.6250   -11.1270    66.8740     8.4300     7.2480     9.0820    23.5800     2.1470 
  100.7500   -11.0780    61.7890     8.4210     7.2520     9.1210    23.6140     2.1610 
  100.8750   -11.0290    59.0170     8.3950     7.2340     9.0440    23.6790     2.1710 
  101.0000   -10.9860    61.2290     8.3330     7.1810     8.9520    23.7490     2.1750 
  101.1250   -10.9050    63.1010     8.2030     7.0770     8.7630    23.7660     2.1760 
  101.2500   -10.8460    61.4430     8.0210     6.9330     8.4100    23.7650     2.1790 
  101.3750   -10.8000    59.4770     7.8290     6.7800     7.9960    23.7630     2.1870 
  101.5000   -10.7540    61.1490     7.6860     6.6590     7.7090    23.7360     2.1970 
  101.6250   -10.7470    62.6300     7.6680     6.6240     7.7180    23.6940     2.2040 
  101.7500   -10.7700    60.8040     7.7700     6.6820     8.0200    23.6660     2.2040 
  101.8750   -10.7650    58.4100     7.9610     6.8180     8.4610    23.6410     2.1950 
  102.0000   -10.7360    58.5130     8.1860     6.9980     8.6990    23.6390     2.1820 
  102.1250   -10.7480    60.8730     8.3800     7.1790     8.6780    23.6840     2.1700 
  102.2500   -10.8150    63.3840     8.5110     7.3240     8.6570    23.7270     2.1620 
  102.3750   -10.8640    65.4020     8.5750     7.4200     8.7450    23.7370     2.1600 
  102.5000   -10.8890    65.6330     8.5860     7.4670     8.9130    23.7360     2.1590 
  102.6250   -10.8980    64.9230     8.5530     7.4710     9.0110    23.7230     2.1580 
  102.7500   -10.8860    65.0500     8.4930     7.4490     9.0120    23.7030     2.1560 
  102.8750   -10.8870    65.8530     8.4130     7.4080     8.9300    23.7040     2.1540 
  103.0000   -10.8950    64.4220     8.3250     7.3620     8.7720    23.7220     2.1540 
  103.1250   -10.9310    60.7460     8.2480     7.3240     8.6540    23.7420     2.1580 
  103.2500   -10.9470    60.7840     8.1990     7.3090     8.5040    23.7870     2.1640 
  103.3750   -10.9340    63.4640     8.2020     7.3350     8.4100    23.8490     2.1680 
  103.5000   -10.9070    63.5130     8.2870     7.4230     8.6260    23.9130     2.1690 
  103.6250   -10.7990    60.3350     8.5060     7.6120     8.8630    24.0030     2.1650 
  103.7500   -10.5870    57.1340     8.8280     7.8810     9.0470    24.0910     2.1590 
  103.8750   -10.2650    55.6540     9.1720     8.1790     9.2690    24.1540     2.1550 
  104.0000    -9.8390    55.3290     9.3980     8.4030     9.6010    24.2120     2.1550 
  104.1250    -9.2480    57.4320     9.2980     8.3920    10.0030    24.2660     2.1580 
  104.2500    -8.5660    61.5440     8.8490     8.1050    10.0650    24.3030     2.1650 
  104.3750    -7.8570    66.9640     8.1270     7.5770     9.4140    24.3440     2.1770 
  104.5000    -7.1780    72.8940     7.3100     6.9330     8.0720    24.3860     2.1930 
  104.6250    -6.5750    75.7600     6.6430     6.3590     6.3990    24.3890     2.2130 
  104.7500    -6.1100    77.0830     6.2390     5.9670     5.9310    24.3730     2.2340 
  104.8750    -5.7820    79.4140     6.1160     5.7950     6.0200    24.3550     2.2520 
  105.0000    -5.6090    81.1260     6.2310     5.8290     6.1890    24.3240     2.2650 
  105.1250    -5.6050    79.5500     6.5230     6.0390     6.3190    24.3010     2.2680 
  105.2500    -5.7070    78.0440     6.8600     6.3210     6.3590    24.2910     2.2610 
  105.3750    -5.8640    77.8580     7.1480     6.5930     6.5410    24.2720     2.2460 
  105.5000    -5.9450    76.3520     7.2950     6.7730     6.9480    24.2590     2.2310 
  105.6250    -5.9260    74.0110     7.2050     6.7630     7.2870    24.2710     2.2260 
  105.7500    -5.8500    75.4560     6.9230     6.5750     7.2090    24.2670     2.2330 
  105.8750    -5.7510    80.1080     6.5350     6.2620     6.7460    24.2590     2.2500 
  106.0000    -5.6580    83.8370     6.1680     5.9160     6.1200    24.2500     2.2670 
  106.1250    -5.6580    82.6660     5.9810     5.6610     5.6670    24.1840     2.2720 
  106.2500    -5.7490    79.5250     6.0080     5.5540     5.6490    24.0800     2.2640 
  106.3750    -5.9420    78.7200     6.2230     5.6000     5.8950    23.9670     2.2460 
  106.5000    -6.2680    79.1010     6.5390     5.7590     6.2990    23.8330     2.2240 
  106.6250    -6.7110    75.2530     6.8350     5.9680     6.7810    23.7110     2.2040 
  106.7500    -7.1870    69.9120     7.0500     6.1650     7.3130    23.6420     2.1900 
  106.8750    -7.6310    68.7980     7.2490     6.3670     7.7980    23.5890     2.1820 
  107.0000    -8.0260    71.9250     7.6180     6.6740     8.0920    23.5310     2.1870 
  107.1250    -8.3400    71.7310     8.5170     7.3250     8.3550    23.4920     2.2130 
  107.2500    -8.5880    67.9440    10.0370     8.4290     9.2670    23.4620     2.2650 
  107.3750    -8.8120    65.2450    12.0440     9.9660    11.5910    23.4430     2.3400 
  107.5000    -9.0330    65.1880    14.0980    11.6900    15.0550    23.4710     2.4200 
  107.6250    -9.2930    64.6250    15.3620    13.0140    18.5860    23.5100     2.4720 
  107.7500    -9.6100    61.8440    15.3640    13.4350    20.1240    23.5090     2.4730 
  107.8750   -10.0280    58.8230    14.0830    12.7560    17.5410    23.4950     2.4210 
  108.0000   -10.4860    59.5460    12.0650    11.2940    12.9020    23.4880     2.3400 
  108.1250   -10.9310    63.0830    10.2010     9.7360    10.2240    23.4770     2.2650 
  108.2500   -11.3280    63.6950     8.9690     8.5620     9.5300    23.4840     2.2100 
  108.3750   -11.6060    62.3020     8.3700     7.8470     9.4650    23.5000     2.1780 
  108.5000   -11.7370    61.7130     8.2160     7.5090     9.3720    23.4990     2.1630 
  108.6250   -11.7750    64.1120     8.2950     7.4400     9.1650    23.5040     2.1590 
  108.7500   -11.7550    66.4190     8.3930     7.4630     9.0820    23.5370     2.1580 
  108.8750   -11.6490    67.1600     8.4310     7.4960     9.1540    23.5580     2.1600 
  109.0000   -11.5230    66.5240     8.3930     7.4960     9.2630    23.5610     2.1630 
  109.1250   -11.3720    63.3700     8.2900     7.4520     9.2050    23.5710     2.1650 
  109.2500   -11.2490    60.5920     8.1640     7.3850     8.9360    23.5610     2.1660 
  109.3750   -11.1980    59.9860     8.0420     7.3100     8.6720    23.5360     2.1650 
  109.5000   -11.2300    60.9430     7.9500     7.2460     8.5540    23.5270     2.1630 
  109.6250   -11.2640    61.7850     7.9190     7.2100     8.5420    23.5190     2.1590 
  109.7500   -11.2850    60.8020     7.9490     7.2090     8.5680    23.5050     2.1550 
  109.8750   -11.3300    59.8220     8.0360     7.2450     8.6570    23.5060     2.1510 
  110.0000   -11.3400    60.0080     8.1660     7.3140     8.8400    23.5030     2.1500 
  110.1250   -11.3690    61.6610     8.3140     7.4050     9.1080    23.4820     2.1510 
  110.2500   -11.3860    63.4740     8.4380     7.4920     9.3560    23.4850     2.1540 
  110.3750   -11.4210    64.9330     8.5080     7.5490     9.5610    23.5110     2.1570 
  110.5000   -11.4930    65.0620     8.5060     7.5570     9.6570    23.5280     2.1580 
  110.6250   -11.5780    62.6160     8.4260     7.5020     9.5070    23.5510     2.1550 
  110.7500   -11.6700    60.2090     8.3080     7.4070     9.2380    23.5900     2.1500 
  110.8750   -11.7610    59.8330     8.1930     7.2990     8.9490    23.6140     2.1460 
  111.0000   -11.9020    59.9250     8.1150     7.2090     8.6980    23.6270     2.1430 
  111.1250   -12.0540    60.3500     8.1060     7.1660     8.6080    23.6390     2.1440 
