~V
VERS. 2.00: Ver 2.00
~W
STRT.M 57.0000:
STOP.M 247.0000:
STEP.M 0.1250:
NULL. -999.2500:
UWI. F10194:
~C
DEPT.M :
SP.MV :
DEN.GM/CC :
GR.API :
RML.OHMM :
RI. :
RXO.OHMM :
CALI.CM :
~A
# ...
  169.5000   -25.8680     2.0640    63.7260   120.2840   117.9400    84.7500    28.3210 
  169.6250   -25.8790     2.0540    63.7480   124.7100   122.8340    94.6190    28.5220 
  169.7500   -25.8620     2.0450    63.7600   127.2320   125.9640   105.4060    28.6420 
  169.8750   -25.8410     2.0370    63.2480   127.1610   126.4270   114.2960    28.7110 
  170.0000   -25.8210     2.0330    62.7050   125.1570   124.6050   115.6900    28.7820 
  170.1250   -25.8140     2.0290    62.7740   122.7360   121.8180   107.2490    28.8880 
  170.2500   -25.8420     2.0230    63.8690   121.5020   119.6350    95.4720    29.0440 
  170.3750   -25.8920     2.0130    65.2860   123.3010   119.9680    91.5300    29.1630 
  170.5000   -25.9110     2.0020    65.3360   129.1470   123.9750    95.6230    29.2100 
  170.6250   -25.8900     1.9920    63.4730   139.4260   132.1290   101.9750    29.2190 
  170.7500   -25.8930     1.9820    60.9580   154.3260   144.6080   107.7730    29.2180 
  170.8750   -25.9510     1.9710    59.4010   173.7080   161.2940   113.9480    29.2180 
  171.0000   -26.0300     1.9610    59.2270   195.5370   180.4490   122.4260    29.2190 
  171.1250   -26.1150     1.9520    59.9760   216.0740   198.9480   133.7220    29.2210 
  171.2500   -26.1920     1.9440    60.6900   230.6770   212.8920   149.0950    29.2200 
  171.3750   -26.2550     1.9380    60.6900   233.5110   217.2160   163.3400    29.2220 
  171.5000   -26.3390     1.9350    60.2190   223.5040   210.5260   169.1380    29.2390 
  171.6250   -26.4470     1.9360    59.7290   204.9220   195.7010   161.6610    29.2890 
  171.7500   -26.5270     1.9420    59.2080   184.0630   177.6530   137.4560    29.3620 
  171.8750   -26.5490     1.9460    58.9910   167.0840   161.9830   111.5390    29.4330 
  172.0000   -26.5410     1.9500    59.2720   156.3460   151.6530    99.8010    29.4720 
  172.1250   -26.5330     1.9560    59.0450   151.2320   146.8220   101.1600    29.4850 
  172.2500   -26.5440     1.9630    57.6880   150.1590   146.3070   107.5400    29.5000 
  172.3750   -26.5870     1.9680    56.5850   150.9290   148.1070   111.5600    29.5290 
  172.5000   -26.6750     1.9680    57.0400   151.0620   149.6810   112.9330    29.5500 
  172.6250   -26.8310     1.9670    58.4770   148.6740   148.8950   113.4150    29.5450 
  172.7500   -27.0100     1.9680    59.6780   142.9850   144.6270   111.2920    29.5140 
  172.8750   -27.1570     1.9740    60.5330   134.5040   136.8830   105.4100    29.4810 
  173.0000   -27.2950     1.9840    61.5110   125.4860   127.6180    96.6970    29.4600 
  173.1250   -27.4530     1.9960    62.7170   118.7420   119.6360    87.0990    29.4370 
  173.2500   -27.5940     2.0090    64.0330   116.7100   115.5490    79.2950    29.4090 
  173.3750   -27.6990     2.0220    65.1910   122.1870   118.3890    75.1570    29.3960 
  173.5000   -27.7870     2.0310    65.2550   136.2830   129.4600    79.3570    29.4090 
  173.6250   -27.8250     2.0370    63.4230   158.7350   148.5220    95.6740    29.4600 
  173.7500   -27.8280     2.0380    60.1680   188.0760   174.1260   123.6660    29.5170 
  173.8750   -27.8470     2.0320    57.8000   219.4680   202.0420   158.7010    29.5400 
  174.0000   -27.9000     2.0260    57.5420   244.5280   225.1030   194.4370    29.5110 
  174.1250   -27.9810     2.0260    57.7780   254.4570   235.7590   216.3710    29.5050 
  174.2500   -28.0890     2.0330    56.9870   243.7310   228.9610   210.8180    29.6110 
  174.3750   -28.2200     2.0450    55.9420   213.2740   204.1480   194.4880    29.7440 
  174.5000   -28.3730     2.0600    55.4520   174.7460   169.8980   178.9580    29.8010 
  174.6250   -28.5580     2.0800    55.1010   140.6220   137.0480   154.9990    29.7720 
  174.7500   -28.7900     2.1090    54.5520   116.5810   112.0290   115.2320    29.6750 
  174.8750   -29.0830     2.1390    54.7210   103.9170    97.6280    80.6320    29.5550 
  175.0000   -29.3930     2.1560    56.0560    99.9580    92.0620    68.6990    29.4820 
  175.1250   -29.6490     2.1490    58.3890   101.3430    92.1710    73.3690    29.5270 
  175.2500   -29.8390     2.1260    61.3570   105.6020    95.4640    83.5040    29.7100 
  175.3750   -29.9490     2.1040    63.0950   110.0220    99.5770    91.6310    29.9170 
  175.5000   -29.9570     2.0900    62.5470   112.8680   102.7120    94.0610    30.0600 
  175.6250   -29.8910     2.0790    60.8460   113.7020   104.1780    91.5320    30.1400 
  175.7500   -29.7740     2.0690    59.7890   112.7010   104.3420    87.5000    30.1820 
  175.8750   -29.5810     2.0630    60.3310   112.6580   104.2310    86.2950    30.2140 
  176.0000   -29.3180     2.0640    61.6660   114.3940   104.7350    88.8660    30.2430 
  176.1250   -28.9720     2.0690    62.4230   117.1680   106.0900    92.4680    30.2620 
  176.2500   -28.5070     2.0720    61.5620   120.5190   107.9850    96.1880    30.2890 
  176.3750   -27.9680     2.0720    60.2200   123.5190   109.6820   100.9190    30.3290 
  176.5000   -27.4310     2.0670    60.3360   125.2130   110.3930   105.3580    30.3410 
  176.6250   -26.8870     2.0610    61.3870   124.9570   109.5670   108.3920    30.2880 
  176.7500   -26.2950     2.0570    61.9800   122.5590   106.9990   109.5080    30.1990 
  176.8750   -25.7210     2.0540    62.2970   118.3860   102.8860   108.1250    30.1300 
  177.0000   -25.2550     2.0550    62.2700   113.6020    98.1090   102.8100    30.0960 
  177.1250   -24.9470     2.0560    61.4640   109.4680    93.7270    92.7900    30.0770 
  177.2500   -24.7880     2.0570    61.2150   106.7860    90.5280    81.3670    30.0580 
  177.3750   -24.7240     2.0580    61.7300   105.9670    89.0950    76.0370    30.0360 
  177.5000   -24.7120     2.0570    61.1030   106.5960    89.2830    79.6440    29.9990 
  177.6250   -24.6870     2.0550    60.1610   107.8580    90.5070    87.4430    29.9340 
  177.7500   -24.6460     2.0520    61.2070   109.0260    92.1790    93.5900    29.8480 
  177.8750   -24.5620     2.0490    62.3550   109.4980    93.7910    95.9300    29.7710 
  178.0000   -24.4120     2.0540    61.1210   109.1160    95.1300    96.0160    29.7260 
  178.1250   -24.2000     2.0670    59.4600   107.9200    96.1600    94.7190    29.6940 
  178.2500   -24.0080     2.0810    59.4850   105.6480    96.6530    92.2740    29.6470 
  178.3750   -23.8770     2.0910    59.7840   101.1780    95.5400    91.2540    29.5620 
  178.5000   -23.7500     2.0970    59.3710    93.3900    91.4470    92.3940    29.4420 
  178.6250   -23.6700     2.1030    59.4140    81.9400    83.4420    93.3670    29.3130 
  178.7500   -23.6720     2.1130    61.0650    67.6820    71.6990    91.0940    29.1990 
  178.8750   -23.7330     2.1320    64.0680    52.8770    57.9220    79.8840    29.0810 
  179.0000   -23.7920     2.1610    67.3390    39.8550    44.6910    59.4680    28.9670 
  179.1250   -23.8180     2.1980    70.7850    29.7410    33.7950    38.3690    28.8680 
  179.2500   -23.7700     2.2360    75.5760    22.6520    25.7300    24.0130    28.7420 
  179.3750   -23.6530     2.2700    81.1050    18.2510    20.3850    17.2640    28.5680 
  179.5000   -23.5220     2.3020    84.1330    15.8190    17.0730    14.2970    28.4050 
  179.6250   -23.4100     2.3310    83.5960    14.8620    15.2030    12.5530    28.3270 
  179.7500   -23.3380     2.3560    82.1430    14.7990    14.5630    11.7760    28.3250 
  179.8750   -23.3410     2.3640    81.8970    15.7430    15.2470    12.3680    28.3600 
  180.0000   -23.4070     2.3500    81.3850    18.1400    17.3260    14.9600    28.4390 
  180.1250   -23.4940     2.3140    79.2460    22.1820    20.8400    20.4320    28.5650 
  180.2500   -23.6230     2.2680    76.5140    27.6520    25.7820    29.1030    28.7170 
  180.3750   -23.7760     2.2350    73.8970    34.1080    31.9240    40.0940    28.8340 
  180.5000   -23.9490     2.2280    71.1700    40.8790    38.5580    49.6910    28.8730 
  180.6250   -24.1780     2.2480    68.8970    47.3510    44.8880    53.4030    28.8310 
