~V
VERS. 2.00: Ver 2.00
~W
STRT.M 44.0000:
STOP.M 255.0000:
STEP.M 0.1250:
NULL. -999.2500:
UWI. F10191:
~C
DEPT.M :
DEN.GM/CC :
SP.MV :
GR.API :
RML.OHMM :
RI. :
RXO.OHMM :
CALI.CM :
~A
# ...
  246.5000     2.5750   -20.4710    55.3670    14.1300    12.7380    16.0830    24.7230 
  246.6250     2.5610   -20.2470    55.3670    14.7950    13.4200    15.4660    24.7140 
  246.7500     2.5380   -20.1140    55.3670    15.1180    13.8570    15.2530    24.6920 
  246.8750     2.5190   -20.0820    55.3670    15.0990    14.0020    14.6620    24.6690 
  247.0000     2.5150   -20.1050    55.3670    14.8770    13.9340    14.1690    24.6590 
  247.1250     2.5390   -20.1920    55.3670    14.6100    13.7650    14.3070    24.6580 
  247.2500     2.5760   -20.3030    55.3670    14.3800    13.5800    16.9410    24.6600 
  247.3750     2.6050   -20.4830    55.3670    14.1790    13.3880    20.7860    24.6610 
  247.5000     2.6080   -20.7520    55.3670    14.0000    13.1970    20.6060    24.6600 
  247.6250     2.5890   -21.0170    55.3670    13.8760    13.0540    17.1010    24.6580 
  247.7500     2.5700   -21.2740    55.3670    13.8210    12.9790    14.0960    24.6480 
  247.8750     2.5530   -21.4890    55.3670    13.8200    12.9610    13.1780    24.6350 
  248.0000     2.5350   -21.6670    55.3670    13.8400    12.9680    13.0840    24.6440 
  248.1250     2.5190   -21.8060    55.3670    13.8570    12.9740    13.5540    24.6930 
  248.2500     2.5090   -21.9090    55.3670    13.8680    12.9740    13.7740    24.7190 
  248.3750     2.5050   -21.9330    55.3670    13.8680    12.9620    15.4580    24.7340 
  248.5000     2.5020   -21.8570    55.3670    13.8540    12.9440    19.5070    24.7450 
  248.6250     2.5050   -21.8140    55.3670    13.8340    12.9300    21.4520    24.7710 
  248.7500     2.5180   -21.7590    55.3670    13.8200    12.9270    17.1190    24.7910 
  248.8750     2.5390   -21.6490    55.3670    13.8230    12.9360    12.6620    24.7980 
  249.0000     2.5600   -21.4900    55.3670    13.8370    12.9470    10.8260    24.8010 
  249.1250     2.5720   -21.3000    55.3670    13.8590    12.9500    10.5590    24.8030 
  249.2500     2.5750   -21.1000    55.3670    13.8850    12.9380    10.8210    24.7970 
  249.3750     2.5700   -20.9090    55.3670    13.9120    12.9090    11.2510    24.7540 
  249.5000     2.5680   -20.7820    55.3670    13.9330    12.8710    12.5950    24.7210 
  249.6250     2.5470   -20.6450    55.3670    13.9410    12.8330    15.8330    24.6860 
  249.7500     2.5440   -20.5230    55.3670    13.9280    12.8020    18.3850    24.6640 
  249.8750     2.5460   -20.4420    55.3670    13.8950    12.7830    15.5210    24.6600 
  250.0000     2.5470   -20.3980    55.3670    13.8620    12.7750    15.6610    24.6730 
  250.1250     2.5440   -20.3960    55.3670    13.8410    12.7740    19.3440    24.7010 
  250.2500     2.5310   -20.4280    55.3670    13.8340    12.7750    16.6150    24.7300 
  250.3750     2.5030   -20.4920    55.3670    13.8340    12.7750    12.5770    24.7590 
  250.5000     2.4730   -20.5990    55.3670    13.8340    12.7750     9.9430    24.7910 
  250.6250     2.4610   -20.7290    55.3670    13.8340    12.7750     9.2330    24.8210 
  250.7500     2.4820   -20.8590    55.3670    13.8340    12.7750     9.3520    24.8440 
  250.8750     2.5120   -20.9610    55.3670    13.8340    12.7750     9.5260    24.8370 
  251.0000     2.5270   -21.0390    55.3670    13.8340    12.7750     9.7850    24.8220 
  251.1250     2.5090   -21.1470    55.3670    13.8340    12.7750    10.0630    24.8230 
  251.2500     2.4700   -21.2980    55.3670    13.8340    12.7750    10.7510    24.8110 
  251.3750     2.4390   -21.4080    55.3670    13.8340    12.7750    10.2930    24.8120 
  251.5000     2.4220   -21.4600    55.3670    13.8340    12.7750     8.7110    24.8250 
  251.6250     2.4140   -21.5190    55.3670    13.8340    12.7750     7.0410    24.8370 
  251.7500     2.4120   -21.5390    55.3670    13.8340    12.7750     6.6620    24.8280 
  251.8750     2.4190   -21.6000    55.3670    13.8340    12.7750     7.1350    24.8000 
  252.0000     2.4320   -21.6980    55.3670    13.8340    12.7750     7.7910    24.7170 
  252.1250     2.4400   -21.7770    55.3670    13.8340    12.7750     8.6230    24.5530 
  252.2500     2.4090   -21.7770    55.3670    13.8340    12.7750     9.0040    24.2190 
  252.3750     2.3420   -21.7770    55.3670    13.8340    12.7750     8.4510    23.6060 
  252.5000     2.2800   -21.7770    55.3670    13.8340    12.7750     7.9420    23.1610 
  252.6250     2.2470  -999.2500    55.3670    13.8340    12.7750     7.7530    23.0010 
  252.7500     2.2400  -999.2500    55.3670    13.8340    12.7750     7.7340    22.9840 
  252.8750     2.2400  -999.2500    55.3670    13.8340    12.7750     7.7340    22.9840 
  253.0000     2.2380  -999.2500    55.3670    13.8340    12.7750     7.7340    22.9840 
  253.1250     2.2360  -999.2500    55.3670    13.8340    12.7750     7.7340    22.9840 
  253.2500     2.2340  -999.2500    55.3670    13.8340    12.7750     7.7330    22.9840 
  253.3750     2.2330  -999.2500    55.3670    13.8340    12.7750     7.7330    22.9840 
  253.5000     2.2340  -999.2500    55.3670    13.8340    12.7750     7.7320    22.9840 
  253.6250     2.2350  -999.2500    55.3670    13.8340    12.7750     7.7320    22.9840 
  253.7500     2.2350  -999.2500    55.3670    13.8340    12.7750     7.7330    22.9840 
  253.8750     2.2350  -999.2500    55.3670    13.8340    12.7750     7.7330    22.9840 
  254.0000     2.2360  -999.2500    55.3670    13.8340    12.7750     7.7320    22.9840 
  254.1250     2.2380  -999.2500    55.3670    13.8340    12.7750     7.7320    22.9840 
  254.2500     2.2390  -999.2500    55.3670    13.8340    12.7750     7.7320    22.9840 
  254.3750     2.2370  -999.2500    55.3670    13.8340    12.7750     7.7320    22.9840 
  254.5000     2.2330  -999.2500    55.3670    13.8340    12.7750     7.7320    22.9840 
  254.6250     2.2290  -999.2500    55.3670    13.8340    12.7750     7.7300    22.9840 
  254.7500     2.2250  -999.2500    55.3670    13.8340    12.7750     7.7260    22.9820 
  254.8750     2.2230  -999.2500    55.3670    13.8340    12.7750     7.7230    22.9770 
  255.0000     2.2220  -999.2500    55.3670    13.8340    12.7750     7.7230    22.9690 
