~V
VERS. 2.00: Ver 2.00
~W
STRT.M 55.0000:
STOP.M 228.0000:
STEP.M 0.1250:
NULL. -999.2500:
UWI. F10142:
~C
DEPT.M :
DEN.GM/CC :
GR.API :
RML.OHMM :
RI. :
RXO.OHMM :
CALI.CM :
SP.MV :
~A
# ...
   77.5000     2.1510    67.7780     7.7580     5.7940     6.4090    24.5260   -16.4610 
   77.6250     2.1570    66.5860     7.8210     5.8020     6.5700    24.5240   -16.4090 
   77.7500     2.1610    66.8270     7.8960     5.8320     6.7330    24.5280   -16.3760 
   77.8750     2.1600    66.7220     7.9700     5.8790     6.8170    24.5350   -16.3700 
   78.0000     2.1520    65.8830     8.0270     5.9340     6.9180    24.5300   -16.3880 
   78.1250     2.1370    63.9100     8.0540     5.9870     7.0150    24.5240   -16.4260 
   78.2500     2.1190    62.0120     8.0660     6.0370     7.0470    24.5300   -16.4670 
   78.3750     2.1060    62.7330     8.0830     6.0920     7.0590    24.5330   -16.4950 
   78.5000     2.1030    65.1940     8.1230     6.1630     7.2230    24.5070   -16.4790 
   78.6250     2.1150    66.7000     8.2010     6.2580     7.6010    24.4390   -16.4440 
   78.7500     2.1350    67.6830     8.3010     6.3680     8.1320    24.3510   -16.3760 
   78.8750     2.1610    68.2420     8.3950     6.4700     8.6150    24.2950   -16.2660 
   79.0000     2.1880    68.6360     8.4460     6.5330     8.4960    24.2790   -16.1070 
   79.1250     2.2140    69.6440     8.4080     6.5130     8.0590    24.3200   -15.8980 
   79.2500     2.2340    72.1590     8.2870     6.4120     7.6520    24.4010   -15.6740 
   79.3750     2.2410    75.4560     8.0930     6.2410     7.0140    24.4830   -15.4540 
   79.5000     2.2350    79.5350     7.8460     6.0250     6.1800    24.5310   -15.2590 
   79.6250     2.2150    83.5140     7.5680     5.7960     5.9010    24.5700   -15.0880 
   79.7500     2.1940    84.3900     7.2900     5.5860     6.1440    24.5880   -14.9570 
   79.8750     2.1820    83.1460     7.0630     5.4280     6.3300    24.6040   -14.8850 
   80.0000     2.1870    82.9070     6.9690     5.3670     6.2310    24.6420   -14.8560 
   80.1250     2.2120    84.3570     7.1370     5.4770     6.4500    24.7200   -14.8830 
   80.2500     2.2390    84.3010     7.5630     5.7540     6.9210    24.7910   -14.9290 
   80.3750     2.2530    80.4360     8.1850     6.1660     8.8390    24.7990   -14.9700 
   80.5000     2.2430    73.4550     8.8580     6.6360    11.9430    24.7630   -14.9960 
   80.6250     2.2110    67.2160     9.3310     7.0210    10.4170    24.7130   -14.9890 
   80.7500     2.1750    64.9020     9.4640     7.2160     8.4020    24.7050   -14.9290 
   80.8750     2.1530    66.2550     9.2490     7.1810     7.5620    24.7530   -14.8060 
   81.0000     2.1510    70.7540     8.7970     6.9470     7.9420    24.8480   -14.6300 
   81.1250     2.1670    81.1050     8.2650     6.5930     8.0190    24.9710   -14.4100 
   81.2500     2.1890    93.7500     7.7910     6.2420     6.9260    25.0930   -14.1660 
   81.3750     2.2090   102.3500     7.4450     5.9670     5.5200    25.1630   -13.9450 
   81.5000     2.2210   104.6310     7.2820     5.8180     5.1390    25.1860   -13.7690 
   81.6250     2.2230   101.9400     7.3820     5.8470     5.4980    25.1450   -13.6610 
   81.7500     2.2170    95.6850     7.7000     6.0200     6.1370    25.0260   -13.6230 
   81.8750     2.2060    88.0690     8.1490     6.2910     7.3040    24.8590   -13.6260 
   82.0000     2.1930    82.9940     8.5790     6.5790     8.1060    24.7570   -13.6840 
   82.1250     2.1830    83.5270     8.7940     6.7710     7.9060    24.7250   -13.7800 
   82.2500     2.1790    85.8570     8.7680     6.8220     7.2810    24.7270   -13.8950 
   82.3750     2.1800    86.4220     8.5780     6.7430     6.9520    24.7670   -13.9910 
   82.5000     2.1820    85.3770     8.3530     6.5920     6.8900    24.8500   -14.0690 
   82.6250     2.1830    83.6200     8.2220     6.4460     6.7820    24.9310   -14.1170 
   82.7500     2.1800    83.3760     8.2140     6.3540     6.7640    24.9610   -14.1540 
   82.8750     2.1740    84.5630     8.3120     6.3300     6.9220    24.9570   -14.2090 
   83.0000     2.1680    85.2680     8.4860     6.3680     7.0820    24.9130   -14.2760 
   83.1250     2.1640    84.9840     8.7230     6.4670     7.1550    24.8730   -14.3680 
   83.2500     2.1630    84.6870     9.0070     6.6100     7.2560    24.8420   -14.4620 
   83.3750     2.1660    85.0330     9.3240     6.7880     7.4330    24.8030   -14.5660 
   83.5000     2.1710    86.2850     9.6380     6.9810     7.5860    24.7590   -14.6550 
   83.6250     2.1750    87.4430     9.8760     7.1460     7.4780    24.7300   -14.7520 
   83.7500     2.1760    86.0380    10.0000     7.2470     7.3100    24.7280   -14.8350 
   83.8750     2.1720    82.1180    10.0020     7.2690     7.1840    24.7300   -14.8990 
   84.0000     2.1650    78.5810     9.9100     7.2230     7.1150    24.7220   -14.9290 
   84.1250     2.1550    77.4680     9.7810     7.1370     7.1600    24.7200   -14.9280 
   84.2500     2.1450    76.5520     9.6750     7.0570     7.2080    24.7270   -14.9080 
   84.3750     2.1340    76.9280     9.6150     7.0070     7.3540    24.7270   -14.8600 
   84.5000     2.1250    78.9890     9.5940     6.9890     7.4620    24.7150   -14.8070 
   84.6250     2.1190    79.4640     9.5920     6.9940     7.4870    24.6960   -14.7110 
   84.7500     2.1170    80.5280     9.5920     7.0010     7.4750    24.6620   -14.5870 
   84.8750     2.1190    84.7310     9.5840     6.9990     7.4550    24.6290   -14.4320 
   85.0000     2.1210    89.2230     9.5670     6.9830     7.4390    24.6160   -14.2700 
   85.1250     2.1230    90.5360     9.5320     6.9480     7.4330    24.6190   -14.0880 
   85.2500     2.1240    91.1290     9.4710     6.8970     7.3980    24.6210   -13.8790 
   85.3750     2.1250    90.6410     9.3740     6.8310     7.3140    24.6180   -13.6610 
   85.5000     2.1280    86.0070     9.2420     6.7530     7.1920    24.6100   -13.4340 
   85.6250     2.1380    80.2160     9.0920     6.6680     6.9970    24.5730   -13.2130 
   85.7500     2.1520    79.9190     8.9480     6.5810     6.8890    24.5320   -12.9910 
   85.8750     2.1690    86.2060     8.8160     6.4970     6.8480    24.5080   -12.7790 
   86.0000     2.1880    94.8620     8.6880     6.4160     6.7940    24.4850   -12.5610 
   86.1250     2.2030   100.2750     8.5450     6.3290     6.5560    24.4490   -12.3380 
   86.2500     2.2140   100.9090     8.3810     6.2280     6.1400    24.4190   -12.1430 
   86.3750     2.2210    99.6340     8.2050     6.1090     5.6790    24.4190   -11.9610 
   86.5000     2.2250    99.4600     8.0400     5.9760     5.2740    24.4520   -11.8040 
   86.6250     2.2260   102.0740     7.9190     5.8510     5.1870    24.5250   -11.6650 
   86.7500     2.2260   106.1720     7.8520     5.7570     5.2020    24.5880   -11.5570 
   86.8750     2.2250   107.5670     7.8340     5.7060     5.2220    24.6200   -11.4670 
   87.0000     2.2250   102.2940     7.8520     5.6970     5.2100    24.6450   -11.4140 
   87.1250     2.2260    95.9150     7.8780     5.7150     5.3110    24.6830   -11.3940 
   87.2500     2.2290    95.5880     7.8830     5.7340     5.3390    24.7080   -11.3920 
   87.3750     2.2330    98.3360     7.8530     5.7440     5.3790    24.7190   -11.4000 
   87.5000     2.2380    99.8750     7.7960     5.7440     5.4270    24.7300   -11.4140 
   87.6250     2.2410   102.1730     7.7350     5.7460     5.4530    24.7270   -11.4330 
   87.7500     2.2390   105.8850     7.7010     5.7570     5.4720    24.7280   -11.4500 
   87.8750     2.2340   105.9450     7.7100     5.7790     5.4890    24.7370   -11.4900 
   88.0000     2.2300   102.0380     7.7590     5.8060     5.5780    24.7410   -11.5360 
   88.1250     2.2290    99.4570     7.8290     5.8320     5.7200    24.7290   -11.5870 
   88.2500     2.2310    99.4420     7.8910     5.8560     5.8330    24.7080   -11.6420 
   88.3750     2.2320    99.3540     7.9380     5.8880     5.8300    24.6780   -11.7200 
   88.5000     2.2290    98.5930     7.9850     5.9400     5.7520    24.6150   -11.7980 
   88.6250     2.2190    97.7400     8.0580     6.0220     5.8410    24.6750   -11.9020 
