~V
VERS. 2.00: Ver 2.00
~W
STRT.M 53.0000:
STOP.M 246.0000:
STEP.M 0.1250:
NULL. -999.2500:
UWI. F10192:
~C
DEPT.M :
DEN.GM/CC :
GR.API :
RML.OHMM :
RI. :
RXO.OHMM :
CALI.CM :
SP.MV :
~A
   53.0000  -999.2500    49.3280    70.2080     0.3270     1.5260    25.3310  -999.2500 
   53.1250  -999.2500    45.0340   269.6300     0.3110     1.3690    25.3330  -999.2500 
   53.2500  -999.2500    41.6110 251330.2030     0.2990     1.2350    25.3400  -999.2500 
   53.3750  -999.2500    43.4440 523503.9380     0.2980     1.1190    25.3500     0.0000 
   53.5000  -999.2500    47.4480 12762.8450     0.3120     1.0380    25.3520     0.0000 
   53.6250  -999.2500    48.6270   226.0690     0.3360     0.9790    25.3470     0.0000 
   53.7500  -999.2500    46.5430    61.1780     0.3600     1.0350    25.3310     0.0000 
   53.8750  -999.2500    44.6850    23.7960     0.3850     1.0940    25.3240     0.0000 
   54.0000  -999.2500    44.1290    11.6090     0.4150     1.0820    25.3240     0.0000 
   54.1250  -999.2500    44.4210     6.8640     0.4510     1.0490    25.3280     0.0000 
   54.2500  -999.2500    44.9080     5.3760     0.4780     1.1920    25.3230   120.9770 
   54.3750  -999.2500    44.4330     5.7120     0.4840     1.4750    25.3010   121.5120 
   54.5000  -999.2500    44.8650     8.5070     0.4660     1.7160    25.2680   122.0680 
   54.6250  -999.2500    45.9070    15.7930     0.4360     1.8510    25.2410   122.6380 
   54.7500  -999.2500    44.8880    27.3260     0.4120     1.9620    25.2300   123.1730 
   54.8750  -999.2500    43.0580    29.5000     0.4020     2.0710    25.2270   123.6420 
   55.0000  -999.2500    44.2090    23.2620     0.4040     2.0880    25.2280   124.0780 
   55.1250  -999.2500    48.0480    17.3400     0.4070     2.0190    25.2330   124.4560 
   55.2500  -999.2500    50.1130    11.6970     0.4070     1.9090    25.2380   124.7200 
   55.3750  -999.2500    50.1850     6.8720     0.4110     1.8140    25.2440   124.8560 
   55.5000  -999.2500    49.9750     3.9450     0.4230     1.6460    25.2470   124.8270 
   55.6250  -999.2500    50.4730     2.5110     0.4430     1.4530    25.2510   124.6640 
   55.7500  -999.2500    50.5570     1.9500     0.4640     1.3770    25.2500   124.3980 
   55.8750  -999.2500    49.3180     1.7210     0.4770     1.4740    25.2470   124.0960 
   56.0000  -999.2500    47.4080     1.6450     0.4770     1.5290    25.2450   123.7530 
   56.1250  -999.2500    46.4910     1.6110     0.4690     1.5580    25.2430   123.3820 
   56.2500  -999.2500    48.4880     1.5750     0.4580     1.5020    25.2380   123.0010 
   56.3750  -999.2500    50.9670     1.5550     0.4520     1.4820    25.2310   122.6410 
   56.5000  -999.2500    50.4150     1.5580     0.4510     1.4840    25.2230   122.3490 
   56.6250  -999.2500    45.8830     1.5650     0.4520     1.4740    25.2210   122.0700 
   56.7500  -999.2500    40.2350     1.5370     0.4450     1.4420    25.2280   121.7770 
   56.8750  -999.2500    37.1320     1.4760     0.4280     1.3950    25.2380   121.4540 
   57.0000  -999.2500    38.5440     1.4100     0.4050     1.3730    25.2380   121.0800 
   57.1250  -999.2500    42.4140     1.3670     0.3870     1.3810    25.2320   120.6480 
   57.2500  -999.2500    44.5350     1.3560     0.3820     1.3760    25.2400   120.1930 
   57.3750  -999.2500    43.4490     1.3620     0.3910     1.3600    25.2480   119.7540 
   57.5000  -999.2500    42.2280     1.4030     0.4020     1.3670    25.2440   119.3010 
   57.6250     2.0030    42.2710     1.5250     0.4080     1.4100    25.2220   118.7920 
   57.7500     2.0030    41.8430     1.8070     0.4050     1.4290    25.2020   118.2340 
   57.8750     2.0160    41.4790     2.2060     0.4010     1.4010    25.1890   117.6330 
   58.0000     2.0410    43.2660     2.5110     0.4050     1.3550    25.1880   117.0090 
   58.1250     2.0670    47.2800     2.4330     0.4180     1.3260    25.1910   116.3630 
   58.2500     2.0880    53.0220     2.0670     0.4360     1.3020    25.1860   115.7570 
   58.3750     2.1030    59.1510     1.7910     0.4460     1.2910    25.1790   115.1730 
   58.5000     2.1060    63.5640     1.6600     0.4480     1.3320    25.1740   114.6070 
   58.6250     2.0930    64.8560     1.6180     0.4440     1.3680    25.1770   114.1350 
   58.7500     2.0720    63.1260     1.6010     0.4400     1.3600    25.1830   113.8170 
   58.8750     2.0590    58.7270     1.5780     0.4400     1.3610    25.1860   113.6170 
   59.0000     2.0550    53.7960     1.5590     0.4430     1.3910    25.1830   113.5720 
   59.1250     2.0570    51.8220     1.5430     0.4450     1.4090    25.1780   113.6230 
   59.2500     2.0680    52.7260     1.5180     0.4460     1.4330    25.1740   113.6620 
   59.3750     2.0960    52.6100     1.4820     0.4510     1.4460    25.1720   113.6720 
   59.5000     2.1440    52.1540     1.4420     0.4640     1.4390    25.1730   113.6580 
   59.6250     2.2080    52.5890     1.4090     0.4840     1.4440    25.1730   113.5560 
   59.7500     2.2740    51.1170     1.3930     0.4990     1.5480    25.1760   113.2750 
   59.8750     2.3150    47.0870     1.3940     0.5030     1.7700    25.1770   112.8020 
   60.0000     2.3140    45.3710     1.4090     0.4940     1.8930    25.1760   112.1180 
   60.1250     2.2750    48.0030     1.4240     0.4790     1.6370    25.1740   111.2850 
   60.2500     2.2110    50.0390     1.4210     0.4690     1.3780    25.1760   110.3150 
   60.3750     2.1340    47.7320     1.3950     0.4690     1.1720    25.1770   109.2470 
   60.5000     2.0610    44.2420     1.3490     0.4740     1.0810    25.1740   108.0910 
   60.6250     2.0090    43.3710     1.2930     0.4820     1.1630    25.1600   106.8660 
   60.7500     1.9930    46.0640     1.2310     0.4870     1.3600    25.1300   105.5370 
   60.8750     1.9950    48.5850     1.1610     0.4890     1.4290    25.1120   104.0830 
   61.0000     2.0020    50.4490     1.0860     0.4860     1.4190    25.1060   102.3860 
   61.1250     2.0100    51.4710     1.0070     0.4790     1.3990    25.0960   100.3170 
   61.2500     2.0270    51.2950     0.9330     0.4690     1.3210    25.0750    97.7250 
   61.3750     2.0580    50.4190     0.8700     0.4620     1.1890    25.0440    94.6100 
   61.5000     2.1080    49.4780     0.8070     0.4650     1.0150    25.0130    90.8690 
   61.6250     2.1800    49.8280     0.6990     0.4830     0.8410    24.9630    86.3650 
   61.7500     2.2700    53.4410     0.5090     0.5000     0.7020    24.8780    80.7950 
   61.8750     2.3600    59.0040     0.3180     0.4930     0.6160    24.7950    74.1760 
   62.0000     2.4450    62.7250     0.1900     0.4470     0.5500    24.7350    66.4170 
   62.1250     2.5290    61.7320     0.1290     0.3740     0.5300    24.7030    57.5740 
   62.2500     2.5830    58.8690     0.1290     0.3130     0.6060    24.6730    47.6710 
   62.3750     2.5620    60.6270     0.1790     0.3060     0.8940    24.6160    37.2650 
   62.5000     2.4550    67.2530     0.2970     0.3900     1.6580    24.5500    26.8680 
   62.6250     2.3140    74.9120     0.5370     0.6120     3.5350    24.5690    17.0170 
   62.7500     2.2200    83.3040     1.0700     1.1040     5.1120    24.7790     8.2690 
   62.8750     2.1920    90.9060     2.0260     1.9140     5.9920    24.9490     0.7050 
   63.0000     2.2090    93.8800     3.2720     2.9630     6.5370    24.9500    -5.4720 
   63.1250     2.2350    92.1550     4.2440     3.9830     7.1240    24.8370   -10.1870 
   63.2500     2.2430    92.1790     4.5820     4.6660     7.0280    24.8140   -13.3210 
   63.3750     2.2400    94.3430     4.6880     5.0910     6.6210    24.8520   -15.4570 
   63.5000     2.2320    94.5160     4.8430     5.4170     6.3200    24.8490   -16.9710 
   63.6250     2.2220    92.9520     5.1280     5.7640     6.3250    24.7610   -18.2010 
   63.7500     2.2110    92.0090     5.5520     6.2000     6.7850    24.6590   -19.2930 
   63.8750     2.2050    92.0220     6.0390     6.6950     7.1770    24.5850   -20.2610 
   64.0000     2.2030    91.4220     6.4770     7.1530     7.5370    24.5400   -21.1180 
   64.1250     2.2050    91.4040     6.7240     7.4320     7.9090    24.5650   -21.8630 
