~V
VERS. 2.00: Ver 2.00
~W
STRT.M 55.0000:
STOP.M 251.0000:
STEP.M 0.1250:
NULL. -999.2500:
UWI. F10189:
~C
DEPT.M :
DEN.GM/CC :
SP.MV :
GR.API :
RML.OHMM :
RI. :
RXO.OHMM :
CALI.CM :
~A
# ...
  178.7500     2.2560   -25.9550    65.6300   107.8900    94.3410    62.7480    24.0020 
  178.8750     2.2440   -25.5600    61.5400   105.9600    91.8680    64.9520    24.0780 
  179.0000     2.2370   -25.2140    58.9870   105.3900    90.9490    67.6880    24.1350 
  179.1250     2.2360   -24.9360    57.1020   103.9010    89.8250    68.3350    24.0630 
  179.2500     2.2390   -24.6980    56.2890    99.7130    86.8950    66.3100    23.9100 
  179.3750     2.2420   -24.5150    58.8630    92.1730    81.3860    60.8320    23.7980 
  179.5000     2.2450   -24.3530    62.3840    81.9980    73.5250    50.9900    23.7820 
  179.6250     2.2460   -24.2280    64.6960    71.2400    64.6050    45.8780    23.9100 
  179.7500     2.2460   -24.1760    65.7300    62.1380    56.5680    47.4710    24.0020 
  179.8750     2.2480   -24.1790    66.1260    55.8460    50.6190    52.0210    23.9040 
  180.0000     2.2510   -24.2000    65.4680    52.8510    47.4460    54.5400    23.7600 
  180.1250     2.2510   -24.2290    63.8010    53.6760    47.7250    57.1190    23.7730 
  180.2500     2.2450   -24.2800    64.2720    57.1930    50.5910    60.8580    23.8530 
  180.3750     2.2370   -24.3120    67.2140    62.1020    55.0850    64.2370    24.0150 
  180.5000     2.2320   -24.3350    70.2600    65.8820    59.1990    65.3800    24.3570 
  180.6250     2.2340   -24.3420    67.9260    63.8790    58.7880    65.5000    24.8130 
  180.7500     2.2430   -24.3500    61.5670    55.4340    52.3720    63.5610    25.1420 
  180.8750     2.2610   -24.3480    59.5720    43.4500    41.8780    55.3520    25.2620 
  181.0000     2.2890   -24.3350    66.9730    32.1170    31.2070    41.8150    25.3010 
  181.1250     2.3210   -24.2900    77.2780    24.4850    23.6260    30.4950    25.3440 
  181.2500     2.3400   -24.2220    82.2630    20.2450    19.1250    23.8280    25.3850 
  181.3750     2.3430   -24.1580    81.7800    18.8990    17.2120    21.3660    25.3890 
  181.5000     2.3350   -24.0840    80.4490    19.9860    17.4560    23.1790    25.3190 
  181.6250     2.3130   -23.9940    79.6940    23.3730    19.9970    28.4370    25.2580 
  181.7500     2.2840   -23.9140    77.3680    27.9590    24.2310    34.9110    25.2230 
  181.8750     2.2630   -23.8330    74.9840    32.3000    29.1370    41.6200    25.1120 
  182.0000     2.2630   -23.7430    75.2380    34.3210    32.6300    47.0070    24.8920 
  182.1250     2.2840   -23.6650    77.1940    32.1030    32.0250    47.0230    24.6770 
  182.2500     2.3120   -23.6140    78.7100    28.3850    28.5090    39.1160    24.5580 
  182.3750     2.3370   -23.5500    82.2520    24.4750    24.2700    27.4090    24.5100 
  182.5000     2.3500   -23.4680    88.8560    20.9570    20.8440    20.2800    24.4880 
  182.6250     2.3530   -23.3890    90.0270    18.9190    18.7050    19.0380    24.4710 
  182.7500     2.3550   -23.2940    83.5160    17.4780    17.1670    18.8190    24.4700 
  182.8750     2.3650   -23.2040    77.9440    16.0660    15.7190    17.5960    24.4910 
  183.0000     2.3800   -23.1440    82.2360    14.4390    14.1180    15.2140    24.5420 
  183.1250     2.3890   -23.1430    94.0830    12.7860    12.4890    12.6780    24.7190 
  183.2500     2.3850   -23.1840   101.2910    11.5110    11.1510    11.7100    25.0320 
  183.3750     2.3720   -23.2990    99.0200    10.8760    10.3290    12.1900    25.3400 
  183.5000     2.3610   -23.4920    91.3610    10.9920    10.1310    13.7350    25.5300 
  183.6250     2.3520   -23.7460    85.0060    12.0170    10.6980    15.7990    25.5020 
  183.7500     2.3360   -24.0080    82.4100    13.8640    11.9450    18.3090    25.3810 
  183.8750     2.3160   -24.2890    80.9980    16.6170    13.9360    21.6590    25.2620 
  184.0000     2.2990   -24.5730    78.5820    20.3820    16.7670    25.7880    25.1770 
  184.1250     2.2860   -24.8240    78.4090    25.3830    20.6860    30.2380    25.1190 
  184.2500     2.2720   -25.0270    79.7130    31.3180    25.4910    34.4860    25.0320 
  184.3750     2.2590   -25.1850    78.3320    37.8350    30.8950    38.1740    24.8780 
  184.5000     2.2510   -25.2930    73.6440    44.4030    36.3980    40.9970    24.5380 
  184.6250     2.2520   -25.3010    70.0080    50.3570    41.2820    42.3940    24.0970 
  184.7500     2.2530   -25.2650    68.2560    55.5730    45.2990    43.3830    23.6070 
  184.8750     2.2500   -25.1850    65.1820    60.3300    48.6130    44.9960    23.2980 
  185.0000     2.2420   -25.0610    62.7580    65.1710    51.6880    46.6500    23.1940 
  185.1250     2.2330   -24.9180    64.1650    70.6880    55.1110    49.3420    23.1880 
  185.2500     2.2300   -24.7770    67.0310    76.8410    59.0600    52.9620    23.1980 
  185.3750     2.2330   -24.6180    69.5220    83.2470    63.3680    58.6370    23.2060 
  185.5000     2.2380   -24.4570    69.8640    89.3380    67.6430    66.0010    23.2310 
  185.6250     2.2400   -24.3500    69.9350    94.6380    71.4880    71.8790    23.2700 
  185.7500     2.2400   -24.2860    71.0770    99.6580    75.1630    73.7810    23.2850 
  185.8750     2.2380   -24.2540    68.9700   105.3490    79.3370    72.5810    23.2420 
  186.0000     2.2320   -24.2490    62.8960   112.8540    84.8760    73.2500    23.1790 
  186.1250     2.2250   -24.2870    58.3740   123.7880    93.0590    80.1820    23.2480 
  186.2500     2.2180   -24.3220    58.2380   137.9870   103.8310    95.5930    23.5190 
  186.3750     2.2150   -24.3710    57.6680   154.1590   116.3360   116.1280    23.8910 
  186.5000     2.2180   -24.4450    55.0160   168.7970   128.3110   137.7940    24.1850 
  186.6250     2.2290   -24.5280    56.5790   174.5460   135.1580   156.4450    24.3770 
  186.7500     2.2450   -24.6060    60.0590   169.1320   134.6000   161.5690    24.4850 
  186.8750     2.2620   -24.6610    60.0980   155.6280   127.1670   153.7500    24.4850 
  187.0000     2.2760   -24.6760    57.7770   140.6590   116.5850   142.4770    24.4300 
  187.1250     2.2840   -24.6250    58.1380   130.7370   108.3090   130.5290    24.3980 
  187.2500     2.2940   -24.5390    59.7990   127.1130   105.0940   120.6850    24.4320 
  187.3750     2.3090   -24.4080    59.9120   128.8710   107.2780   119.9400    24.5090 
  187.5000     2.3310   -24.2190    59.4750   132.4650   112.9340   127.6820    24.5330 
  187.6250     2.3530   -23.9560    57.6920   128.1050   115.5590   137.0510    24.4390 
  187.7500     2.3650   -23.6450    54.2050   109.0300   107.3320   138.5260    24.3430 
  187.8750     2.3600   -23.3150    53.0100    82.4810    86.4770   123.8040    24.3520 
  188.0000     2.3450   -22.9670    57.8290    54.7770    60.6220    89.4790    24.4930 
  188.1250     2.3320   -22.6170    63.5270    36.5380    40.6800    53.3890    24.6580 
  188.2500     2.3250   -22.2810    65.4870    26.4790    28.5810    29.4860    24.8160 
  188.3750     2.3190   -22.0000    67.2830    21.8250    22.5300    19.1600    24.9440 
  188.5000     2.3110   -21.7590    71.4000    20.2640    20.2140    16.1610    24.9610 
  188.6250     2.3070   -21.5700    73.8480    20.0030    19.7820    16.1350    24.8810 
  188.7500     2.3120   -21.4260    72.9510    19.2690    19.2390    16.7020    24.8100 
  188.8750     2.3250   -21.3290    73.8350    17.2830    17.5690    16.5080    24.7360 
  189.0000     2.3410   -21.3200    81.5350    14.2680    14.7700    15.1730    24.6170 
  189.1250     2.3570   -21.4310    92.8060    11.3540    11.8440    12.6940    24.4480 
  189.2500     2.3680   -21.6460    99.8770     9.3810     9.6730    10.3240    24.3810 
  189.3750     2.3720   -21.9300   100.0730     8.5370     8.4920    10.3860    24.4190 
  189.5000     2.3630   -22.2900    95.4360     8.8250     8.3170    13.1620    24.4620 
  189.6250     2.3430   -22.7310    90.3190    10.5800     9.3820    18.0570    24.4690 
  189.7500     2.3200   -23.2480    86.1780    13.9160    11.7520    24.6720    24.4740 
  189.8750     2.2950   -23.8160    81.6880    19.1710    15.8010    32.8310    24.5270 
