~V
VERS. 2.00: Ver 2.00
~W
STRT.M 50.0000:
STOP.M 205.0000:
STEP.M 0.1250:
NULL. -999.2500:
UWI. F10148:
~C
DEPT.M :
GR.API :
RML.OHMM :
RI. :
RXO.OHMM :
CALI.CM :
SP.MV :
DEN.GM/CC :
~A
# ...
  162.5000    54.8860   195.0110   172.9140   130.2700    22.5970   -21.0820     2.2170 
  162.6250    55.6050   198.5550   179.4090   119.8360    22.7050   -21.0640     2.2160 
  162.7500    55.9820   185.2510   172.4310   124.9490    22.7640   -21.0360     2.2190 
  162.8750    56.9660   157.2490   151.4140   133.0890    22.8040   -21.0130     2.2220 
  163.0000    60.0170   124.2810   122.3080   139.2550    22.8740   -21.0330     2.2250 
  163.1250    63.5530    98.5660    95.7890   134.7660    22.9370   -21.0440     2.2240 
  163.2500    67.1380    83.8280    78.0340   105.2590    22.9400   -21.0580     2.2190 
  163.3750    71.8970    80.5530    70.8220    71.3870    22.7980   -21.0850     2.2090 
  163.5000    74.8350    88.8420    74.9670    58.0700    22.7230   -21.1190     2.1910 
  163.6250    70.2390   112.0970    94.0360    94.7060    22.7270   -21.1720     2.1700 
  163.7500    62.3300   150.2490   127.1420   168.0400    22.7890   -21.2410     2.1580 
  163.8750    56.3760   202.2310   171.9650   210.4460    22.8980   -21.2910     2.1730 
  164.0000    52.8030   257.0320   218.5820   193.7540    23.0080   -21.3200     2.2210 
  164.1250    52.4820   286.6880   245.9300   178.2200    23.1890   -21.3520     2.2890 
  164.2500    54.8300   286.5070   249.3980   168.5320    23.4510   -21.3780     2.3380 
  164.3750    57.3470   271.8840   238.9110   161.0500    23.7640   -21.3910     2.3440 
  164.5000    59.5830   256.8030   226.2220   157.6630    24.0860   -21.4000     2.3080 
  164.6250    61.2930   245.9990   217.0830   154.8900    23.9960   -21.3810     2.2520 
  164.7500    61.7400   237.2380   210.6270   152.4300    23.9180   -21.3480     2.2040 
  164.8750    59.5010   226.7430   204.1460   152.6240    23.8660   -21.3100     2.1740 
  165.0000    56.7590   209.3370   193.1420   149.2530    23.7750   -21.2660     2.1600 
  165.1250    55.8250   180.0630   171.6290   145.5940    23.6040   -21.2350     2.1580 
  165.2500    57.3420   144.4470   141.9480   145.2400    23.3800   -21.2140     2.1630 
  165.3750    62.2320   109.8080   109.9610   121.4030    23.0620   -21.1790     2.1780 
  165.5000    67.4760    81.6930    82.0330    71.5740    22.6780   -21.1380     2.2010 
  165.6250    69.3220    63.2460    62.9370    44.7680    22.6130   -21.1020     2.2290 
  165.7500    69.4690    51.9400    51.1030    37.7820    22.5670   -21.1040     2.2550 
  165.8750    70.6190    46.0990    44.8590    35.7420    22.5640   -21.1380     2.2750 
  166.0000    72.1020    44.2140    42.6420    33.8110    22.5640   -21.1800     2.2830 
  166.1250    69.4100    45.1990    43.5000    36.5280    22.5610   -21.2080     2.2770 
  166.2500    66.1970    47.2550    45.7270    41.8100    22.5860   -21.2230     2.2650 
  166.3750    66.7630    49.3370    48.2540    41.1340    22.6730   -21.2480     2.2500 
  166.5000    68.6940    50.6680    50.1910    36.8080    22.5390   -21.2720     2.2380 
  166.6250    68.1840    50.6160    50.7450    34.2660    21.9140   -21.2920     2.2320 
  166.7500    67.4940    49.3350    49.9470    35.2910    21.9890   -21.2810     2.2300 
  166.8750    68.6170    46.9350    47.8640    39.1220    22.6370   -21.2430     2.2300 
  167.0000    69.7480    43.4810    44.5610    41.0590    23.5520   -21.2050     2.2330 
  167.1250    69.9100    38.9700    39.9960    36.9610    23.9600   -21.1590     2.2410 
  167.2500    70.7320    34.0990    34.8860    32.8960    24.0180   -21.1200     2.2540 
  167.3750    70.9720    29.6990    30.0740    29.1900    23.9860   -21.0660     2.2710 
  167.5000    70.7820    26.5760    26.3700    25.0520    23.9780   -21.0160     2.2870 
  167.6250    72.6980    25.6480    24.6240    21.0100    23.9470   -20.9560     2.2950 
  167.7500    75.9020    26.8400    24.8020    20.1720    23.7610   -20.8850     2.2930 
  167.8750    78.5670    30.0290    26.8860    23.9660    23.7120   -20.8180     2.2810 
  168.0000    80.2440    34.7250    30.5820    31.5720    23.8530   -20.7410     2.2650 
  168.1250    79.0330    39.8490    35.0820    40.9400    24.0680   -20.6830     2.2490 
  168.2500    74.8540    43.9050    38.8640    42.0990    24.1030   -20.6410     2.2380 
  168.3750    69.8520    46.2250    41.0660    38.6270    24.1100   -20.6300     2.2330 
  168.5000    66.2120    47.3610    41.9210    34.7720    24.1060   -20.6380     2.2330 
  168.6250    65.1480    49.1320    42.8350    36.4830    24.0820   -20.6760     2.2360 
  168.7500    65.8250    52.9520    45.2160    42.6960    24.0460   -20.7380     2.2380 
  168.8750    68.0320    59.2070    49.6260    47.9590    24.0420   -20.7870     2.2390 
  169.0000    70.5070    67.3860    55.9010    49.7510    24.0440   -20.8390     2.2350 
  169.1250    71.0290    75.7810    62.9460    54.3130    24.0440   -20.8880     2.2270 
  169.2500    69.5660    81.9330    68.6860    64.7130    24.0400   -20.9250     2.2160 
  169.3750    68.3370    84.3020    71.6620    70.9230    24.0150   -20.9390     2.2040 
  169.5000    68.0090    82.9110    71.5640    68.0710    23.9670   -20.9310     2.1940 
  169.6250    67.9990    78.8560    68.9190    60.2720    23.9590   -20.9050     2.1890 
  169.7500    66.5530    73.9230    65.1560    51.3570    23.9570   -20.8850     2.1900 
  169.8750    65.6800    68.5310    60.7410    47.4120    23.9570   -20.8790     2.1950 
  170.0000    68.1350    62.3880    55.5920    49.4040    23.9570   -20.8580     2.2050 
  170.1250    72.3630    54.8310    49.1850    48.1240    23.9570   -20.8290     2.2210 
  170.2500    75.5330    46.5550    42.0770    42.8100    23.9570   -20.8030     2.2420 
  170.3750    78.9720    38.7450    35.2780    34.9980    23.9570   -20.7860     2.2700 
  170.5000    83.1740    32.4090    29.6480    27.0760    23.9570   -20.7790     2.2990 
  170.6250    84.3470    28.3630    25.8560    22.6310    23.9600   -20.7880     2.3230 
  170.7500    81.0040    26.2780    23.6760    23.0440    23.9610   -20.7880     2.3370 
  170.8750    77.6550    25.9750    23.0010    28.0980    23.9580   -20.7790     2.3420 
  171.0000    76.8640    27.3310    23.7490    31.5150    23.9570   -20.7910     2.3410 
  171.1250    77.4020    30.5330    26.1630    26.6630    23.9560   -20.8230     2.3340 
  171.2500    77.6110    34.9000    29.8360    27.4300    23.9480   -20.8790     2.3220 
  171.3750    77.0950    39.3270    33.9850    37.5770    23.9020   -20.9500     2.3060 
  171.5000    75.1110    41.9980    37.0060    52.3880    23.7820   -21.0230     2.2920 
  171.6250    70.8330    40.4750    36.4610    54.7840    23.5890   -21.0820     2.2890 
  171.7500    69.1420    35.6040    32.7590    41.8260    23.2650   -21.1700     2.2980 
  171.8750    72.5280    29.6480    27.7780    27.1840    23.0020   -21.2840     2.3160 
  172.0000    78.4720    24.9740    23.5590    19.8220    22.8780   -21.4010     2.3310 
  172.1250    80.6650    23.1420    21.4670    16.6440    23.2450   -21.5140     2.3300 
  172.2500    77.4990    23.6070    21.2360    17.1340    23.5170   -21.6180     2.3170 
  172.3750    73.4400    25.7620    22.5590    20.2830    23.3490   -21.7220     2.2980 
  172.5000    72.0350    28.7140    24.9240    24.5110    22.4310   -21.8110     2.2840 
  172.6250    73.9170    31.0070    27.3100    27.6850    21.9760   -21.9040     2.2840 
  172.7500    77.7300    31.4670    28.4240    28.1180    21.8370   -21.9750     2.2980 
  172.8750    82.5550    29.7440    27.6100    29.4130    21.8760   -22.0330     2.3210 
  173.0000    85.4830    26.4570    25.1700    27.9200    21.9320   -22.1040     2.3420 
  173.1250    82.7620    22.9060    22.1630    21.9540    22.0750   -22.1660     2.3450 
  173.2500    78.0660    20.1610    19.6590    16.4910    22.3740   -22.2200     2.3260 
  173.3750    78.7760    18.5220    18.0070    13.7040    23.0350   -22.2820     2.2910 
  173.5000    86.1920    17.8840    17.1990    14.3010    23.8120   -22.3600     2.2550 
  173.6250    91.7540    17.9510    17.0800    17.5490    24.1040   -22.4320     2.2350 
