~V
VERS. 2.00: Ver 2.00
~W
STRT.M 64.0000:
STOP.M 215.0000:
STEP.M 0.1250:
NULL. -999.2500:
UWI. F10146:
~C
DEPT.M :
DEN.GM/CC :
GR.API :
RML.OHMM :
RI. :
RXO.OHMM :
CALI.CM :
SP.MV :
~A
# ...
   86.5000     2.2050   104.2310     7.0940     4.3800     4.6160    25.4500   -14.4020 
   86.6250     2.2220    99.7960     7.4260     4.5680     5.0080    25.3740   -13.9280 
   86.7500     2.2290    99.3530     7.8520     4.8350     5.3460    25.2820   -13.6710 
   86.8750     2.2220    98.0540     8.3090     5.1430     5.4400    25.1840   -13.6150 
   87.0000     2.2030    94.2200     8.7470     5.4610     5.5220    25.0260   -13.7090 
   87.1250     2.1800    90.6500     9.1190     5.7490     6.0390    24.9910   -13.8930 
   87.2500     2.1590    85.9760     9.3960     5.9750     6.9100    24.9840   -14.1160 
   87.3750     2.1460    80.5100     9.5480     6.1120     7.8880    24.9880   -14.3220 
   87.5000     2.1410    78.6010     9.5420     6.1390     8.5550    25.0100   -14.4450 
   87.6250     2.1420    82.8630     9.3270     6.0260     7.6900    25.0520   -14.5400 
   87.7500     2.1440    86.3770     8.9890     5.8170     7.2660    25.0590   -14.5870 
   87.8750     2.1460    86.9590     8.7030     5.5990     7.1520    25.0650   -14.5600 
   88.0000     2.1520    88.1950     8.7010     5.4970     7.0090    25.0870   -14.5330 
   88.1250     2.1770    91.4650     9.2640     5.6820     6.6510    25.1280   -14.5600 
   88.2500     2.2230    94.9450    10.3680     6.1780     6.6710    25.1350   -14.6230 
   88.3750     2.2850    95.8410    11.8680     6.9620     8.6010    25.1360   -14.7920 
   88.5000     2.3410    93.4690    13.3990     7.8890    13.3950    25.1360   -15.0490 
   88.6250     2.3530    89.9910    14.2410     8.5990    16.4540    25.1360   -15.3470 
   88.7500     2.3230    86.4330    14.0750     8.8050    13.3020    25.1370   -15.6790 
   88.8750     2.2650    84.4260    13.0830     8.4860     9.9540    25.1430   -16.0020 
   89.0000     2.2040    85.3990    11.8140     7.8710     8.3780    25.1730   -16.2970 
   89.1250     2.1610    88.4140    10.8540     7.2750     7.9200    25.2160   -16.5440 
   89.2500     2.1360    89.3180    10.3290     6.8650     7.8130    25.2230   -16.7480 
   89.3750     2.1220    86.8240    10.1220     6.6390     7.8070    25.2240   -16.8830 
   89.5000     2.1140    84.6320    10.0620     6.5350     7.8330    25.2240   -16.9410 
   89.6250     2.1080    84.1680    10.0400     6.5000     7.7830    25.2240   -16.9470 
   89.7500     2.1050    82.9670    10.0310     6.5040     7.7590    25.2240   -16.9370 
   89.8750     2.1060    82.5010    10.0540     6.5370     7.8080    25.2330   -16.9130 
   90.0000     2.1110    83.9690    10.1170     6.5910     7.9040    25.2680   -16.8710 
   90.1250     2.1190    85.7780    10.2020     6.6500     7.9930    25.4410   -16.8310 
   90.2500     2.1250    85.7860    10.2580     6.6890     8.0290    25.5540   -16.7570 
   90.3750     2.1300    84.5910    10.2470     6.6890     8.2050    25.6810   -16.6600 
   90.5000     2.1310    83.6530    10.1630     6.6400     8.4270    25.7900   -16.6180 
   90.6250     2.1310    81.9810    10.0400     6.5500     8.3690    25.9210   -16.5720 
   90.7500     2.1310    81.2220     9.9400     6.4550     8.1560    25.9990   -16.5470 
   90.8750     2.1310    82.9540     9.8930     6.3770     8.1810    26.0710   -16.5990 
   91.0000     2.1310    85.8650     9.8940     6.3250     8.4310    26.1480   -16.6820 
   91.1250     2.1310    86.5010     9.9100     6.2970     8.7040    26.2040   -16.7870 
   91.2500     2.1310    84.1510     9.9010     6.2750     8.6930    26.2760   -16.9590 
   91.3750     2.1300    79.1470     9.8460     6.2460     8.4970    26.3280   -17.1580 
   91.5000     2.1290    76.2470     9.7480     6.2070     8.1730    26.3840   -17.3750 
   91.6250     2.1280    78.5200     9.6390     6.1610     7.9670    26.3930   -17.6220 
   91.7500     2.1290    81.7510     9.5810     6.1330     7.8600    26.3950   -17.8230 
   91.8750     2.1330    81.9530     9.6350     6.1530     7.7090    26.3950   -17.9870 
   92.0000     2.1380    79.6540     9.8420     6.2500     7.4750    26.3950   -18.1540 
   92.1250     2.1400    78.4190    10.2310     6.4540     7.4440    26.3890   -18.2750 
   92.2500     2.1360    77.0220    10.7160     6.7320     7.9600    26.3540   -18.3720 
   92.3750     2.1240    73.8260    11.1800     7.0320     9.5510    26.3080   -18.4920 
   92.5000     2.1070    70.9480    11.4740     7.2730    12.2490    26.2530   -18.6090 
   92.6250     2.0900    71.1900    11.4170     7.3340    13.8510    26.2440   -18.7680 
   92.7500     2.0820    71.3910    11.0540     7.2020    11.5270    26.2420   -18.9670 
   92.8750     2.0870    70.8330    10.4990     6.9220     9.3060    26.2420   -19.2300 
   93.0000     2.1030    72.4440     9.9230     6.5840     8.0890    26.2420   -19.5820 
   93.1250     2.1280    76.0820     9.5110     6.2990     7.6610    26.2420   -20.0290 
   93.2500     2.1510    76.5640     9.3180     6.1250     7.7000    26.2440   -20.5330 
   93.3750     2.1640    73.4250     9.3310     6.0740     7.8440    26.2560   -21.0920 
   93.5000     2.1620    71.9080     9.4830     6.1210     7.9290    26.3260   -21.6540 
   93.6250     2.1440    73.7780     9.6560     6.2090     8.3440    26.3770   -22.1710 
   93.7500     2.1190    73.1720     9.7280     6.2610     8.7760    26.3550   -22.6910 
   93.8750     2.0970    68.7720     9.6420     6.2360     8.6700    26.3240   -23.1280 
   94.0000     2.0870    64.4320     9.4220     6.1340     8.1670    26.3180   -23.4890 
   94.1250     2.0940    64.9210     9.1740     5.9990     7.4070    26.2700   -23.8540 
   94.2500     2.1100    66.0050     9.0280     5.8980     6.6970    26.0050   -24.1890 
   94.3750     2.1270    65.2270     9.0500     5.8720     6.6100    25.5330   -24.4740 
   94.5000     2.1390    63.8850     9.2390     5.9320     7.2390    25.3320   -24.7680 
   94.6250     2.1410    63.7450     9.5280     6.0620     8.2800    25.2460   -25.0380 
   94.7500     2.1380    64.5440     9.7860     6.2010     8.8670    25.0910   -25.3030 
   94.8750     2.1320    65.6130     9.9330     6.3010     9.1280    24.9310   -25.5770 
   95.0000     2.1250    64.6170     9.9460     6.3350     9.2980    24.7480   -25.8020 
   95.1250     2.1200    59.4770     9.8540     6.2990     9.4120    24.5990   -25.9500 
   95.2500     2.1150    54.8610     9.7390     6.2290     9.3920    24.5130   -26.0270 
   95.3750     2.1130    54.3920     9.6510     6.1520     9.3080    24.4860   -26.0530 
   95.5000     2.1150    57.4660     9.6210     6.0920     9.2270    24.3970   -26.0190 
   95.6250     2.1220    60.9030     9.6730     6.0730     9.2260    24.3650   -25.9410 
   95.7500     2.1320    64.9360     9.7810     6.0910     9.1900    24.3450   -25.8560 
   95.8750     2.1410    69.6500     9.9130     6.1340     9.0680    24.2910   -25.7940 
   96.0000     2.1470    72.6260    10.0250     6.1810     8.9290    24.2340   -25.7350 
   96.1250     2.1470    71.5950    10.0500     6.2050     8.9730    24.2000   -25.6930 
   96.2500     2.1430    69.3060     9.9770     6.1920     9.0220    24.1890   -25.6970 
   96.3750     2.1350    68.7680     9.8290     6.1440     8.9940    24.1760   -25.6920 
   96.5000     2.1260    69.2670     9.6600     6.0720     9.0590    24.1290   -25.7020 
   96.6250     2.1210    69.1410     9.5400     5.9980     8.9940    24.1150   -25.7520 
   96.7500     2.1190    67.3920     9.4940     5.9410     8.9390    24.0800   -25.7680 
   96.8750     2.1180    64.8540     9.5140     5.9040     8.9110    24.0480   -25.7700 
   97.0000     2.1170    64.2420     9.5750     5.8860     8.9430    24.0420   -25.7720 
   97.1250     2.1160    66.6040     9.6560     5.8830     8.9120    24.0420   -25.7040 
   97.2500     2.1160    68.7500     9.7380     5.8870     8.9030    24.0420   -25.6090 
   97.3750     2.1180    67.6100     9.8020     5.8870     8.9630    24.0420   -25.5090 
   97.5000     2.1230    65.3050     9.8180     5.8770     9.0510    24.0420   -25.3600 
   97.6250     2.1290    64.7050     9.7370     5.8420     9.2320    24.0510   -25.1830 
