~V
VERS. 2.00: Ver 2.00
~W
STRT.M 50.0000:
STOP.M 222.0000:
STEP.M 0.1250:
NULL. -999.2500:
UWI. F10145:
~C
DEPT.M :
DEN.GM/CC :
GR.API :
RML.OHMM :
RI. :
RXO.OHMM :
CALI.CM :
SP.MV :
~A
# ...
  151.2500     2.2660    84.3330    15.6150    15.6050    17.1100    24.1940    -0.5070 
  151.3750     2.2640    80.5580    14.8530    14.8630    16.7330    24.2210    -0.5010 
  151.5000     2.2640    79.2140    14.1610    14.1510    15.7600    24.3600    -0.4750 
  151.6250     2.2660    83.5170    13.6040    13.5120    14.4690    24.4420    -0.3910 
  151.7500     2.2700    87.3700    13.2240    12.9950    13.8830    24.4780    -0.3200 
  151.8750     2.2730    88.1150    13.0480    12.6530    13.7520    24.4830    -0.3550 
  152.0000     2.2770    87.5240    13.0590    12.5200    13.5970    24.4840    -0.5070 
  152.1250     2.2800    86.6580    13.2180    12.6260    13.4090    24.4830    -0.7130 
  152.2500     2.2840    85.6070    13.4160    12.8820    13.8690    24.4800    -0.8730 
  152.3750     2.2880    87.1710    13.5620    13.1930    14.5850    24.4690    -0.9550 
  152.5000     2.2920    90.7820    13.5590    13.4290    14.6890    24.4530    -0.9860 
  152.6250     2.2970    91.0560    13.2820    13.3970    14.3380    24.4410    -0.9850 
  152.7500     2.3010    87.5550    12.7660    13.0570    14.3280    24.4620    -0.9760 
  152.8750     2.3060    85.1600    12.1030    12.4660    14.4460    24.5200    -0.9490 
  153.0000     2.3100    86.6410    11.4440    11.7770    14.0450    24.6290    -0.8700 
  153.1250     2.3100    89.6070    10.9840    11.2210    13.2270    24.7410    -0.7480 
  153.2500     2.3020    91.2320    10.7900    10.9320    12.4490    24.8570    -0.6340 
  153.3750     2.2880    91.2900    10.8650    10.9440    12.3920    24.9600    -0.5380 
  153.5000     2.2720    89.4960    11.1430    11.2050    15.6780    25.0400    -0.4750 
  153.6250     2.2620    85.5790    11.5070    11.5920    14.2440    25.0080    -0.4650 
  153.7500     2.2650    85.0380    11.8180    11.9260    13.7050    24.8800    -0.4950 
  153.8750     2.2820    89.3970    12.0220    12.1240    13.2640    24.7280    -0.5620 
  154.0000     2.3120    94.1060    12.1630    12.2070    12.8920    24.6050    -0.6630 
  154.1250     2.3450    94.1110    12.4060    12.3170    12.6710    24.5260    -0.7570 
  154.2500     2.3700    93.1400    12.9050    12.6230    13.0130    24.4970    -0.8500 
  154.3750     2.3800    92.9230    13.7470    13.2290    13.8300    24.4870    -1.0020 
  154.5000     2.3720    92.5680    14.9290    14.1610    15.2800    24.4850    -1.2390 
  154.6250     2.3480    91.9060    16.3660    15.3790    17.6830    24.4850    -1.5700 
  154.7500     2.3210    91.0730    17.8500    16.6770    20.6230    24.4880    -1.9340 
  154.8750     2.3010    90.5220    19.3200    17.9120    22.6980    24.4920    -2.2880 
  155.0000     2.2930    89.9200    20.7180    19.0590    23.5090    24.4930    -2.6040 
  155.1250     2.3030    87.7610    22.4890    20.4040    25.0080    24.4920    -2.8900 
  155.2500     2.3210    85.0520    25.9830    22.5330    27.1110    24.4840    -3.1920 
  155.3750     2.3400    84.3840    34.5420    26.3120    30.9210    24.4670    -3.5090 
  155.5000     2.3480    85.3450    46.6880    32.8630    36.7290    24.4720    -3.8330 
  155.6250     2.3390    82.9730    62.5820    44.0640    48.8930    24.5080    -4.1400 
  155.7500     2.3160    78.7500    81.6290    59.4560    90.3040    24.5860    -4.4380 
  155.8750     2.2890    75.9060   102.1490    77.3210   143.2570    24.6560    -4.6970 
  156.0000     2.2670    74.7610   120.0270    94.2100   144.4230    24.6860    -4.9260 
  156.1250     2.2580    74.9060   129.8800   105.2810   121.1380    24.6760    -5.1430 
  156.2500     2.2550    76.2360   132.1350   109.9190   112.2470    24.6520    -5.3630 
  156.3750     2.2550    77.8030   129.3660   109.6590   113.6300    24.6260    -5.6020 
  156.5000     2.2520    75.9990   124.8930   107.1030   114.7220    24.6120    -5.8260 
  156.6250     2.2460    71.8330   121.1820   104.4820   109.7830    24.6100    -5.9680 
  156.7500     2.2420    72.5290   118.8360   102.7440   102.0900    24.6110    -6.0100 
  156.8750     2.2410    75.9580   117.8010   102.0180    93.6430    24.6140    -6.0280 
  157.0000     2.2440    75.6410   117.8620   102.2180    90.7060    24.6150    -6.0970 
  157.1250     2.2480    72.2700   118.7910   103.2040    99.3710    24.6150    -6.2350 
  157.2500     2.2500    72.7670   120.1280   104.5470   108.4570    24.6150    -6.3330 
  157.3750     2.2520    76.5230   121.8240   106.1140   110.7370    24.6120    -6.3160 
  157.5000     2.2530    79.4030   123.9620   108.0590   109.7030    24.6030    -6.2400 
  157.6250     2.2530    80.3450   127.8490   111.1070   106.4590    24.5700    -6.2070 
  157.7500     2.2510    79.0830   135.3020   115.8620   112.1120    24.5440    -6.2650 
  157.8750     2.2470    77.2650   146.5390   122.7600   136.1040    24.5490    -6.3530 
  158.0000     2.2420    77.7890   159.2140   131.4790   157.5470    24.5860    -6.4080 
  158.1250     2.2390    79.3230   169.0450   140.1660   168.0090    24.6080    -6.4820 
  158.2500     2.2390    79.8960   173.6410   145.9410   162.2280    24.6150    -6.6340 
  158.3750     2.2410    79.6240   171.9080   146.7330   161.6390    24.6050    -6.8880 
  158.5000     2.2460    78.9730   164.0670   142.1730   165.8410    24.5760    -7.1650 
  158.6250     2.2530    78.5770   152.4350   133.6260   135.6570    24.5340    -7.3480 
  158.7500     2.2600    79.2780   141.0230   124.5560   108.9100    24.5260    -7.4370 
  158.8750     2.2660    80.0610   131.5680   116.7810   100.3450    24.5290    -7.5160 
  159.0000     2.2690    79.4930   124.2310   110.8270   109.6880    24.5170    -7.6240 
  159.1250     2.2720    78.3490   118.1520   106.2070   122.5040    24.5120    -7.6870 
  159.2500     2.2760    78.4280   111.9920   101.6750   120.6920    24.5030    -7.6270 
  159.3750     2.2830    80.3940   105.3680    96.6940   110.3830    24.5010    -7.4270 
  159.5000     2.2920    83.6560    98.6640    91.3880    97.8040    24.5070    -7.1580 
  159.6250     2.2970    84.2460    93.0690    86.6630    83.6990    24.5110    -7.0030 
  159.7500     2.2970    81.3040    89.3700    83.3950    75.1840    24.5050    -7.0060 
  159.8750     2.2910    78.4790    87.8910    82.0750    73.5920    24.4910    -7.0480 
  160.0000     2.2830    79.7850    88.4540    82.7130    78.1320    24.4840    -7.0220 
  160.1250     2.2780    85.2530    90.6550    85.0550    82.0340    24.4840    -7.0290 
  160.2500     2.2800    89.6220    93.3940    88.0240    84.9500    24.4840    -7.1740 
  160.3750     2.2870    90.2260    95.8560    90.7390    84.9520    24.4840    -7.4320 
  160.5000     2.2970    88.0090    97.3350    92.3670    83.2130    24.4840    -7.7340 
  160.6250     2.3050    84.1050    97.2810    92.1240    82.3480    24.4840    -7.9820 
  160.7500     2.3110    80.9070    96.3540    90.5380    83.9760    24.4840    -8.1420 
  160.8750     2.3160    79.8110    95.6600    88.5690    87.6340    24.4840    -8.3260 
  161.0000     2.3190    81.5180    96.7860    87.6830    78.7850    24.4840    -8.6010 
  161.1250     2.3180    83.2890   102.5790    90.5100    67.5280    24.4840    -8.8370 
  161.2500     2.3100    81.3390   114.7770    98.9260    73.5820    24.4850    -8.9600 
  161.3750     2.2940    75.4770   135.7400   115.2880    92.4990    24.4970    -9.0640 
  161.5000     2.2730    70.3770   168.1710   142.0970   116.5780    24.5300    -9.1960 
  161.6250     2.2510    70.5790   217.3540   183.6030   177.1990    24.5880    -9.3610 
  161.7500     2.2330    70.8640   279.9900   236.2770   329.4160    24.6190    -9.5070 
  161.8750     2.2200    66.2270   345.7850   291.7340   407.9230    24.6250    -9.5360 
  162.0000     2.2130    59.2790   393.9520   334.2780   406.1260    24.6180    -9.4680 
  162.1250     2.2110    55.6180   396.9530   341.1840   408.7060    24.6210    -9.4280 
  162.2500     2.2150    54.5890   356.7170   314.3780   413.1100    24.6490    -9.4810 
  162.3750     2.2270    56.3770   287.6140   266.8550   402.8330    24.6950    -9.5880 
