~V
VERS. 2.00: Ver 2.00
~W
STRT.M 59.0000:
STOP.M 202.0000:
STEP.M 0.1250:
NULL. -999.2500:
UWI. F10133:
~C
DEPT.M :
GR.API :
RML.OHMM :
RI. :
RXO.OHMM :
CALI.CM :
SP.MV :
DEN.GM/CC :
~A
# ...
  182.7500    83.6920     9.7940     8.8180     9.5630    24.5420    -6.2530     2.3450 
  182.8750    83.5800     9.7170     8.7840     9.6390    24.4950    -6.1240     2.3580 
  183.0000    85.6180     9.6020     8.7130     9.7510    24.5550    -5.9820     2.3720 
  183.1250    84.8460     9.4170     8.5750     9.4770    24.5640    -5.8290     2.3820 
  183.2500    80.8840     9.1560     8.3620     9.0560    24.5070    -5.6810     2.3880 
  183.3750    79.1790     8.8250     8.0690     8.3370    24.4350    -5.5200     2.3930 
  183.5000    83.0750     8.4440     7.7100     7.3150    24.4100    -5.4230     2.3960 
  183.6250    87.1030     8.0670     7.3210     6.0140    24.3800    -5.3570     2.3970 
  183.7500    87.1350     7.7640     6.9740     5.5320    24.3760    -5.3260     2.4000 
  183.8750    85.3210     7.5970     6.7360     5.4220    24.4420    -5.3580     2.4080 
  184.0000    85.1250     7.6070     6.6620     5.5660    24.5000    -5.4300     2.4200 
  184.1250    85.3340     7.8260     6.8080     6.2740    24.5350    -5.5050     2.4300 
  184.2500    87.0630     8.1700     7.1160     7.2770    24.4880    -5.5620     2.4320 
  184.3750    90.9560     8.5530     7.5120     7.9210    24.4200    -5.6690     2.4240 
  184.5000    95.4330     8.8740     7.8910     8.8330    24.3570    -5.7250     2.4040 
  184.6250    97.5230     9.0310     8.1290     9.7380    24.4730    -5.7270     2.3730 
  184.7500    95.0680     9.0450     8.2120    10.5780    24.4870    -5.7130     2.3330 
  184.8750    90.6760     8.9850     8.1890     9.3800    24.4150    -5.6450     2.2890 
  185.0000    88.5480     8.9360     8.1450     8.2330    24.3750    -5.5490     2.2550 
  185.1250    91.7920     8.9760     8.1600     8.0350    24.3870    -5.5070     2.2500 
  185.2500    96.6880     9.0820     8.2360     8.0880    24.2980    -5.5440     2.2800 
  185.3750    98.4050     9.1980     8.3290     8.8850    24.0770    -5.5760     2.3330 
  185.5000    96.2070     9.2640     8.3780    10.3990    23.8080    -5.6120     2.3910 
  185.6250    90.8000     9.2410     8.3340    12.1790    23.6910    -5.6920     2.4270 
  185.7500    84.8160     9.1730     8.2260    10.9960    23.8150    -5.8080     2.4360 
  185.8750    81.1080     9.1060     8.1050     8.9270    24.1210    -6.0430     2.4210 
  186.0000    81.3520     9.0740     8.0190     7.6590    24.3440    -6.4310     2.3950 
  186.1250    84.1490     9.0810     8.0010     8.0450    24.3690    -6.8650     2.3740 
  186.2500    86.0650     9.0960     8.0230     8.5410    24.3960    -7.2470     2.3670 
  186.3750    86.3230     9.1010     8.0530     9.2150    24.4010    -7.6150     2.3740 
  186.5000    86.0840     9.1060     8.0760    10.3890    24.3980    -8.0200     2.3900 
  186.6250    85.8450     9.1670     8.1140    11.0330    24.3580    -8.4370     2.4070 
  186.7500    84.5160     9.3400     8.2180    10.5390    24.3070    -8.8260     2.4190 
  186.8750    82.3430     9.6540     8.4320     9.4650    24.2390    -9.1470     2.4270 
  187.0000    80.1130    10.0860     8.7720     9.2350    24.2670    -9.3770     2.4350 
  187.1250    80.4460    10.5390     9.2000    10.7080    24.4000    -9.5620     2.4490 
  187.2500    83.6070    10.8800     9.5950    11.9690    24.4630    -9.7620     2.4680 
  187.3750    86.9630    11.0130     9.8470    12.3450    24.4620    -9.9850     2.4890 
  187.5000    87.6610    10.8970     9.8720    11.5740    24.4610   -10.2330     2.5040 
  187.6250    86.6660    10.5280     9.6250    10.8040    24.4540   -10.5150     2.4970 
  187.7500    87.1080    10.0360     9.2170    10.2560    24.4180   -10.7890     2.4650 
  187.8750    87.4720     9.5180     8.7410     9.6650    24.4230   -11.0260     2.4160 
  188.0000    84.3370     9.0590     8.2810     8.9940    24.4540   -11.1990     2.3670 
  188.1250    79.4720     8.7380     7.9180     9.2710    24.4450   -11.3030     2.3410 
  188.2500    76.4740     8.5460     7.6750     9.7610    24.4230   -11.3890     2.3390 
  188.3750    75.7840     8.4630     7.5530     8.5950    24.4720   -11.4470     2.3530 
  188.5000    76.6080     8.4640     7.5350     6.3020    24.5290   -11.4570     2.3690 
  188.6250    78.2830     8.5400     7.6030     5.8580    24.5530   -11.4140     2.3810 
  188.7500    79.4020     8.6730     7.7220     6.6760    24.5250   -11.3510     2.3930 
  188.8750    78.3850     8.8600     7.8810     7.7350    24.4770   -11.2780     2.4100 
  189.0000    76.2020     9.0880     8.0740     7.8310    24.4120   -11.2140     2.4340 
  189.1250    75.8150     9.3190     8.2850     6.9830    24.2900   -11.1990     2.4590 
  189.2500    77.8200     9.4990     8.4750     7.0840    24.2430   -11.1660     2.4780 
  189.3750    80.4540     9.5950     8.6060     8.2250    24.2500   -11.0730     2.4890 
  189.5000    79.7770     9.6060     8.6580     9.7780    24.3310   -10.9350     2.4900 
  189.6250    74.3150     9.5710     8.6370    10.1390    24.4560   -10.7630     2.4860 
  189.7500    69.5410     9.5600     8.6000     9.5560    24.5120   -10.5570     2.4810 
  189.8750    70.2920     9.6110     8.5920     8.3560    24.5450   -10.2830     2.4740 
  190.0000    76.4090     9.7290     8.6370     7.7510    24.4960    -9.8930     2.4640 
  190.1250    83.5580     9.8830     8.7340     8.2210    24.3150    -9.3320     2.4420 
  190.2500    86.6850    10.0090     8.8360     9.1930    24.1320    -8.6640     2.4120 
  190.3750    85.3740    10.0720     8.9000     9.1650    24.1600    -7.9180     2.3840 
  190.5000    82.6410    10.0650     8.9050     9.1650    24.3110    -7.1050     2.3680 
  190.6250    81.4800    10.0220     8.8610     9.0060    24.4370    -6.2080     2.3700 
  190.7500    81.6840    10.0130     8.8230     8.9320    24.5120    -5.3050     2.3800 
  190.8750    82.5530    10.0810     8.8360     8.9830    24.5920    -4.4480     2.3880 
  191.0000    84.0640    10.2310     8.9340     8.8830    24.6580    -3.6640     2.3910 
  191.1250    84.5330    10.4310     9.1350     9.5230    24.6780    -3.0080     2.3900 
  191.2500    84.5330    10.6160     9.3920    10.3640    24.7040    -2.4410     2.3940 
  191.3750    84.5330    10.7510     9.6620    10.6280    24.6910    -1.9930     2.4080 
  191.5000    84.5330    10.8270     9.8940    11.3370    24.6660    -1.6760     2.4310 
  191.6250    84.5330    10.8530    10.0380    12.2070    24.5740    -1.4350     2.4520 
  191.7500    84.5330    10.8440    10.0920    12.0020    24.4660    -1.2190     2.4620 
  191.8750    84.5330    10.7840    10.0550    11.7690    24.4110    -1.0760     2.4560 
  192.0000    84.5330    10.6470     9.9260    11.7130    24.4530    -1.0250     2.4400 
  192.1250    84.5330    10.3870     9.6790    10.6340    24.4560    -1.0450     2.4240 
  192.2500    84.5330    10.0200     9.3320     9.7010    24.4500    -1.1410     2.4190 
  192.3750    84.5330     9.5740     8.9050     9.2240    24.3890    -1.2700     2.4250 
  192.5000    84.5330     9.0930     8.4350     8.5620    24.3530    -1.3860     2.4430 
  192.6250    84.5330     8.6400     7.9780     8.8260    24.3330    -1.5500     2.4700 
  192.7500    84.5330     8.2710     7.5860     9.6130    24.2760    -1.7720     2.4970 
  192.8750    84.5330     8.0250     7.2990    10.3970    24.2700    -2.0020     2.5100 
  193.0000    84.5330     7.9250     7.1420     9.7700    24.3130    -2.2180     2.4990 
  193.1250    84.5330     7.9970     7.1510     7.7850    24.3280    -2.3820     2.4580 
  193.2500    84.5330     8.1970     7.2970     6.8690    24.2510    -2.5120     2.4050 
  193.3750    84.5330     8.4940     7.5590     6.7310    24.2110    -2.6100     2.3570 
  193.5000    84.5330     8.8360     7.8980     7.0090    24.2610    -2.7260     2.3300 
  193.6250    84.5330     9.1500     8.2530     7.7940    24.3370    -2.8260     2.3280 
  193.7500    84.5330     9.3750     8.5430     8.4000    24.3150    -2.8830     2.3410 
  193.8750    84.5330     9.4840     8.7170     8.7650    24.2960    -2.9030     2.3620 
