~V
VERS. 2.00: Ver 2.00
~W
STRT.M 57.0000:
STOP.M 281.0000:
STEP.M 0.1250:
NULL. -999.2500:
UWI. F10139:
~C
DEPT.M :
SP.MV :
GR.API :
RML.OHMM :
RI. :
RXO.OHMM :
CALI.CM :
DEN.GM/CC :
~A
# ...
   68.2500   -25.0650    64.2580     9.8270     8.2850    11.0210    24.4860     2.1720 
   68.3750   -25.6240    65.3080     9.8450     8.0290    10.6080    24.1720     2.1450 
   68.5000   -26.0600    63.5090    10.1180     8.1490    10.1270    23.9120     2.1310 
   68.6250   -26.3820    61.6970    10.3920     8.4350     9.9800    23.7160     2.1250 
   68.7500   -26.6170    62.5560    10.5960     8.7080    10.1990    23.6570     2.1230 
   68.8750   -26.8040    64.8530    10.7360     8.9180    10.6470    23.7910     2.1230 
   69.0000   -26.9640    66.0650    10.8220     9.0600    11.0080    24.1570     2.1200 
   69.1250   -27.1890    64.1380    10.8470     9.1440    11.1020    24.6240     2.1090 
   69.2500   -27.5140    61.4210    10.8380     9.1960    11.1260    24.8660     2.0930 
   69.3750   -27.8240    60.8130    10.8190     9.2230    11.1460    24.9100     2.0810 
   69.5000   -28.0050    63.5070    10.7990     9.2180    11.2620    24.8110     2.0800 
   69.6250   -28.0530    66.2290    10.7490     9.1480    11.5760    24.6040     2.0920 
   69.7500   -27.8570    68.7010    10.6380     9.0060    11.3560    24.3780     2.1070 
   69.8750   -27.3790    71.7660    10.4620     8.8110    10.7480    24.1630     2.1220 
   70.0000   -26.7200    73.6990    10.2590     8.6080    10.2020    23.9230     2.1350 
   70.1250   -25.9750    72.3160    10.1030     8.4580     9.7340    23.5700     2.1470 
   70.2500   -25.2360    69.3700    10.0340     8.3770     9.7330    23.1560     2.1570 
   70.3750   -24.6320    67.9520    10.0500     8.3560     9.9380    22.7470     2.1590 
   70.5000   -24.2080    67.0920    10.1260     8.3700    10.2870    22.4400     2.1470 
   70.6250   -23.8640    64.0550    10.2250     8.3880    10.3200    22.1490     2.1230 
   70.7500   -23.6940    61.9090    10.3300     8.4040     9.8680    21.6920     2.1000 
   70.8750   -23.6820    61.3020    10.4490     8.4260     9.3690    21.0960     2.0880 
   71.0000   -23.7530    60.7870    10.6010     8.4650     9.1100    20.4220     2.0910 
   71.1250   -23.8370    59.6720    10.7920     8.5270     8.9980    19.8220     2.1030 
   71.2500   -23.8820    60.0940    10.9750     8.5990     8.9470    19.4420     2.1120 
   71.3750   -23.8970    63.8700    11.0820     8.6550     8.6020    19.3180     2.1150 
   71.5000   -23.8720    69.4180    11.0500     8.6590     8.1240    19.3680     2.1140 
   71.6250   -23.8520    72.0060    10.8420     8.5850     8.1030    19.7790     2.1130 
   71.7500   -23.8520    69.6320    10.5810     8.4860     8.5640    20.6740     2.1100 
   71.8750   -23.8720    65.6240    10.4530     8.4560     9.1920    21.6960     2.1020 
   72.0000   -23.9710    65.6040    10.6540     8.6090     9.6940    22.3100     2.0960 
   72.1250   -24.1770    69.3110    11.3420     9.0610     9.8920    22.3810     2.1180 
   72.2500   -24.4190    70.2930    12.3120     9.7260    10.5390    22.2880     2.1870 
   72.3750   -24.6370    67.7730    13.2530    10.4280    12.4820    22.2130     2.2970 
   72.5000   -24.8210    65.2520    13.7820    10.8990    15.7750    22.2230     2.4090 
   72.6250   -24.9910    63.6150    13.5330    10.8280    14.0830    22.4070     2.4590 
   72.7500   -25.1510    61.4090    12.7480    10.3300    11.6720    22.7220     2.4340 
   72.8750   -25.3060    59.5730    11.7810     9.6390    10.4740    22.9910     2.3530 
   73.0000   -25.3880    60.6020    10.9490     8.9910    10.2170    23.1320     2.2600 
   73.1250   -25.3500    63.0360    10.4740     8.5670    10.2730    23.2250     2.1970 
   73.2500   -25.2430    62.5140    10.3000     8.3570    10.3300    23.3350     2.1660 
   73.3750   -25.1410    60.5700    10.3240     8.3000    10.2780    23.4370     2.1540 
   73.5000   -25.1440    61.1980    10.4200     8.3110    10.1790    23.5240     2.1480 
   73.6250   -25.2220    66.7120    10.4790     8.3220    10.1320    23.6320     2.1440 
   73.7500   -25.2730    71.0410    10.4690     8.3180    10.0930    23.7150     2.1420 
   73.8750   -25.3240    69.8480    10.4120     8.3140    10.0390    23.7550     2.1440 
   74.0000   -25.3950    65.1580    10.3620     8.3260    10.0130    23.7650     2.1500 
   74.1250   -25.4970    61.1790    10.3790     8.3610    10.1090    23.8040     2.1580 
   74.2500   -25.6750    58.4750    10.4450     8.4060    10.3410    23.9360     2.1630 
   74.3750   -25.9170    56.9760    10.5130     8.4480    10.5390    24.1780     2.1610 
   74.5000   -26.1660    58.5690    10.5440     8.4730    10.5290    24.4800     2.1540 
   74.6250   -26.4050    62.1260    10.5210     8.4680    10.3910    24.6650     2.1470 
   74.7500   -26.6410    62.5800    10.4720     8.4290    10.2220    24.8140     2.1480 
   74.8750   -26.8760    60.5070    10.4180     8.3620    10.0710    24.9680     2.1530 
   75.0000   -27.1420    59.6610    10.3660     8.2790     9.9740    25.1140     2.1570 
   75.1250   -27.4610    61.7960    10.3130     8.2000     9.9540    25.2130     2.1490 
   75.2500   -27.8070    63.2150    10.2570     8.1410     9.8710    25.2750     2.1300 
   75.3750   -28.1190    61.8840    10.2010     8.1070     9.6630    25.2850     2.1040 
   75.5000   -28.3680    59.0500    10.1490     8.1020     9.4580    25.2210     2.0810 
   75.6250   -28.5390    57.9260    10.1070     8.1270     9.4990    25.1330     2.0680 
   75.7500   -28.6050    58.3520    10.0800     8.1670     9.8550    25.0800     2.0700 
   75.8750   -28.5920    58.4240    10.0620     8.2100    10.3350    25.0760     2.0850 
   76.0000   -28.5650    57.5030    10.0450     8.2400    10.1800    25.1460     2.1060 
   76.1250   -28.6310    58.3580    10.0210     8.2400     9.8860    25.3240     2.1200 
   76.2500   -28.7140    61.0610     9.9810     8.2130     9.6740    25.4680     2.1190 
   76.3750   -28.7470    63.2620     9.9260     8.1670     9.5310    25.4550     2.1050 
   76.5000   -28.7700    63.9530     9.8660     8.1110     9.4280    25.3210     2.0870 
   76.6250   -28.8590    63.2900     9.8180     8.0620     9.4090    25.2260     2.0790 
   76.7500   -29.0430    62.3350     9.7920     8.0320     9.4450    25.1760     2.0810 
   76.8750   -29.3120    61.6470     9.7820     8.0280     9.4520    25.1390     2.0820 
   77.0000   -29.5480    61.2620     9.7770     8.0440     9.4990    25.1540     2.0750 
   77.1250   -29.5740    61.8800     9.7720     8.0700     9.5240    25.1980     2.0570 
   77.2500   -29.5080    61.6350     9.7800     8.0940     9.6250    25.1790     2.0430 
   77.3750   -29.4570    59.0260     9.8140     8.1100     9.7280    25.0130     2.0420 
   77.5000   -29.3960    56.2020     9.8590     8.1160     9.7730    24.8130     2.0580 
   77.6250   -29.2940    56.1700     9.8830     8.1100     9.7420    24.7380     2.0860 
   77.7500   -29.1650    57.6650     9.8840     8.0980     9.6370    24.7910     2.1130 
   77.8750   -29.0120    58.9430     9.8840     8.0850     9.4560    24.9240     2.1320 
   78.0000   -28.8950    60.7310     9.9020     8.0760     9.2040    25.0770     2.1400 
   78.1250   -28.8210    62.0980     9.9530     8.0840     9.1250    25.2220     2.1340 
   78.2500   -28.6770    60.9310    10.0360     8.1190     9.1310    25.2950     2.1150 
   78.3750   -28.4250    59.5960    10.1530     8.2000     9.0040    25.3100     2.0840 
   78.5000   -28.1110    60.9620    10.3120     8.3400     8.9150    25.1990     2.0480 
   78.6250   -27.7660    61.9210    10.5100     8.5420     9.2040    24.9010     2.0300 
   78.7500   -27.3820    60.3880    10.6920     8.7490     9.5940    24.6180     2.0380 
   78.8750   -26.9290    60.0030    10.7730     8.8930     9.8730    24.5150     2.0690 
   79.0000   -26.3180    62.9630    10.6830     8.9140     9.9620    24.6160     2.1050 
   79.1250   -25.5220    65.9420    10.3840     8.7670     9.7450    24.7780     2.1240 
   79.2500   -24.6400    66.0370     9.9960     8.5170     9.5020    24.8820     2.1270 
   79.3750   -23.6400    65.8460     9.6280     8.2300     9.0740    24.8550     2.1240 
