~V
VERS. 2.00: Ver 2.00
~W
STRT.M 45.0000:
STOP.M 252.0000:
STEP.M 0.1250:
NULL. -999.2500:
UWI. F10190:
~C
DEPT.M :
GR.API :
RML.OHMM :
RI. :
RXO.OHMM :
CALI.CM :
SP.MV :
DEN.GM/CC :
~A
# ...
  157.5000    63.3040    12.7750    11.6140    16.5220    24.3370   -19.0780     2.3110 
  157.6250    66.6610    11.6700    10.7040    12.4710    24.2320   -18.8870     2.3080 
  157.7500    72.0050    10.4240     9.6160     9.3900    24.2790   -18.7050     2.2980 
  157.8750    75.6930     9.3270     8.5920     7.9200    24.5450   -18.5420     2.2960 
  158.0000    76.9610     8.6030     7.8360     7.3520    24.8330   -18.3730     2.3020 
  158.1250    76.0100     8.1880     7.3440     6.9850    25.0020   -18.2550     2.3060 
  158.2500    74.3050     7.9800     7.0630     6.8130    25.0400   -18.2160     2.3040 
  158.3750    73.3890     7.8810     6.9230     6.7190    25.0130   -18.2490     2.2990 
  158.5000    75.6050     7.8810     6.8970     6.6220    24.9950   -18.3560     2.2900 
  158.6250    79.5570     8.0160     6.9800     6.3390    24.9890   -18.4960     2.2810 
  158.7500    80.8020     8.3240     7.1990     6.5390    24.9890   -18.6460     2.2710 
  158.8750    77.6390     8.8010     7.5580     7.2640    24.9900   -18.8110     2.2620 
  159.0000    72.8200     9.4020     8.0380     7.9630    24.9920   -18.9970     2.2550 
  159.1250    70.6340    10.0030     8.5440     8.2260    24.9910   -19.1920     2.2520 
  159.2500    70.2250    10.5020     8.9940     8.7130    24.9890   -19.3650     2.2550 
  159.3750    70.2600    10.8290     9.3150     9.0990    24.9880   -19.4820     2.2610 
  159.5000    71.7730    10.9400     9.4450     9.1690    24.9880   -19.5160     2.2640 
  159.6250    74.2610    10.9180     9.4320     9.1590    24.9880   -19.4850     2.2660 
  159.7500    76.2600    10.8530     9.3410     9.1670    24.9880   -19.4130     2.2670 
  159.8750    76.2150    10.8460     9.2580     9.1320    24.9780   -19.3360     2.2650 
  160.0000    73.8520    11.0050     9.2760     8.8880    24.9310   -19.2750     2.2610 
  160.1250    71.7550    11.3570     9.4340     8.6740    24.8410   -19.1620     2.2580 
  160.2500    72.4460    11.9390     9.7670     9.0910    24.7530   -19.0030     2.2590 
  160.3750    74.1320    12.7240    10.2830    10.2170    24.7240   -18.8470     2.2630 
  160.5000    71.1760    13.4690    10.8530    10.8250    24.8020   -18.7340     2.2660 
  160.6250    65.8610    13.7830    11.1760    10.2660    24.9610   -18.6670     2.2690 
  160.7500    63.0340    13.4170    11.0170    11.4390    25.1010   -18.6280     2.2730 
  160.8750    65.3110    12.4390    10.3740    14.0460    25.1660   -18.6030     2.2760 
  161.0000    71.0630    11.3090     9.5450    12.0060    25.1520   -18.5940     2.2730 
  161.1250    75.9090    10.6200     8.9610     8.2270    25.1330   -18.6860     2.2700 
  161.2500    76.5490    10.6220     8.8220     7.3850    25.0970   -18.9050     2.2760 
  161.3750    73.3920    11.2450     9.1240     9.9550    25.0270   -19.2200     2.2940 
  161.5000    71.5420    12.1090     9.6640    15.3510    24.9890   -19.5840     2.3100 
  161.6250    73.1950    12.5980    10.0270    16.9840    24.9710   -19.9550     2.3110 
  161.7500    76.3050    12.3680     9.9410    14.1280    24.9520   -20.3630     2.2990 
  161.8750    77.7600    11.5420     9.4260     9.1300    24.9400   -20.7880     2.2880 
  162.0000    77.6470    10.6730     8.7940     7.4280    24.9280   -21.1970     2.2810 
  162.1250    77.9800    10.2030     8.3630     7.2930    24.8700   -21.5330     2.2730 
  162.2500    77.7080    10.1690     8.2060     8.2290    24.7810   -21.7860     2.2600 
  162.3750    76.4160    10.3960     8.2560     9.3450    24.6810   -21.9600     2.2470 
  162.5000    75.4010    10.6700     8.4060     9.4390    24.5950   -22.0440     2.2450 
  162.6250    74.5020    10.9420     8.5960     8.5060    24.5590   -22.0730     2.2480 
  162.7500    72.7050    11.3460     8.8880     8.0110    24.5380   -22.0200     2.2470 
  162.8750    69.7870    12.0370     9.3840     8.9900    24.4950   -21.8750     2.2440 
  163.0000    67.9440    13.0810    10.1670    10.9490    24.3900   -21.6440     2.2500 
  163.1250    66.5870    14.2060    11.0870    12.9220    24.1680   -21.3680     2.2600 
  163.2500    63.5940    15.0950    11.9300    14.3130    23.9040   -21.0640     2.2630 
  163.3750    60.6200    15.5300    12.4920    14.8670    23.7710   -20.7270     2.2560 
  163.5000    62.6770    15.5560    12.7120    14.3150    23.7620   -20.3560     2.2500 
  163.6250    68.3890    15.5560    12.8240    13.4200    23.8120   -19.9610     2.2530 
  163.7500    71.2550    15.6780    12.9490    13.2080    23.9130   -19.5520     2.2640 
  163.8750    67.3710    15.7650    13.0140    14.2920    24.0930   -19.1710     2.2800 
  164.0000    63.2690    15.2730    12.6470    16.4990    24.3660   -18.8810     2.2950 
  164.1250    64.4550    13.9480    11.6530    16.1680    24.6670   -18.6700     2.3070 
  164.2500    69.2860    11.9520    10.1380    12.1870    24.8680   -18.4960     2.3170 
  164.3750    75.2540     9.8160     8.4800     7.6650    24.9670   -18.3470     2.3190 
  164.5000    80.4850     8.1990     7.1460     5.7750    25.0300   -18.2540     2.3110 
  164.6250    84.3340     7.2770     6.2920     5.0320    25.0190   -18.2580     2.2990 
  164.7500    86.3770     6.9960     5.9230     5.1870    24.9160   -18.3870     2.2910 
  164.8750    86.2320     7.1690     5.9560     5.7430    24.7050   -18.5910     2.2900 
  165.0000    83.1000     7.5350     6.2560     6.1410    24.4030   -18.8260     2.2940 
  165.1250    79.3380     7.8110     6.5820     6.2400    24.2210   -19.0460     2.2970 
  165.2500    77.5420     7.8750     6.7920     6.2540    24.2270   -19.2430     2.2960 
  165.3750    78.0050     7.7250     6.8300     6.1740    24.3490   -19.4210     2.2880 
  165.5000    80.2170     7.4300     6.7030     5.9580    24.4870   -19.5980     2.2760 
  165.6250    84.4940     7.1160     6.5090     5.7640    24.6120   -19.7720     2.2650 
  165.7500    86.5250     6.8500     6.3060     5.6440    24.7510   -19.9280     2.2570 
  165.8750    85.1130     6.6720     6.1380     5.5500    24.8830   -20.0920     2.2530 
  166.0000    85.3100     6.6330     6.0500     5.2640    24.9450   -20.2650     2.2560 
  166.1250    87.5350     6.7330     6.0560     5.2050    24.9460   -20.4800     2.2620 
  166.2500    86.7930     6.9810     6.1670     5.4220    24.9230   -20.7590     2.2690 
  166.3750    80.9700     7.3500     6.3790     5.8700    24.8930   -21.0750     2.2750 
  166.5000    75.9870     7.7410     6.6430     6.2000    24.8620   -21.3830     2.2840 
  166.6250    75.5000     7.9950     6.8460     6.6660    24.8470   -21.6060     2.2930 
  166.7500    77.4260     8.0250     6.9100     7.2520    24.8130   -21.7330     2.2960 
  166.8750    80.4330     7.8890     6.8510     7.5590    24.7190   -21.8080     2.2940 
  167.0000    82.7930     7.8610     6.8410     6.7230    24.6250   -21.8870     2.2920 
  167.1250    83.7190     8.2720     7.1090     6.2050    24.5460   -21.9720     2.2900 
  167.2500    82.5440     9.3770     7.8470     6.5590    24.4760   -22.0490     2.2840 
  167.3750    79.3820    11.2990     9.1960     8.5230    24.3970   -22.1250     2.2710 
  167.5000    76.1440    13.9820    11.2660    12.5550    24.3350   -22.2120     2.2540 
  167.6250    74.1920    16.7590    13.6590    15.4310    24.2520   -22.3750     2.2410 
  167.7500    74.4600    18.8880    15.7880    16.2270    24.1060   -22.6440     2.2380 
  167.8750    77.5310    19.7830    17.0260    16.3910    23.9140   -23.0100     2.2400 
  168.0000    80.7930    19.3650    17.0640    15.8720    23.7490   -23.4400     2.2400 
  168.1250    82.0650    18.6450    16.6370    16.0740    23.6290   -23.8890     2.2340 
  168.2500    80.8750    18.4280    16.4050    16.3230    23.5610   -24.3690     2.2220 
  168.3750    78.6440    19.3050    16.8690    15.7550    23.5400   -24.9020     2.2120 
  168.5000    75.5080    22.1580    18.7580    16.3980    23.5670   -25.4860     2.2090 
  168.6250    70.5410    27.4470    22.6160    21.9300    23.6370   -26.0920     2.2130 
