~V
VERS. 2.00: Ver 2.00
~W
STRT.M 52.0000:
STOP.M 326.0000:
STEP.M 0.1250:
NULL. -999.2500:
UWI. F10108:
~C
DEPT.M :
DEN.GM/CC :
SP.MV :
GR.API :
RML.OHMM :
RI. :
RXO.OHMM :
CALI.CM :
~A
# ...
   74.5000     2.1790    -7.2380    82.6600     7.5080     6.0720     6.2050    24.4670 
   74.6250     2.1970    -7.0800    85.5450     7.3630     5.8930     5.6470    24.3560 
   74.7500     2.2060    -7.0470    82.9590     7.3930     5.8490     5.4910    24.2170 
   74.8750     2.2060    -7.1750    76.0790     7.6150     5.9670     5.6060    24.0900 
   75.0000     2.2020    -7.4580    67.0260     8.0020     6.2380     5.9520    24.0130 
   75.1250     2.2020    -7.8650    59.7520     8.4960     6.6360     6.5910    24.0140 
   75.2500     2.2070    -8.3470    56.2660     8.9870     7.0760     7.3770    24.0560 
   75.3750     2.2160    -8.8430    55.9090     9.4000     7.4950     7.9510    24.1140 
   75.5000     2.2230    -9.2710    57.4440     9.6840     7.8400     8.3620    24.1960 
   75.6250     2.2220    -9.5520    60.0150     9.8010     8.0590     9.2220    24.3160 
   75.7500     2.2130    -9.6620    62.0970     9.8110     8.1730    10.2240    24.4650 
   75.8750     2.1980    -9.5760    62.0130     9.7790     8.2160    10.0320    24.6180 
   76.0000     2.1830    -9.3020    59.1980     9.7660     8.2290     9.1480    24.7430 
   76.1250     2.1750    -8.8280    57.2570     9.7760     8.2200     8.3000    24.8090 
   76.2500     2.1770    -8.1930    57.7720     9.7220     8.1450     8.1000    24.8310 
   76.3750     2.1910    -7.4360    59.2450     9.4920     7.9340     8.3700    24.8160 
   76.5000     2.2130    -6.6070    60.5760     8.9980     7.5240     9.2020    24.7720 
   76.6250     2.2410    -5.7610    62.4510     8.1960     6.8780     9.8180    24.7010 
   76.7500     2.2690    -4.9740    65.9570     7.2540     6.1130     8.5260    24.6330 
   76.8750     2.2960    -4.2790    71.6260     6.3460     5.3550     5.9870    24.5770 
   77.0000     2.3210    -3.6910    78.7880     5.6430     4.7260     4.5370    24.5430 
   77.1250     2.3420    -3.2930    84.7690     5.3420     4.3740     4.1830    24.5140 
   77.2500     2.3610    -3.1200    85.4800     5.4620     4.3240     4.1830    24.4670 
   77.3750     2.3800    -3.1790    81.4510     6.0040     4.5920     4.3530    24.4090 
   77.5000     2.3950    -3.4510    76.1910     6.8910     5.1510     4.7630    24.3650 
   77.6250     2.3940    -3.9210    71.3020     7.9540     5.9290     5.7000    24.3450 
   77.7500     2.3710    -4.4900    66.8780     8.8900     6.7260     7.4180    24.3260 
   77.8750     2.3290    -5.0840    63.0030     9.4690     7.3710     9.9680    24.2870 
   78.0000     2.2780    -5.6490    60.0560     9.5820     7.7350    10.5460    24.2330 
   78.1250     2.2330    -6.1050    58.2560     9.2930     7.7680     8.6770    24.1930 
   78.2500     2.2010    -6.3880    58.8740     8.9360     7.6570     7.8310    24.1770 
   78.3750     2.1780    -6.4720    60.7910     8.7020     7.5390     7.8010    24.1650 
   78.5000     2.1620    -6.3470    60.9760     8.6260     7.4760     7.9430    24.1350 
   78.6250     2.1540    -5.9950    61.8580     8.5820     7.4180     7.8680    24.0730 
   78.7500     2.1570    -5.4690    67.5050     8.3950     7.2580     7.7140    24.0190 
   78.8750     2.1770    -4.8100    75.2530     7.9970     6.9350     7.4440    23.9920 
   79.0000     2.2110    -4.0800    80.2700     7.4330     6.4640     6.9030    23.9740 
   79.1250     2.2530    -3.3570    83.2010     6.8320     5.9290     5.8940    23.9310 
   79.2500     2.2870    -2.7220    84.7300     6.3230     5.4410     4.8670    23.8640 
   79.3750     2.3070    -2.1880    83.7660     5.9590     5.0550     4.3220    23.8040 
   79.5000     2.3150    -1.7800    83.3450     5.7330     4.7820     4.2300    23.7680 
   79.6250     2.3200    -1.5380    86.6860     5.6190     4.6180     4.2680    23.7330 
   79.7500     2.3270    -1.4580    89.0110     5.5680     4.5220     4.2210    23.6810 
   79.8750     2.3300    -1.5480    85.8730     5.5820     4.4890     4.1760    23.6170 
   80.0000     2.3240    -1.8080    80.8820     5.6920     4.5340     4.2840    23.5680 
   80.1250     2.3010    -2.2310    79.8590     5.9590     4.6910     4.4510    23.5720 
   80.2500     2.2690    -2.7140    79.8470     6.3500     4.9440     4.6960    23.6090 
   80.3750     2.2350    -3.2070    77.0700     6.7990     5.2600     5.0770    23.6510 
   80.5000     2.2070    -3.6830    71.8120     7.2180     5.5950     5.6690    23.6990 
   80.6250     2.1880    -4.1210    67.2410     7.5720     5.9200     6.2410    23.7830 
   80.7500     2.1750    -4.5010    65.7340     7.9990     6.2850     6.4210    23.9210 
   80.8750     2.1740    -4.8010    66.6830     8.7240     6.8060     6.4610    24.0940 
   81.0000     2.1920    -4.9770    67.8970     9.9510     7.6140     6.7920    24.2680 
   81.1250     2.2440    -4.9680    66.4820    11.7080     8.7770     7.9100    24.4080 
   81.2500     2.3190    -4.8310    63.1710    13.4690    10.0160    10.1750    24.5350 
   81.3750     2.3980    -4.6460    60.1920    14.6060    10.9400    13.7460    24.6750 
   81.5000     2.4490    -4.4530    59.0680    14.5600    11.1340    19.0140    24.8200 
   81.6250     2.4430    -4.2880    62.7740    12.9910    10.2510    24.2240    24.9270 
   81.7500     2.3980    -4.2050    69.9940    10.7380     8.7810    20.2890    24.9700 
   81.8750     2.3410    -4.2270    76.6700     8.6710     7.3070    11.6060    24.9620 
   82.0000     2.2920    -4.3850    79.5820     7.3840     6.2600     6.4570    24.9390 
   82.1250     2.2620    -4.7070    78.6610     7.1310     5.8680     5.6470    24.9380 
   82.2500     2.2430    -5.1190    76.4810     7.5120     5.9500     5.7960    24.9600 
   82.3750     2.2290    -5.5400    72.5320     8.2040     6.3470     6.0760    24.9840 
   82.5000     2.2160    -5.8940    66.5330     8.8870     6.8680     6.5740    24.9930 
   82.6250     2.2020    -6.0810    61.5270     9.2450     7.2760     7.1170    25.0060 
   82.7500     2.1900    -6.0610    60.1100     9.2120     7.4290     7.3440    25.0430 
   82.8750     2.1830    -5.8170    61.8740     8.8290     7.2880     7.4480    25.0880 
   83.0000     2.1870    -5.3490    65.1330     8.2180     6.9090     7.3670    25.1070 
   83.1250     2.2060    -4.6740    69.6620     7.5530     6.4090     6.9200    25.0880 
   83.2500     2.2340    -3.9080    76.8790     7.0080     5.9480     6.1330    25.0560 
   83.3750     2.2610    -3.1170    86.7170     6.6740     5.6060     5.4000    25.0330 
   83.5000     2.2800    -2.3520    94.6610     6.5690     5.4070     5.0720    25.0260 
   83.6250     2.2880    -1.6670    94.3650     6.6360     5.3360     5.0940    25.0160 
   83.7500     2.2920    -1.0900    90.2720     6.7070     5.3030     5.2100    24.9920 
   83.8750     2.2960    -0.6460    88.8900     6.6680     5.2440     5.3910    24.9720 
   84.0000     2.3030    -0.3520    90.1230     6.4740     5.1240     5.6250    24.9800 
   84.1250     2.3100    -0.2120    89.3430     6.1720     4.9470     5.4710    25.0070 
   84.2500     2.3120    -0.1760    87.6040     5.9130     4.7820     4.9480    25.0220 
   84.3750     2.3060    -0.2130    87.8660     5.8050     4.6910     4.5060    25.0030 
   84.5000     2.2920    -0.2910    89.7270     5.9070     4.7250     4.4070    24.9550 
   84.6250     2.2740    -0.4100    88.2550     6.2500     4.9300     4.6190    24.9100 
   84.7500     2.2590    -0.5490    84.5740     6.7440     5.2670     4.9450    24.8760 
   84.8750     2.2550    -0.6980    82.6430     7.3020     5.6870     5.3270    24.8360 
   85.0000     2.2670    -0.8190    83.2490     7.8030     6.1060     5.7280    24.7820 
   85.1250     2.2930    -0.8670    83.3860     8.0720     6.3880     6.0890    24.7140 
   85.2500     2.3220    -0.8330    82.3450     8.0350     6.4530     6.3930    24.6650 
   85.3750     2.3420    -0.7300    84.8560     7.6770     6.2730     6.7640    24.6470 
   85.5000     2.3460    -0.5920    90.6960     7.0760     5.8860     7.0450    24.6470 
   85.6250     2.3360    -0.4250    95.8020     6.3870     5.3910     6.7660    24.6320 
