~V
VERS. 2.00: Ver 2.00
~W
STRT.M 50.0000:
STOP.M 224.0000:
STEP.M 0.1250:
NULL. -999.2500:
UWI. F10153:
~C
DEPT.M :
GR.API :
RML.OHMM :
RI. :
RXO.OHMM :
CALI.CM :
SP.MV :
DEN.GM/CC :
~A
# ...
  128.7500    73.9540    25.5530    20.3200    17.2980    23.9540    -9.4270     2.3630 
  128.8750    68.4900    26.6430    21.3280    20.6310    23.9940    -9.0500     2.4230 
  129.0000    68.1790    27.1160    21.9550    25.4930    24.0620    -8.6850     2.4840 
  129.1250    69.6360    26.6850    21.9010    26.3420    24.1440    -8.3680     2.5340 
  129.2500    70.2210    25.5540    21.2520    22.5250    24.2170    -8.0800     2.5710 
  129.3750    69.2230    24.0130    20.1490    17.7970    24.2690    -7.8020     2.5880 
  129.5000    66.8750    22.5250    18.9550    15.3840    24.3010    -7.5520     2.5890 
  129.6250    64.5000    21.3010    17.8890    14.6010    24.3200    -7.3470     2.5760 
  129.7500    63.6700    20.2930    16.9660    14.1330    24.3330    -7.1710     2.5550 
  129.8750    64.7330    19.4310    16.1760    13.4350    24.3540    -7.0140     2.5320 
  130.0000    65.3230    18.6450    15.4720    12.4740    24.3940    -6.8730     2.5160 
  130.1250    64.2920    17.9800    14.8770    11.6580    24.4440    -6.7680     2.5090 
  130.2500    61.8690    17.4930    14.4200    11.2430    24.4910    -6.7180     2.5100 
  130.3750    59.0500    17.3230    14.2140    11.2140    24.5110    -6.7350     2.5150 
  130.5000    58.5750    17.4500    14.2620    11.7650    24.5140    -6.7630     2.5210 
  130.6250    60.4450    17.7830    14.5170    12.8370    24.5130    -6.7740     2.5260 
  130.7500    61.8940    18.2150    14.8970    14.0080    24.5130    -6.7890     2.5310 
  130.8750    61.4340    18.6780    15.3520    14.1990    24.5120    -6.8630     2.5360 
  131.0000    61.4290    19.1500    15.8340    13.9830    24.5140    -6.9950     2.5390 
  131.1250    62.6520    19.6600    16.3450    14.2020    24.5190    -7.1160     2.5360 
  131.2500    63.5690    20.2340    16.8930    14.8940    24.5260    -7.1890     2.5300 
  131.3750    63.5390    20.8830    17.4850    15.4550    24.5250    -7.2050     2.5200 
  131.5000    65.0580    21.4700    18.0270    15.6590    24.5180    -7.2030     2.5100 
  131.6250    68.3570    21.7360    18.3190    15.6490    24.5140    -7.2130     2.5000 
  131.7500    71.1550    21.5570    18.2520    15.7840    24.5140    -7.2370     2.4920 
  131.8750    71.8850    20.7180    17.6290    15.8650    24.5090    -7.2610     2.4860 
  132.0000    73.2120    19.3950    16.5790    15.0230    24.4900    -7.2750     2.4840 
  132.1250    75.8790    17.8930    15.3400    13.0650    24.4590    -7.3020     2.4880 
  132.2500    77.1550    16.4550    14.1170    11.0920    24.4310    -7.3580     2.4970 
  132.3750    76.0550    15.3470    13.1370    10.3700    24.4180    -7.4440     2.5060 
  132.5000    75.3100    14.6510    12.4830    10.2050    24.4180    -7.5380     2.5130 
  132.6250    73.9570    14.3850    12.1860     9.9710    24.4240    -7.6310     2.5160 
  132.7500    70.5640    14.4690    12.1870     9.7040    24.4310    -7.7280     2.5170 
  132.8750    66.6920    14.9230    12.5210     9.9910    24.4300    -7.8300     2.5180 
  133.0000    64.8100    15.6270    13.1030    10.5790    24.4170    -7.9260     2.5180 
  133.1250    64.4270    16.4420    13.8360    11.6000    24.3980    -8.0160     2.5150 
  133.2500    65.0110    17.2430    14.6180    12.8440    24.3790    -8.1150     2.5100 
  133.3750    66.4420    17.8580    15.3090    13.7180    24.3750    -8.2540     2.5030 
  133.5000    67.2060    18.2480    15.8340    13.9580    24.3950    -8.4480     2.4960 
  133.6250    67.3920    18.4860    16.2060    14.0650    24.4200    -8.6740     2.4900 
  133.7500    67.2850    18.6850    16.5030    14.1490    24.4210    -8.8960     2.4890 
  133.8750    66.3670    18.9420    16.7930    14.4730    24.3480    -9.1020     2.4900 
  134.0000    65.8580    19.2180    17.0670    15.1510    24.1980    -9.3130     2.4920 
  134.1250    67.1320    19.3110    17.1870    15.7450    23.9930    -9.5440     2.4890 
  134.2500    69.5120    19.0900    17.0490    15.8360    23.7750    -9.7820     2.4850 
  134.3750    71.2740    18.3840    16.5050    15.4370    23.6130    -9.9910     2.4820 
  134.5000    73.1030    17.5770    15.7020    14.1700    23.5250   -10.1550     2.4810 
  134.6250    75.3090    16.9020    14.8990    12.5570    23.4710   -10.2870     2.4820 
  134.7500    75.9690    16.2920    14.2670    11.6220    23.4130   -10.4050     2.4820 
  134.8750    73.5800    16.0300    14.0160    11.8430    23.3530   -10.5120     2.4760 
  135.0000    71.2810    16.2080    14.1370    12.4500    23.3070   -10.6150     2.4680 
  135.1250    71.3880    16.6640    14.5410    13.0120    23.2870   -10.7300     2.4600 
  135.2500    72.4200    17.2260    15.0920    13.4160    23.2860   -10.8750     2.4530 
  135.3750    71.9970    17.7500    15.6690    13.7370    23.3140   -11.0660     2.4530 
  135.5000    71.3260    18.1690    16.1780    13.9260    23.3610   -11.2770     2.4540 
  135.6250    71.2010    18.5000    16.6090    14.0070    23.4020   -11.4950     2.4570 
  135.7500    70.4130    18.7740    16.9890    14.1370    23.4240   -11.7400     2.4580 
  135.8750    68.1120    18.9760    17.3060    14.3640    23.4260   -12.0540     2.4590 
  136.0000    66.4800    19.0880    17.5360    14.7610    23.4260   -12.4190     2.4570 
  136.1250    67.2910    19.1100    17.6580    15.1090    23.4130   -12.7840     2.4530 
  136.2500    69.3320    19.0780    17.6940    14.9610    23.3770   -13.1100     2.4470 
  136.3750    70.6750    19.0320    17.6660    14.1740    23.3210   -13.4000     2.4400 
  136.5000    71.0580    19.0200    17.6230    13.4390    23.2860   -13.7320     2.4340 
  136.6250    70.4870    19.0590    17.5950    13.3170    23.3300   -14.1500     2.4270 
  136.7500    69.1410    19.1350    17.5850    13.7010    23.4750   -14.6030     2.4190 
  136.8750    68.4970    19.2280    17.5850    14.0630    23.7000   -15.0310     2.4150 
  137.0000    70.7130    19.3530    17.6030    13.9690    23.8820   -15.4320     2.4150 
  137.1250    74.5890    19.6380    17.7270    13.9300    23.9510   -15.8540     2.4170 
  137.2500    77.4650    20.2180    18.0590    14.3770    23.9730   -16.3280     2.4180 
  137.3750    77.9990    21.4980    18.9210    15.2940    24.0760   -16.8720     2.4070 
  137.5000    77.3870    23.6950    20.5150    16.9930    24.2920   -17.4340     2.3830 
  137.6250    77.1390    27.0300    23.0750    21.4900    24.5740   -17.9850     2.3480 
  137.7500    77.3830    31.4930    26.6310    29.5000    24.8730   -18.5400     2.3090 
  137.8750    77.3750    37.7700    31.8070    40.8880    25.1470   -19.1150     2.2760 
  138.0000    77.7480    46.3020    38.9860    47.1340    25.3870   -19.6840     2.2510 
  138.1250    77.7580    58.0730    49.0490    48.0120    25.6070   -20.1990     2.2340 
  138.2500    75.5280    73.4910    62.3730    51.8450    25.8120   -20.6480     2.2200 
  138.3750    70.6270    94.6680    80.7100    78.4250    25.9690   -21.0190     2.2130 
  138.5000    67.2640   120.6970   102.9720   119.0390    26.0660   -21.3240     2.2110 
  138.6250    66.4670   147.9930   125.9390   153.1210    26.1240   -21.5480     2.2120 
  138.7500    64.9050   172.5970   146.5310   170.3980    26.1670   -21.6850     2.2140 
  138.8750    61.9480   189.9800   161.4020   162.2670    26.2150   -21.7370     2.2120 
  139.0000    62.2550   202.8560   172.7590   149.4460    26.2790   -21.7820     2.2080 
  139.1250    66.0020   217.2150   185.4170   150.5200    26.3340   -21.8700     2.2060 
  139.2500    69.5360   236.0300   201.9270   160.9840    26.3530   -21.9760     2.2080 
  139.3750    69.8080   260.6280   223.7070   182.6750    26.3240   -22.0380     2.2110 
  139.5000    67.4190   285.5380   246.3980   207.8430    26.2920   -22.0500     2.2120 
  139.6250    63.6880   301.4830   262.6680   223.1160    26.2780   -22.0650     2.2100 
  139.7500    59.9020   303.1630   268.2890   236.3050    26.2720   -22.1080     2.2060 
  139.8750    58.1480   282.8240   254.5830   230.3920    26.2550   -22.1410     2.2020 
