~V
VERS. 2.00: Ver 2.00
~W
STRT.M 60.0000:
STOP.M 245.0000:
STEP.M 0.1250:
NULL. -999.2500:
UWI. F10162:
~C
DEPT.M :
SP.MV :
DEN.GM/CC :
GR.API :
RML.OHMM :
RI. :
RXO.OHMM :
CALI.CM :
~A
# ...
  195.0000   -14.3460     2.4230    56.7010     8.4180     6.7010     7.6800    24.7450 
  195.1250   -14.3690     2.4280    58.2540     8.4090     6.6800     7.6980    24.7730 
  195.2500   -14.4120     2.4330    56.3370     8.4710     6.7160     7.5680    24.8380 
  195.3750   -14.3950     2.4370    53.7750     8.6350     6.8340     7.5560    24.9160 
  195.5000   -14.2390     2.4430    53.2440     8.9060     7.0420     7.7420    24.9450 
  195.6250   -13.8830     2.4530    54.7930     9.2570     7.3310     8.3810    24.9220 
  195.7500   -13.4670     2.4610    56.1860     9.6080     7.6400     8.7860    24.8640 
  195.8750   -13.0170     2.4610    55.6950     9.8940     7.9140     8.9070    24.7730 
  196.0000   -12.5160     2.4470    53.6170    10.0580     8.1050     8.8120    24.6230 
  196.1250   -11.9740     2.4230    51.0410    10.0250     8.1460     8.5760    24.4630 
  196.2500   -11.3820     2.4000    50.2140     9.8110     8.0370     8.6610    24.3330 
  196.3750   -10.7700     2.3860    51.9310     9.4410     7.7900     8.6560    24.2770 
  196.5000   -10.2010     2.3860    54.6490     8.9800     7.4410     8.6780    24.3580 
  196.6250    -9.7020     2.3960    57.6240     8.5210     7.0470     8.4060    24.5360 
  196.7500    -9.2230     2.4080    58.7500     8.1370     6.6770     7.5980    24.7870 
  196.8750    -8.8640     2.4160    55.7420     7.8540     6.3630     6.9880    24.9950 
  197.0000    -8.6640     2.4180    50.6750     7.6620     6.1110     6.7860    25.0970 
  197.1250    -8.6240     2.4120    48.4780     7.5470     5.9250     6.8320    25.1370 
  197.2500    -8.8540     2.4040    48.9550     7.4820     5.7970     6.9560    25.1720 
  197.3750    -9.3230     2.3980    49.9990     7.4720     5.7370     6.7140    25.1840 
  197.5000   -10.0150     2.3960    52.7240     7.5260     5.7510     6.3740    25.1860 
  197.6250   -11.0120     2.3990    59.2220     7.6620     5.8510     6.0640    25.1690 
  197.7500   -12.1930     2.4050    70.0230     7.8610     6.0070     6.2910    25.1500 
  197.8750   -13.5540     2.4080    85.2150     8.1180     6.2030     7.0830    25.1340 
  198.0000   -15.0370     2.4060    99.7050     8.4300     6.4340     7.6400    25.1440 
  198.1250   -16.3930     2.3960   105.5860     8.8210     6.7340     7.6810    25.1540 
  198.2500   -17.6020     2.3840   103.6110     9.2740     7.1160     7.9750    25.1580 
  198.3750   -18.6670     2.3750    97.0190     9.7440     7.5640     8.4860    25.1220 
  198.5000   -19.5350     2.3740    89.3270    10.1440     8.0050     8.9290    25.0620 
  198.6250   -20.0990     2.3790    84.4840    10.3350     8.2910     9.5860    25.0070 
  198.7500   -20.3300     2.3820    87.7500    10.3050     8.3560    10.7230    24.8990 
  198.8750   -20.1870     2.3810    96.7930    10.1140     8.2200    11.4320    24.6550 
  199.0000   -19.7740     2.3730   104.2290     9.8950     7.9890    10.2880    24.1340 
  199.1250   -19.3120     2.3600   102.7410     9.8370     7.8190     7.5610    23.1640 
  199.2500   -18.8730     2.3480    96.3520    10.0170     7.8090     6.6630    22.1730 
  199.3750   -18.4940     2.3430    91.3710    10.4290     7.9970     6.5740    21.8230 
  199.5000   -18.2110     2.3510    88.3230    10.9850     8.3640     6.7040    21.7210 
  199.6250   -18.0330     2.3740    82.3190    11.5350     8.8320     7.1210    21.7120 
  199.7500   -17.9210     2.4020    78.0620    11.9810     9.2650     8.0010    21.9610 
  199.8750   -17.8050     2.4230    79.6400    12.3720     9.6210     9.4840    22.5810 
  200.0000   -17.5850     2.4330    84.0720    12.9190     9.9890    10.2060    23.1340 
  200.1250   -17.1510     2.4360    85.7830    14.0900    10.6690    10.5340    23.4060 
  200.2500   -16.5210     2.4530    85.8500    16.1380    11.9610    10.7650    23.5190 
  200.3750   -15.6710     2.4970    85.6550    19.0810    14.1290    11.8080    23.5320 
  200.5000   -14.5320     2.5690    82.4140    22.3870    17.1630    14.3730    23.4070 
  200.6250   -13.2400     2.6450    78.9170    24.4740    20.1140    18.3990    23.1020 
  200.7500   -11.8940     2.6920    80.3150    24.0530    21.0250    22.8860    22.9180 
  200.8750   -10.4240     2.6900    83.9480    20.9250    18.8710    21.5820    22.9000 
  201.0000    -8.9370     2.6390    86.2700    16.2130    14.7530    13.6820    22.9700 
  201.1250    -7.4910     2.5600    83.0450    11.8070    10.8280     7.4620    23.0740 
  201.2500    -6.0260     2.4900    75.8340     8.7320     8.0460     5.2890    23.0900 
  201.3750    -4.6510     2.4480    70.2000     6.9970     6.3590     4.9080    22.9280 
  201.5000    -3.4150     2.4350    69.7280     6.2270     5.4920     5.0060    22.5720 
  201.6250    -2.3650     2.4460    74.1760     6.0750     5.2330     4.9880    22.4040 
  201.7500    -1.5420     2.4620    79.9650     6.1540     5.2640     4.9900    22.5260 
  201.8750    -0.9230     2.4730    86.2160     6.3140     5.4370     5.0030    22.9080 
  202.0000    -0.4940     2.4700    88.7750     6.4750     5.6630     5.1410    23.1490 
  202.1250    -0.1930     2.4540    84.1200     6.5980     5.8880     5.4570    23.1950 
  202.2500     0.0210     2.4350    80.3910     6.6820     6.0880     5.6840    23.1680 
  202.3750     0.1810     2.4200    81.1810     6.7320     6.2410     5.8160    23.0800 
  202.5000     0.3040     2.4160    83.9830     6.7600     6.3340     6.0280    22.8460 
  202.6250     0.3890     2.4210    86.8100     6.7770     6.3520     6.2490    22.8860 
  202.7500     0.4670     2.4260    89.6850     6.7910     6.3210     6.1990    22.9950 
  202.8750     0.5150     2.4250    90.5070     6.8060     6.2560     6.2400    23.0770 
  203.0000     0.5370     2.4180    88.3750     6.8320     6.1730     6.3820    23.1130 
  203.1250     0.4500     2.4070    89.3030     6.9010     6.1110     6.2650    23.1560 
  203.2500     0.2970     2.4010    94.5210     7.0380     6.1050     5.9660    23.1660 
  203.3750     0.0640     2.4030    97.3950     7.2530     6.1740     5.8490    23.1320 
  203.5000    -0.2280     2.4130    94.5850     7.5340     6.3100     6.1780    23.1690 
  203.6250    -0.4410     2.4240    89.5720     7.8770     6.5030     7.1120    23.4900 
  203.7500    -0.6840     2.4280    85.8200     8.2990     6.7560     8.4000    24.0720 
  203.8750    -1.0320     2.4250    83.1290     8.8710     7.1170     8.8170    24.6110 
  204.0000    -1.4260     2.4150    80.8860     9.6930     7.6670     9.1480    24.8780 
  204.1250    -1.8600     2.4050    78.6140    10.8930     8.5250     9.8510    24.9020 
  204.2500    -2.2810     2.3950    76.5680    12.3860     9.6660    12.5390    24.8910 
  204.3750    -2.6710     2.3850    74.3910    14.0250    11.0290    16.0290    24.8990 
  204.5000    -3.1020     2.3740    71.1600    15.6030    12.4760    18.9090    24.9200 
  204.6250    -3.5200     2.3630    67.2370    16.8680    13.7830    18.8230    24.9550 
  204.7500    -3.9110     2.3510    67.5320    17.7920    14.8310    18.7060    24.9680 
  204.8750    -4.3110     2.3370    70.9840    18.4330    15.6120    20.2820    24.9690 
  205.0000    -4.6790     2.3220    73.9880    18.8940    16.1890    23.0890    24.9690 
  205.1250    -5.0100     2.3090    76.2200    19.2620    16.6280    23.7520    24.9720 
  205.2500    -5.3510     2.3020    78.9820    19.6200    17.0090    23.1730    24.9730 
  205.3750    -5.6070     2.3010    80.5510    20.0310    17.3790    22.9160    24.9720 
  205.5000    -5.7770     2.3040    78.8980    20.5740    17.8250    22.6670    24.9680 
  205.6250    -5.8620     2.3090    75.6610    21.3000    18.4950    23.6180    24.9670 
  205.7500    -5.8760     2.3120    73.8200    22.0120    19.3360    24.9400    24.9690 
  205.8750    -5.8520     2.3140    73.0290    22.3980    20.0850    25.2900    24.9710 
  206.0000    -5.7430     2.3160    72.8660    22.4100    20.3370    24.9170    24.9630 
  206.1250    -5.5700     2.3180    74.3740    22.0420    19.6620    25.4900    24.9310 
