~V
VERS. 2.00: Ver 2.00
~W
STRT.M 50.0000:
STOP.M 246.0000:
STEP.M 0.1250:
NULL. -999.2500:
UWI. F10164:
~C
DEPT.M :
GR.API :
RML.OHMM :
RI. :
RXO.OHMM :
CALI.CM :
SP.MV :
DEN.GM/CC :
~A
# ...
  117.5000    81.4460     8.6260     7.1080     8.8370    25.2860   -22.9980     2.1800 
  117.6250    80.5810     8.4900     7.0280     8.2350    24.9990   -22.5720     2.1710 
  117.7500    79.8860     8.2930     6.8910     7.7710    24.7840   -21.9850     2.1680 
  117.8750    81.6900     8.0900     6.7300     7.5470    24.4380   -21.3510     2.1760 
  118.0000    88.6940     7.9440     6.5970     7.3250    23.9000   -20.7940     2.1940 
  118.1250    97.4260     7.9270     6.5580     7.2220    23.2640   -20.2770     2.2090 
  118.2500    99.2820     8.0310     6.6190     7.5700    22.9580   -19.7960     2.2130 
  118.3750    93.1170     8.2400     6.7700     8.3590    22.9490   -19.4210     2.2020 
  118.5000    84.3330     8.5350     7.0000     9.0150    23.0260   -19.0730     2.1810 
  118.6250    80.4290     8.8920     7.3040     9.0740    22.9400   -18.6460     2.1690 
  118.7500    80.5740     9.2330     7.6360     9.0560    22.8060   -18.2220     2.1840 
  118.8750    82.1710     9.4450     7.9140     9.3070    22.6970   -17.7430     2.2350 
  119.0000    83.1150     9.3980     8.0130     9.8890    22.6530   -17.0900     2.3080 
  119.1250    83.3690     8.9770     7.7860     9.7120    22.6780   -16.2720     2.3680 
  119.2500    87.5450     8.3630     7.3220     8.0900    22.7950   -15.3870     2.3910 
  119.3750    95.1710     7.8320     6.8140     6.1980    23.0140   -14.4060     2.3830 
  119.5000   100.3200     7.6820     6.5110     5.0980    23.2730   -13.4270     2.3730 
  119.6250   101.1540     8.1830     6.7080     5.4440    23.4200   -12.6100     2.4030 
  119.7500   100.4000     9.1190     7.3710     7.0770    23.3780   -11.8650     2.4680 
  119.8750    96.7200    10.0890     8.2850     9.9120    23.1070   -11.2440     2.5410 
  120.0000    87.7620    10.5640     9.0210    13.5150    22.7360   -10.8580     2.5860 
  120.1250    79.7410    10.0180     8.9980    13.1710    22.7650   -10.6530     2.5760 
  120.2500    80.6540     8.7530     8.2500     9.2210    23.2890   -10.5190     2.5310 
  120.3750    87.1950     7.2760     7.1140     6.0730    23.9620   -10.5040     2.4740 
  120.5000    93.9570     6.0770     6.0310     4.6880    24.6400   -10.5710     2.4270 
  120.6250    96.0310     5.4740     5.3610     4.6710    24.9970   -10.6810     2.3990 
  120.7500    93.6630     5.3350     5.1010     5.0150    24.7430   -10.9010     2.3850 
  120.8750    90.1900     5.5270     5.1870     5.2050    24.2350   -11.1620     2.3780 
  121.0000    89.3180     5.9130     5.5190     5.3270    23.8830   -11.3830     2.3760 
  121.1250    88.9830     6.3550     5.9810     5.6810    23.7880   -11.6180     2.3770 
  121.2500    85.8060     6.7020     6.4030     6.2920    23.7220   -11.8530     2.3790 
  121.3750    83.9980     6.8550     6.6590     7.0600    23.6500   -11.9780     2.3770 
  121.5000    87.1690     6.7630     6.6600     7.4520    23.5630   -12.0050     2.3680 
  121.6250    90.7420     6.4300     6.3670     6.8650    23.5590   -11.9820     2.3520 
  121.7500    91.1220     6.0350     5.9340     5.9790    23.7750   -11.8620     2.3330 
  121.8750    90.1440     5.7600     5.5290     5.4860    24.1950   -11.6910     2.3230 
  122.0000    91.4290     5.7810     5.3250     5.4280    24.4810   -11.5540     2.3290 
  122.1250    91.6190     6.2800     5.5220     5.4910    24.2130   -11.3510     2.3630 
  122.2500    87.4880     7.1650     6.1080     6.0270    23.7770   -11.0750     2.4140 
  122.3750    81.9420     8.2930     7.0130     8.1420    23.6780   -10.8490     2.4710 
  122.5000    78.8330     9.6150     8.0730    12.7490    23.9460   -10.6320     2.5180 
  122.6250    76.4400    11.0670     9.0500    16.6150    24.3080   -10.3860     2.5460 
  122.7500    71.4910    12.4100     9.8480    14.0880    24.4590   -10.2230     2.5650 
  122.8750    66.4010    13.5910    10.5600    10.1470    24.2350   -10.0550     2.5840 
  123.0000    65.3140    14.9360    11.4300     9.9470    24.0020    -9.7900     2.6080 
  123.1250    66.2710    17.0550    12.8480    14.6210    24.0050    -9.5940     2.6290 
  123.2500    65.6260    19.8670    14.8970    20.4220    24.1610    -9.4660     2.6420 
  123.3750    63.2480    22.9640    17.4410    22.6930    24.2890    -9.3200     2.6480 
  123.5000    59.9660    25.7400    20.0500    22.9590    24.3960    -9.2340     2.6560 
  123.6250    54.9870    27.3700    21.9670    24.2380    24.5760    -9.2160     2.6660 
  123.7500    50.7910    27.7510    22.8570    24.8750    24.8490    -9.1490     2.6680 
  123.8750    50.6190    27.1040    22.7670    23.2340    25.0300    -9.1370     2.6490 
  124.0000    54.7750    25.8940    22.0340    19.6140    25.0810    -9.2100     2.6030 
  124.1250    58.7640    24.6360    21.0790    16.6630    25.0460    -9.2100     2.5370 
  124.2500    59.6070    23.6530    20.2470    15.5700    25.0070    -9.2010     2.4730 
  124.3750    57.6050    23.0080    19.6450    16.2740    25.0710    -9.2510     2.4240 
  124.5000    53.4490    22.6190    19.2560    17.7000    25.1940    -9.3010     2.3960 
  124.6250    50.5470    22.3290    18.9970    17.4820    25.3260    -9.2830     2.3900 
  124.7500    51.1360    21.9960    18.7460    15.7050    25.2430    -9.2650     2.3980 
  124.8750    53.7220    21.5960    18.4670    13.7660    24.9390    -9.2470     2.4210 
  125.0000    56.0220    21.1750    18.1770    12.5040    24.4210    -9.1860     2.4590 
  125.1250    58.0260    20.8340    17.9430    12.1890    23.8350    -9.1930     2.5060 
  125.2500    59.7680    20.6340    17.8150    12.7030    23.2710    -9.2680     2.5500 
  125.3750    60.0620    20.5900    17.8080    13.6410    23.0460    -9.3200     2.5860 
  125.5000    60.8280    20.6700    17.8980    14.3590    23.4700    -9.3200     2.6080 
  125.6250    62.1990    20.8160    18.0380    15.1250    24.2570    -9.3760     2.6190 
  125.7500    61.0750    20.9530    18.1680    16.4360    24.5870    -9.4140     2.6250 
  125.8750    57.0000    21.0400    18.2600    17.4900    24.4830    -9.4160     2.6330 
  126.0000    55.6860    21.0480    18.2930    17.4890    24.1880    -9.4850     2.6460 
  126.1250    59.2100    20.9500    18.2410    17.1180    23.8410    -9.5200     2.6620 
  126.2500    61.1080    20.7770    18.1210    17.4490    23.5010    -9.4660     2.6730 
  126.3750    59.2270    20.5650    17.9570    17.5180    23.0840    -9.4220     2.6660 
  126.5000    56.6240    20.3610    17.7880    14.9610    22.6760    -9.4420     2.6380 
  126.6250    57.1250    20.2270    17.6690    10.5020    22.5190    -9.4310     2.5950 
  126.7500    58.6950    20.1840    17.6280     7.9570    22.6550    -9.4270     2.5550 
  126.8750    58.7520    20.2390    17.6810     7.7730    22.9030    -9.4590     2.5330 
  127.0000    58.6110    20.3780    17.8270     8.9400    23.0510    -9.4660     2.5290 
  127.1250    60.1570    20.5900    18.0630    10.4180    23.0630    -9.4590     2.5340 
  127.2500    61.9740    20.8410    18.3500    11.8500    23.0110    -9.5030     2.5350 
  127.3750    62.7970    21.1250    18.6720    13.0610    23.2340    -9.5930     2.5270 
  127.5000    63.5820    21.4420    19.0220    13.8770    23.7170    -9.6680     2.5150 
  127.6250    64.6020    21.7750    19.3900    14.0330    24.2620    -9.7270     2.5070 
  127.7500    63.9270    22.0680    19.7310    13.7280    24.5630    -9.8170     2.5010 
  127.8750    61.9910    22.2520    19.9800    13.3750    24.7170    -9.8840     2.4930 
  128.0000    60.1600    22.2720    20.0730    13.4870    24.9060    -9.9060     2.4820 
  128.1250    58.5510    22.0970    19.9620    13.9210    25.0640    -9.9420     2.4760 
  128.2500    56.4850    21.8160    19.7260    13.5950    25.0620   -10.0090     2.4850 
  128.3750    55.5410    21.5270    19.4560    12.7180    24.7460   -10.0540     2.5110 
  128.5000    57.1030    21.3420    19.2590    12.2600    24.1720   -10.0340     2.5460 
  128.6250    60.2220    21.4200    19.2770    12.7040    23.7240   -10.0060     2.5690 
