~V
VERS. 2.00: Ver 2.00
~W
STRT.M 53.0000:
STOP.M 246.0000:
STEP.M 0.1250:
NULL. -999.2500:
UWI. F10192:
~C
DEPT.M :
DEN.GM/CC :
GR.API :
RML.OHMM :
RI. :
RXO.OHMM :
CALI.CM :
SP.MV :
~A
# ...
  233.0000     2.4060    71.5890     9.3860     8.2890     9.1100    24.1610   -11.1660 
  233.1250     2.3990    72.0120     9.5540     8.4580     9.7920    24.2340   -11.1080 
  233.2500     2.3920    70.9740     9.5360     8.4610    10.0770    24.2360   -11.1010 
  233.3750     2.3880    70.2140     9.3750     8.3180    10.2540    24.2080   -11.0930 
  233.5000     2.3830    71.2990     9.1510     8.0880    11.1390    24.2150   -11.0760 
  233.6250     2.3750    72.9270     8.9560     7.8540    11.5790    24.2210   -11.0530 
  233.7500     2.3670    71.8210     8.8660     7.6960    11.2270    24.0860   -11.0810 
  233.8750     2.3570    68.2520     8.8730     7.6240     9.8780    23.9420   -11.0840 
  234.0000     2.3440    65.1010     8.9430     7.6240     9.8660    24.0390   -11.0460 
  234.1250     2.3250    64.7300     9.0220     7.6540    10.1020    24.2430   -10.9560 
  234.2500     2.3100    66.4680     9.0580     7.6660     9.9110    24.3730   -10.8630 
  234.3750     2.3060    68.4570     9.0560     7.6540     9.5030    24.3540   -10.7940 
  234.5000     2.3200    69.6740     9.0640     7.6500     8.8820    24.2520   -10.7300 
  234.6250     2.3560    69.0970     9.1290     7.6920     8.2100    24.0240   -10.7060 
  234.7500     2.4050    67.5570     9.2770     7.8060     7.7940    23.6730   -10.6700 
  234.8750     2.4430    67.5250     9.4650     7.9620     7.9250    23.5480   -10.6290 
  235.0000     2.4550    69.1960     9.6380     8.1130     8.6690    23.6660   -10.6290 
  235.1250     2.4350    70.5710     9.7340     8.2100     8.9340    23.9340   -10.6380 
  235.2500     2.4020    70.4670     9.7020     8.2030     8.5130    23.9760   -10.6370 
  235.3750     2.3850    69.7820     9.5800     8.1160     8.1530    23.8250   -10.6600 
  235.5000     2.3860    69.5760     9.4130     7.9790     8.0730    23.5980   -10.6780 
  235.6250     2.3910    69.5760     9.2540     7.8270     7.9010    23.4900   -10.6870 
  235.7500     2.3860    69.5760     9.1650     7.7010     8.0250    23.6590   -10.6780 
  235.8750     2.3790    69.5760     9.1550     7.6180     8.3630    23.8560   -10.6570 
  236.0000     2.3740    69.5760     9.2040     7.5750     8.5200    23.9770   -10.6260 
  236.1250     2.3760    69.5760     9.2840     7.5590     8.4470    24.0150   -10.6020 
  236.2500     2.3950    69.5760     9.3740     7.5630     8.6880    23.9790   -10.5870 
  236.3750     2.4280    69.5760     9.4580     7.5800     9.0510    23.8420   -10.5320 
  236.5000     2.4580    69.5760     9.5390     7.6140     9.1790    23.7280   -10.4490 
  236.6250     2.4690    69.5760     9.6330     7.6740     9.0350    23.7220   -10.3270 
  236.7500     2.4680    69.5760     9.7740     7.7810     8.7950    23.7620   -10.1840 
  236.8750     2.4700    69.5760     9.9720     7.9400     8.8680    23.7550   -10.0590 
  237.0000     2.4750    69.5760    10.2330     8.1560     9.5020    23.6760    -9.9520 
  237.1250     2.4730    69.5760    10.5530     8.4290    10.4280    23.6680    -9.8450 
  237.2500     2.4630    69.5760    10.9400     8.7690    10.7920    23.7010    -9.7110 
  237.3750     2.4610    69.5760    11.3680     9.1550    10.9460    23.6620    -9.5580 
  237.5000     2.4700    69.5760    11.8010     9.5560    11.1120    23.5360    -9.4330 
  237.6250     2.4820    69.5760    12.1750     9.9230    11.8290    23.5800    -9.3380 
  237.7500     2.4770    69.5760    12.3920    10.1680    12.7980    23.7180    -9.2350 
  237.8750     2.4580    69.5760    12.4520    10.2710    12.8570    23.8030    -9.1000 
  238.0000     2.4400    69.5760    12.3980    10.2590    11.4460    23.8120    -8.9430 
  238.1250     2.4350    69.5760    12.3110    10.1970     9.8330    23.7920    -8.7890 
  238.2500     2.4370    69.5760    12.2680    10.1580     9.3590    23.7770    -8.6900 
  238.3750     2.4380    69.5760    12.2670    10.1570     9.0900    23.7750    -8.6300 
  238.5000     2.4340    69.5760    12.2810    10.1760     8.2320    23.7740    -8.5800 
  238.6250     2.4300    69.5760    12.2890    10.1930     6.9630    23.7760    -8.5390 
  238.7500     2.4260    69.5760    12.2880    10.1960     6.6070    23.7740    -8.5330 
  238.8750     2.4180    69.5760    12.2880    10.1950     6.6740    23.7430    -8.5330 
  239.0000     2.4050    69.5760    12.2920    10.1940     6.6210    23.6580    -8.5560 
  239.1250     2.3910    69.5760    12.2950    10.1950     6.4480    23.5590    -8.5880 
  239.2500     2.3900    69.5760    12.2950    10.1980     6.7150    23.5540    -8.5680 
  239.3750     2.4100    69.5760    12.2910    10.2000     7.1800    23.6130    -8.5600 
  239.5000     2.4170    69.5760    12.2850    10.2030     7.7250    23.6420    -8.5530 
  239.6250     2.4190    69.5760    12.2820    10.2070     7.7990    23.6170    -8.5510 
  239.7500     2.4170    69.5760    12.2860    10.2120     7.6560    23.5810    -8.5490 
  239.8750     2.4140    69.5760    12.2950    10.2170     7.8650    23.5710    -8.5780 
  240.0000     2.4090    69.5760    12.3020    10.2190     8.0790    23.5870    -8.5940 
  240.1250     2.4030    69.5760    12.3050    10.2170     8.0070    23.6160    -8.5140 
  240.2500     2.4030    69.5760    12.3040    10.2100     7.9540    23.6620    -8.4270 
  240.3750     2.4060    69.5760    12.3020    10.2010     8.2670    23.7330    -8.3530 
  240.5000     2.4080    69.5760    12.2970    10.1960     8.7730    23.8110    -8.2820 
  240.6250     2.4100    69.5760    12.2410    10.1960     8.9960    23.8510    -8.2090 
  240.7500     2.4200    69.5760    11.9590    10.2090     9.6580    23.8530    -8.1420 
  240.8750     2.4420    69.5760    11.4620    10.2270     9.9120    23.8370    -8.0690 
  241.0000     2.4620    69.5760    10.9040    10.2430     8.7650    23.7800    -7.9820 
  241.1250     2.4670    69.5760    10.5710    10.2510     7.4600    23.6790    -7.9650 
  241.2500     2.4620    69.5760    10.8120    10.2430     6.9800    23.5670    -7.9650 
  241.3750     2.4570    69.5760    11.1370    10.2340     7.1230    23.5210  -999.2500 
  241.5000     2.4590    69.5760    11.1370    10.2340     7.4610    23.5750  -999.2500 
  241.6250     2.4640    69.5760    11.1370    10.2340     8.2400    23.7210  -999.2500 
  241.7500     2.4690    69.5760    11.1370    10.2340     9.5300    23.8030  -999.2500 
  241.8750     2.4760    69.5760    11.1370    10.2340    11.0890    23.8120  -999.2500 
  242.0000     2.4770    69.5760    11.1370    10.2340    12.7840    23.7910  -999.2500 
  242.1250     2.4720    69.5760    11.1370    10.2340    13.7520    23.7880  -999.2500 
  242.2500     2.4660    69.5760    11.1370    10.2340    13.3850    23.8030  -999.2500 
  242.3750     2.4540    69.5760    11.1370    10.2340    12.0820    23.7890  -999.2500 
  242.5000     2.4150    69.5760    11.1370    10.2340     9.9850    23.6540  -999.2500 
  242.6250     2.3360    69.5760    11.1370    10.2340     8.4950    23.4110  -999.2500 
  242.7500     2.2120    69.5760    11.1370    10.2340     7.6660    23.0470  -999.2500 
  242.8750     2.0740    69.5760    11.1370    10.2340     7.5150    22.6580  -999.2500 
  243.0000     1.9760    69.5760    11.1370    10.2340     7.6720    22.2890  -999.2500 
  243.1250     1.9260    69.5760    11.1370    10.2340     7.8210    22.0980  -999.2500 
  243.2500     1.9100    69.5760    11.1370    10.2340     7.8410    22.0630  -999.2500 
  243.3750     1.9100    69.5760    11.1370    10.2340     7.8400    22.0620  -999.2500 
  243.5000     1.9110    69.5760    11.1370    10.2340     7.8400    22.0620  -999.2500 
  243.6250     1.9120    69.5760    11.1370    10.2340     7.8400    22.0620  -999.2500 
  243.7500     1.9110    69.5760    11.1370    10.2340     7.8410    22.0620  -999.2500 
  243.8750     1.9090    69.5760    11.1370    10.2340     7.8430    22.0620  -999.2500 
  244.0000     1.9080    69.5760    11.1370    10.2340     7.8420    22.0620  -999.2500 
  244.1250     1.9080    69.5760    11.1370    10.2340     7.8420    22.0620  -999.2500 
