~V
VERS. 2.00: Ver 2.00
~W
STRT.M 52.0000:
STOP.M 236.0000:
STEP.M 0.1250:
NULL. -999.2500:
UWI. F10181:
~C
DEPT.M :
GR.API :
RML.OHMM :
RI. :
RXO.OHMM :
CALI.CM :
DEN.GM/CC :
SP.MV :
~A
# ...
  142.0000    61.1190    15.4780    14.4150    15.4320    23.9710     2.4650    -4.2800 
  142.1250    60.1320    15.7290    14.5950    15.7230    23.9930     2.4530    -4.2850 
  142.2500    59.5500    16.0380    14.8660    16.5420    23.9730     2.4390    -4.3080 
  142.3750    59.5280    16.2780    15.1130    17.5200    23.9330     2.4280    -4.3350 
  142.5000    58.5740    16.3600    15.2460    18.5880    23.9060     2.4240    -4.3410 
  142.6250    57.1100    16.2310    15.1930    17.6210    23.9140     2.4310    -4.3450 
  142.7500    56.5220    15.9700    15.0060    16.4310    23.9470     2.4420    -4.3680 
  142.8750    58.0830    15.6580    14.7470    16.1080    23.9870     2.4550    -4.4000 
  143.0000    61.0270    15.3700    14.4840    16.0820    24.0130     2.4660    -4.4320 
  143.1250    62.7620    15.1770    14.2890    15.9350    24.0220     2.4710    -4.4430 
  143.2500    61.2820    15.0830    14.1760    15.9340    24.0240     2.4730    -4.4200 
  143.3750    58.2400    15.0740    14.1420    16.1210    24.0200     2.4730    -4.3870 
  143.5000    55.2760    15.1290    14.1710    15.7930    24.0080     2.4720    -4.3830 
  143.6250    52.6480    15.2230    14.2420    15.3900    23.9870     2.4710    -4.4070 
  143.7500    51.4920    15.3130    14.3210    15.2150    23.9480     2.4710    -4.4310 
  143.8750    53.8890    15.3710    14.3820    15.3950    23.8960     2.4680    -4.4560 
  144.0000    57.9040    15.3790    14.4110    15.7330    23.8420     2.4610    -4.4620 
  144.1250    58.0330    15.3330    14.4040    15.9910    23.8200     2.4480    -4.4550 
  144.2500    54.8770    15.2580    14.3840    16.2100    23.8150     2.4350    -4.4460 
  144.3750    52.2180    15.1810    14.3730    16.0380    23.8150     2.4250    -4.4230 
  144.5000    51.4550    15.1400    14.4050    15.4970    23.8220     2.4220    -4.3760 
  144.6250    53.8280    15.1900    14.5380    15.3860    23.8630     2.4280    -4.3180 
  144.7500    57.2100    15.3490    14.7900    15.3670    23.9350     2.4380    -4.2720 
  144.8750    58.4400    15.6080    15.1610    15.5050    23.9780     2.4490    -4.2440 
  145.0000    55.6830    15.9170    15.6130    15.8050    23.9390     2.4610    -4.2410 
  145.1250    52.8040    16.1780    16.0450    16.5810    23.8320     2.4750    -4.2620 
  145.2500    53.2900    16.3390    16.3360    17.1510    23.7550     2.4880    -4.3140 
  145.3750    54.1960    16.3290    16.3950    17.5180    23.7950     2.5010    -4.3930 
  145.5000    52.6330    16.1420    16.1730    17.0010    23.9020     2.5090    -4.5090 
  145.6250    50.8250    15.8860    15.6420    16.0100    24.0110     2.5100    -4.6720 
  145.7500    51.0040    15.2780    14.9160    14.9120    24.0940     2.5040    -4.8450 
  145.8750    51.8390    14.5350    14.0670    13.9330    24.1650     2.4920    -5.0310 
  146.0000    51.1550    13.7970    13.1770    13.1590    24.2220     2.4750    -5.2290 
  146.1250    51.1790    12.8150    12.3540    12.4890    24.2780     2.4550    -5.4230 
  146.2500    55.1310    12.2180    11.6990    11.5080    24.3250     2.4350    -5.6290 
  146.3750    61.9500    11.9340    11.3080    10.4710    24.3250     2.4170    -5.8480 
  146.5000    68.3690    12.0700    11.2800     9.9950    24.2830     2.4010    -6.0400 
  146.6250    72.6340    12.8350    11.7920    10.6550    24.2560     2.3880    -6.2080 
  146.7500    75.5000    14.2390    12.8590    12.4160    24.2370     2.3730    -6.4060 
  146.8750    77.2000    16.3300    14.5490    15.0840    24.2090     2.3560    -6.6180 
  147.0000    76.4850    19.0580    16.8880    18.4720    24.1720     2.3370    -6.8390 
  147.1250    72.8580    22.2460    19.8690    24.9390    24.1790     2.3170    -7.1230 
  147.2500    69.2720    25.4990    23.1780    30.4750    24.2230     2.2990    -7.4370 
  147.3750    67.3560    28.6370    26.6060    35.3930    24.2630     2.2880    -7.7610 
  147.5000    68.0770    31.7090    30.0650    48.6770    24.2710     2.2860    -8.1210 
  147.6250    70.9000    35.1430    33.7490    48.9890    24.2490     2.2930    -8.5460 
  147.7500    72.4450    39.4710    38.0700    41.7540    24.2240     2.3010    -9.0480 
  147.8750    70.5910    45.1390    43.4900    42.8980    24.2130     2.3050    -9.6230 
  148.0000    65.7690    52.3130    50.3030    58.0270    24.2120     2.3030   -10.2560 
  148.1250    62.4950    61.0620    58.7660    78.1100    24.2120     2.2980   -10.9090 
  148.2500    63.1180    71.0140    68.5780    85.1900    24.2120     2.2930   -11.5870 
  148.3750    63.9700    82.4520    79.9410    76.3380    24.2120     2.2900   -12.3010 
  148.5000    62.7850    96.2650    93.5520    72.6160    24.2120     2.2850   -13.0210 
  148.6250    61.6180   114.5220   111.2250    88.4710    24.2120     2.2770   -13.6750 
  148.7500    60.6370   137.3530   133.0600   117.1980    24.2120     2.2630   -14.2630 
  148.8750    58.1780   163.8960   158.1900   144.4260    24.2120     2.2470   -14.7860 
  149.0000    55.5710   191.8130   184.3270   169.8970    24.2120     2.2320   -15.2540 
  149.1250    54.6720   217.4360   208.0010   196.2730    24.2130     2.2190   -15.6570 
  149.2500    53.2280   238.9690   227.7610   216.7200    24.2140     2.2100   -16.0080 
  149.3750    52.1210   256.5160   243.8430   222.4510    24.2140     2.2030   -16.3450 
  149.5000    55.4740   270.9320   257.1630   221.7750    24.2130     2.1960   -16.6700 
  149.6250    59.8340   281.5060   267.4070   231.0080    24.2120     2.1860   -16.9810 
  149.7500    59.5730   287.2600   273.7900   247.8200    24.2130     2.1720   -17.2710 
  149.8750    58.1910   286.9520   275.0060   263.7770    24.2150     2.1570   -17.5380 
  150.0000    58.5970   281.1500   271.0960   262.5780    24.2080     2.1400   -17.8170 
  150.1250    59.5740   273.4960   264.6670   231.2010    24.1890     2.1260   -18.1160 
  150.2500    59.4890   269.4970   260.7980   202.2150    24.1690     2.1160   -18.4180 
  150.3750    59.3000   272.4500   262.9860   185.7050    24.1820     2.1120   -18.7200 
  150.5000    58.9610   283.5660   272.8740   195.0890    24.2420     2.1170   -19.0430 
  150.6250    58.2870   303.4700   291.3240   220.6470    24.3180     2.1290   -19.3940 
  150.7500    58.0810   329.5610   315.7580   248.6330    24.3530     2.1450   -19.7510 
  150.8750    57.7590   361.1760   345.3540   265.8740    24.3710     2.1630   -20.1310 
  151.0000    56.4440   398.7070   380.2480   267.4480    24.3970     2.1760   -20.5020 
  151.1250    54.0790   444.3510   422.2970   259.2380    24.4100     2.1780   -20.8710 
  151.2500    51.9280   495.6510   469.6880   274.1910    24.4130     2.1700   -21.2370 
  151.3750    51.1460   546.2280   517.5660   328.8200    24.3980     2.1580   -21.5660 
  151.5000    51.4370   584.5120   556.6270   367.4820    24.3580     2.1470   -21.8620 
  151.6250    53.1680   594.7210   570.4920   373.8560    24.3060     2.1430   -22.1410 
  151.7500    55.4720   570.6730   554.4520   349.6560    24.2840     2.1460   -22.3810 
  151.8750    55.1500   519.1040   510.7830   316.8870    24.2790     2.1520   -22.5750 
  152.0000    50.2960   459.5300   450.5010   287.3840    24.2790     2.1580   -22.7590 
  152.1250    46.9220   388.9890   388.6020   258.1510    24.2790     2.1650   -22.9470 
  152.2500    49.5240   331.9360   335.6050   227.5980    24.2790     2.1740   -23.1560 
  152.3750    53.3750   290.0310   295.0320   198.5810    24.2790     2.1840   -23.3780 
  152.5000    54.6510   261.8230   267.0190   188.5270    24.2790     2.1940   -23.6010 
  152.6250    55.4250   245.7340   250.9940   180.9590    24.2790     2.2030   -23.8250 
  152.7500    56.7530   236.8330   242.2180   177.3980    24.2790     2.2080   -24.0460 
  152.8750    56.6200   233.2090   238.4580   173.4940    24.2830     2.2090   -24.2440 
  153.0000    55.5460   233.5050   238.2980   170.6970    24.2960     2.2080   -24.4550 
  153.1250    55.6680   237.7240   241.7550   166.1890    24.3230     2.2070   -24.6610 
