~V
VERS. 2.00: Ver 2.00
~W
STRT.M 60.0000:
STOP.M 241.0000:
STEP.M 0.1250:
NULL. -999.2500:
UWI. F10158:
~C
DEPT.M :
SP.MV :
DEN.GM/CC :
GR.API :
RML.OHMM :
RI. :
RXO.OHMM :
CALI.CM :
~A
# ...
  183.7500    74.6200     2.1690    79.9980     7.4960     6.4320     6.2950    26.5900 
  183.8750    74.1260     2.1540    80.7740     7.5640     6.4730     6.2400    27.0450 
  184.0000    73.5420     2.1610    79.5260     7.6920     6.5470     6.2090    26.9560 
  184.1250    72.8760     2.1760    79.9860     7.8440     6.6340     6.3960    26.2690 
  184.2500    72.1640     2.1910    84.2960     7.9450     6.6850     6.7040    25.4400 
  184.3750    71.4270     2.2060    91.2130     7.9450     6.6620     6.7420    24.8720 
  184.5000    70.6800     2.2200    97.6440     7.8360     6.5550     6.4360    24.8030 
  184.6250    69.9480     2.2320   101.3350     7.6540     6.3870     6.1380    25.1040 
  184.7500    69.2240     2.2410   103.2150     7.4750     6.2210     6.0210    25.3090 
  184.8750    68.5030     2.2500   102.9970     7.3520     6.1020     5.8020    25.2800 
  185.0000    67.7790     2.2620   101.7020     7.3240     6.0580     5.3300    25.2310 
  185.1250    67.0540     2.2810    99.5750     7.4500     6.1190     5.0300    25.3200 
  185.2500    66.3640     2.3030    96.0650     7.7440     6.2860     5.2220    25.3560 
  185.3750    65.7530     2.3250    93.3210     8.2190     6.5750     5.8970    25.2210 
  185.5000    65.2670     2.3430    93.8350     8.8400     6.9760     6.7630    24.9730 
  185.6250    64.9800     2.3590    94.2860     9.4950     7.4300     7.5290    24.7590 
  185.7500    64.8980     2.3730    90.1590    10.0180     7.8180     8.4090    24.5870 
  185.8750    65.0240     2.3850    84.2180    10.2870     8.0380     9.5550    24.4580 
  186.0000    65.3270     2.3920    82.6280    10.2640     8.0390    10.3420    24.4060 
  186.1250    65.7760     2.3900    84.2240     9.9990     7.8400     9.7160    24.4010 
  186.2500    66.3130     2.3840    84.5340     9.6560     7.5700     8.5670    24.3960 
  186.3750    66.9180     2.3780    85.0890     9.3310     7.3080     7.8170    24.3670 
  186.5000    67.5810     2.3730    88.1760     9.1080     7.1170     7.5490    24.2750 
  186.6250    68.2960     2.3570    92.1190     9.0920     7.0670     7.5340    24.1120 
  186.7500    69.0450     2.3150    93.7770     9.2830     7.1520     7.6560    23.9300 
  186.8750    69.8210     2.2430    93.8470     9.6350     7.3430     7.5920    23.4830 
  187.0000    70.6050     2.1550    93.8720    10.0460     7.5840     7.1150    22.2190 
  187.1250    71.3650     2.0840    92.8590    10.3400     7.7770     6.7710    19.9680 
  187.2500    72.0680     2.0450    91.4380    10.4110     7.8470     7.0200    17.9800 
  187.3750    72.6840     2.0400    90.4300    10.2700     7.7850     7.3150    17.3550 
  187.5000    73.2000     2.0550    89.0660    10.0220     7.6450     7.1400    18.3610 
  187.6250    73.6210     2.0740    87.2340     9.8000     7.5080     6.7460    20.3670 
  187.7500    74.0090     2.0930    84.8310     9.6460     7.4180     6.4190    22.1640 
  187.8750    74.4070     2.1230    80.2760     9.5010     7.3560     6.1280    23.1840 
  188.0000    74.8600     2.1770    74.0490     9.2690     7.2600     6.0110    23.4680 
  188.1250    75.4200     2.2470    67.8640     8.8550     7.0390     6.2730    23.5040 
  188.2500    76.0700     2.3080    63.4950     8.3280     6.7050     6.5440    23.6310 
  188.3750    76.7860     2.3470    59.8020     7.7960     6.3180     6.4810    23.7920 
  188.5000    77.5270     2.3670    57.8040     7.3510     5.9540     6.1670    23.8950 
  188.6250    78.2230     2.3780    60.2100     7.0470     5.6830     5.8410    23.9260 
  188.7500    78.8180     2.3860    65.1860     6.8430     5.5030     5.5390    23.9720 
  188.8750    79.2840     2.3940    69.5810     6.7080     5.3990     5.2290    24.0520 
  189.0000    79.6080     2.4000    73.1110     6.6190     5.3480     5.0520    24.1040 
  189.1250    79.7990     2.4060    77.1170     6.5580     5.3290     5.1560    24.0620 
  189.2500    79.9100     2.4120    79.7520     6.5080     5.3160     5.3170    23.9910 
  189.3750    79.9650     2.4160    80.5740     6.4700     5.3050     5.3340    23.9720 
  189.5000    79.9730     2.4170    81.7830     6.4490     5.3010     5.2920    24.0120 
  189.6250    79.9270     2.4090    84.8400     6.4660     5.3130     5.3360    24.0480 
  189.7500    79.8510     2.3900    86.0970     6.5120     5.3370     5.3840    24.0530 
  189.8750    79.7540     2.3660    85.2170     6.5560     5.3540     5.5270    24.0520 
  190.0000    79.6450     2.3430    84.7980     6.5610     5.3420     5.7620    24.0970 
  190.1250    79.5260     2.3320    84.6520     6.5150     5.2960     5.9190    24.2150 
  190.2500    79.4060     2.3370    85.1470     6.4740     5.2500     5.9000    24.3150 
  190.3750    79.3030     2.3520    87.3560     6.5000     5.2400     5.7210    24.3230 
  190.5000    79.2280     2.3710    91.3140     6.6230     5.2950     5.5230    24.2600 
  190.6250    79.1690     2.3880    96.1980     6.8250     5.4250     5.5630    24.2110 
  190.7500    79.1120     2.4000    99.8880     7.0220     5.5920     5.9620    24.2000 
  190.8750    79.0470     2.4060    98.9040     7.1570     5.7540     6.5130    24.1900 
  191.0000    78.9710     2.4060    91.7850     7.2200     5.8810     6.8020    24.1540 
  191.1250    78.8870     2.4110    84.6110     7.2350     5.9660     6.6810    24.1450 
  191.2500    78.7970     2.4250    83.3990     7.2590     6.0370     6.4700    24.2050 
  191.3750    78.7040     2.4450    86.5490     7.3190     6.1180     6.3990    24.2990 
  191.5000    78.6060     2.4570    89.9510     7.4070     6.2090     6.5690    24.3600 
  191.6250    78.5040     2.4440    91.9590     7.4750     6.2790     6.9290    24.3630 
  191.7500    78.4050     2.4160    93.0000     7.4800     6.3010     7.1740    24.3630 
  191.8750    78.3050     2.3870    92.6360     7.4070     6.2730     7.0270    24.3550 
  192.0000    78.2000     2.3700    91.8630     7.2900     6.2220     6.4630    24.2640 
  192.1250    78.0770     2.3710    92.7650     7.1970     6.1950     5.9670    23.9940 
  192.2500    77.9470     2.3780    93.6660     7.1660     6.2140     5.8750    23.6580 
  192.3750    77.8120     2.3780    93.7870     7.1880     6.2770     6.0400    23.4140 
  192.5000    77.6670     2.3670    93.5510     7.2370     6.3640     6.2350    23.3450 
  192.6250    77.5060     2.3470    93.7910     7.3080     6.4530     6.3920    23.4260 
  192.7500    77.3320     2.3310    93.3410     7.3990     6.5230     6.5620    23.5430 
  192.8750    77.1580     2.3270    92.6930     7.4870     6.5560     6.6600    23.6160 
  193.0000    77.0180     2.3330    93.9770     7.5140     6.5270     6.7520    23.5840 
  193.1250    76.9330     2.3410    95.8950     7.3670     6.3900     7.0610    23.5070 
  193.2500    76.8940     2.3440    95.0850     7.0710     6.1670     7.3230    23.5510 
  193.3750    76.8950     2.3420    90.9760     6.7970     5.9500     7.2540    23.7310 
  193.5000    76.9250     2.3400    85.9190     6.8620     5.9240     6.9750    23.9240 
  193.6250    76.9580     2.3490    82.9560     7.8400     6.4530     7.0000    24.0010 
  193.7500    76.9640     2.3760    80.8360    10.0540     7.8020     7.7000    24.0110 
  193.8750    76.9160     2.4210    77.0090    13.8450    10.3210    10.0890    24.0150 
  194.0000    76.8000     2.4670    70.2280    19.2670    14.2700    17.3830    24.0240 
  194.1250    76.6150     2.4790    62.1710    25.3880    19.3790    40.9810    24.0410 
  194.2500    76.4070     2.4490    57.4190    29.6020    23.6530    84.2110    23.9910 
  194.3750    76.1940     2.3870    58.6540    30.0510    25.2130    86.5710    23.7780 
  194.5000    76.0010     2.3170    64.0870    27.4200    24.0010    47.6090    23.4220 
  194.6250    75.8690     2.2640    67.0420    24.4590    21.8180    30.6910    23.1680 
  194.7500    75.7900     2.2350    67.4710    23.2800    20.5680    24.6460    23.2380 
  194.8750    75.7570     2.2250    68.9190    24.6610    21.0810    23.4150    23.5620 
