~V
VERS. 2.00: Ver 2.00
~W
STRT.M 55.0000:
STOP.M 251.0000:
STEP.M 0.1250:
NULL. -999.2500:
UWI. F10189:
~C
DEPT.M :
DEN.GM/CC :
SP.MV :
GR.API :
RML.OHMM :
RI. :
RXO.OHMM :
CALI.CM :
~A
# ...
   77.5000     2.4940   -21.4970    80.1210    12.5440     8.8730    25.4450    24.1130 
   77.6250     2.4540   -22.5340    70.1050    15.0670    11.1530    28.7950    24.1520 
   77.7500     2.3550   -23.6540    63.9460    16.3900    12.8100    28.9560    24.3570 
   77.8750     2.2340   -24.8060    58.7640    15.8930    13.1090    25.5380    24.7250 
   78.0000     2.1400   -25.9280    55.0460    13.9860    12.0740    19.9050    25.1040 
   78.1250     2.0930   -26.9730    55.5310    11.8350    10.4580    14.7430    25.2860 
   78.2500     2.0820   -27.9270    58.5000    10.2700     9.0680    10.5440    25.1950 
   78.3750     2.0970   -28.7750    61.3690     9.4140     8.1320     7.9730    24.9960 
   78.5000     2.1250   -29.4800    62.3420     9.1450     7.6580     7.1750    24.8790 
   78.6250     2.1450   -29.9930    60.7410     9.3000     7.6040     7.3330    24.8770 
   78.7500     2.1630   -30.3340    59.2260     9.6120     7.7750     7.7800    24.8950 
   78.8750     2.1970   -30.5390    58.4210     9.9260     8.0330     8.0790    24.8560 
   79.0000     2.2400   -30.6460    57.9950    10.1220     8.2490     7.7050    24.7240 
   79.1250     2.2490   -30.6790    57.7810    10.0990     8.2930     6.9970    24.5300 
   79.2500     2.2210   -30.6790    58.3020     9.8990     8.1720     6.4950    24.4420 
   79.3750     2.1920   -30.6380    59.5690     9.5970     7.9440     6.5900    24.4200 
   79.5000     2.1780   -30.5790    61.4520     9.2920     7.6890     7.1550    24.4200 
   79.6250     2.1750   -30.5250    65.1570     9.0870     7.4940     7.7200    24.4230 
   79.7500     2.1730   -30.4690    67.3760     9.0090     7.3910     7.9780    24.4460 
   79.8750     2.1670   -30.4080    66.8690     9.0470     7.3790     7.7910    24.5050 
   80.0000     2.1570   -30.3530    66.0060     9.1630     7.4300     7.5610    24.5700 
   80.1250     2.1490   -30.3120    64.4930     9.3110     7.5070     7.8090    24.5960 
   80.2500     2.1510   -30.3070    60.5500     9.4430     7.5800     8.2970    24.5990 
   80.3750     2.1580   -30.3570    56.0400     9.5280     7.6330     8.5590    24.5970 
   80.5000     2.1620   -30.4500    54.8710     9.5470     7.6590     8.2680    24.6240 
   80.6250     2.1610   -30.5270    55.5430     9.4840     7.6410     7.7880    24.7420 
   80.7500     2.1590   -30.5630    55.8850     9.3710     7.5770     7.5330    24.8830 
   80.8750     2.1580   -30.5770    58.3980     9.2310     7.4650     7.6150    24.9850 
   81.0000     2.1610   -30.5850    61.8960     9.0850     7.3240     7.8910    25.0300 
   81.1250     2.1670   -30.6200    62.2140     8.9620     7.1960     8.1760    25.0430 
   81.2500     2.1770   -30.6850    60.3320     8.8970     7.1220     8.0290    25.0480 
   81.3750     2.1890   -30.7780    59.8470     8.9300     7.1280     7.6290    25.0750 
   81.5000     2.1970   -30.8840    61.7890     9.0830     7.2220     7.4940    25.1400 
   81.6250     2.1830   -31.0360    61.5150     9.3530     7.3980     7.8360    25.1920 
   81.7500     2.1610   -31.2290    59.6810     9.6420     7.5920     8.4180    25.2130 
   81.8750     2.1520   -31.4300    59.3700     9.8540     7.7500     8.9140    25.2180 
   82.0000     2.1610   -31.6100    61.6150     9.9200     7.8270     8.9420    25.2360 
   82.1250     2.1680   -31.7260    61.2380     9.8160     7.7970     8.8250    25.2870 
   82.2500     2.1620   -31.7570    57.7590     9.6370     7.7010     8.8650    25.3890 
   82.3750     2.1500   -31.7090    55.5570     9.4480     7.5760     9.1470    25.5680 
   82.5000     2.1350   -31.6040    57.1120     9.2860     7.4480     9.2530    25.8170 
   82.6250     2.1170   -31.3990    59.8260     9.1580     7.3310     8.9300    26.0850 
   82.7500     2.1080   -31.1190    60.4770     9.0440     7.2260     8.6330    26.3020 
   82.8750     2.1130   -30.7740    59.8430     8.9400     7.1340     8.5660    26.3730 
   83.0000     2.1320   -30.3590    59.3350     8.8520     7.0570     8.7790    26.2310 
   83.1250     2.1510   -29.8600    57.1430     8.7880     7.0000     9.1980    26.0540 
   83.2500     2.1580   -29.2970    55.1780     8.7330     6.9610     9.6010    26.0300 
   83.3750     2.1450   -28.6470    55.1430     8.6830     6.9450     9.5340    26.0670 
   83.5000     2.1120   -27.8870    57.6610     8.6660     6.9640     9.0400    26.1440 
   83.6250     2.0770   -27.0800    58.6870     8.7510     7.0500     8.4200    26.3670 
   83.7500     2.0630   -26.2790    58.3550     8.9460     7.2090     8.2760    26.7480 
   83.8750     2.0930   -25.4870    59.7840     9.2210     7.4350     8.1910    27.0660 
   84.0000     2.1700   -24.7310    61.8380     9.4950     7.6910     7.7380    26.8330 
   84.1250     2.2620   -24.0280    61.9430     9.6070     7.8690     7.0910    25.9060 
   84.2500     2.2930   -23.3550    60.7810     9.4430     7.8530     6.6940    25.1970 
   84.3750     2.2520   -22.6960    61.2470     8.9840     7.5830     6.5540    25.1190 
   84.5000     2.2050   -22.0340    65.0320     8.3420     7.1040     6.7490    25.3840 
   84.6250     2.2010   -21.3330    70.7410     7.7360     6.5760     7.0240    25.5400 
   84.7500     2.2250   -20.6180    74.9600     7.3440     6.1690     7.2030    25.5440 
   84.8750     2.2640   -19.9520    77.3780     7.2310     5.9610     6.9740    25.4450 
   85.0000     2.3020   -19.3660    78.6090     7.3610     5.9600     6.5860    25.3480 
   85.1250     2.2920   -18.8660    77.9280     7.6240     6.1250     6.4800    25.3050 
   85.2500     2.2340   -18.4330    75.8130     7.8380     6.3200     6.7160    25.3090 
   85.3750     2.1730   -18.0770    76.3750     7.9010     6.4520     6.9990    25.2670 
   85.5000     2.1490   -17.8220    81.1120     7.7990     6.4660     6.8890    25.1390 
   85.6250     2.1690   -17.7110    83.8200     7.6200     6.3800     6.3280    24.9710 
   85.7500     2.1980   -17.6910    81.6910     7.4960     6.2960     5.9560    24.7670 
   85.8750     2.2180   -17.6990    78.2790     7.4460     6.2680     6.1380    24.5300 
   86.0000     2.2350   -17.6760    76.8630     7.4020     6.2760     6.8600    24.3560 
   86.1250     2.2510   -17.6130    75.6980     7.2480     6.2360     7.7130    24.2980 
   86.2500     2.2740   -17.5450    75.1320     7.0090     6.1300     8.5440    24.2900 
   86.3750     2.3070   -17.5030    79.3780     6.8300     6.0310     9.0700    24.2900 
   86.5000     2.3450   -17.5540    87.4210     6.8980     6.0640     9.8450    24.2900 
   86.6250     2.3840   -17.7490    90.1090     7.3830     6.3800    11.4550    24.2900 
   86.7500     2.4220   -18.0720    84.7070     8.1770     6.9510    13.7370    24.2900 
   86.8750     2.4490   -18.5520    77.4090     9.0810     7.6680    15.8600    24.2900 
   87.0000     2.4350   -19.2020    74.8470     9.7610     8.3040    16.5900    24.2900 
   87.1250     2.3650   -20.0530    76.0790     9.7840     8.5090    15.2340    24.2930 
   87.2500     2.2870   -21.0630    75.5760     9.2560     8.2660    12.0920    24.3360 
   87.3750     2.2290   -22.1970    73.0530     8.4990     7.7610     9.3950    24.5070 
   87.5000     2.1850   -23.3950    69.3160     7.8470     7.2490     8.5360    24.8940 
   87.6250     2.1420   -24.5390    65.1130     7.5290     6.9390     8.8530    25.4520 
   87.7500     2.1090   -25.5830    63.1490     7.4700     6.8290     9.1200    26.0510 
   87.8750     2.0960   -26.4940    64.0930     7.5550     6.8550     8.9020    26.5520 
   88.0000     2.1080   -27.2520    66.0710     7.6560     6.9320     8.5660    26.7040 
   88.1250     2.1360   -27.8060    65.3320     7.6630     6.9850     8.5890    26.4950 
   88.2500     2.1580   -28.1650    62.6750     7.5630     6.9940     8.9580    26.3120 
   88.3750     2.1660   -28.3680    58.9840     7.3960     6.9640     9.0650    26.3620 
   88.5000     2.1620   -28.4550    55.6450     7.2310     6.9090     8.5370    26.6220 
   88.6250     2.1550   -28.4740    55.6040     7.1280     6.8410     7.8810    26.9580 
