~V
VERS. 2.00: Ver 2.00
~W
STRT.M 50.0000:
STOP.M 224.0000:
STEP.M 0.1250:
NULL. -999.2500:
UWI. F10153:
~C
DEPT.M :
GR.API :
RML.OHMM :
RI. :
RXO.OHMM :
CALI.CM :
SP.MV :
DEN.GM/CC :
~A
# ...
  207.5000    85.5780    14.0750    11.1170    12.4110    23.2420    -2.3680     2.4770 
  207.6250    84.2780    13.8980    11.0650    12.7230    23.1500    -2.2790     2.4710 
  207.7500    81.0740    13.5380    10.8700    11.9870    23.0630    -2.1780     2.4560 
  207.8750    78.2390    13.0870    10.5740    11.4000    22.9860    -2.0740     2.4350 
  208.0000    78.7290    12.7050    10.2940    11.1000    22.9700    -1.9800     2.4160 
  208.1250    81.9100    12.4920    10.1190    10.6630    23.0310    -1.9150     2.4110 
  208.2500    84.4350    12.4380    10.0570    10.9640    23.1390    -1.8780     2.4230 
  208.3750    84.1100    12.5230    10.1170    12.8480    23.2860    -1.8780     2.4510 
  208.5000    82.6830    12.6530    10.2340    14.2950    23.4570    -1.9010     2.4800 
  208.6250    80.4930    12.7540    10.3480    13.6520    23.5940    -1.9290     2.4960 
  208.7500    77.1340    12.8120    10.4350    12.5030    23.6520    -1.9510     2.4980 
  208.8750    75.3760    12.8270    10.4810    12.6160    23.5950    -1.9560     2.4900 
  209.0000    78.2320    12.8300    10.4940    13.3940    23.5100    -1.9440     2.4850 
  209.1250    82.9230    12.8240    10.4840    13.4720    23.4870    -1.9010     2.4870 
  209.2500    85.5380    12.8020    10.4530    13.0350    23.5380    -1.8250     2.4970 
  209.3750    84.6970    12.7350    10.3920    11.9480    23.6140    -1.7140     2.5040 
  209.5000    83.6740    12.6260    10.3060    10.4100    23.6480    -1.6000     2.5040 
  209.6250    84.2760    12.4810    10.1960     9.5260    23.6340    -1.5070     2.4940 
  209.7500    85.0650    12.3090    10.0670     9.4530    23.5990    -1.4190     2.4780 
  209.8750    83.8630    12.1350     9.9380     9.9040    23.5830    -1.3160     2.4640 
  210.0000    80.6510    12.0260     9.8540    10.1070    23.6030    -1.2000     2.4540 
  210.1250    77.1330    12.0690     9.8800    10.0910    23.6180    -1.0970     2.4510 
  210.2500    75.1350    12.2940    10.0410    10.7220    23.5750    -1.0080     2.4510 
  210.3750    76.7180    12.7660    10.4040    13.6010    23.4130    -0.9350     2.4480 
  210.5000    80.1150    13.4090    10.9300    19.2710    23.1520    -0.8460     2.4430 
  210.6250    81.3310    14.0930    11.5340    29.0500    22.8720    -0.7140     2.4390 
  210.7500    79.3850    14.7170    12.1270    34.1580    22.6830    -0.5820     2.4440 
  210.8750    77.6370    15.1680    12.6060    26.8860    22.7530    -0.4740     2.4590 
  211.0000    79.5680    15.4480    12.9360    21.3070    22.9400    -0.3710     2.4760 
  211.1250    83.1050    15.5920    13.1250    18.7450    22.9520    -0.2800     2.4850 
  211.2500    85.0100    15.6430    13.2030    16.6700    22.7600    -0.1890     2.4870 
  211.3750    84.8780    15.5710    13.1460    15.3610    22.5970    -0.0640     2.4880 
  211.5000    84.4650    15.3720    12.9690    14.3780    22.7020     0.0600     2.4970 
  211.6250    82.7770    15.0770    12.7170    12.2470    23.0190     0.1680     2.5120 
  211.7500    79.7590    14.7570    12.4480     9.4990    23.3440     0.2920     2.5290 
  211.8750    77.7610    14.5100    12.2400     8.3160    23.4580     0.4330     2.5330 
  212.0000    78.4160    14.3890    12.1310     8.5390    23.3860     0.5700     2.5240 
  212.1250    79.8250    14.3950    12.1300     9.1090    23.2510     0.7110     2.5050 
  212.2500    80.1060    14.4870    12.2220     9.4200    23.1230     0.8490     2.4840 
  212.3750    79.9570    14.6410    12.4080     9.3030    23.0510     0.9420     2.4740 
  212.5000    80.5690    14.8190    12.6510     9.8060    23.0650     1.0190     2.4750 
  212.6250    80.4900    15.0020    12.9150    11.8140    23.1350     1.0640     2.4850 
  212.7500    78.7000    15.1770    13.1700    14.3820    23.1940     1.0530     2.4970 
  212.8750    76.6660    15.2820    13.3500    15.7390    23.1780     0.9970     2.5040 
  213.0000    77.2240    15.2600    13.4010    15.7530    23.1240     0.9150     2.5050 
  213.1250    79.5750    15.0700    13.2820    14.7440    23.0990     0.8000     2.5060 
  213.2500    81.2410    14.7400    13.0170    13.3980    23.1240     0.6580     2.5130 
  213.3750    81.5390    14.2990    12.6270    12.3670    23.2270     0.5150     2.5290 
  213.5000    81.5390    13.8540    12.2120    11.4950    23.3850     0.3540     2.5450 
  213.6250    81.5390    13.5030    11.8640    10.4160    23.5230     0.2090     2.5510 
  213.7500    81.5390    13.2820    11.6190     9.3810    23.5690     0.1290     2.5430 
  213.8750    81.5390    13.2640    11.5440     9.3900    23.4480     0.0880     2.5270 
  214.0000    81.5390    13.4360    11.6420     9.9750    23.2340     0.0470     2.5130 
  214.1250    81.5390    13.7920    11.9110    10.1890    23.0520     0.0340     2.5120 
  214.2500    81.5390    14.2950    12.3250    10.0570    22.9730     0.0380     2.5230 
  214.3750    81.5390    14.9220    12.8840     9.9060    23.0670     0.0500     2.5380 
  214.5000    81.5390    15.5620    13.4960    10.7840    23.2240     0.0900     2.5460 
  214.6250    81.5390    16.0850    14.0310    14.3000    23.2670     0.1210     2.5450 
  214.7500    81.5390    16.4320    14.4110    19.9170    23.1690     0.1160     2.5370 
  214.8750    81.5390    16.4840    14.5020    19.7760    23.0490     0.1050     2.5360 
  215.0000    81.5390    16.2850    14.3360    14.8130    23.0540     0.1390     2.5430 
  215.1250    81.5390    15.9370    14.0170    11.8980    23.1700     0.1950     2.5560 
  215.2500    81.5390    15.5470    13.6560    11.5350    23.3110     0.2620     2.5640 
  215.3750    81.5390    15.2340    13.3640    12.7720    23.3510     0.3330     2.5520 
  215.5000    81.5390    15.0530    13.1920    15.7270    23.2210     0.3910     2.5170 
  215.6250    81.5390    14.9930    13.1300    20.6310    22.9510     0.4750     2.4720 
  215.7500    81.5390    15.0000    13.1350    26.0710    22.6500     0.5960     2.4310 
  215.8750    81.5390    15.0270    13.1720    26.0080    22.4870     0.7120     2.4130 
  216.0000    81.5390    15.0320    13.2060    19.8220    22.5330     0.7980     2.4210 
  216.1250    81.5390    14.9940    13.2170    12.8860    22.7460     0.8790     2.4450 
  216.2500    81.5390    14.9280    13.2070     8.4450    23.0080     0.9460     2.4740 
  216.3750    81.5390    14.8720    13.1990     7.3800    23.1770     1.0040     2.5000 
  216.5000    81.5390    14.8670    13.2260     7.6280    23.2270     1.0730     2.5180 
  216.6250    81.5390    14.9170    13.3010     7.8450    23.2180     1.1300     2.5290 
  216.7500    81.5390    15.0000    13.4090     7.9570    23.1950     1.1540     2.5360 
  216.8750    81.5390    15.0750    13.5150     8.3420    23.1770     1.1580     2.5380 
  217.0000    81.5390    15.1210    13.5910     8.7260    23.2070     1.1690     2.5400 
  217.1250    81.5390    15.1740    13.6470     8.7380    23.3160     1.1890     2.5440 
  217.2500    81.5390    15.2710    13.7150     8.7170    23.4650     1.2340     2.5520 
  217.3750    81.5390    15.4710    13.8480     9.3570    23.5480     1.3000     2.5600 
  217.5000    81.5390    15.7620    14.0580    10.1660    23.5370     1.3890     2.5660 
  217.6250    81.5390    16.0910    14.3180    11.0860    23.4980     1.4920     2.5680 
  217.7500    81.5390    16.4000    14.5810    12.7900    23.4750     1.6000     2.5650 
  217.8750    81.5390    16.6190    14.7790    15.3790    23.4670     1.7040     2.5570 
  218.0000    81.5390    16.7450    14.8880    16.8210    23.4550     1.7750     2.5460 
  218.1250    81.5390    16.8190    14.9300    16.7290    23.4490     1.8300     2.5360 
  218.2500    81.5390    16.8750    14.9440    16.1990    23.4640     1.8850     2.5300 
  218.3750    81.5390    16.9310    14.9670    15.5150    23.5050     1.9260     2.5310 
  218.5000    81.5390    16.9760    15.0110    15.1140    23.5390     1.9390     2.5360 
  218.6250    81.5390    16.9980    15.0650    15.3640    23.5260     1.9370     2.5380 
