~V
VERS. 2.00: Ver 2.00
~W
STRT.M 55.0000:
STOP.M 288.0000:
STEP.M 0.1250:
NULL. -999.2500:
UWI. F10106:
~C
DEPT.M :
DEN.GM/CC :
SP.MV :
GR.API :
RML.OHMM :
RI. :
RXO.OHMM :
CALI.CM :
~A
   55.0000  -999.2500     0.0000  -999.2500  -999.2500  -999.2500  -999.2500  -999.2500 
   55.1250  -999.2500    -0.4750  -999.2500  -999.2500  -999.2500  -999.2500  -999.2500 
   55.2500  -999.2500    -2.2730  -999.2500  -999.2500  -999.2500  -999.2500  -999.2500 
   55.3750  -999.2500    -3.3580  -999.2500  -999.2500  -999.2500  -999.2500  -999.2500 
   55.5000  -999.2500    -4.6240  -999.2500  -999.2500  -999.2500  -999.2500  -999.2500 
   55.6250  -999.2500    -5.8880  -999.2500  -999.2500  -999.2500  -999.2500  -999.2500 
   55.7500  -999.2500    -6.9950  -999.2500  -999.2500  -999.2500  -999.2500  -999.2500 
   55.8750  -999.2500    -7.8600  -999.2500  -999.2500  -999.2500  -999.2500  -999.2500 
   56.0000  -999.2500    -8.4510  -999.2500  -999.2500  -999.2500  -999.2500  -999.2500 
   56.1250  -999.2500    -8.7020  -999.2500  -999.2500  -999.2500  -999.2500  -999.2500 
   56.2500  -999.2500    -8.7640  -999.2500  -999.2500  -999.2500  -999.2500  -999.2500 
   56.3750  -999.2500    -8.7370     0.0000     0.0000     0.0000     0.0000     0.0000 
   56.5000  -999.2500    -8.7450     0.0000     0.0000     0.0000     0.0000     0.0000 
   56.6250  -999.2500    -8.8900     0.0000     0.0000     0.0000     0.0000     0.0000 
   56.7500  -999.2500    -9.2590     0.0000     0.0000     0.0000     0.0000     0.0000 
   56.8750  -999.2500    -9.8370    22.9830     1.3390     0.3830     0.9250    18.9600 
   57.0000  -999.2500   -10.5500    31.7120     1.8470     0.5150     1.2150    25.2800 
   57.1250     0.0000   -11.2930    33.0590     1.9110     0.5220     1.1850    25.2800 
   57.2500     0.0000   -11.9130    33.1020     1.9360     0.5290     1.1420    25.2800 
   57.3750     1.5370   -12.3200    32.6590     1.9100     0.5330     1.1030    25.2800 
   57.5000     2.0550   -12.4440    33.0710     1.8440     0.5330     1.0720    25.2800 
   57.6250     2.0570   -12.2340    34.0120     1.7780     0.5270     1.0530    25.2800 
   57.7500     2.0540   -11.6770    34.5060     1.7490     0.5160     1.0550    25.2800 
   57.8750     2.0450   -10.7690    34.4190     1.7620     0.5040     1.0650    25.2800 
   58.0000     2.0350    -9.5330    34.4970     1.8000     0.4950     1.0720    25.2800 
   58.1250     2.0280    -8.0730    35.5850     1.8300     0.4930     1.0730    25.2800 
   58.2500     2.0260    -6.6160    36.1020     1.8270     0.4930     1.0610    25.2800 
   58.3750     2.0280    -5.2950    34.6860     1.7880     0.4960     1.0450    25.2800 
   58.5000     2.0300    -4.2250    32.2310     1.7230     0.5010     1.0220    25.2800 
   58.6250     2.0300    -3.4740    31.8300     1.6440     0.5090     1.0000    25.2800 
   58.7500     2.0260    -3.0690    32.8560     1.5610     0.5190     0.9960    25.2800 
   58.8750     2.0210    -3.0710    33.3690     1.4870     0.5260     1.0000    25.2800 
   59.0000     2.0170    -3.5420    33.1550     1.4350     0.5240     1.0050    25.2800 
   59.1250     2.0170    -4.4360    32.4780     1.4240     0.5110     1.0140    25.2800 
   59.2500     2.0200    -5.5060    33.2170     1.4430     0.4940     1.0360    25.2800 
   59.3750     2.0240    -6.5780    35.6110     1.4770     0.4810     1.0750    25.2800 
   59.5000     2.0250    -7.5140    37.3270     1.5080     0.4750     1.1130    25.2800 
   59.6250     2.0190    -8.1880    35.8030     1.5150     0.4740     1.1500    25.2800 
   59.7500     2.0080    -8.5620    33.5620     1.5030     0.4720     1.1650    25.2800 
   59.8750     1.9960    -8.5820    32.9490     1.4910     0.4680     1.1610    25.2800 
   60.0000     1.9880    -8.1940    33.9800     1.4920     0.4600     1.1390    25.2800 
   60.1250     1.9900    -7.5320    35.4520     1.4950     0.4460     1.1000    25.2800 
   60.2500     1.9980    -6.8670    35.4260     1.4590     0.4210     1.0690    25.2800 
   60.3750     2.0050    -6.3320    33.1400     1.3360     0.3790     1.0490    25.2800 
   60.5000     2.0040    -5.9320    31.0550     1.1060     0.3230     1.0690    25.2800 
   60.6250     2.0000    -5.5540    31.5430     0.8090     0.2660     1.1150    25.2800 
   60.7500     2.0180    -5.0890    32.3710     0.5580     0.2290     1.1820    25.2740 
   60.8750     2.0830    -4.4970    32.6380     0.4210     0.2260     1.3330    25.2480 
   61.0000     2.2020    -3.7700    34.5700     0.4090     0.2650     1.7360    25.1650 
   61.1250     2.3480    -2.8640    39.6640     0.5290     0.3630     2.7460    24.9680 
   61.2500     2.4490    -1.8380    44.4280     0.7730     0.5400     4.2720    24.6350 
   61.3750     2.4660    -0.8330    46.3930     1.1790     0.8520     6.1310    24.1860 
   61.5000     2.4130     0.0340    46.4610     1.7990     1.3750     7.8120    23.7120 
   61.6250     2.3290     0.5110    46.7090     2.6880     2.2280     8.6260    23.3130 
   61.7500     2.2540     0.5660    47.4130     3.7360     3.3530     8.6050    23.0380 
   61.8750     2.2050     0.1870    48.2850     4.7850     4.6250     8.3380    22.8700 
   62.0000     2.1820    -0.6040    49.7040     5.6250     5.8190     8.0510    22.8040 
   62.1250     2.1800    -1.7760    51.1340     6.0700     6.6540     7.8750    22.8440 
   62.2500     2.1830    -3.0660    50.8360     6.2590     7.1510     7.8080    22.9550 
   62.3750     2.1870    -4.2460    49.9520     6.3430     7.4210     7.7800    23.0950 
   62.5000     2.1880    -5.2540    50.7600     6.4220     7.5860     7.7840    23.2140 
   62.6250     2.1880    -6.0780    52.2140     6.5300     7.7200     7.8090    23.2830 
   62.7500     2.1890    -6.7420    52.1900     6.6510     7.8480     7.8490    23.3040 
   62.8750     2.1890    -7.2490    51.2250     6.7650     7.9640     7.8500    23.3080 
   63.0000     2.1890    -7.6300    51.0970     6.8660     8.0680     7.8390    23.3080 
   63.1250     2.1900    -7.8360    51.3460     6.9760     8.1700     7.8510    23.3140 
   63.2500     2.1970    -7.8680    51.2600     7.1120     8.2890     8.0150    23.3410 
   63.3750     2.2120    -7.7980    51.8100     7.2750     8.4240     8.5700    23.4120 
   63.5000     2.2390    -7.6830    52.6860     7.4410     8.5560     9.5760    23.5470 
   63.6250     2.2730    -7.5030    55.3790     7.5740     8.6460    10.9590    23.7440 
   63.7500     2.2980    -7.3340    60.3030     7.6580     8.6830    12.0990    23.9300 
   63.8750     2.3060    -7.2470    64.2150     7.6900     8.6630    12.1810    24.0230 
   64.0000     2.2970    -7.2160    64.5540     7.6690     8.5890    10.8030    23.9880 
   64.1250     2.2880    -7.2470    61.6390     7.5990     8.4620     9.3970    23.8820 
   64.2500     2.2910    -7.3940    59.7050     7.5020     8.3050     9.5140    23.8110 
   64.3750     2.3010    -7.6410    60.1880     7.3940     8.1380     9.9220    23.8070 
   64.5000     2.3030    -7.9610    62.5090     7.3010     7.9920     9.8650    23.8000 
   64.6250     2.2760    -8.3850    63.5240     7.2890     7.9320     8.3870    23.7580 
   64.7500     2.2310    -8.8850    60.2810     7.4020     8.0020     7.6820    23.7050 
   64.8750     2.1900    -9.3900    54.4770     7.6710     8.2360     7.6310    23.6610 
   65.0000     2.1820    -9.8490    50.6200     8.0930     8.6350     7.7570    23.6090 
   65.1250     2.2290   -10.2630    51.9010     8.6210     9.1640     7.9000    23.5160 
   65.2500     2.3130   -10.6140    56.2210     9.1240     9.6930     8.2540    23.4130 
   65.3750     2.4040   -10.8840    59.3040     9.4910    10.1020     9.0480    23.3500 
   65.5000     2.4600   -11.1000    57.9230     9.6440    10.3000    10.0500    23.3540 
   65.6250     2.4430   -11.2480    53.6690     9.5270    10.2170    11.2750    23.4150 
   65.7500     2.3780   -11.3260    51.3620     9.2340     9.9420    11.5250    23.5040 
   65.8750     2.3030   -11.3570    51.8760     8.8560     9.5650     9.8360    23.6520 
   66.0000     2.2390   -11.3310    53.2430     8.4840     9.1800     8.3290    23.9010 
   66.1250     2.1970   -11.2260    54.7500     8.1810     8.8590     7.7660    24.2300 
