~V
VERS. 2.00: Ver 2.00
~W
STRT.M 63.0000:
STOP.M 800.0000:
STEP.M 0.1250:
NULL. -999.2500:
UWI. F10168:
~C
DEPT.M :
SP.MV :
GR.API :
RML.OHMM :
RI. :
RXO.OHMM :
CALI.CM :
DEN.GM/CC :
~A
# ...
  400.5000    -8.1270    70.3380     8.3860     6.9530     7.3700    23.3200     2.3470 
  400.6250    -8.6790    70.8690     8.7210     7.2900     7.8370    23.2300     2.3490 
  400.7500    -9.3000    73.2970     8.9930     7.5880     8.2770    23.1020     2.3560 
  400.8750    -9.9670    76.8620     9.1600     7.7640     8.6480    22.9970     2.3610 
  401.0000   -10.6190    78.7420     9.2390     7.8130     8.8690    23.0350     2.3610 
  401.1250   -11.1850    76.3520     9.3150     7.8240     8.6030    23.2250     2.3570 
  401.2500   -11.6360    72.4170     9.4760     7.9240     8.4750    23.3250     2.3520 
  401.3750   -11.9990    70.0560     9.7350     8.1510     8.8310    23.1630     2.3470 
  401.5000   -12.2850    71.5780    10.0190     8.4410    10.1250    22.7620     2.3390 
  401.6250   -12.4820    75.4020    10.1580     8.6200    11.2810    22.3460     2.3280 
  401.7500   -12.5180    75.8130    10.0940     8.5900    11.3650    22.1420     2.3220 
  401.8750   -12.3470    70.4950     9.9040     8.3990    10.1380    22.1840     2.3360 
  402.0000   -11.9380    62.7820     9.7490     8.2110     9.1140    22.4300     2.3760 
  402.1250   -11.3890    59.9460     9.8130     8.2460     8.8390    22.8510     2.4330 
  402.2500   -10.7620    61.7240    10.0880     8.5230     9.4270    23.3290     2.4770 
  402.3750   -10.0710    63.7270    10.4620     8.9210    12.2960    23.7180     2.4910 
  402.5000    -9.3110    63.9250    10.7360     9.2270    17.7420    23.9170     2.4750 
  402.6250    -8.5420    65.0230    10.6730     9.2010    15.7240    23.9430     2.4480 
  402.7500    -7.8410    67.9460    10.3170     8.8890    10.8300    23.9250     2.4320 
  402.8750    -7.2750    69.2920     9.8160     8.4410     8.7020    23.9090     2.4330 
  403.0000    -6.9020    68.5970     9.3320     8.0190     8.3450    23.9070     2.4430 
  403.1250    -6.6470    67.3810     8.9770     7.7190     8.3920    23.9140     2.4510 
  403.2500    -6.4650    65.5150     8.7190     7.4940     8.4520    23.9240     2.4490 
  403.3750    -6.3170    63.4310     8.4980     7.2960     8.3550    23.9370     2.4390 
  403.5000    -6.1800    62.7060     8.2780     7.1140     8.0900    23.9540     2.4250 
  403.6250    -6.0330    64.9110     8.0910     7.0240     7.7790    23.9610     2.4180 
  403.7500    -5.8590    68.3640     8.0130     7.0960     7.5650    23.9540     2.4230 
  403.8750    -5.6700    70.8200     8.1070     7.3640     7.7000    23.9380     2.4430 
  404.0000    -5.4670    70.5510     8.3890     7.7930     8.4870    23.9200     2.4710 
  404.1250    -5.2830    67.0790     8.8000     8.2560     8.9410    23.9100     2.4940 
  404.2500    -5.1120    63.8410     9.1430     8.5590     9.5370    23.9050     2.5010 
  404.3750    -4.9560    62.2510     9.2300     8.5660     9.8600    23.9150     2.4940 
  404.5000    -4.8200    62.5630     8.9610     8.2440     9.6940    23.9550     2.4810 
  404.6250    -4.7030    65.5700     8.3650     7.6760     8.6020    24.0300     2.4700 
  404.7500    -4.6220    69.7490     7.6950     7.0790     6.8470    24.0900     2.4640 
  404.8750    -4.5780    72.3390     7.1140     6.5720     5.7910    24.0850     2.4610 
  405.0000    -4.5790    71.9510     6.7160     6.1970     5.2970    24.0160     2.4590 
  405.1250    -4.5930    71.2120     6.5520     5.9570     5.2400    23.9500     2.4600 
  405.2500    -4.6200    72.6220     6.5500     5.8100     5.3310    23.9220     2.4610 
  405.3750    -4.6630    76.2380     6.6490     5.7580     5.5170    23.9370     2.4580 
  405.5000    -4.7290    79.4080     6.7870     5.8120     5.6470    23.9830     2.4490 
  405.6250    -4.8160    79.6270     6.9170     6.0000     5.6830    24.0270     2.4350 
  405.7500    -4.9030    79.1090     7.0410     6.2710     5.8630    24.0360     2.4250 
  405.8750    -4.9800    78.7480     7.1810     6.5660     6.1720    24.0160     2.4240 
  406.0000    -5.0520    78.1560     7.3410     6.8070     6.4410    23.9920     2.4310 
  406.1250    -5.1510    75.5190     7.4610     6.8990     6.7680    24.0000     2.4380 
  406.2500    -5.3010    70.5170     7.4460     6.8450     6.9310    24.0470     2.4340 
  406.3750    -5.4930    66.6970     7.2490     6.6830     6.9110    24.1130     2.4160 
  406.5000    -5.7360    68.3170     6.9120     6.4800     6.7040    24.1500     2.3900 
  406.6250    -6.0150    73.9480     6.5820     6.3110     6.3250    24.1350     2.3680 
  406.7500    -6.3350    77.6030     6.4170     6.2050     6.0000    24.1030     2.3580 
  406.8750    -6.6960    77.5710     6.4900     6.1750     5.8920    24.0730     2.3560 
  407.0000    -7.1030    77.3030     6.7970     6.2470     6.3400    24.0340     2.3590 
  407.1250    -7.5680    78.8620     7.3150     6.5200     7.0730    23.9920     2.3620 
  407.2500    -8.0750    80.6210     7.9780     7.0470     7.6950    23.9740     2.3680 
  407.3750    -8.6240    82.7690     8.7710     7.8420     8.1030    24.0120     2.3770 
  407.5000    -9.2100    84.0720     9.6460     8.8240     8.5520    24.0420     2.3820 
  407.6250    -9.8360    83.0260    10.4420     9.7840    10.5970    23.9230     2.3770 
  407.7500   -10.5030    81.6470    10.9830    10.4990    14.5590    23.6110     2.3670 
  407.8750   -11.1820    82.1630    11.1980    10.8800    17.9640    23.3130     2.3610 
  408.0000   -11.7830    84.5300    11.1560    10.9750    14.9370    23.1540     2.3700 
  408.1250   -12.2220    85.0480    10.9950    10.9220    12.7370    23.1380     2.3910 
  408.2500   -12.4560    82.3580    10.8000    10.8510    13.3500    23.2060     2.4140 
  408.3750   -12.4690    79.7190    10.5210    10.7420    16.2900    23.3430     2.4270 
  408.5000   -12.2510    80.0260    10.0950    10.5110    15.7610    23.5140     2.4280 
  408.6250   -11.8230    82.6100     9.5190    10.0610    12.8050    23.6420     2.4200 
  408.7500   -11.2150    82.6340     8.9400     9.4810     9.9550    23.7090     2.4130 
  408.8750   -10.5040    78.2450     8.4770     8.9040     8.5550    23.7560     2.4080 
  409.0000    -9.7730    73.0620     8.1790     8.4660     8.5300    23.8550     2.4040 
  409.1250    -9.1160    72.3880     8.0170     8.2420     8.9900    23.9950     2.3930 
  409.2500    -8.5770    73.9570     7.8820     8.1240     8.6540    24.0920     2.3710 
  409.3750    -8.1600    74.0800     7.7350     8.0020     7.9480    24.0990     2.3420 
  409.5000    -7.8430    72.0630     7.5930     7.8150     7.4620    24.0740     2.3150 
  409.6250    -7.6420    71.5180     7.5370     7.5960     7.2800    24.0840     2.3040 
  409.7500    -7.5410    72.2870     7.6280     7.4640     7.2010    24.1030     2.3100 
  409.8750    -7.4890    73.7830     7.9090     7.5200     7.2040    24.1300     2.3300 
  410.0000    -7.4800    75.6250     8.3870     7.8150     7.5800    24.1470     2.3560 
  410.1250    -7.5010    80.5200     9.0130     8.3300     8.1340    24.1250     2.3840 
  410.2500    -7.5500    87.6880     9.6020     8.8740     8.7000    24.0840     2.4100 
  410.3750    -7.6290    93.6600     9.9690     9.2600     9.5360    24.0580     2.4320 
  410.5000    -7.7510    94.1460     9.9920     9.3410    10.4350    24.0640     2.4450 
  410.6250    -7.8580    90.0480     9.6500     9.0410    10.5270    24.0910     2.4430 
  410.7500    -7.9240    85.0410     9.1650     8.5480     9.5020    24.1180     2.4300 
  410.8750    -7.9470    77.0390     8.7000     8.0390     8.3770    24.1400     2.4130 
  411.0000    -7.9180    66.5300     8.3700     7.6470     7.8230    24.1560     2.3970 
  411.1250    -7.8520    62.2720     8.2770     7.4560     7.5970    24.1730     2.3840 
  411.2500    -7.7450    65.3730     8.4120     7.4280     7.6050    24.1750     2.3710 
  411.3750    -7.6110    71.2330     8.7590     7.5380     8.0750    24.1360     2.3620 
  411.5000    -7.4660    76.7150     9.2500     7.7560     8.7360    24.0590     2.3590 
  411.6250    -7.3300    80.5150     9.7340     8.0360     9.1290    23.9850     2.3670 
