~V
VERS. 2.00: Ver 2.00
~W
STRT.M 55.0000:
STOP.M 228.0000:
STEP.M 0.1250:
NULL. -999.2500:
UWI. F10142:
~C
DEPT.M :
DEN.GM/CC :
GR.API :
RML.OHMM :
RI. :
RXO.OHMM :
CALI.CM :
SP.MV :
~A
# ...
  190.0000     2.4340    57.3700     6.5180     5.6710     4.8590    24.5280    -4.4800 
  190.1250     2.4190    63.1630     6.6860     5.7440     5.2730    24.7240    -4.6020 
  190.2500     2.4030    67.9400     6.8470     5.8320     5.7510    25.0220    -4.7210 
  190.3750     2.3920    70.1960     6.9700     5.9160     6.2580    25.1830    -4.8400 
  190.5000     2.3840    70.0980     7.0390     5.9860     6.3720    25.2000    -4.9800 
  190.6250     2.3770    71.1630     7.0850     6.0580     6.2600    25.1740    -5.1320 
  190.7500     2.3690    75.9430     7.1900     6.1700     6.4200    25.0820    -5.2800 
  190.8750     2.3600    82.4970     7.4300     6.3700     7.1130    24.8490    -5.4500 
  191.0000     2.3560    87.2930     7.8520     6.6920     8.1620    24.5750    -5.6400 
  191.1250     2.3610    88.4000     8.4670     7.1630     8.7020    24.3760    -5.8120 
  191.2500     2.3760    88.1650     9.1430     7.7120     9.2920    24.2400    -5.9720 
  191.3750     2.3940    87.1700     9.7440     8.2540     9.6330    24.1620    -6.1320 
  191.5000     2.4090    86.0760    10.1480     8.6960     9.5110    24.2600    -6.2620 
  191.6250     2.4110    86.5060    10.2650     8.9440     9.1110    24.6410    -6.3370 
  191.7500     2.4040    87.9940    10.2010     9.0280     8.9270    24.9910    -6.4030 
  191.8750     2.3910    89.7370    10.0750     9.0070     8.9270    25.1590    -6.4410 
  192.0000     2.3810    90.2480    10.0050     8.9580     9.2030    25.2120    -6.4330 
  192.1250     2.3770    88.2830    10.0920     8.9610     9.2500    25.1850    -6.4000 
  192.2500     2.3770    85.5020    10.3130     9.0270     9.2100    25.1160    -6.3420 
  192.3750     2.3780    84.0230    10.5830     9.1130     9.3350    25.0530    -6.2470 
  192.5000     2.3810    85.9610    10.7600     9.1320     9.6460    25.0600    -6.1400 
  192.6250     2.3910    88.9530    10.6380     8.9520     9.4280    25.1340    -6.0360 
  192.7500     2.4110    89.6640    10.2060     8.5720     7.9130    25.1570    -5.9080 
  192.8750     2.4350    88.0190     9.5810     8.0680     6.6790    25.1510    -5.7750 
  193.0000     2.4510    85.0370     8.9980     7.6030     6.1380    25.1300    -5.6640 
  193.1250     2.4430    83.0470     8.8550     7.4640     7.4130    25.0990    -5.5680 
  193.2500     2.4140    80.6370     9.4230     7.8670    12.2300    25.0880    -5.5020 
  193.3750     2.3780    76.3120    10.9830     9.0700    21.4420    25.1320    -5.4920 
  193.5000     2.3480    70.7170    13.7790    11.3170    35.6830    25.1620    -5.5050 
  193.6250     2.3330    67.9820    17.9320    14.8040    43.3580    25.0680    -5.5270 
  193.7500     2.3220    67.9060    22.3780    18.7610    42.1530    24.8940    -5.5820 
  193.8750     2.3070    67.5610    25.7640    22.1570    39.1650    24.8000    -5.6460 
  194.0000     2.2850    65.9130    27.0740    24.0740    35.0240    24.8640    -5.6880 
  194.1250     2.2610    64.6550    26.3140    24.1820    28.8110    24.9670    -5.7340 
  194.2500     2.2440    64.2370    25.2300    23.6480    24.8870    24.9520    -5.7680 
  194.3750     2.2350    63.7670    24.9950    23.4360    28.7950    24.8340    -5.7690 
  194.5000     2.2390    63.8320    25.9530    24.0100    36.1890    24.8110    -5.7680 
  194.6250     2.2600    64.5890    27.3620    25.0130    42.0070    24.9520    -5.7620 
  194.7500     2.2940    64.5660    27.6250    25.2720    43.9670    25.1010    -5.7280 
  194.8750     2.3310    63.2720    25.7360    23.9080    37.5000    25.1210    -5.6990 
  195.0000     2.3610    61.5630    21.8400    20.8320    21.5970    25.0770    -5.6700 
  195.1250     2.3730    60.2840    17.2480    16.8620    11.4790    25.0830    -5.6180 
  195.2500     2.3710    60.1330    13.4780    13.3020     8.7330    25.1670    -5.5790 
  195.3750     2.3560    61.2570    11.0030    10.7030     7.9450    25.2200    -5.5440 
  195.5000     2.3310    62.9410     9.7060     9.1150     7.5770    25.2590    -5.4990 
  195.6250     2.2980    62.7180     9.3430     8.4360     7.3900    25.4750    -5.4820 
  195.7500     2.2680    62.9940     9.4010     8.2580     7.3510    25.6630    -5.4870 
  195.8750     2.2520    66.9650     9.6070     8.3600     7.4100    25.6830    -5.4780 
  196.0000     2.2570    73.6860     9.7760     8.5640     7.2450    25.4800    -5.4810 
  196.1250     2.2860    76.8990     9.8110     8.7350     6.3230    25.3360    -5.5100 
  196.2500     2.3230    75.8020     9.7570     8.8290     5.9720    25.2230    -5.5300 
  196.3750     2.3540    72.8080     9.6630     8.8510     6.2840    25.0760    -5.5400 
  196.5000     2.3690    69.4880     9.5680     8.8170     6.6290    25.0490    -5.5480 
  196.6250     2.3590    67.5050     9.4830     8.7330     6.9650    25.0910    -5.5530 
  196.7500     2.3370    68.2240     9.3900     8.6080     7.1770    25.1390    -5.5480 
  196.8750     2.3130    70.6280     9.2600     8.4290     7.1820    25.1330    -5.5570 
  197.0000     2.2950    72.1350     9.0680     8.1870     6.8660    25.0260    -5.5660 
  197.1250     2.2900    74.0810     8.8100     7.8800     6.2610    24.9690    -5.5770 
  197.2500     2.2940    77.6260     8.5510     7.5580     5.9930    25.0250    -5.6030 
  197.3750     2.2990    78.9840     8.3590     7.2780     5.6820    25.0690    -5.6470 
  197.5000     2.3010    76.0250     8.2940     7.0940     5.3950    25.0650    -5.7130 
  197.6250     2.2960    71.2810     8.4090     7.0670     5.6100    25.0810    -5.7860 
  197.7500     2.2910    69.5200     8.6600     7.1740     6.7900    25.1460    -5.8780 
  197.8750     2.2950    70.7030     8.9870     7.3770     7.8400    25.1410    -5.9650 
  198.0000     2.3130    72.1380     9.3070     7.6170     8.2040    25.0380    -6.0550 
  198.1250     2.3350    72.9880     9.5250     7.8230     7.9770    24.9050    -6.1360 
  198.2500     2.3460    72.4320     9.6270     7.9680     7.5790    24.9060    -6.1980 
  198.3750     2.3400    69.2740     9.6550     8.0610     7.7170    25.0130    -6.2420 
  198.5000     2.3210    65.3660     9.6830     8.1370     8.1900    25.1760    -6.2810 
  198.6250     2.3050    65.1790     9.7800     8.2340     8.5760    25.2450    -6.2960 
  198.7500     2.3020    68.0280     9.9360     8.3560     8.6770    25.2440    -6.2740 
  198.8750     2.3110    71.6070    10.1030     8.4770     8.4230    25.2260    -6.2440 
  199.0000     2.3260    74.1850    10.2220     8.5620     8.4360    25.2240    -6.2070 
  199.1250     2.3380    75.6330    10.2400     8.5690     8.5640    25.2250    -6.1510 
  199.2500     2.3450    75.0000    10.1740     8.5090     8.4160    25.2250    -6.0820 
  199.3750     2.3480    72.8280    10.0500     8.3980     8.1120    25.2230    -6.0090 
  199.5000     2.3460    71.6960     9.8930     8.2580     7.8910    25.1990    -5.9200 
  199.6250     2.3370    72.2810     9.7210     8.1110     8.1960    25.1650    -5.8380 
  199.7500     2.3250    72.7760     9.5450     7.9680     8.5660    25.1390    -5.7650 
  199.8750     2.3150    71.6480     9.3700     7.8310     8.1550    25.1400    -5.6960 
  200.0000     2.3160    69.4640     9.2010     7.6980     7.3810    25.1350    -5.6340 
  200.1250     2.3270    68.6600     9.0500     7.5710     6.9470    24.9920    -5.5890 
  200.2500     2.3380    68.8890     8.9200     7.4540     6.8020    24.8640    -5.5600 
  200.3750     2.3390    70.1530     8.8080     7.3500     6.6570    24.9200    -5.5590 
  200.5000     2.3260    70.6740     8.7060     7.2570     6.6410    25.0970    -5.5660 
  200.6250     2.3030    68.0940     8.6010     7.1670     6.6340    25.2530    -5.5690 
  200.7500     2.2830    64.7200     8.4980     7.0760     6.3110    25.3340    -5.5910 
  200.8750     2.2740    63.8990     8.4140     6.9940     5.8650    25.3390    -5.6120 
  201.0000     2.2820    66.2770     8.3710     6.9370     5.7020    25.2930    -5.6090 
  201.1250     2.3040    68.6430     8.3900     6.9310     6.1170    25.2140    -5.6010 
