~V
VERS. 2.00: Ver 2.00
~W
STRT.M 56.0000:
STOP.M 352.0000:
STEP.M 0.1250:
NULL. -999.2500:
UWI. F10109:
~C
DEPT.M :
DEN.GM/CC :
SP.MV :
GR.API :
RML.OHMM :
RI. :
RXO.OHMM :
CALI.CM :
~A
# ...
   89.7500     2.2000   -10.0940    60.2090    10.4580     8.5200    10.1700    23.6190 
   89.8750     2.1970   -10.1220    58.8800    10.3070     8.3890    10.2260    23.6090 
   90.0000     2.1940   -10.1200    56.9100    10.2050     8.2790    10.0920    23.6180 
   90.1250     2.1920   -10.1090    57.0070    10.1720     8.2100     9.8440    23.6170 
   90.2500     2.1900   -10.0850    55.4990    10.2010     8.1860     9.6990    23.6470 
   90.3750     2.1860   -10.0520    52.4810    10.2950     8.2140     9.6310    23.7420 
   90.5000     2.1820   -10.0170    52.6960    10.4450     8.2980     9.5270    23.8650 
   90.6250     2.1770    -9.9920    58.2380    10.6240     8.4310     9.4060    23.9300 
   90.7500     2.1720    -9.9500    61.9840    10.7780     8.5740     9.3360    23.9780 
   90.8750     2.1700    -9.8640    60.9330    10.8650     8.6970     9.4460    24.0550 
   91.0000     2.1710    -9.7530    57.7680    10.8660     8.7700     9.6570    24.1520 
   91.1250     2.1770    -9.5750    58.8250    10.7750     8.7750     9.7690    24.2090 
   91.2500     2.1850    -9.3000    61.4280    10.6440     8.7350     9.7470    24.2160 
   91.3750     2.1930    -8.9270    62.2300    10.5130     8.6760     9.7030    24.1640 
   91.5000     2.2000    -8.4380    61.7240    10.4130     8.6180     9.7550    24.0870 
   91.6250     2.2050    -7.8280    61.9090    10.3430     8.5640     9.8100    24.0740 
   91.7500     2.2100    -7.1040    62.4730    10.2590     8.4880     9.7760    24.1180 
   91.8750     2.2190    -6.2790    63.2800    10.1130     8.3570     9.6530    24.1580 
   92.0000     2.2330    -5.3800    67.0000     9.8610     8.1370     9.4450    24.1490 
   92.1250     2.2540    -4.4290    73.3070     9.4730     7.8040     8.9640    24.1270 
   92.2500     2.2760    -3.4670    78.3940     9.0080     7.4030     8.2640    24.1410 
   92.3750     2.2940    -2.5070    82.5910     8.5370     6.9910     7.6440    24.1990 
   92.5000     2.3050    -1.6200    88.0150     8.1350     6.6270     7.1700    24.3150 
   92.6250     2.3070    -0.8750    92.9670     7.8830     6.3770     6.5490    24.5010 
   92.7500     2.3060    -0.2530    92.3860     7.7770     6.2430     5.9870    24.6550 
   92.8750     2.3050     0.2190    87.4330     7.7930     6.2110     5.8540    24.7330 
   93.0000     2.3060     0.5320    83.1090     7.8790     6.2490     5.9760    24.7570 
   93.1250     2.3090     0.6730    79.3080     7.9770     6.3210     6.0490    24.7750 
   93.2500     2.3130     0.7020    74.7200     8.0470     6.3900     6.0510    24.7920 
   93.3750     2.3140     0.5840    72.6290     8.0840     6.4470     6.0260    24.8010 
   93.5000     2.3100     0.3550    74.9770     8.1080     6.4970     6.0050    24.8140 
   93.6250     2.3000     0.1060    76.6620     8.1670     6.5650     6.0150    24.8330 
   93.7500     2.2890    -0.1790    74.1230     8.2890     6.6680     6.1770    24.8220 
   93.8750     2.2790    -0.5170    70.8550     8.4810     6.8150     6.4640    24.8000 
   94.0000     2.2700    -0.8910    68.0020     8.7250     6.9970     6.6640    24.7830 
   94.1250     2.2640    -1.2750    64.4210     8.9710     7.1840     6.6170    24.7500 
   94.2500     2.2580    -1.6970    64.6800     9.1540     7.3280     6.5550    24.6900 
   94.3750     2.2540    -2.1530    69.9960     9.2330     7.3920     6.5350    24.6050 
   94.5000     2.2520    -2.6410    75.6900     9.1930     7.3620     6.5490    24.4980 
   94.6250     2.2500    -3.1890    77.6150     9.0560     7.2410     6.5870    24.4020 
   94.7500     2.2470    -3.7740    78.1030     8.9010     7.0910     6.6390    24.3590 
   94.8750     2.2400    -4.3810    78.1820     8.7900     6.9620     6.7850    24.3550 
   95.0000     2.2290    -5.0210    76.9070     8.7590     6.8890     7.0200    24.3390 
   95.1250     2.2200    -5.6820    75.7520     8.8130     6.8940     7.4100    24.2590 
   95.2500     2.2160    -6.3360    75.5870     8.8980     6.9460     7.8000    24.1460 
   95.3750     2.2180    -6.9870    74.0720     8.9770     7.0170     8.1220    24.0340 
   95.5000     2.2230    -7.6240    71.5790     9.0360     7.0910     8.2500    23.9240 
   95.6250     2.2280    -8.2160    68.9840     9.0910     7.1670     8.1190    23.8510 
   95.7500     2.2300    -8.7370    67.3500     9.1700     7.2540     7.8940    23.8300 
   95.8750     2.2310    -9.1970    68.3760     9.2860     7.3590     7.8510    23.8510 
   96.0000     2.2320    -9.5280    71.0270     9.4320     7.4820     7.9430    23.8710 
   96.1250     2.2340    -9.6780    72.0180     9.5730     7.6080     8.4500    23.8960 
   96.2500     2.2350    -9.6980    70.2700     9.6530     7.7030     8.9650    23.9110 
   96.3750     2.2360    -9.5760    69.9950     9.6280     7.7300     9.0660    23.8920 
   96.5000     2.2350    -9.3240    75.0790     9.4730     7.6640     8.9930    23.8470 
   96.6250     2.2360    -8.9230    82.4660     9.1890     7.4880     9.2960    23.8260 
   96.7500     2.2380    -8.4200    85.1540     8.8680     7.2570     9.1620    23.8400 
   96.8750     2.2410    -7.8370    81.8800     8.5950     7.0310     8.4270    23.8620 
   97.0000     2.2430    -7.1970    75.5250     8.4410     6.8630     7.8740    23.8920 
   97.1250     2.2430    -6.5580    71.7020     8.4380     6.7870     7.7620    23.9420 
   97.2500     2.2440    -5.9310    72.8410     8.4940     6.7580     7.9120    23.9760 
   97.3750     2.2500    -5.3060    77.5680     8.5040     6.7170     8.0420    23.9800 
   97.5000     2.2630    -4.6540    81.4990     8.3740     6.6020     8.0120    23.9740 
   97.6250     2.2810    -4.0280    80.3040     8.0640     6.3780     7.7790    23.9970 
   97.7500     2.2980    -3.5100    76.8690     7.7070     6.1170     7.3360    24.0240 
   97.8750     2.3120    -3.1430    74.8750     7.4730     5.9190     6.7250    24.0550 
   98.0000     2.3240    -2.9690    75.2970     7.5330     5.8990     6.1180    24.1250 
   98.1250     2.3360    -3.0120    75.6290     8.0560     6.1940     6.4130    24.2570 
   98.2500     2.3450    -3.2670    74.6220     8.9270     6.7650     7.3180    24.3900 
   98.3750     2.3450    -3.7690    74.3250     9.9750     7.5300     8.8370    24.4360 
   98.5000     2.3270    -4.4950    76.0730    10.9440     8.3310    11.1900    24.3800 
   98.6250     2.2890    -5.3720    76.0490    11.4940     8.9130    13.9460    24.1860 
   98.7500     2.2470    -6.2840    72.4030    11.5480     9.1450    13.4250    23.9500 
   98.8750     2.2140    -7.1440    69.3470    11.2000     9.0290    11.1750    23.7820 
   99.0000     2.2000    -7.8890    69.0590    10.6790     8.7000    10.2060    23.6900 
   99.1250     2.2040    -8.5340    69.0330    10.2450     8.3450    10.4140    23.6420 
   99.2500     2.2140    -9.0740    67.6700     9.9950     8.0770    10.9560    23.6120 
   99.3750     2.2210    -9.4540    66.3480     9.8960     7.9080    11.6890    23.6050 
   99.5000     2.2200    -9.7230    65.9090     9.8640     7.7970    12.0020    23.6030 
   99.6250     2.2130    -9.9840    64.1980     9.8330     7.7060    10.8400    23.5860 
   99.7500     2.2050   -10.2730    62.7320     9.7960     7.6270     9.9670    23.5840 
   99.8750     2.1990   -10.5840    61.7970     9.7760     7.5780     9.6220    23.6130 
  100.0000     2.1950   -10.9770    60.6170     9.7980     7.5800     9.6140    23.6240 
  100.1250     2.1970   -11.4840    59.5620     9.8910     7.6570     9.7760    23.6130 
  100.2500     2.2030   -12.0420    59.8160    10.0400     7.7910    10.0720    23.6130 
  100.3750     2.2100   -12.6160    59.8020    10.2070     7.9560    10.6390    23.6240 
  100.5000     2.2140   -13.1750    57.8910    10.3370     8.1060    11.5220    23.6250 
  100.6250     2.2070   -13.6650    54.8200    10.3530     8.1840    12.9320    23.6400 
  100.7500     2.1890   -14.0710    54.1220    10.2450     8.1690    14.5420    23.6840 
  100.8750     2.1650   -14.3760    55.5170    10.0340     8.0680    14.5910    23.7300 
