~V
VERS. 2.00: Ver 2.00
~W
STRT.M 52.0000:
STOP.M 224.0000:
STEP.M 0.1250:
NULL. -999.2500:
UWI. F10155:
~C
DEPT.M :
SP.MV :
GR.API :
RML.OHMM :
RI. :
RXO.OHMM :
CALI.CM :
DEN.GM/CC :
~A
# ...
  198.2500   -13.2360    64.8220   171.4240   182.9520   121.6590    24.8360     2.1980 
  198.3750   -13.0880    64.4820   142.8500   149.6660   119.3460    24.6590     2.2020 
  198.5000   -13.1220    64.4310   120.9280   122.3340   119.1100    24.5390     2.2020 
  198.6250   -13.3090    65.4340   107.6990   104.8650    84.9760    24.4260     2.2040 
  198.7500   -13.6090    66.1230   101.8610    96.6040    56.4380    24.5210     2.2230 
  198.8750   -13.9320    65.3650   100.9290    95.1530    53.9000    25.0720     2.2710 
  199.0000   -14.2400    64.3580   102.0740    97.5350    74.7000    25.6090     2.3430 
  199.1250   -14.5610    65.0300   101.9820    99.7550   123.9730    25.4540     2.4080 
  199.2500   -14.8430    67.4270    98.2880    99.1110   135.5990    24.9820     2.4400 
  199.3750   -15.0060    69.7150    89.2810    93.0200    87.1890    24.6130     2.4330 
  199.5000   -14.9990    69.9960    74.1210    78.5490    88.2900    24.4530     2.4000 
  199.6250   -14.7920    70.5410    56.3070    59.1480    89.4870    24.4010     2.3710 
  199.7500   -14.3770    71.9310    39.2860    39.9790    71.8760    24.4840     2.3570 
  199.8750   -13.8330    71.2410    25.6040    25.1590    37.2380    24.5170     2.3560 
  200.0000   -13.2590    66.7150    16.7230    16.3850    15.2790    24.5060     2.3580 
  200.1250   -12.7250    62.9150    11.3400    11.4070     7.8100    24.5870     2.3580 
  200.2500   -12.2900    61.4100     8.5480     8.8140     6.2260    24.7540     2.3540 
  200.3750   -11.9670    60.3670     7.4350     7.6380     6.1710    24.8550     2.3510 
  200.5000   -11.7090    58.4170     7.2710     7.3900     6.4520    24.8020     2.3500 
  200.6250   -11.4960    57.5040     7.3840     7.5240     7.1340    24.7680     2.3510 
  200.7500   -11.3720    58.8000     7.5020     7.7300     7.5630    24.7540     2.3520 
  200.8750   -11.3280    61.5210     7.4810     7.8030     7.4770    24.6820     2.3510 
  201.0000   -11.3010    62.5230     7.3080     7.6850     6.5410    24.6290     2.3490 
  201.1250   -11.2750    62.5540     7.1050     7.5030     6.0790    24.6380     2.3490 
  201.2500   -11.2640    62.2010     6.9500     7.3430     6.0910    24.7410     2.3500 
  201.3750   -11.2620    60.0730     6.8770     7.2450     6.3100    24.8050     2.3540 
  201.5000   -11.3210    57.5640     6.8810     7.2080     6.4350    24.7490     2.3550 
  201.6250   -11.4300    57.6660     6.9190     7.1820     6.6060    24.7850     2.3530 
  201.7500   -11.5440    59.7670     6.9710     7.1440     6.8050    24.8090     2.3470 
  201.8750   -11.6240    60.8240     7.0310     7.0950     6.7710    24.6570     2.3430 
  202.0000   -11.6870    59.7630     7.1110     7.0570     6.6820    24.5320     2.3480 
  202.1250   -11.7200    58.2310     7.2070     7.0440     6.9940    24.6770     2.3640 
  202.2500   -11.7180    55.9520     7.3070     7.0530     7.4490    24.8710     2.3850 
  202.3750   -11.7300    55.1850     7.3830     7.0570     8.1520    24.9130     2.4010 
  202.5000   -11.7930    58.8340     7.3950     7.0150     8.3190    24.9610     2.4020 
  202.6250   -11.9410    62.7650     7.3490     6.9200     8.0330    25.0120     2.3920 
  202.7500   -12.1930    63.3040     7.2700     6.7920     7.2230    24.9950     2.3790 
  202.8750   -12.5600    60.9740     7.2060     6.6770     6.4980    24.8600     2.3680 
  203.0000   -12.9960    59.3510     7.2080     6.6310     6.4640    24.8340     2.3580 
  203.1250   -13.3910    57.3290     7.2760     6.6590     6.4420    24.7720     2.3480 
  203.2500   -13.6580    53.4650     7.3780     6.7310     6.4070    24.6500     2.3370 
  203.3750   -13.7670    49.9140     7.4620     6.7970     6.4770    24.5210     2.3290 
  203.5000   -13.7550    50.1700     7.4730     6.7990     6.7280    24.5000     2.3310 
  203.6250   -13.7500    53.3480     7.4140     6.7390     6.7060    24.4240     2.3400 
  203.7500   -13.8200    56.6970     7.3160     6.6470     6.4450    24.3130     2.3510 
  203.8750   -13.9320    59.8630     7.2260     6.5660     6.0740    24.4180     2.3570 
  204.0000   -13.9600    63.3230     7.1980     6.5410     6.0430    24.5620     2.3480 
  204.1250   -13.8590    65.9810     7.2340     6.5720     6.3110    24.7090     2.3300 
  204.2500   -13.6500    66.1400     7.3140     6.6400     6.6770    24.8080     2.3120 
  204.3750   -13.3840    63.4560     7.3960     6.7120     6.8770    24.8700     2.3080 
  204.5000   -13.0750    62.7930     7.4300     6.7410     6.8680    24.9550     2.3270 
  204.6250   -12.6530    66.0490     7.3940     6.7050     6.7480    24.9590     2.3540 
  204.7500   -12.0330    70.3480     7.2830     6.5960     6.5320    24.8900     2.3750 
  204.8750   -11.2620    71.3560     7.1170     6.4280     6.3740    24.8730     2.3810 
  205.0000   -10.5470    68.6220     6.9360     6.2380     6.2140    24.8540     2.3710 
  205.1250   -10.0660    66.9230     6.8070     6.0790     6.0220    24.7150     2.3560 
  205.2500    -9.8510    68.2090     6.7990     6.0070     5.8770    24.6080     2.3440 
  205.3750    -9.8120    72.9010     6.9730     6.0770     5.9110    24.6300     2.3370 
  205.5000    -9.7840    82.5640     7.3700     6.3450     6.2950    24.7480     2.3400 
  205.6250    -9.6210    93.1730     7.8720     6.7390     6.9150    24.8740     2.3570 
  205.7500    -9.2990    98.8480     8.3360     7.1490     7.8590    24.9300     2.3910 
  205.8750    -8.8630    98.9240     8.6080     7.4310     9.2160    24.9010     2.4350 
  206.0000    -8.3620    97.5460     8.5630     7.4370    10.2360    24.6860     2.4780 
  206.1250    -7.8210    97.2080     8.3170     7.2430     8.8950    24.4930     2.5080 
  206.2500    -7.2510    97.9680     8.0330     6.9840     7.3690    24.4020     2.5250 
  206.3750    -6.6810    97.6770     7.8920     6.8080     6.6230    24.4510     2.5350 
  206.5000    -6.1710    92.8440     8.0920     6.8800     6.8810    24.4920     2.5470 
  206.6250    -5.7870    85.0430     8.6380     7.2370     7.4750    24.5400     2.5600 
  206.7500    -5.5520    80.5430     9.4680     7.8780     8.0220    24.6040     2.5690 
  206.8750    -5.3820    81.3780    10.4210     8.7080     8.4070    24.6800     2.5700 
  207.0000    -5.1450    80.3270    11.1980     9.4930     9.6380    24.8460     2.5620 
  207.1250    -4.7660    77.3190    11.5650     9.9590    11.0690    24.9640     2.5460 
  207.2500    -4.2730    78.3970    11.4350     9.9640    11.8480    24.9490     2.5240 
  207.3750    -3.7340    84.8110    10.9000     9.5620    12.1810    24.8750     2.4980 
  207.5000    -3.1940    88.5360    10.2010     8.9680     9.8630    24.8360     2.4760 
  207.6250    -2.6230    86.2130     9.6320     8.4550     8.3770    24.8140     2.4640 
  207.7500    -2.0730    83.7980     9.3260     8.1450     8.9610    24.8860     2.4620 
  207.8750    -1.6120    84.7450     9.2980     8.0650    10.1100    24.9290     2.4640 
  208.0000    -1.2640    86.3670     9.4800     8.1820    10.3450    24.8150     2.4620 
  208.1250    -1.0020    84.4780     9.7130     8.3620     9.3580    24.7600     2.4520 
  208.2500    -0.8240    81.1970     9.9080     8.5230     9.3290    24.8890     2.4360 
  208.3750    -0.7020    81.2850    10.0280     8.6240    10.1960    25.0090     2.4170 
  208.5000    -0.6440    83.1470    10.0610     8.6560    10.5150    25.0440     2.3970 
  208.6250    -0.7150    81.7470    10.0360     8.6380     9.5580    25.0520     2.3810 
  208.7500    -0.8060    79.0870     9.9680     8.5810     8.7210    24.9890     2.3720 
  208.8750    -0.8730    79.5030     9.8810     8.4990     8.1070    24.9110     2.3730 
  209.0000    -0.9190    81.5790     9.8250     8.4290     8.0200    24.8390     2.3880 
  209.1250    -0.9990    82.2260     9.8440     8.4120     8.2530    24.8880     2.4120 
  209.2500    -1.0280    82.7950     9.9580     8.4700     8.8030    24.8700     2.4380 
  209.3750    -0.9590    84.1200    10.1530     8.5990     8.4310    24.8240     2.4590 
