~V
VERS. 2.00: Ver 2.00
~W
STRT.M 50.0000:
STOP.M 232.0000:
STEP.M 0.1250:
NULL. -999.2500:
UWI. F10160:
~C
DEPT.M :
SP.MV :
DEN.GM/CC :
GR.API :
RML.OHMM :
RI. :
RXO.OHMM :
CALI.CM :
~A
# ...
  151.2500   -22.2650     2.1850    55.8160    66.9270    58.0240    41.2000    29.3510 
  151.3750   -22.2910     2.1780    54.1720    66.8130    57.9240    46.5870    29.5670 
  151.5000   -22.3090     2.1780    52.2750    66.8180    57.9290    51.3670    29.7890 
  151.6250   -22.3280     2.1830    49.6490    67.7690    58.7560    55.1090    30.0150 
  151.7500   -22.3650     2.1880    48.7940    69.8480    60.5630    58.1530    30.2300 
  151.8750   -22.4380     2.1930    50.6450    73.0680    63.3640    60.7490    30.4380 
  152.0000   -22.5490     2.1960    54.0330    77.1520    66.9150    62.8930    30.6550 
  152.1250   -22.6940     2.1970    56.4230    81.4680    70.6670    64.3080    30.8720 
  152.2500   -22.8560     2.1970    57.4000    85.2550    73.9610    65.1630    31.0590 
  152.3750   -23.0020     2.1950    56.3050    88.1880    76.5110    65.7710    31.2120 
  152.5000   -23.1100     2.1910    53.1060    90.3580    78.3980    66.5000    31.3520 
  152.6250   -23.1540     2.1850    51.1580    92.1130    79.9240    67.6450    31.4990 
  152.7500   -23.1500     2.1790    51.2350    93.9060    81.4830    69.1050    31.6530 
  152.8750   -23.0970     2.1750    50.8440    95.9080    83.2240    70.7530    31.8120 
  153.0000   -23.0120     2.1730    48.5950    98.1130    85.1420    72.5360    31.9650 
  153.1250   -22.9360     2.1720    47.0430   100.3790    87.1120    74.5610    32.1020 
  153.2500   -22.8820     2.1670    48.2420   102.5220    88.9760    76.8360    32.2430 
  153.3750   -22.8510     2.1580    50.1730   104.4280    90.6330    79.2100    32.4050 
  153.5000   -22.8260     2.1510    50.5320   106.0080    92.0070    81.3700    32.5630 
  153.6250   -22.7960     2.1480    49.9510   107.1140    92.9690    82.8940    32.6650 
  153.7500   -22.7670     2.1510    49.8060   107.7030    93.4810    83.7720    32.7380 
  153.8750   -22.7140     2.1550    50.2320   107.6520    93.4360    84.1440    32.8170 
  154.0000   -22.6220     2.1580    50.0400   106.8850    92.7700    84.2350    32.8940 
  154.1250   -22.4880     2.1590    49.4190   105.3660    91.4490    84.1760    32.9280 
  154.2500   -22.3370     2.1610    48.2010   103.3810    89.7230    83.9830    32.9320 
  154.3750   -22.1870     2.1630    46.9770   101.0690    87.7130    83.5810    32.9300 
  154.5000   -22.0630     2.1660    46.2220    98.5070    85.4850    82.8850    32.9300 
  154.6250   -21.9800     2.1700    45.6240    95.7140    83.0560    81.7630    32.9300 
  154.7500   -21.8990     2.1780    46.2130    92.8490    80.5650    80.2950    32.9300 
  154.8750   -21.8200     2.1890    49.3570    90.1330    78.2020    78.5800    32.9300 
  155.0000   -21.7500     2.2000    52.4110    87.8350    76.2040    76.7390    32.9300 
  155.1250   -21.6890     2.2040    52.1640    86.2120    74.7930    74.8730    32.9300 
  155.2500   -21.6400     2.2040    50.6640    84.9200    73.6700    73.0230    32.9300 
  155.3750   -21.5960     2.2020    50.5750    83.3810    72.3310    71.1800    32.9300 
  155.5000   -21.5630     2.2020    50.6580    81.0240    70.2820    69.3310    32.9300 
  155.6250   -21.5470     2.2000    49.8530    77.6100    67.3130    67.5070    32.9290 
  155.7500   -21.5410     2.1920    49.7280    73.9020    64.0880    65.7500    32.9210 
  155.8750   -21.5400     2.1820    50.2890    70.7310    61.3310    64.0960    32.8870 
  156.0000   -21.5090     2.1750    49.7990    68.7690    59.6250    62.6090    32.8240 
  156.1250   -21.4380     2.1770    48.5530    68.5080    59.3980    61.4380    32.7590 
  156.2500   -21.3530     2.1850    49.1110    69.4600    60.2260    60.6260    32.7050 
  156.3750   -21.2880     2.1910    51.7580    71.1610    61.7050    60.1970    32.6500 
  156.5000   -21.2550     2.1900    53.4700    73.1000    63.3910    60.1100    32.5810 
  156.6250   -21.2540     2.1820    53.3030    74.7350    64.8130    60.3040    32.5000 
  156.7500   -21.2810     2.1760    52.2940    75.7250    65.6740    60.6090    32.4110 
  156.8750   -21.3130     2.1600    52.3020    75.7630    65.7070    60.9210    32.3140 
  157.0000   -21.3290     2.1340    53.6530    74.5150    64.6220    61.1640    32.2100 
  157.1250   -21.3370     2.1240    54.5500    71.5410    62.0360    61.2520    32.0850 
  157.2500   -21.3210     2.1190    54.9120    67.4180    58.4500    61.1560    31.9410 
  157.3750   -21.2950     2.1200    55.8100    62.8930    54.5150    60.8440    31.8100 
  157.5000   -21.2560     2.1250    57.7130    58.8260    50.9790    60.2820    31.7270 
  157.6250   -21.2270     2.1360    58.2350    56.0730    48.5850    59.3510    31.6550 
  157.7500   -21.2120     2.1490    56.2770    54.5890    47.2950    58.0490    31.5120 
  157.8750   -21.2220     2.1630    52.9390    54.0910    46.8620    56.3740    31.2960 
  158.0000   -21.2610     2.1740    50.5380    54.0970    46.8670    54.3780    31.0810 
  158.1250   -21.3260     2.1800    51.9210    54.0870    46.8580    52.1530    30.9580 
  158.2500   -21.4060     2.1730    54.8040    53.8140    46.6210    49.9010    30.9150 
  158.3750   -21.4870     2.1490    57.2140    53.3550    46.2210    47.8010    30.9110 
  158.5000   -21.5510     2.1330    58.8560    52.9300    45.8520    46.0280    30.8410 
  158.6250   -21.6020     2.1320    59.5870    52.7730    45.7150    44.7980    30.6300 
  158.7500   -21.6380     2.1380    58.0410    52.8210    45.7580    44.0600    30.3830 
  158.8750   -21.6700     2.1410    55.9750    52.8780    45.8070    43.7110    30.2230 
  159.0000   -21.7100     2.1440    56.2520    52.7060    45.6570    43.5660    30.1690 
  159.1250   -21.7630     2.1460    57.3340    52.0730    45.1070    43.4120    30.1460 
  159.2500   -21.8480     2.1460    56.6670    51.0160    44.1880    43.0980    30.1130 
  159.3750   -21.9610     2.1420    55.6080    49.5700    42.9300    42.5250    30.0730 
  159.5000   -22.0840     2.1360    55.6320    47.7590    41.3560    41.6200    30.0070 
  159.6250   -22.1760     2.1290    56.2530    45.4930    39.3850    40.3170    29.9100 
  159.7500   -22.2240     2.1240    55.6260    42.8190    37.0600    38.7570    29.8010 
  159.8750   -22.2320     2.1300    55.8730    39.8740    34.4990    37.0570    29.6920 
  160.0000   -22.2110     2.1480    58.7970    36.9850    31.9870    35.3240    29.5060 
  160.1250   -22.1830     2.2610    61.0440    34.7090    30.0080    33.6610    28.8030 
  160.2500   -22.1660     2.2870    59.9410    33.3350    28.8130    32.1430    27.5760 
  160.3750   -22.1640     2.2770    56.9030    33.0320    28.5490    30.8860    26.3570 
  160.5000   -22.1810     2.2510    55.2900    33.8110    29.2270    30.0610    25.9220 
  160.6250   -22.2220     2.2310    55.5720    35.6130    30.7940    29.9390    26.8320 
  160.7500   -22.2670     2.2200    54.8580    37.9080    32.7890    30.4480    28.3250 
  160.8750   -22.3170     2.2100    54.9830    40.3080    34.8770    31.4570    29.6210 
  161.0000   -22.3690     2.1930    57.3430    42.5370    36.8150    32.7520    30.3710 
  161.1250   -22.4070     2.1750    61.8880    44.5000    38.5220    34.1260    30.7800 
  161.2500   -22.4440     2.1710    64.7650    46.3820    40.1580    35.4850    31.0220 
  161.3750   -22.4940     2.1840    65.3430    48.3640    41.8820    36.8910    30.8360 
  161.5000   -22.5560     2.2000    66.6940    50.6110    43.8350    38.4830    30.2590 
  161.6250   -22.6220     2.2070    69.1710    53.3840    46.2470    40.5100    29.7870 
  161.7500   -22.6850     2.2070    69.6910    56.8600    49.2690    43.0320    29.5880 
  161.8750   -22.7440     2.2070    66.3040    61.3290    53.1550    46.0410    29.4460 
  162.0000   -22.8040     2.2100    59.9340    67.0200    58.1040    49.4180    29.2200 
  162.1250   -22.8800     2.2070    54.7570    74.1200    64.2780    52.9550    29.0230 
  162.2500   -22.9560     2.1980    51.2270    82.1130    71.2290    56.4650    28.9150 
  162.3750   -23.0160     2.1890    49.4440    90.5340    78.5510    60.1500    28.8080 
