~V
VERS. 2.00: Ver 2.00
~W
STRT.M 57.0000:
STOP.M 214.0000:
STEP.M 0.1250:
NULL. -999.2500:
UWI. F10147:
~C
DEPT.M :
SP.MV :
GR.API :
RML.OHMM :
RI. :
RXO.OHMM :
CALI.CM :
DEN.GM/CC :
~A
# ...
  147.0000    -8.1620    76.5460    13.3520    13.0150    11.1120    25.0040     2.2800 
  147.1250    -8.1640    75.4320    12.7380    12.2320    10.5140    25.0790     2.2750 
  147.2500    -8.1670    73.7680    12.1640    11.5130     9.9610    25.1480     2.2710 
  147.3750    -8.1540    73.2150    11.6390    10.9040     9.3890    25.1820     2.2710 
  147.5000    -8.1350    74.3330    11.2930    10.5020     9.0220    25.1870     2.2770 
  147.6250    -8.1260    75.4140    11.3610    10.4710     9.1570    25.1790     2.2910 
  147.7500    -8.1250    74.2570    12.1380    11.0450     9.8800    25.1820     2.3090 
  147.8750    -8.1210    70.7550    14.1030    12.6640    11.5770    25.2090     2.3260 
  148.0000    -8.1240    65.9130    17.5730    15.6670    15.5760    25.2370     2.3340 
  148.1250    -8.1360    60.4760    22.6120    20.1900    23.3160    25.2520     2.3270 
  148.2500    -8.1390    56.2100    28.8760    26.0000    33.8860    25.2540     2.3050 
  148.3750    -8.1470    55.8030    35.1940    32.1390    42.7350    25.2590     2.2750 
  148.5000    -8.1640    57.8280    40.0710    37.2450    46.4240    25.2710     2.2500 
  148.6250    -8.1750    58.3590    42.6790    40.4100    45.8310    25.2810     2.2360 
  148.7500    -8.1860    56.9500    43.2180    41.5830    44.0990    25.2920     2.2350 
  148.8750    -8.2000    55.8330    42.5290    41.3160    43.5500    25.3040     2.2410 
  149.0000    -8.2100    55.9060    41.4430    40.3930    43.8700    25.3100     2.2480 
  149.1250    -8.2260    56.8490    40.2400    39.2400    43.6980    25.2920     2.2530 
  149.2500    -8.2530    58.5510    38.8000    37.8800    42.3790    25.2590     2.2540 
  149.3750    -8.2700    61.9760    36.9390    36.1890    39.7040    25.2150     2.2520 
  149.5000    -8.2810    66.8890    34.6550    34.1160    35.7610    25.1530     2.2500 
  149.6250    -8.3030    71.2220    32.0690    31.6990    31.4280    25.0670     2.2480 
  149.7500    -8.3290    73.1690    29.3010    29.0080    28.1790    24.9780     2.2510 
  149.8750    -8.3530    74.0540    26.4840    26.1770    26.4020    24.8820     2.2580 
  150.0000    -8.3790    75.6890    23.7910    23.4160    24.5910    24.7440     2.2700 
  150.1250    -8.4010    76.4940    21.4170    20.9550    21.7290    24.6530     2.2820 
  150.2500    -8.4180    74.8860    19.5430    18.9750    18.3520    24.6570     2.2940 
  150.3750    -8.4430    72.7140    18.3550    17.6410    15.5350    24.6850     2.3020 
  150.5000    -8.4750    72.6290    17.8430    16.9290    13.9780    24.7170     2.3070 
  150.6250    -8.4990    73.7540    17.8880    16.7300    13.8250    24.7920     2.3100 
  150.7500    -8.5230    73.7400    18.3860    16.9570    14.4280    24.8840     2.3130 
  150.8750    -8.5550    72.2780    19.2760    17.5760    14.6680    24.9590     2.3160 
  151.0000    -8.5830    70.8010    20.4740    18.5220    14.6470    25.0110     2.3190 
  151.1250    -8.6080    70.5770    21.8480    19.6860    15.6050    25.0090     2.3220 
  151.2500    -8.6340    70.9380    23.1710    20.8790    18.1430    24.9320     2.3220 
  151.3750    -8.6490    70.4230    24.0210    21.7370    21.0800    24.8730     2.3160 
  151.5000    -8.6660    69.4690    24.0790    21.9520    22.5160    24.8810     2.3040 
  151.6250    -8.6870    69.5270    23.3300    21.4530    21.7240    24.8900     2.2900 
  151.7500    -8.6940    70.4470    22.0430    20.4170    19.5200    24.8430     2.2770 
  151.8750    -8.6950    70.0980    20.7160    19.2310    17.3980    24.7940     2.2710 
  152.0000    -8.7070    68.2040    19.7860    18.2840    16.2630    24.7760     2.2740 
  152.1250    -8.7100    66.8850    19.4370    17.7790    16.1440    24.7550     2.2840 
  152.2500    -8.7060    66.8840    19.6130    17.7250    16.6320    24.7180     2.3020 
  152.3750    -8.7120    66.3860    20.0620    17.9670    17.2440    24.7010     2.3210 
  152.5000    -8.7120    64.8260    20.3920    18.2020    17.7530    24.7150     2.3360 
  152.6250    -8.6940    64.6530    20.2720    18.1340    18.0190    24.7420     2.3430 
  152.7500    -8.6780    68.2150    19.5580    17.5990    17.6660    24.7790     2.3440 
  152.8750    -8.6690    74.1170    18.3170    16.5930    16.3900    24.8460     2.3390 
  153.0000    -8.6540    78.1520    16.8630    15.3530    14.6620    24.9250     2.3300 
  153.1250    -8.6330    78.0520    15.5380    14.1640    13.1370    25.0040     2.3190 
  153.2500    -8.6170    75.3830    14.5480    13.2220    12.0280    25.0760     2.3080 
  153.3750    -8.6070    73.6990    14.0060    12.6540    11.4060    25.1090     2.2990 
  153.5000    -8.5910    74.2080    13.8390    12.4310    11.2630    25.0960     2.2900 
  153.6250    -8.5820    74.3540    13.8850    12.4410    11.4030    25.0590     2.2820 
  153.7500    -8.5860    72.0090    13.9900    12.5600    11.5180    25.0360     2.2740 
  153.8750    -8.5840    69.7860    13.9850    12.6490    11.3500    25.0390     2.2650 
  154.0000    -8.5820    69.7730    13.7740    12.6140    10.8660    25.0490     2.2570 
  154.1250    -8.5920    70.3660    13.3430    12.4210    10.1770    25.0430     2.2530 
  154.2500    -8.6000    71.0310    12.7410    12.0810     9.4620    25.0260     2.2580 
  154.3750    -8.6080    73.7720    12.0640    11.6250     8.9520    25.0260     2.2740 
  154.5000    -8.6260    77.4760    11.4210    11.1130     8.7070    25.0360     2.2950 
  154.6250    -8.6460    78.9810    10.8800    10.6060     8.5830    25.0350     2.3140 
  154.7500    -8.6660    78.5120    10.4530    10.1470     8.3960    25.0210     2.3260 
  154.8750    -8.6960    77.3210    10.1050     9.7570     8.0790    25.0040     2.3300 
  155.0000    -8.7270    75.8650     9.7830     9.4200     7.7510    24.9920     2.3330 
  155.1250    -8.7600    75.6800     9.4620     9.1120     7.5480    25.0050     2.3370 
  155.2500    -8.8060    77.8310     9.1660     8.8370     7.4400    25.0480     2.3410 
  155.3750    -8.8500    79.1630     8.9690     8.6360     7.3000    25.0720     2.3400 
  155.5000    -8.8930    76.1410     8.9140     8.5460     7.1810    25.0560     2.3310 
  155.6250    -8.9520    71.2130     8.9960     8.5720     7.3220    25.0210     2.3210 
  155.7500    -9.0120    69.9240     9.1770     8.6890     7.7950    24.9840     2.3140 
  155.8750    -9.0650    73.4800     9.4200     8.8700     8.3120    24.9360     2.3160 
  156.0000    -9.1300    76.9720     9.7280     9.1130     8.5740    24.8790     2.3240 
  156.1250    -9.2020    76.9250    10.1610     9.4590     8.6870    24.8450     2.3330 
  156.2500    -9.2670    74.9970    10.8090     9.9800     9.2660    24.8500     2.3390 
  156.3750    -9.3410    73.9470    11.7710    10.7710    11.1580    24.8690     2.3370 
  156.5000    -9.4220    74.1060    13.0180    11.8390    14.0060    24.8430     2.3280 
  156.6250    -9.4940    75.5000    14.4220    13.0970    16.3370    24.7600     2.3160 
  156.7500    -9.5660    77.5930    15.8490    14.4320    17.1570    24.6230     2.3020 
  156.8750    -9.6410    78.1840    17.2690    15.7800    17.0510    24.6370     2.2890 
  157.0000    -9.7120    75.7070    18.8780    17.2520    17.4130    24.7330     2.2810 
  157.1250    -9.7860    71.8820    21.0690    19.1570    18.8860    24.7840     2.2740 
  157.2500    -9.8640    69.5210    24.3270    21.9420    21.6990    24.8090     2.2680 
  157.3750    -9.9330    68.3800    29.3360    26.2930    27.1170    24.8430     2.2600 
  157.5000   -10.0060    66.2410    36.3890    32.5650    36.0790    24.9000     2.2520 
  157.6250   -10.0830    62.7140    45.4300    40.7230    47.8260    24.9340     2.2510 
  157.7500   -10.1510    59.6320    56.5880    50.4570    60.6980    24.9220     2.2600 
  157.8750   -10.2180    58.7790    69.9550    61.1420    74.4960    24.9580     2.2750 
  158.0000   -10.2900    60.1480    84.1790    71.9130    90.0820    25.0630     2.2900 
  158.1250   -10.3520    62.4080    97.1000    82.0120   106.0990    25.1490     2.2970 
