~V
VERS. 2.00: Ver 2.00
~W
STRT.M 44.0000:
STOP.M 255.0000:
STEP.M 0.1250:
NULL. -999.2500:
UWI. F10191:
~C
DEPT.M :
DEN.GM/CC :
SP.MV :
GR.API :
RML.OHMM :
RI. :
RXO.OHMM :
CALI.CM :
~A
# ...
  224.0000     2.4430   -29.4620    62.7600    85.6190    84.7730    77.4220    25.0710 
  224.1250     2.4760   -28.9920    60.4120    90.5280    91.7420    91.6070    24.9750 
  224.2500     2.5250   -28.6250    54.5220    88.6500    92.9940   113.4190    24.8690 
  224.3750     2.5640   -28.3420    49.7090    75.7250    82.8430   117.6860    24.8260 
  224.5000     2.5660   -28.1130    50.8190    54.7870    62.1130    91.4570    24.8200 
  224.6250     2.5160   -27.9740    54.7830    35.1120    40.3420    51.9830    24.7720 
  224.7500     2.4280   -27.9630    56.0440    21.3120    24.6440    24.2600    24.5530 
  224.8750     2.3460   -28.0720    54.2820    12.9560    15.1600    10.5230    24.0890 
  225.0000     2.3100   -28.2840    53.8730     8.4010     9.9860     5.9470    23.6120 
  225.1250     2.3330   -28.6160    61.8750     6.4430     7.6080     5.0280    23.4320 
  225.2500     2.3710   -29.0160    76.8080     5.7630     6.5680     5.1120    23.6470 
  225.3750     2.3820   -29.4800    91.9180     5.9230     6.4470     5.9380    24.1310 
  225.5000     2.3560   -30.0110   100.4030     6.6380     6.9960     7.5730    24.6380 
  225.6250     2.3270   -30.5430    98.3900     7.6690     8.0250     8.6130    24.9280 
  225.7500     2.3250   -31.0180    91.6630     8.6550     9.1400     9.1870    25.0190 
  225.8750     2.3450   -31.4420    85.7710     9.3410    10.0210     9.5430    25.0330 
  226.0000     2.3700   -31.8480    83.1370     9.5730    10.4300     9.6310    25.0330 
  226.1250     2.3880   -32.1490    84.0750     9.3440    10.2800     9.5490    25.0330 
  226.2500     2.3970   -32.3550    86.3590     8.9820     9.9050     9.4560    25.0330 
  226.3750     2.3950   -32.5150    89.9380     8.7720     9.5930     9.4230    25.0330 
  226.5000     2.3790   -32.6230    93.3820     8.9630     9.5880     9.3680    25.0330 
  226.6250     2.3550   -32.7090    92.1150     9.8780    10.1810     9.7450    25.0210 
  226.7500     2.3370   -32.7910    86.6140    11.5560    11.4370    11.1790    24.9830 
  226.8750     2.3310   -32.8190    80.9220    14.0050    13.4110    14.5260    24.9270 
  227.0000     2.3330   -32.7450    77.2670    16.5270    16.0310    19.6250    24.8800 
  227.1250     2.3370   -32.6140    74.5970    19.5160    18.9490    24.0240    24.8470 
  227.2500     2.3370   -32.4710    71.6760    21.7980    21.3700    24.7070    24.8420 
  227.3750     2.3400   -32.2860    69.4620    22.6840    22.5120    24.6670    24.8670 
  227.5000     2.3500   -32.0010    68.7890    21.8500    21.9180    24.8070    24.8870 
  227.6250     2.3640   -31.6300    70.5200    19.3900    19.5980    23.6320    24.8910 
  227.7500     2.3770   -31.2410    74.9700    16.3120    16.5910    20.1350    24.8940 
  227.8750     2.3880   -30.8650    80.3280    13.3190    13.6200    16.1430    24.9170 
  228.0000     2.3890   -30.5300    82.9570    10.9360    11.1900    11.9320    25.0170 
  228.1250     2.3670   -30.2690    84.2410     9.6750     9.7360     9.1350    25.2270 
  228.2500     2.3350   -30.0780    87.4580     9.5350     9.2390     8.1890    25.3880 
  228.3750     2.3120   -29.9240    89.7870    10.5670     9.7580     8.7060    25.3370 
  228.5000     2.3040   -29.8280    87.3380    12.7480    11.3570    11.4080    25.1210 
  228.6250     2.3110   -29.7590    80.4820    15.8720    14.1070    18.2330    25.0130 
  228.7500     2.3240   -29.6420    75.6950    18.8570    17.1710    25.2380    25.0580 
  228.8750     2.3360   -29.4690    74.8260    20.4200    19.2530    25.5200    25.1560 
  229.0000     2.3500   -29.2420    75.1550    19.7250    19.2070    22.2230    25.2270 
  229.1250     2.3720   -28.9500    72.8740    17.1700    17.1180    20.8250    25.2380 
  229.2500     2.3950   -28.6040    71.7720    14.5240    14.7000    18.3600    25.2310 
  229.3750     2.4000   -28.2210    74.9640    12.6830    12.8310    13.8640    25.2470 
  229.5000     2.3780   -27.8200    79.6250    11.9700    11.8450    11.3830    25.2700 
  229.6250     2.3530   -27.3880    79.3550    12.5710    11.9430    13.8460    25.2240 
  229.7500     2.3580   -26.9960    77.7940    14.1260    12.9080    19.1390    25.1350 
  229.8750     2.4000   -26.6810    81.7150    16.3570    14.6020    21.8680    25.0440 
  230.0000     2.4700   -26.3980    91.5220    18.8260    16.7480    20.8820    24.9560 
  230.1250     2.5410   -26.1110    99.3880    20.7760    18.7460    22.7760    24.8550 
  230.2500     2.5810   -25.8640    99.8830    21.7060    19.9830    24.6140    24.7330 
  230.3750     2.5740   -25.7130    94.3450    21.5610    20.2410    25.0720    24.6250 
  230.5000     2.5260   -25.6410    86.4310    20.6880    19.7220    23.4840    24.6020 
  230.6250     2.4510   -25.5970    80.5310    19.5690    18.7950    22.4120    24.7210 
  230.7500     2.3750   -25.5740    78.6470    18.6500    17.9030    19.1090    24.8820 
  230.8750     2.3190   -25.6060    80.2820    18.1210    17.2600    18.0800    24.9430 
  231.0000     2.2860   -25.6770    83.4260    17.9170    16.8800    19.1850    24.8730 
  231.1250     2.2650   -25.7130    86.2970    17.6630    16.5080    22.7160    24.7600 
  231.2500     2.2490   -25.6900    87.6570    16.9650    15.8140    20.8470    24.7590 
  231.3750     2.2500   -25.6260    87.2300    15.7030    14.6810    18.2140    24.8110 
  231.5000     2.2830   -25.5000    85.5170    14.0480    13.2300    14.1940    24.8110 
  231.6250     2.3440   -25.3190    83.9020    12.4100    11.7710    10.2730    24.7750 
  231.7500     2.3920   -25.1250    81.2780    11.1450    10.5850     8.9210    24.7560 
  231.8750     2.4150   -24.8440    76.1390    10.3600     9.7710     8.6910    24.7160 
  232.0000     2.4220   -24.4990    70.1480     9.9970     9.3080     8.8450    24.6360 
  232.1250     2.4190   -24.1910    68.3770     9.9380     9.1340     8.0810    24.4580 
  232.2500     2.4010   -23.8800    70.2900     9.9700     9.0820     7.7390    24.3030 
  232.3750     2.3700   -23.4910    71.7700     9.9890     9.0570     7.6220    24.2360 
  232.5000     2.3390   -23.1020    69.9900     9.9520     9.0070     7.6800    24.3050 
  232.6250     2.3190   -22.7870    66.2860     9.8600     8.9220     7.9310    24.5060 
  232.7500     2.3110   -22.4610    64.0260     9.7400     8.8160     8.4120    24.6920 
  232.8750     2.3040   -22.1440    65.0300     9.6010     8.6990     8.5220    24.7790 
  233.0000     2.2870   -21.8690    67.9990     9.4730     8.5890     8.1480    24.7690 
  233.1250     2.2760   -21.6520    69.1000     9.4200     8.5330     7.9420    24.6900 
  233.2500     2.2950   -21.5090    67.8010     9.4790     8.5590     8.1540    24.6570 
  233.3750     2.3390   -21.4340    66.5230     9.6580     8.6790     8.5390    24.6870 
  233.5000     2.3840   -21.4050    65.2300     9.9220     8.8730     9.4810    24.7060 
  233.6250     2.4030   -21.4420    63.6170    10.1790     9.0720    10.4660    24.6470 
  233.7500     2.4040   -21.5550    62.8110    10.3140     9.1810    10.8610    24.5060 
  233.8750     2.3880   -21.7180    62.1170    10.2600     9.1360     9.6840    24.3190 
  234.0000     2.3580   -21.9240    60.1410    10.0190     8.9280     8.4370    24.1150 
  234.1250     2.3230   -22.1510    57.3200     9.6620     8.6000     7.5340    23.9770 
  234.2500     2.3020   -22.3240    55.5160     9.3300     8.2690     7.0360    24.0160 
  234.3750     2.3070   -22.4550    55.3480     9.1080     8.0080     6.9100    24.1980 
  234.5000     2.3360   -22.5520    56.7040     9.0310     7.8590     7.4220    24.4310 
  234.6250     2.3730   -22.5940    57.8930     9.1050     7.8480     8.0970    24.6370 
  234.7500     2.4070   -22.5550    58.4790     9.2580     7.9290     7.9070    24.7240 
  234.8750     2.4370   -22.4620    59.2620     9.4330     8.0610     7.3720    24.6710 
  235.0000     2.4630   -22.3690    59.7430     9.5750     8.1950     7.0380    24.5250 
  235.1250     2.4690   -22.1770    59.0970     9.6390     8.2790     7.3620    24.4090 
