~V
VERS. 2.00: Ver 2.00
~W
STRT.M 30.0000:
STOP.M 209.0000:
STEP.M 0.1250:
NULL. -999.2500:
UWI. F10150:
~C
DEPT.M :
SP.MV :
DEN.GM/CC :
GR.API :
RML.OHMM :
RI. :
RXO.OHMM :
CALI.CM :
~A
# ...
  198.7500   -16.7110     2.3170    61.9140     8.0440     6.7080     6.6040    24.6000 
  198.8750   -16.8550     2.2840    61.9140     8.2650     6.9190     6.5990    24.6230 
  199.0000   -16.9970     2.2620    61.9140     8.4810     7.1580     6.5270    24.6360 
  199.1250   -17.1610     2.2510    61.9140     8.6950     7.3900     6.7530    24.5850 
  199.2500   -17.3320     2.2560    61.9140     8.8850     7.5750     7.2580    24.4470 
  199.3750   -17.4400     2.2880    61.9140     8.9920     7.6660     7.7720    24.4290 
  199.5000   -17.4990     2.3380    61.9140     9.0010     7.6710     8.0820    24.4970 
  199.6250   -17.4710     2.3900    61.9140     8.9160     7.6090     8.2730    24.6450 
  199.7500   -17.3300     2.4220    61.9140     8.7700     7.5110     8.0110    24.8120 
  199.8750   -17.0750     2.4170    61.9140     8.6370     7.4170     7.6960    24.9170 
  200.0000   -16.7250     2.3910    61.9140     8.5740     7.3630     7.3180    24.9270 
  200.1250   -16.3250     2.3650    61.9140     8.5850     7.3570     7.2020    24.8730 
  200.2500   -15.8570     2.3520    61.9140     8.6350     7.3900     7.2970    24.8140 
  200.3750   -15.3330     2.3570    61.9140     8.6780     7.4460     7.2930    24.7460 
  200.5000   -14.7150     2.3670    61.9140     8.6980     7.5080     6.9220    24.6570 
  200.6250   -13.9820     2.3680    61.9140     8.7050     7.5640     6.5730    24.6180 
  200.7500   -13.1760     2.3530    61.9140     8.7180     7.6090     6.2660    24.6120 
  200.8750   -12.4430     2.3280    61.9140     8.7450     7.6420     6.0850    24.5550 
  201.0000   -11.7620     2.3090    61.9140     8.7720     7.6660     5.8920    24.4840 
  201.1250   -11.0860     2.3100    61.9140     8.7810     7.6760     5.8130    24.4550 
  201.2500   -10.4580     2.3340    61.9140     8.7730     7.6670     5.9100    24.4670 
  201.3750    -9.9540     2.3750    61.9140     8.7590     7.6400     6.2700    24.5190 
  201.5000    -9.5910     2.4120    61.9140     8.7450     7.6140     6.5820    24.5810 
  201.6250    -9.3870     2.4310    61.9140     8.7240     7.6020     7.0800    24.6180 
  201.7500    -9.2840     2.4290    61.9140     8.6960     7.6070     7.7450    24.6260 
  201.8750    -9.2090     2.4130    61.9140     8.6680     7.6250     8.2000    24.6240 
  202.0000    -9.1680     2.3980    61.9140     8.6500     7.6410     7.9400    24.6120 
  202.1250    -9.1210     2.3900    61.9140     8.6390     7.6490     7.2400    24.6170 
  202.2500    -9.1060     2.3900    61.9140     8.6270     7.6490     6.9810    24.6490 
  202.3750    -9.1010     2.3910    61.9140     8.6150     7.6460     7.2930    24.7160 
  202.5000    -9.1170     2.3920    61.9140     8.6160     7.6460     7.6660    24.7680 
  202.6250    -9.1520     2.3910    61.9140     8.6380     7.6510     7.8770    24.7720 
  202.7500    -9.1890     2.3940    61.9140     8.6800     7.6620     7.6320    24.7140 
  202.8750    -9.2330     2.4040    61.9140     8.7320     7.6730     7.6760    24.5970 
  203.0000    -9.2860     2.4190    61.9140     8.7770     7.6770     8.5340    24.5340 
  203.1250    -9.3760     2.4330    61.9140     8.8040     7.6720     9.7860    24.5140 
  203.2500    -9.4190     2.4430    61.9140     8.8080     7.6640    10.7060    24.5070 
  203.3750    -9.4820     2.4410    61.9140     8.7900     7.6600    10.5840    24.4960 
  203.5000    -9.5220     2.4290    61.9140     8.7640     7.6620    10.0870    24.4730 
  203.6250    -9.5360     2.4070    61.9140     8.7440     7.6680     9.6370    24.4880 
  203.7500    -9.5700     2.3810    61.9140     8.7380     7.6720     9.2160    24.5090 
  203.8750    -9.6260     2.3610    61.9140     8.7410     7.6720     8.9320    24.4730 
  204.0000    -9.6790     2.3540    61.9140     8.7430     7.6700     8.9870    24.4390 
  204.1250    -9.7280     2.3620    61.9140     8.7430     7.6700     9.1460    24.3810 
  204.2500    -9.8070     2.3810    61.9140     8.7430     7.6700     9.6130    24.3430 
  204.3750    -9.8350     2.4100    61.9140     8.7430     7.6700    11.5700    24.3760 
  204.5000    -9.8510     2.4450    61.9140     8.7430     7.6700    17.0250    24.3870 
  204.6250    -9.8680     2.4820    61.9140     8.7430     7.6700    22.9320    24.3960 
  204.7500  -999.2500     2.5130    61.9140     8.7430     7.6700    21.2460    24.4500 
  204.8750  -999.2500     2.5170    61.9140     8.7430     7.6700    13.3010    24.6290 
  205.0000  -999.2500     2.4950    61.9140     8.7430     7.6700     9.3130    24.8210 
  205.1250  -999.2500     2.4520    61.9140     8.7430     7.6700     7.5180    24.9580 
  205.2500  -999.2500     2.3940    61.9140     8.7430     7.6700     6.9160    24.9440 
  205.3750  -999.2500     2.3210    61.9140     8.7430     7.6700     5.9350    24.3180 
  205.5000  -999.2500     2.2330    61.9140     8.7430     7.6700     5.1180    23.1050 
  205.6250  -999.2500     2.1330    61.9140     8.7430     7.6700     4.6160    22.0980 
  205.7500  -999.2500     2.0300    61.9140     8.7430     7.6700     4.4860    21.7140 
  205.8750  -999.2500     1.9420    61.9140     8.7430     7.6700     4.4850    21.7140 
  206.0000  -999.2500     1.8750    61.9140     8.7430     7.6700     4.4840    21.7140 
  206.1250  -999.2500     1.8320    61.9140     8.7430     7.6700     4.4830    21.7140 
  206.2500  -999.2500     1.8080    61.9140     8.7430     7.6700     4.4840    21.7140 
  206.3750  -999.2500     1.8000    61.9140     8.7430     7.6700     4.4850    21.7140 
  206.5000  -999.2500     1.8000    61.9140     8.7430     7.6700     4.4850    21.7140 
  206.6250  -999.2500     1.8030    61.9140     8.7430     7.6700     4.4860    21.7140 
  206.7500  -999.2500     1.8050    61.9140     8.7430     7.6700     4.4870    21.7140 
  206.8750  -999.2500     1.8050    61.9140     8.7430     7.6700     4.4870    21.7140 
  207.0000  -999.2500     1.8030    61.9140     8.7430     7.6700     4.4860    21.7140 
  207.1250  -999.2500     1.8010    61.9140     8.7430     7.6700     4.4860    21.7140 
  207.2500  -999.2500     1.7990    61.9140     8.7430     7.6700     4.4840    21.7140 
  207.3750  -999.2500     1.7980    61.9140     8.7430     7.6700     4.4830    21.7140 
  207.5000  -999.2500     1.7970    61.9140     8.7430     7.6700     4.4840    21.7140 
  207.6250  -999.2500     1.7970    61.9140     8.7430     7.6700     4.4850    21.7140 
  207.7500  -999.2500     1.7980    61.9140     8.7430     7.6700     4.4840    21.7140 
  207.8750  -999.2500     1.8000    61.9140     8.7430     7.6700     4.4830    21.7140 
  208.0000  -999.2500     1.8020    61.9140     8.7430     7.6700     4.4830    21.7140 
  208.1250  -999.2500     1.8050    61.9140     8.7430     7.6700     4.4830    21.7140 
  208.2500  -999.2500     1.8080    61.9140     8.7430     7.6700     4.4820    21.7130 
  208.3750  -999.2500     1.8100    61.9140     8.7430     7.6700     4.4810    21.7120 
  208.5000  -999.2500     1.8110    61.9140     8.7430     7.6700     4.4790    21.7100 
  208.6250  -999.2500     1.8100    61.9140     8.7430     7.6700     4.4780    21.7090 
  208.7500  -999.2500     1.8090    61.9140     8.7430     7.6700     4.4770    21.7080 
  208.8750  -999.2500     1.8070  -999.2500  -999.2500  -999.2500  -999.2500  -999.2500 
  209.0000  -999.2500     1.8060  -999.2500  -999.2500  -999.2500  -999.2500  -999.2500 
