~V
VERS. 2.00: Ver 2.00
~W
STRT.M 55.0000:
STOP.M 247.0000:
STEP.M 0.1250:
NULL. -999.2500:
UWI. F10183:
~C
DEPT.M :
SP.MV :
GR.API :
RML.OHMM :
RI. :
RXO.OHMM :
CALI.CM :
DEN.GM/CC :
~A
# ...
  133.7500    -3.6500    61.2970    20.1330    17.2840    23.7230    24.4100     2.1850 
  133.8750    -3.5800    58.1500    21.9890    19.1850    27.1700    24.5240     2.1690 
  134.0000    -3.4790    54.2070    22.9800    20.5160    27.5530    24.5460     2.1610 
  134.1250    -3.3570    52.1330    22.7500    20.7850    25.1870    24.5140     2.1640 
  134.2500    -3.1830    51.8540    21.7530    20.2230    23.0010    24.4790     2.1720 
  134.3750    -2.9540    53.0470    20.4960    19.2290    21.6160    24.4380     2.1860 
  134.5000    -2.6920    54.7540    19.4580    18.2580    21.0320    24.4040     2.2090 
  134.6250    -2.4260    57.1150    19.0020    17.6860    20.5970    24.3480     2.2540 
  134.7500    -2.2000    58.8660    19.0550    17.5360    19.7880    24.2660     2.3190 
  134.8750    -1.9970    56.9990    19.4610    17.7310    18.9730    24.1840     2.3970 
  135.0000    -1.8190    53.6610    19.9770    18.1050    19.0920    24.1220     2.4680 
  135.1250    -1.6590    52.4790    20.2800    18.4160    20.1350    24.0400     2.5070 
  135.2500    -1.5350    52.3500    20.2510    18.5110    20.5300    23.9680     2.5130 
  135.3750    -1.4340    50.6900    19.9720    18.4020    20.5040    23.9360     2.4950 
  135.5000    -1.3920    48.0030    19.7000    18.2530    20.0700    23.9080     2.4720 
  135.6250    -1.3930    47.1920    19.8320    18.3670    19.1880    23.8740     2.4610 
  135.7500    -1.3820    47.4280    20.5030    18.8950    19.3850    23.8750     2.4680 
  135.8750    -1.3850    46.3300    21.6400    19.8370    21.0760    23.8850     2.4900 
  136.0000    -1.3980    43.0970    22.9750    21.0260    23.3460    23.8730     2.5180 
  136.1250    -1.4250    41.0360    24.0500    22.1100    24.6210    23.8940     2.5410 
  136.2500    -1.4530    42.4640    24.5350    22.7520    24.3010    23.9510     2.5530 
  136.3750    -1.5120    45.1440    24.2770    22.7500    23.3590    23.9930     2.5590 
  136.5000    -1.5750    45.7630    23.3390    22.0960    23.0980    24.0200     2.5640 
  136.6250    -1.6070    45.7870    21.9650    20.9610    22.5380    24.0380     2.5670 
  136.7500    -1.6360    47.5170    20.6220    19.7770    20.9660    24.0220     2.5660 
  136.8750    -1.6510    49.1400    19.6300    18.8380    18.8020    23.9890     2.5560 
  137.0000    -1.6540    49.4200    19.2150    18.3580    17.2230    23.9560     2.5390 
  137.1250    -1.6540    52.0490    19.5780    18.5420    17.2340    23.8940     2.5180 
  137.2500    -1.6780    56.1710    20.4920    19.2490    18.4300    23.8450     2.5020 
  137.3750    -1.6850    57.2630    21.6820    20.2910    20.3620    23.8690     2.4970 
  137.5000    -1.6660    53.3090    22.7770    21.3720    22.7660    23.9480     2.5040 
  137.6250    -1.6460    48.9880    23.3050    22.0590    24.6480    24.0400     2.5190 
  137.7500    -1.6330    49.4780    23.1520    22.1530    25.5240    24.1400     2.5300 
  137.8750    -1.6010    52.6230    22.4020    21.6530    24.8530    24.2160     2.5310 
  138.0000    -1.5560    54.0480    21.3240    20.7610    22.2870    24.2610     2.5210 
  138.1250    -1.4910    52.2400    20.2930    19.8040    19.9870    24.3100     2.5090 
  138.2500    -1.4160    49.5220    19.5600    19.0530    18.7860    24.3450     2.5030 
  138.3750    -1.3550    47.3600    19.1970    18.6030    18.6700    24.3380     2.5060 
  138.5000    -1.2940    46.3670    19.1680    18.4540    19.2250    24.3290     2.5170 
  138.6250    -1.2560    46.4730    19.4020    18.5720    20.2320    24.3470     2.5290 
  138.7500    -1.2270    47.2530    19.7510    18.8310    21.2280    24.3410     2.5350 
  138.8750    -1.2160    49.0390    20.1640    19.1800    21.5150    24.3200     2.5330 
  139.0000    -1.2210    51.4590    20.6370    19.6040    21.5350    24.3170     2.5250 
  139.1250    -1.2850    50.7370    21.2080    20.1350    21.1400    24.2920     2.5130 
  139.2500    -1.3950    48.5800    21.8810    20.7720    21.2760    24.2490     2.5010 
  139.3750    -1.4910    48.8300    22.6460    21.5140    21.7930    24.2140     2.4900 
  139.5000    -1.5750    52.2770    23.4650    22.3300    22.8690    24.1620     2.4840 
  139.6250    -1.6420    54.0650    24.2590    23.1510    24.4000    24.0730     2.4830 
  139.7500    -1.7000    52.0820    24.9570    23.8970    24.9730    23.9790     2.4860 
  139.8750    -1.7490    48.6000    25.5000    24.5060    24.7270    23.8910     2.4880 
  140.0000    -1.8070    46.4100    25.8360    24.9200    24.5040    23.7980     2.4870 
  140.1250    -1.8590    47.2300    25.8880    25.0520    24.2900    23.7370     2.4790 
  140.2500    -1.9040    49.7440    25.6960    24.9310    24.3450    23.7340     2.4670 
  140.3750    -1.9590    52.0290    25.2830    24.5770    24.9730    23.7650     2.4570 
  140.5000    -2.0140    51.4590    24.6870    24.0290    25.5650    23.8350     2.4550 
  140.6250    -2.0600    47.6910    23.9820    23.3540    24.7760    23.9630     2.4620 
  140.7500    -2.1180    47.4210    23.3260    22.7040    23.9720    24.0810     2.4740 
  140.8750    -2.1990    52.9510    22.8820    22.2270    23.6280    24.1550     2.4840 
  141.0000    -2.2640    58.1610    22.7980    22.0610    22.9860    24.2050     2.4910 
  141.1250    -2.3620    56.9880    23.2240    22.3600    22.6200    24.2110     2.4940 
  141.2500    -2.4440    53.8680    24.0000    23.0120    23.2850    24.1660     2.4970 
  141.3750    -2.5220    52.9630    24.8910    23.8350    25.1290    24.1110     2.4990 
  141.5000    -2.6060    54.1670    25.5760    24.5530    27.2990    24.0610     2.4970 
  141.6250    -2.7020    56.6850    25.6640    24.7860    28.7050    23.9970     2.4870 
  141.7500    -2.8020    59.0440    25.1590    24.4620    28.6700    23.9520     2.4720 
  141.8750    -2.8870    58.7510    24.2330    23.6850    27.7610    23.9310     2.4560 
  142.0000    -2.9850    56.1180    23.2040    22.7230    25.0550    23.8880     2.4440 
  142.1250    -2.9980    55.5280    22.4580    21.9250    22.1240    23.8390     2.4420 
  142.2500    -3.0150    57.4190    22.1080    21.4490    21.2150    23.8390     2.4460 
  142.3750    -3.0460    58.5140    22.0930    21.2810    21.5470    23.8440     2.4540 
  142.5000    -3.0880    56.4930    22.2500    21.3130    22.0400    23.8180     2.4650 
  142.6250    -3.1230    52.5960    22.3820    21.3900    22.3160    23.8010     2.4730 
  142.7500    -3.1130    50.5970    22.3790    21.3880    22.0340    23.7940     2.4770 
  142.8750    -3.1020    51.4360    22.2530    21.2880    21.7160    23.7780     2.4760 
  143.0000    -3.0940    53.6110    22.1000    21.1480    21.5220    23.7780     2.4710 
  143.1250    -3.1460    54.1460    22.0450    21.0700    21.2400    23.7990     2.4650 
  143.2500    -3.1800    53.0450    22.1070    21.0890    21.4060    23.7910     2.4640 
  143.3750    -3.1950    52.9280    22.2410    21.1790    21.7670    23.7670     2.4690 
  143.5000    -3.1920    53.5060    22.3590    21.2730    21.8920    23.7560     2.4780 
  143.6250    -3.1800    53.0800    22.3410    21.2630    22.2460    23.7350     2.4890 
  143.7500    -3.1680    53.4910    22.1350    21.0890    22.5080    23.7160     2.5000 
  143.8750    -3.1100    55.4850    21.7330    20.7300    22.3860    23.7370     2.5090 
  144.0000    -3.0330    55.5160    21.1830    20.2210    21.7470    23.7730     2.5170 
  144.1250    -2.9070    50.8790    20.5780    19.6350    20.8760    23.7930     2.5210 
  144.2500    -2.7530    47.8960    20.0330    19.0830    19.3400    23.8330     2.5220 
  144.3750    -2.5670    48.9880    19.6150    18.6330    18.1710    23.8860     2.5160 
  144.5000    -2.3620    50.0820    19.3420    18.3100    17.5920    23.9220     2.5030 
  144.6250    -2.1590    48.7610    19.2040    18.1160    17.5330    23.9640     2.4860 
  144.7500    -1.9810    48.3580    19.1420    18.0030    17.6860    24.0010     2.4740 
  144.8750    -1.8520    49.6150    19.1420    17.9570    17.6580    23.9920     2.4700 
