~V
VERS. 2.00: Ver 2.00
~W
STRT.M 55.0000:
STOP.M 239.0000:
STEP.M 0.1250:
NULL. -999.2500:
UWI. F10186:
~C
DEPT.M :
GR.API :
RML.OHMM :
RI. :
RXO.OHMM :
CALI.CM :
DEN.GM/CC :
SP.MV :
~A
# ...
   66.2500    57.7860     8.6890     7.2580     8.2620    21.7900     2.1730   -17.8690 
   66.3750    60.0580     8.6280     7.2080     8.3900    21.7760     2.1700   -17.4370 
   66.5000    64.3000     8.5530     7.1530     8.4850    21.7380     2.1690   -17.0850 
   66.6250    66.8070     8.4760     7.0950     8.3980    21.7110     2.1700   -16.7480 
   66.7500    66.4800     8.4130     7.0430     8.2980    21.7040     2.1730   -16.4200 
   66.8750    64.6650     8.3830     7.0030     8.2770    21.7220     2.1750   -16.1470 
   67.0000    62.5980     8.3950     6.9820     8.3320    21.7460     2.1760   -15.9500 
   67.1250    60.7100     8.4540     6.9860     8.4700    21.7770     2.1770   -15.8260 
   67.2500    59.2380     8.5330     7.0080     8.5880    21.7900     2.1780   -15.7450 
   67.3750    60.0720     8.6140     7.0430     8.5840    21.7940     2.1800   -15.7240 
   67.5000    62.6880     8.6830     7.0860     8.5050    21.7940     2.1810   -15.7540 
   67.6250    63.5360     8.7340     7.1340     8.4550    21.7900     2.1820   -15.8410 
   67.7500    62.9070     8.7710     7.1840     8.4220    21.7880     2.1830   -16.0020 
   67.8750    62.8990     8.7970     7.2340     8.3730    21.8030     2.1840   -16.2080 
   68.0000    62.8630     8.8130     7.2780     8.3880    21.8310     2.1850   -16.3830 
   68.1250    60.6590     8.8170     7.3120     8.4660    21.8290     2.1860   -16.6060 
   68.2500    58.7050     8.8110     7.3290     8.5510    21.8040     2.1880   -16.8530 
   68.3750    58.6050     8.7880     7.3220     8.6020    21.7780     2.1910   -17.0540 
   68.5000    59.4180     8.7360     7.2820     8.6270    21.7460     2.1930   -17.2310 
   68.6250    59.5610     8.6320     7.1940     8.5920    21.7310     2.1930   -17.3700 
   68.7500    59.3610     8.4770     7.0630     8.5320    21.7290     2.1910   -17.4330 
   68.8750    59.9540     8.2840     6.8980     8.4650    21.7490     2.1860   -17.4630 
   69.0000    61.3960     8.0860     6.7210     8.4020    21.8020     2.1820   -17.4820 
   69.1250    62.5410     7.9340     6.5650     8.3240    21.8750     2.1790   -17.3960 
   69.2500    63.2090     7.8570     6.4590     8.2510    21.9460     2.1780   -17.2990 
   69.3750    62.1400     7.8580     6.4140     8.2270    22.0130     2.1770   -17.2650 
   69.5000    58.4750     7.9200     6.4240     8.2760    22.0420     2.1730   -17.2130 
   69.6250    54.0040     8.0060     6.4660     8.4230    22.0080     2.1680   -17.1960 
   69.7500    52.5740     8.0740     6.5090     8.4820    21.9380     2.1640   -17.2650 
   69.8750    54.8220     8.1070     6.5340     8.4140    21.9100     2.1620   -17.3060 
   70.0000    58.1650     8.1080     6.5400     8.3200    21.9420     2.1620   -17.3600 
   70.1250    60.5160     8.1010     6.5400     8.3210    22.0090     2.1630   -17.5260 
   70.2500    61.0500     8.1120     6.5490     8.3620    22.0750     2.1640   -17.6860 
   70.3750    59.7250     8.1480     6.5750     8.4440    22.1490     2.1650   -17.7780 
   70.5000    59.3200     8.1980     6.6130     8.6000    22.2360     2.1660   -17.8660 
   70.6250    60.6210     8.2340     6.6450     8.7400    22.2670     2.1660   -17.8880 
   70.7500    59.2990     8.2310     6.6520     8.7450    22.2070     2.1660   -17.8450 
   70.8750    55.8550     8.1800     6.6260     8.5510    22.0990     2.1640   -17.8110 
   71.0000    53.5300     8.0880     6.5660     8.2290    22.0220     2.1590   -17.7200 
   71.1250    53.3510     7.9670     6.4770     8.0000    21.9990     2.1500   -17.5340 
   71.2500    52.2570     7.8410     6.3780     7.9340    22.0000     2.1400   -17.3440 
   71.3750    51.4380     7.7190     6.2800     7.9070    22.0190     2.1320   -17.1320 
   71.5000    53.0420     7.6080     6.1910     7.8530    22.0790     2.1280   -16.8470 
   71.6250    55.9860     7.5170     6.1230     7.8260    22.1670     2.1300   -16.5830 
   71.7500    58.0540     7.4520     6.0770     7.8470    22.2390     2.1330   -16.2610 
   71.8750    57.5710     7.4200     6.0540     7.8640    22.2720     2.1350   -15.8750 
   72.0000    55.5270     7.4220     6.0530     7.8140    22.2900     2.1370   -15.5160 
   72.1250    55.6130     7.4510     6.0700     7.7720    22.3050     2.1390   -15.0890 
   72.2500    58.0940     7.4860     6.0900     7.8160    22.3160     2.1430   -14.5980 
   72.3750    59.2180     7.5150     6.1060     7.9260    22.3490     2.1480   -14.1110 
   72.5000    57.3320     7.5340     6.1110     7.9470    22.3720     2.1540   -13.6060 
   72.6250    55.9310     7.5380     6.1020     7.8560    22.3840     2.1640   -13.0400 
   72.7500    57.0440     7.5200     6.0760     7.7120    22.3900     2.1760   -12.4620 
   72.8750    61.4520     7.4740     6.0300     7.7000    22.3960     2.1870   -11.8370 
   73.0000    67.8230     7.4020     5.9660     7.8960    22.4000     2.1970   -11.1520 
   73.1250    72.4260     7.3520     5.9140     7.8920    22.4160     2.2090   -10.4900 
   73.2500    74.2880     7.4000     5.9230     7.8250    22.4770     2.2310    -9.8130 
   73.3750    75.9660     7.6100     6.0450     7.8700    22.6230     2.2650    -9.0990 
   73.5000    78.5940     7.9930     6.3040     8.0590    22.9310     2.3110    -8.4550 
   73.6250    78.3010     8.4910     6.6900     8.7790    23.4430     2.3580    -7.9360 
   73.7500    75.9500     8.9440     7.0980     9.9290    23.8020     2.3870    -7.5360 
   73.8750    76.5330     9.2170     7.4300    11.2790    23.5440     2.3870    -7.3380 
   74.0000    80.5100     9.2270     7.6030    11.1400    22.8220     2.3570    -7.3320 
   74.1250    82.1730     8.9470     7.5540     9.7850    22.3180     2.3110    -7.4030 
   74.2500    79.3190     8.5180     7.3530     8.2350    22.1320     2.2740    -7.5600 
   74.3750    75.2400     8.0540     7.0710     7.6470    22.1270     2.2560    -7.7950 
   74.5000    73.0580     7.6470     6.7780     7.8530    22.2190     2.2560    -7.9600 
   74.6250    74.6300     7.3750     6.5440     8.3560    22.3940     2.2640    -8.0350 
   74.7500    77.9520     7.2230     6.3840     8.5280    22.7370     2.2690    -8.0850 
   74.8750    78.3830     7.1610     6.2890     8.1580    23.1380     2.2700    -8.0300 
   75.0000    74.6080     7.1390     6.2290     8.9930    23.2680     2.2690    -7.8560 
   75.1250    75.7140     7.0860     6.1550    10.9600    22.9510     2.2710    -7.6810 
   75.2500    83.2360     6.9610     6.0330    11.3090    22.7330     2.2750    -7.4930 
   75.3750    88.6210     6.7680     5.8580     8.3090    22.8450     2.2770    -7.3010 
   75.5000    88.1790     6.5510     5.6520     6.0210    23.2520     2.2780    -7.2220 
   75.6250    89.4560     6.3730     5.4570     5.3080    23.4680     2.2790    -7.2460 
   75.7500    92.4670     6.2730     5.3040     5.2200    23.4230     2.2850    -7.3100 
   75.8750    90.9200     6.2720     5.2140     5.3080    23.1690     2.2950    -7.4840 
   76.0000    84.9030     6.3920     5.2120     5.5420    22.8100     2.3100    -7.7220 
   76.1250    81.5450     6.7010     5.3530     5.7580    22.7470     2.3250    -8.0260 
   76.2500    81.5560     7.2030     5.6540     5.8470    22.8820     2.3360    -8.4760 
   76.3750    80.4340     7.8940     6.1300     5.8930    22.9690     2.3380    -9.0910 
   76.5000    74.1710     8.7530     6.7830     6.3100    22.9600     2.3250    -9.7790 
   76.6250    62.5540     9.8250     7.6560     7.2640    23.0060     2.2910   -10.4630 
   76.7500    51.9140    11.1690     8.7690     8.5070    23.2370     2.2420   -11.1160 
   76.8750    48.1380    12.8880    10.1880     9.5430    23.6590     2.1930   -11.7180 
   77.0000    49.8210    14.9680    11.9180    10.6840    23.9920     2.1610   -12.2880 
   77.1250    51.5810    17.0740    13.7610    13.8880    23.9990     2.1680   -12.7680 
   77.2500    51.2960    18.5730    15.2370    19.6960    23.9260     2.2120   -13.0990 
   77.3750    51.1090    18.8940    15.8550    28.7890    23.8350     2.2770   -13.2610 
