~V
VERS. 2.00: Ver 2.00
~W
STRT.M 54.0000:
STOP.M 236.0000:
STEP.M 0.1250:
NULL. -999.2500:
UWI. F10195:
~C
DEPT.M :
GR.API :
RML.OHMM :
RI. :
RXO.OHMM :
CALI.CM :
SP.MV :
DEN.GM/CC :
~A
# ...
  222.7500   103.1020     8.2660     7.2340     7.8150    22.4110   -21.0160     2.4390 
  222.8750   105.5520     8.1520     7.2390     8.0530    22.6670   -21.3120     2.4350 
  223.0000   102.5920     8.0280     7.2440     8.2370    23.0220   -21.6490     2.4260 
  223.1250    96.3740     7.9650     7.2490     8.1640    23.4280   -21.9680     2.4080 
  223.2500    94.8440     8.0130     7.2490     7.9200    23.7220   -22.2700     2.3860 
  223.3750    98.9180     8.1200     7.2390     7.7910    23.6800   -22.5360     2.3710 
  223.5000   103.5960     8.2380     7.2140     7.7810    23.4050   -22.7050     2.3690 
  223.6250   105.6300     8.3380     7.1750     7.7460    23.1400   -22.8040     2.3760 
  223.7500   105.4650     8.4110     7.1320     7.6920    22.9890   -22.8440     2.3850 
  223.8750   104.1420     8.4570     7.0950     7.6780    22.9540   -22.7620     2.3870 
  224.0000   102.0290     8.4520     7.0600     7.7040    22.9820   -22.6290     2.3830 
  224.1250   100.5170     8.3730     7.0090     7.6960    23.0400   -22.5300     2.3790 
  224.2500   100.6260     8.2210     6.9260     7.6870    23.1020   -22.4090     2.3800 
  224.3750   101.3380     8.0730     6.8320     7.7230    23.1920   -22.2210     2.3820 
  224.5000   103.0150     8.0360     6.7810     7.8380    23.2870   -22.0610     2.3820 
  224.6250   105.6030     8.2160     6.8610     7.9990    23.2800   -21.9560     2.3820 
  224.7500   107.1180     8.7050     7.1810     8.1120    23.1500   -21.8170     2.3860 
  224.8750   106.4240     9.3790     7.6850     8.6500    22.9810   -21.6780     2.3940 
  225.0000   104.5550    10.0580     8.2570     9.9790    22.8080   -21.5440     2.4040 
  225.1250   103.5520    10.5330     8.7350    11.4090    22.7810   -21.3640     2.4180 
  225.2500   103.1060    10.6160     8.9380    11.6240    22.9950   -21.0590     2.4260 
  225.3750   102.2460    10.4130     8.8920     9.6260    23.2750   -20.6680     2.4240 
  225.5000   101.7770    10.0820     8.6880     8.7980    23.5190   -20.1910     2.4180 
  225.6250   103.1780     9.7690     8.4380     9.3940    23.5850   -19.5940     2.4220 
  225.7500   106.0610     9.5320     8.2120    10.1520    23.5070   -18.8840     2.4350 
  225.8750   106.0610     9.2950     7.9950     9.4710    23.5270   -18.1170     2.4360 
  226.0000   106.0610     8.9750     7.7400     8.0010    23.7910   -17.2440     2.4140 
  226.1250   106.0610     8.5360     7.4050     7.0380    24.0170   -16.2860     2.3860 
  226.2500   106.0610     8.0220     6.9860     6.7760    24.0160   -15.3320     2.3750 
  226.3750   106.0610     7.5490     6.5680     6.6450    24.0570   -14.4360     2.3710 
  226.5000   106.0610     7.1800     6.2220     6.3840    24.2990   -13.6140     2.3510 
  226.6250   106.0610     6.9180     5.9780     6.0330    24.3700   -12.8800     2.3200 
  226.7500   106.0610     6.7550     5.8420     5.9030    23.9370   -12.2800     2.3080 
  226.8750   106.0610     6.6920     5.7850     6.0070    23.5400   -11.7390     2.3260 
  227.0000   106.0610     6.7510     5.8060     6.1900    23.5020   -11.2700     2.3480 
  227.1250   106.0610     6.9260     5.8960     6.3120    23.7350   -10.9030     2.3540 
  227.2500   106.0610     7.1660     6.0340     6.7810    23.7460   -10.6070     2.3550 
  227.3750   106.0610     7.3730     6.1670     7.3590    23.6060   -10.3380     2.3650 
  227.5000   106.0610     7.4740     6.2480     7.0350    23.5440   -10.0280     2.3680 
  227.6250   106.0610     7.4550     6.2600     5.9720    23.7650    -9.7250     2.3380 
  227.7500   106.0610     7.3680     6.2280     5.4940    23.6730    -9.4250     2.2780 
  227.8750   106.0610     7.2990     6.2030     5.3910    23.4630    -9.1360     2.2230 
  228.0000   106.0610     7.2770     6.2070     5.3900    23.5080    -8.8870     2.1930 
  228.1250   106.0610     7.3080     6.2400     5.3720    23.8290    -8.6750     2.1920 
  228.2500   106.0610     7.3770     6.2910     5.3590    24.3640    -8.4990     2.2100 
  228.3750   106.0610     7.4480     6.3420     5.4670    24.7520    -8.3420     2.2270 
  228.5000   106.0610     7.5160     6.3950     5.6770    24.8500    -8.2350     2.2290 
  228.6250   106.0610     7.6120     6.4730     5.9490    25.1040    -8.1130     2.2190 
  228.7500   106.0610     7.7890     6.6110     5.8880    25.0720    -8.0250     2.2120 
  228.8750   106.0610     8.0580     6.8130     5.8920    24.9160    -7.9910     2.2190 
  229.0000   106.0610     8.4000     7.0670     6.2420    24.9030    -7.9990     2.2430 
  229.1250   106.0610     8.7600     7.3410     6.7940    25.0400    -7.9910     2.2710 
  229.2500   106.0610     9.0440     7.5720     7.2110    24.8970    -7.9740     2.2870 
  229.3750   106.0610     9.2190     7.7160     7.5200    24.4540    -7.9700     2.2960 
  229.5000   106.0610     9.3050     7.7530     7.8490    24.0050    -7.9610     2.3040 
  229.6250   106.0610     9.3500     7.6990     8.3400    23.8470    -7.9730     2.3030 
  229.7500   106.0610     9.4160     7.5930     8.9840    23.7280    -7.9640     2.2850 
  229.8750   106.0610     9.5300     7.4850     9.0500    23.6470    -7.9420     2.2610 
  230.0000   106.0610     9.6610     7.3930     7.9400    23.4860    -7.9070     2.2410 
  230.1250   106.0610     9.7450     7.3250     6.7070    23.4670    -7.8690     2.2200 
  230.2500   106.0610     9.7470     7.2850     5.9260    23.7270    -7.8310     2.1870 
  230.3750   106.0610     9.7020     7.2630     5.5380    23.9930    -7.7990     2.1670 
  230.5000   106.0610     9.6370     7.2510     5.6510    24.0300    -7.7850     2.1870 
  230.6250   106.0610     9.5770     7.2470     6.2730    23.8380    -7.7960     2.2460 
  230.7500   106.0610     9.5340     7.2430     7.0570    23.5290    -7.8050     2.3140 
  230.8750   106.0610     9.4900     7.2460     7.6810    23.3460    -7.7840     2.3540 
  231.0000   106.0610     9.4410     7.2690     8.1790    23.3060    -7.7760     2.3590 
  231.1250   106.0610     9.4010     7.3210     8.5870    23.3550    -7.7960     2.3400 
  231.2500   106.0610     9.3820     7.3970     8.7210    23.4120    -7.8810     2.3140 
  231.3750   106.0610     9.3810     7.4700     8.2180    23.3400    -8.0060     2.3000 
  231.5000   106.0610     9.4040     7.5200     7.1550    23.1950    -8.1360     2.3030 
  231.6250   106.0610     9.4450     7.5380     6.3510    23.0950    -8.2410     2.3140 
  231.7500   106.0610     9.4450     7.5380     5.9970    23.0800    -8.3650     2.3230 
  231.8750   106.0610     9.4450     7.5380     6.3760    23.0960    -8.4920     2.3330 
  232.0000   106.0610     9.4450     7.5380     7.0120    23.1000    -8.5860     2.3470 
  232.1250   106.0610     9.4450     7.5380     7.0100    23.0810    -8.6440     2.3580 
  232.2500   106.0610     9.4450     7.5380     6.9170    23.0540    -8.6440     2.3600 
  232.3750   106.0610     9.4450     7.5380     7.5260    23.0380    -8.6440     2.3600 
  232.5000   106.0610     9.4450     7.5380     8.3660    23.0340    -8.6440     2.3620 
  232.6250   106.0610     9.4450     7.5380     8.6300    22.9780  -999.2500     2.3640 
  232.7500   106.0610     9.4450     7.5380     8.7770    22.9120  -999.2500     2.3640 
  232.8750   106.0610     9.4450     7.5380     8.7920    22.7360  -999.2500     2.3620 
  233.0000   106.0610     9.4450     7.5380     8.7370    22.6950  -999.2500     2.3590 
  233.1250   106.0610     9.4450     7.5380     8.9680    22.6590  -999.2500     2.3520 
  233.2500   106.0610     9.4450     7.5380     8.9770    22.6060  -999.2500     2.3420 
  233.3750   106.0610     9.4450     7.5380     8.8660    22.5530  -999.2500     2.3350 
  233.5000   106.0610     9.4450     7.5380     8.7750    22.4790  -999.2500     2.3330 
  233.6250   106.0610     9.4450     7.5380     8.9350    22.4140  -999.2500     2.3270 
  233.7500   106.0610     9.4450     7.5380     8.7580    22.2210  -999.2500     2.3100 
  233.8750   106.0610     9.4450     7.5380     7.8130    21.2130  -999.2500     2.2470 
