~V
VERS. 2.00: Ver 2.00
~W
STRT.M 57.0000:
STOP.M 214.0000:
STEP.M 0.1250:
NULL. -999.2500:
UWI. F10147:
~C
DEPT.M :
SP.MV :
GR.API :
RML.OHMM :
RI. :
RXO.OHMM :
CALI.CM :
DEN.GM/CC :
~A
# ...
  135.7500    -7.2990    75.0070    18.2320    17.1610    16.5750    25.1910     2.5190 
  135.8750    -7.2640    76.1960    18.6910    17.6630    17.9540    25.0800     2.5320 
  136.0000    -7.2240    75.6480    19.0410    18.1050    18.2510    25.0290     2.5400 
  136.1250    -7.1740    73.9730    19.0840    18.3060    17.4860    25.0660     2.5400 
  136.2500    -7.1320    72.3400    18.5850    18.0390    16.7580    25.1030     2.5360 
  136.3750    -7.1010    72.3360    17.2910    17.0270    16.7860    25.0930     2.5310 
  136.5000    -7.0630    73.4270    15.2930    15.2900    16.4500    25.0620     2.5230 
  136.6250    -7.0230    73.4050    12.9630    13.1330    14.3720    25.0150     2.5050 
  136.7500    -6.9900    72.4000    10.7110    10.9440    10.8930    24.9630     2.4730 
  136.8750    -6.9560    73.6710     8.9240     9.1190     7.8120    24.9530     2.4270 
  137.0000    -6.9260    77.7790     7.7250     7.8200     6.1650    24.9830     2.3780 
  137.1250    -6.9070    81.1790     7.0350     7.0180     5.6140    25.0200     2.3360 
  137.2500    -6.8880    81.2310     6.7180     6.6200     5.5100    25.0450     2.3080 
  137.3750    -6.8730    79.3620     6.6260     6.5170     5.5010    25.0650     2.2950 
  137.5000    -6.8720    79.0590     6.6340     6.5620     5.5060    25.0840     2.2950 
  137.6250    -6.8710    82.5630     6.6740     6.6300     5.5440    25.0960     2.2990 
  137.7500    -6.8680    87.8980     6.7210     6.6530     5.6350    25.1010     2.3030 
  137.8750    -6.8720    89.2800     6.7420     6.5840     5.7320    25.1040     2.3030 
  138.0000    -6.8780    85.6050     6.7000     6.4210     5.7340    25.1040     2.3010 
  138.1250    -6.8800    82.7400     6.5690     6.1880     5.5940    25.1030     2.3020 
  138.2500    -6.8840    85.5300     6.3580     5.9160     5.3920    25.1000     2.3090 
  138.3750    -6.8890    90.3550     6.1290     5.6520     5.2720    25.0850     2.3200 
  138.5000    -6.8900    91.1730     5.9780     5.4610     5.2690    25.0640     2.3300 
  138.6250    -6.9020    87.8360     6.0080     5.4140     5.3520    25.0540     2.3350 
  138.7500    -6.9250    84.0420     6.3190     5.5900     5.6250    25.0580     2.3360 
  138.8750    -6.9450    81.5990     7.0420     6.1040     6.4790    25.0590     2.3340 
  139.0000    -6.9690    79.4960     8.1870     6.9930     8.0950    25.0450     2.3310 
  139.1250    -7.0040    77.0780     9.6300     8.1980    10.1740    25.0350     2.3300 
  139.2500    -7.0350    74.3120    11.1340     9.5620    12.1280    25.0430     2.3310 
  139.3750    -7.0610    72.1970    12.2950    10.7730    13.2560    25.0530     2.3320 
  139.5000    -7.0900    71.9790    12.8210    11.5390    13.3440    25.0440     2.3280 
  139.6250    -7.1110    73.6610    12.6810    11.7470    12.7360    25.0120     2.3160 
  139.7500    -7.1280    75.9590    12.0500    11.4680    11.9570    24.9710     2.3010 
  139.8750    -7.1370    77.2230    11.2180    10.8960    11.2600    24.9620     2.2900 
  140.0000    -7.1240    77.8300    10.4350    10.2650    10.4690    25.0050     2.2860 
  140.1250    -7.1070    78.2790     9.8060     9.7070     9.4790    25.0610     2.2900 
  140.2500    -7.0960    77.8040     9.3170     9.2440     8.5510    25.0920     2.2990 
  140.3750    -7.0800    76.3450     8.8860     8.8220     8.0780    25.1000     2.3110 
  140.5000    -7.0610    76.1970     8.4240     8.3620     7.9730    25.1160     2.3260 
  140.6250    -7.0470    79.4600     7.8940     7.8190     7.7560    25.1480     2.3420 
  140.7500    -7.0250    84.7540     7.3230     7.2070     7.1060    25.1770     2.3530 
  140.8750    -7.0070    88.1850     6.7860     6.5920     6.1940    25.1960     2.3560 
  141.0000    -7.0100    87.6440     6.3440     6.0540     5.4600    25.2200     2.3500 
  141.1250    -7.0230    84.0760     6.0180     5.6400     5.0830    25.2570     2.3420 
  141.2500    -7.0420    81.0970     5.8110     5.3650     4.9500    25.2930     2.3360 
  141.3750    -7.0700    81.8280     5.7630     5.2580     4.9360    25.3130     2.3350 
  141.5000    -7.1090    83.7850     5.9350     5.3410     5.0180    25.3070     2.3380 
  141.6250    -7.1620    82.3840     6.3770     5.6400     5.3340    25.2740     2.3430 
  141.7500    -7.2220    77.1020     7.0910     6.1730     6.3110    25.2350     2.3460 
  141.8750    -7.2880    72.1320     7.9840     6.9110     8.3860    25.2100     2.3480 
  142.0000    -7.3580    70.9600     8.8660     7.7330    10.7450    25.1990     2.3510 
  142.1250    -7.4200    73.5650     9.5920     8.5060    11.8230    25.2020     2.3530 
  142.2500    -7.4830    76.9780    10.1780     9.1890    11.0810    25.2130     2.3540 
  142.3750    -7.5530    77.7130    10.8490     9.8880    10.0420    25.2180     2.3490 
  142.5000    -7.6150    75.6320    11.9090    10.8290    10.8070    25.2290     2.3360 
  142.6250    -7.6700    72.4550    13.5690    12.2320    13.8650    25.2490     2.3160 
  142.7500    -7.7320    69.4150    15.8570    14.2020    17.8920    25.2740     2.2950 
  142.8750    -7.7900    67.6660    18.5390    16.6340    20.9070    25.3020     2.2760 
  143.0000    -7.8400    67.7460    21.1080    19.1140    22.3350    25.3320     2.2630 
  143.1250    -7.8910    68.9430    23.0900    21.1790    22.9480    25.3550     2.2540 
  143.2500    -7.9340    69.3390    24.2950    22.5770    23.4210    25.3420     2.2470 
  143.3750    -7.9580    67.0010    24.8000    23.2800    23.7830    25.2810     2.2430 
  143.5000    -7.9790    63.1470    24.9210    23.5360    23.8710    25.2330     2.2410 
  143.6250    -7.9930    61.2610    24.9300    23.6080    23.7210    25.2510     2.2420 
  143.7500    -7.9930    63.1520    24.9390    23.6350    23.4670    25.3090     2.2440 
  143.8750    -7.9910    65.9600    24.9660    23.6770    23.2260    25.3390     2.2470 
  144.0000    -7.9890    66.1730    24.9410    23.7000    23.0700    25.3450     2.2490 
  144.1250    -7.9780    64.3500    24.7380    23.5860    22.9680    25.3480     2.2500 
  144.2500    -7.9610    63.2930    24.2110    23.1960    22.6910    25.3470     2.2490 
  144.3750    -7.9520    64.5010    23.2340    22.3950    21.7880    25.3420     2.2460 
  144.5000    -7.9400    66.9410    21.8670    21.2260    20.1770    25.3330     2.2450 
  144.6250    -7.9250    69.4310    20.3090    19.8650    18.2320    25.3080     2.2460 
  144.7500    -7.9180    70.7940    18.9080    18.5110    16.4210    25.2630     2.2490 
  144.8750    -7.9120    69.1630    18.0960    17.3760    15.1430    25.2170     2.2570 
  145.0000    -7.9010    65.7780    17.8520    16.5640    14.4900    25.1830     2.2710 
  145.1250    -7.9000    64.2200    17.8150    16.0720    14.2900    25.1590     2.2910 
  145.2500    -7.9110    65.5570    17.7600    15.8480    14.2450    25.1420     2.3100 
  145.3750    -7.9240    67.3650    17.7010    15.7950    14.1450    25.1190     2.3220 
  145.5000    -7.9400    68.1370    17.6390    15.7860    14.0240    25.0690     2.3200 
  145.6250    -7.9520    68.7530    17.4910    15.7340    13.9570    24.9760     2.3060 
  145.7500    -7.9610    69.0280    17.2450    15.6300    13.9090    24.9010     2.2900 
  145.8750    -7.9880    68.0280    16.9840    15.5420    13.8080    24.8760     2.2860 
  146.0000    -8.0170    67.3830    16.8050    15.5560    13.7260    24.8800     2.3000 
  146.1250    -8.0340    68.2940    16.7390    15.6960    13.8860    24.8850     2.3260 
  146.2500    -8.0500    68.5570    16.7190    15.9000    14.4660    24.8810     2.3500 
  146.3750    -8.0790    66.7580    16.5910    15.9990    15.2090    24.8880     2.3590 
  146.5000    -8.1070    65.9950    16.2260    15.8410    15.4160    24.9000     2.3490 
  146.6250    -8.1320    68.6870    15.6100    15.3810    14.6770    24.9120     2.3280 
  146.7500    -8.1540    72.9970    14.8350    14.6770    13.2960    24.9270     2.3060 
  146.8750    -8.1620    75.9280    14.0490    13.8490    11.9930    24.9520     2.2900 
