~V
VERS. 2.00: Ver 2.00
~W
STRT.M 58.0000:
STOP.M 228.0000:
STEP.M 0.1250:
NULL. -999.2500:
UWI. F10151:
~C
DEPT.M :
SP.MV :
GR.API :
RML.OHMM :
RI. :
RXO.OHMM :
CALI.CM :
DEN.GM/CC :
~A
# ...
  114.2500    -7.5800    92.4150     6.1130     4.8210     5.3510    24.5530     2.3130 
  114.3750    -7.5760    89.3510     6.4140     5.0840     5.6350    24.5220     2.3020 
  114.5000    -7.8750    82.8330     6.8240     5.4630     6.2400    24.5120     2.2900 
  114.6250    -8.3590    79.9300     7.2730     5.9050     6.7240    24.5250     2.2780 
  114.7500    -8.8780    80.5230     7.6440     6.3090     6.8750    24.5450     2.2650 
  114.8750    -9.3680    81.6260     7.8370     6.5750     6.9630    24.5590     2.2520 
  115.0000    -9.7910    83.4660     7.7900     6.6330     7.1180    24.5900     2.2470 
  115.1250    -9.9310    87.6330     7.4760     6.4410     7.1720    24.6260     2.2570 
  115.2500    -9.8560    91.7060     7.0150     6.0950     6.9230    24.5410     2.2800 
  115.3750    -9.5980    94.3940     6.5150     5.6810     6.4430    24.2930     2.3090 
  115.5000    -9.2210    97.2450     6.0770     5.2900     5.7260    24.0510     2.3320 
  115.6250    -8.7550    99.6290     5.8060     5.0180     5.3830    23.9130     2.3400 
  115.7500    -8.2820    98.2890     5.7000     4.8810     5.2360    23.8380     2.3350 
  115.8750    -7.8140    95.1960     5.7300     4.8670     5.1570    23.8570     2.3220 
  116.0000    -7.3880    93.8020     5.8370     4.9370     5.1930    24.0110     2.3080 
  116.1250    -7.0610    95.3580     5.9410     5.0280     5.2070    24.2510     2.2990 
  116.2500    -6.8180    99.7630     5.9840     5.0760     5.1710    24.4140     2.2930 
  116.3750    -6.7090   104.8490     5.9420     5.0500     5.0850    24.4350     2.2920 
  116.5000    -6.7350   108.1800     5.8170     4.9450     4.8980    24.2350     2.2970 
  116.6250    -6.8740   108.5940     5.6100     4.7660     4.8860    23.8630     2.3170 
  116.7500    -7.0520   106.7500     5.3480     4.5440     4.9590    23.5610     2.3500 
  116.8750    -7.2820   104.3800     5.0520     4.2940     5.0280    23.4160     2.3920 
  117.0000    -7.4970   102.5320     4.7710     4.0520     5.0980    23.3130     2.4290 
  117.1250    -7.7490   103.4780     4.6250     3.9020     5.1580    23.1530     2.4470 
  117.2500    -7.9870   106.3980     4.7260     3.9230     5.1190    22.9880     2.4370 
  117.3750    -8.1540   105.9820     5.1990     4.1970     5.0430    22.8910     2.4010 
  117.5000    -8.2530   100.3180     6.1490     4.8060     5.2280    22.8790     2.3510 
  117.6250    -8.3190    92.0380     7.6850     5.9000     6.0460    22.9290     2.3100 
  117.7500    -8.3820    84.7560     9.5300     7.3970     7.3440    22.9700     2.2970 
  117.8750    -8.4300    78.9650    11.2430     9.0550     8.6180    22.9920     2.3070 
  118.0000    -8.5160    73.3490    12.2410    10.3170    10.1160    23.0400     2.3240 
  118.1250    -8.5820    70.8010    11.9070    10.3540    12.2040    23.2010     2.3230 
  118.2500    -8.6670    71.4780    10.5940     9.3680    13.0960    23.5160     2.3000 
  118.3750    -8.7710    75.1210     8.8740     7.9490    10.8790    23.9440     2.2630 
  118.5000    -8.9010    81.0060     7.3470     6.6410     6.9350    24.3500     2.2260 
  118.6250    -9.0340    84.7710     6.4620     5.7780     5.5530    24.4550     2.2030 
  118.7500    -9.1630    83.5600     6.1210     5.3160     5.8080    24.4520     2.1960 
  118.8750    -9.2980    80.1070     6.1280     5.1690     6.4670    24.4270     2.2030 
  119.0000    -9.3810    79.0800     6.2570     5.2110     6.6140    24.5140     2.2200 
  119.1250    -9.5080    84.7970     6.3410     5.3140     6.1340    24.5660     2.2420 
  119.2500    -9.6760    90.1600     6.3990     5.4270     5.9830    24.5320     2.2580 
  119.3750    -9.9160    90.7380     6.5500     5.6110     6.0790    24.4360     2.2590 
  119.5000   -10.2080    87.4050     6.8990     5.9420     6.2420    24.2020     2.2420 
  119.6250   -10.5280    84.4260     7.4490     6.4570     6.4660    23.8510     2.2130 
  119.7500   -10.7780    83.0790     7.9870     7.0080     7.9840    23.7490     2.1940 
  119.8750   -10.9320    83.0830     8.2900     7.3860    10.3230    24.1070     2.1950 
  120.0000   -10.9710    84.2620     8.2060     7.4000    11.3720    24.5150     2.2170 
  120.1250   -10.8510    86.2570     7.6960     6.9590     9.4260    24.6860     2.2500 
  120.2500   -10.6280    88.3880     7.0140     6.3120     6.7330    24.6500     2.2770 
  120.3750   -10.2800    91.4760     6.3580     5.6570     5.7570    24.5590     2.2930 
  120.5000    -9.8360    93.1700     5.8560     5.1170     5.4480    24.5440     2.3010 
  120.6250    -9.4120    93.5120     5.5760     4.7610     5.3400    24.5420     2.3060 
  120.7500    -9.1700    97.6220     5.4820     4.5690     5.2200    24.5250     2.3110 
  120.8750    -9.1920   105.6380     5.5970     4.5550     5.1970    24.5130     2.3130 
  121.0000    -9.5160   110.2850     5.9940     4.7610     5.4790    24.5810     2.3090 
  121.1250   -10.1420   104.6090     6.8140     5.2960     5.7900    24.6720     2.2960 
  121.2500   -10.9100    96.1970     7.9830     6.1390     6.9770    24.8110     2.2760 
  121.3750   -11.7690    90.1820     9.3420     7.2270     9.6650    25.0560     2.2500 
  121.5000   -12.6560    85.3430    10.6380     8.3900    11.2560    25.3570     2.2230 
  121.6250   -13.5070    78.1500    11.5660     9.3550    11.7850    25.4670     2.1990 
  121.7500   -14.1910    71.2770    12.1250    10.0230    11.5040    25.3610     2.1790 
  121.8750   -14.6680    69.8750    12.4440    10.4470    11.1490    25.1220     2.1610 
  122.0000   -14.9500    73.5760    12.6670    10.7420    10.6550    24.7800     2.1400 
  122.1250   -14.9990    77.1980    12.7750    10.9160    10.6900    24.5810     2.1140 
  122.2500   -14.9060    77.3780    12.5910    10.8290    11.3320    24.4400     2.0910 
  122.3750   -14.7170    77.0600    11.9350    10.3100    11.6120    24.3940     2.0850 
  122.5000   -14.4950    79.6050    10.7940     9.3390    10.3350    24.2660     2.1080 
  122.6250   -14.2810    84.1630     9.3890     8.1230     7.9900    24.1190     2.1600 
  122.7500   -14.1910    89.8300     8.1280     7.0160     6.1040    24.0050     2.2180 
  122.8750   -14.2790    94.5840     7.2550     6.2060     5.2550    24.0090     2.2620 
  123.0000   -14.5340    95.8030     6.8520     5.7520     5.1000    24.1100     2.2790 
  123.1250   -14.8960    93.0150     6.8850     5.6560     5.1660    24.2700     2.2690 
  123.2500   -15.2480    90.4720     7.0860     5.7420     5.4030    24.4940     2.2540 
  123.3750   -15.5430    92.4570     7.2630     5.8650     5.7610    24.6840     2.2500 
  123.5000   -15.7960    98.7170     7.2880     5.9000     5.9980    24.7390     2.2620 
  123.6250   -16.0620   104.0770     7.1350     5.7920     5.8440    24.6670     2.2820 
  123.7500   -16.3990   101.4250     6.9520     5.6450     5.5320    24.5700     2.2940 
  123.8750   -16.7790    91.4890     6.8880     5.5740     5.3280    24.5670     2.2870 
  124.0000   -17.2130    83.3220     7.0500     5.6680     5.4140    24.6800     2.2620 
  124.1250   -17.7970    82.4680     7.4950     5.9960     6.1540    24.7880     2.2300 
  124.2500   -18.5490    82.8180     8.0910     6.4790     8.4590    24.8840     2.2040 
  124.3750   -19.4730    80.7270     8.6970     7.0180    12.6120    25.0090     2.1930 
  124.5000   -20.4810    77.7270     9.1880     7.4940    13.1000    25.1620     2.1970 
  124.6250   -21.4660    77.6900     9.4700     7.8030    10.4070    25.1550     2.2080 
  124.7500   -22.2880    78.4060     9.6140     7.9810     9.1120    25.0870     2.2110 
  124.8750   -22.9320    76.9550     9.7100     8.0960     8.9510    25.0460     2.2020 
  125.0000   -23.3520    74.3130     9.8400     8.2260     8.9640    25.0480     2.1840 
  125.1250   -23.4630    74.0020    10.0330     8.4180     8.9990    25.1190     2.1620 
  125.2500   -23.3040    74.4450    10.1950     8.6130     9.0970    25.2220     2.1370 
  125.3750   -22.8720    73.1910    10.1910     8.6960     9.3030    25.3370     2.1040 
