~V
VERS. 2.00: Ver 2.00
~W
STRT.M 55.0000:
STOP.M 239.0000:
STEP.M 0.1250:
NULL. -999.2500:
UWI. F10186:
~C
DEPT.M :
GR.API :
RML.OHMM :
RI. :
RXO.OHMM :
CALI.CM :
DEN.GM/CC :
SP.MV :
~A
# ...
  133.7500    68.1670     9.4970     9.6100    10.0310    23.4490     2.3060    -5.0700 
  133.8750    69.7620     9.1180     9.1350     8.7240    22.9750     2.2610    -5.4870 
  134.0000    68.6690     9.2060     9.1630     9.5880    22.6730     2.2390    -5.8240 
  134.1250    66.7470     9.4240     9.4240    10.5670    22.5960     2.2390    -6.0240 
  134.2500    67.0650     9.5240     9.6350    10.7880    22.6520     2.2520    -6.1320 
  134.3750    69.6520     9.4310     9.6650    10.2200    22.8010     2.2680    -6.1220 
  134.5000    70.8640     9.1750     9.4900     9.1990    22.9280     2.2810    -6.0130 
  134.6250    69.8020     8.8460     9.1670     8.6930    22.9540     2.2890    -5.7870 
  134.7500    70.4690     8.5240     8.8040     9.0120    23.0130     2.2960    -5.4640 
  134.8750    73.3800     8.2270     8.4350     9.1240    23.1610     2.3000    -5.1310 
  135.0000    75.2400     7.9670     8.0790     9.0870    23.3690     2.2990    -4.8600 
  135.1250    73.2790     7.8000     7.7850     9.0570    23.5260     2.2910    -4.6000 
  135.2500    71.9250     7.7930     7.6200     8.7620    23.7420     2.2790    -4.3320 
  135.3750    71.7430     8.0250     7.6600     8.2290    24.0590     2.2670    -4.1680 
  135.5000    69.9800     8.5530     7.9740     8.3240    24.3300     2.2560    -4.0970 
  135.6250    68.4060     9.4720     8.6620     9.4820    24.4200     2.2430    -4.0370 
  135.7500    68.8790    10.7360     9.6920    11.5330    24.3420     2.2340    -3.9900 
  135.8750    68.7530    12.3240    11.0520    14.1950    24.1160     2.2380    -3.9520 
  136.0000    65.4670    14.1850    12.6980    15.6210    23.8690     2.2690    -3.8770 
  136.1250    60.9450    16.2210    14.5630    17.0780    23.9180     2.3340    -3.7590 
  136.2500    56.4950    18.2120    16.4550    21.3050    24.0850     2.4160    -3.6570 
  136.3750    51.9270    19.9550    18.1920    26.2240    24.2160     2.4920    -3.5090 
  136.5000    48.9160    21.2910    19.6140    27.3280    24.2880     2.5450    -3.2790 
  136.6250    48.5150    22.1050    20.5650    27.3160    24.2780     2.5660    -3.0550 
  136.7500    47.9830    22.5860    21.1600    27.8230    24.2710     2.5710    -2.8940 
  136.8750    45.9650    22.9180    21.5390    27.8470    24.2670     2.5720    -2.7570 
  137.0000    43.2220    23.2630    21.8660    27.1550    24.2470     2.5720    -2.6260 
  137.1250    41.6240    23.6990    22.2430    26.7910    24.2140     2.5760    -2.5340 
  137.2500    40.8510    24.1440    22.6440    26.6350    24.1390     2.5810    -2.4460 
  137.3750    40.4260    24.4830    22.9850    26.0560    24.0960     2.5860    -2.3940 
  137.5000    40.4330    24.5780    23.1500    26.0600    24.1510     2.5870    -2.4000 
  137.6250    40.8150    24.2130    22.9380    27.3690    24.1750     2.5850    -2.3820 
  137.7500    41.0650    23.3930    22.3210    27.8720    24.1470     2.5800    -2.3080 
  137.8750    42.2070    22.2120    21.3500    28.1730    24.1260     2.5730    -2.2400 
  138.0000    46.2140    20.9020    20.2080    25.2740    24.1570     2.5640    -2.2470 
  138.1250    51.1710    19.8510    19.2190    22.1990    24.2460     2.5520    -2.2980 
  138.2500    52.7770    19.3050    18.6220    19.4240    24.2960     2.5380    -2.3180 
  138.3750    51.6050    19.3190    18.5050    18.2910    24.2930     2.5240    -2.3010 
  138.5000    50.6120    19.7350    18.7810    18.7290    24.2670     2.5150    -2.2960 
  138.6250    51.4280    20.1910    19.1920    20.5810    24.2420     2.5130    -2.3020 
  138.7500    51.4310    20.3010    19.3840    22.0320    24.2500     2.5150    -2.2990 
  138.8750    50.5180    19.8950    19.1590    22.9950    24.2520     2.5190    -2.2730 
  139.0000    50.0960    19.0320    18.5090    22.7300    24.2740     2.5200    -2.2170 
  139.1250    49.9950    18.0140    17.6450    19.8550    24.3510     2.5150    -2.1920 
  139.2500    49.6010    17.2400    16.9270    16.5330    24.4130     2.5050    -2.1860 
  139.3750    49.4250    16.9110    16.5540    15.2980    24.4100     2.4930    -2.1480 
  139.5000    50.1430    17.0520    16.5820    16.0110    24.3320     2.4830    -2.0950 
  139.6250    50.4230    17.5980    16.9950    17.2000    24.2930     2.4790    -2.1190 
  139.7500    49.1960    18.3170    17.6030    18.3050    24.2560     2.4810    -2.1710 
  139.8750    47.2890    19.0800    18.2890    19.7050    24.2200     2.4860    -2.1950 
  140.0000    47.2210    19.8170    18.9760    20.7780    24.2790     2.4910    -2.2350 
  140.1250    50.0290    20.4920    19.6210    21.7330    24.3590     2.4930    -2.2950 
  140.2500    51.9830    21.0880    20.2020    21.9600    24.4120     2.4930    -2.3510 
  140.3750    52.6210    21.5640    20.6790    22.7060    24.3900     2.4920    -2.4260 
  140.5000    53.4240    21.8800    21.0090    23.4380    24.3480     2.4930    -2.5220 
  140.6250    54.0570    22.0010    21.1410    24.2930    24.3380     2.4950    -2.5910 
  140.7500    52.5860    22.0080    21.1340    23.7940    24.3560     2.4970    -2.6260 
  140.8750    49.5520    21.9880    21.0640    22.7470    24.3570     2.4980    -2.6790 
  141.0000    47.8510    22.0230    21.0180    22.8650    24.3360     2.4980    -2.7480 
  141.1250    49.5620    22.1380    21.0510    23.5970    24.3290     2.4980    -2.7840 
  141.2500    53.2430    22.2540    21.1200    23.0670    24.3430     2.5000    -2.8120 
  141.3750    55.9570    22.2840    21.1540    22.8280    24.3670     2.5060    -2.7980 
  141.5000    54.7800    22.1650    21.0880    23.8740    24.3400     2.5130    -2.6990 
  141.6250    51.6700    21.8860    20.8860    24.0250    24.3520     2.5240    -2.6040 
  141.7500    50.4760    21.5550    20.6220    22.4700    24.3570     2.5360    -2.5590 
  141.8750    49.8700    21.2590    20.3660    20.6440    24.3160     2.5480    -2.4810 
  142.0000    48.1370    21.0430    20.1580    20.7690    24.2940     2.5600    -2.3570 
  142.1250    46.7710    20.9040    20.0010    21.2770    24.3130     2.5700    -2.2670 
  142.2500    45.4200    20.7710    19.8480    22.1020    24.3260     2.5770    -2.2080 
  142.3750    41.8180    20.5830    19.6510    21.6820    24.3230     2.5800    -2.1480 
  142.5000    37.6410    20.3090    19.3850    20.9750    24.3110     2.5790    -2.1620 
  142.6250    37.3560    19.9650    19.0570    20.3460    24.3050     2.5690    -2.1950 
  142.7500    40.8670    19.6190    18.7260    19.4670    24.3700     2.5550    -2.1830 
  142.8750    45.4940    19.3240    18.4420    18.5290    24.4900     2.5400    -2.2030 
  143.0000    49.4220    19.1220    18.2440    17.8000    24.5490     2.5290    -2.2530 
  143.1250    52.3130    19.0740    18.1890    17.8810    24.5500     2.5230    -2.2950 
  143.2500    54.7490    19.1970    18.2880    18.7330    24.5510     2.5170    -2.3270 
  143.3750    56.5580    19.5260    18.5710    19.5460    24.5990     2.5070    -2.3770 
  143.5000    57.1280    20.0640    19.0520    20.4100    24.6720     2.4940    -2.3940 
  143.6250    57.2540    20.7560    19.7050    21.4190    24.7260     2.4860    -2.4290 
  143.7500    55.4860    21.4180    20.3790    22.2680    24.6950     2.4810    -2.5130 
  143.8750    51.8300    21.8770    20.9160    23.6530    24.6160     2.4800    -2.5740 
  144.0000    50.3910    21.9990    21.1720    25.1280    24.6490     2.4800    -2.6140 
  144.1250    51.9940    21.6950    21.0210    25.8600    24.7160     2.4770    -2.6500 
  144.2500    52.6010    21.1410    20.5920    24.2710    24.7080     2.4730    -2.6840 
  144.3750    52.7830    20.5040    20.0290    22.3380    24.5920     2.4680    -2.7260 
  144.5000    55.2330    19.9280    19.4710    21.5010    24.4750     2.4650    -2.7600 
  144.6250    57.8160    19.5090    19.0250    21.5670    24.3900     2.4690    -2.7520 
  144.7500    57.8270    19.1990    18.6770    21.7840    24.3430     2.4800    -2.7600 
  144.8750    56.8040    18.9080    18.3640    21.4380    24.3380     2.4930    -2.7860 
