~V
VERS. 2.00: Ver 2.00
~W
STRT.M 53.0000:
STOP.M 242.0000:
STEP.M 0.1250:
NULL. -999.2500:
UWI. F10177:
~C
DEPT.M :
SP.MV :
GR.API :
RML.OHMM :
RI. :
RXO.OHMM :
CALI.CM :
DEN.GM/CC :
~A
# ...
   75.5000   -19.4130    86.2850     9.8690     8.7360    11.7590    25.5510     2.1450 
   75.6250   -18.9050    85.4810     9.2240     8.2250    11.1580    25.5480     2.1290 
   75.7500   -17.9860    87.7010     8.4160     7.5490     9.5650    25.2950     2.1440 
   75.8750   -16.6880    93.5580     7.6180     6.8490     7.5530    24.7370     2.1930 
   76.0000   -15.2330   101.5740     6.9900     6.2680     6.6720    24.8030     2.2500 
   76.1250   -13.7540   109.1810     6.6050     5.8700     6.4360    24.8700     2.2930 
   76.2500   -12.3370   112.0700     6.4550     5.6630     6.4850    24.8700     2.3140 
   76.3750   -11.0750   108.5420     6.4970     5.6260     6.5990    24.8700     2.3190 
   76.5000   -10.0510   103.4720     6.6320     5.6810     6.6090    24.8700     2.3190 
   76.6250    -9.3650    99.2470     6.8230     5.8000     6.3970    24.8700     2.3130 
   76.7500    -9.1170    95.5490     7.0520     5.9700     6.3060    24.8700     2.2910 
   76.8750    -9.3550    91.7490     7.3050     6.1790     6.5320    24.8700     2.2490 
   77.0000    -9.9170    89.1370     7.5470     6.3940     7.1610    24.8700     2.2030 
   77.1250   -10.6940    87.4900     7.7510     6.5930     7.9840    24.8820     2.1740 
   77.2500   -11.5920    84.6470     7.9010     6.7580     8.7440    24.9030     2.1710 
   77.3750   -12.6260    82.8520     8.0040     6.8800     7.7840    24.9240     2.1890 
   77.5000   -13.7670    83.4870     8.1110     6.9850     7.8750    24.9450     2.2080 
   77.6250   -14.9030    84.9260     8.2630     7.1000     8.9220    24.9660     2.2130 
   77.7500   -15.8630    84.6600     8.4770     7.2450     9.5870    25.0030     2.2060 
   77.8750   -16.4660    84.0100     8.7260     7.4160     9.7310    25.0030     2.1930 
   78.0000   -16.7320    84.7500     8.9220     7.5550     9.3630    25.0030     2.1830 
   78.1250   -16.7190    85.0350     8.9770     7.5860     8.8810    25.3180     2.1790 
   78.2500   -16.4510    84.3580     8.8330     7.4530     8.7820    24.5910     2.1820 
   78.3750   -15.7930    84.9260     8.4750     7.1290     8.6500    23.9540     2.1980 
   78.5000   -14.8050    88.4530     8.0350     6.7210     7.9870    23.6940     2.2250 
   78.6250   -13.6610    94.5300     7.6500     6.3320     6.9550    23.7120     2.2610 
   78.7500   -12.5720   101.3390     7.4570     6.0650     6.4310    23.7210     2.2990 
   78.8750   -11.7340   104.4070     7.5920     6.0330     6.1940    23.6990     2.3270 
   79.0000   -11.1780   103.0130     7.9810     6.2180     6.4040    23.7210     2.3370 
   79.1250   -10.9490    98.1830     8.5010     6.5680     7.1790    23.7630     2.3270 
   79.2500   -11.0830    92.1110     8.9880     6.9740     8.4420    23.8580     2.2990 
   79.3750   -11.6530    85.0770     9.2780     7.2970     9.1420    24.0950     2.2580 
   79.5000   -12.5200    79.8020     9.3850     7.4920     9.3580    24.2030     2.2200 
   79.6250   -13.5630    80.2610     9.3940     7.5910     9.4040    24.2030     2.1910 
   79.7500   -14.7010    83.8040     9.4110     7.6660     9.5710    24.2030     2.1750 
   79.8750   -15.8850    82.3460     9.5150     7.7820     9.8520    24.2700     2.1730 
   80.0000   -17.0450    77.6330     9.6720     7.9320    10.3270    24.4700     2.1770 
   80.1250   -18.1030    77.1830     9.8150     8.0710    11.0860    24.4700     2.1850 
   80.2500   -18.9980    80.4290     9.8740     8.1460    11.4310    24.4700     2.1950 
   80.3750   -19.6760    78.2590     9.7930     8.1050    10.8710    24.4700     2.2000 
   80.5000   -20.1510    73.4750     9.6120     7.9770    10.5990    24.4700     2.1940 
   80.6250   -20.4050    72.8670     9.3870     7.8030    10.5390    24.4700     2.1720 
   80.7500   -20.4090    76.9150     9.1800     7.6350    10.5490    24.3370     2.1380 
   80.8750   -20.1430    78.4820     9.0500     7.5240    10.2090    24.3370     2.1090 
   81.0000   -19.7100    77.3730     9.0000     7.4780     9.7980    24.3370     2.1050 
   81.1250   -19.1650    76.9650     9.0100     7.4900     9.7980    24.3370     2.1290 
   81.2500   -18.5870    78.4760     9.0500     7.5380     9.8560    24.3370     2.1700 
   81.3750   -18.0100    83.2880     9.0810     7.5840     9.9060    24.3370     2.2070 
   81.5000   -17.4700    88.4020     9.0790     7.6010     9.9090    24.4030     2.2240 
   81.6250   -17.0130    87.1730     9.0330     7.5770     9.9260    24.4700     2.2210 
   81.7500   -16.6470    78.7290     8.9280     7.5060     9.8140    24.7370     2.2080 
   81.8750   -16.2580    74.0030     8.7280     7.3630     9.3080    24.8030     2.2000 
   82.0000   -15.7230    78.7230     8.4330     7.1490     8.9320    25.0030     2.2050 
   82.1250   -14.9910    86.9020     8.0650     6.8760     8.7240    25.1030     2.2280 
   82.2500   -14.0740    93.0370     7.6800     6.5830     8.2170    25.1370     2.2610 
   82.3750   -13.1110    96.6270     7.3990     6.3500     7.0880    25.2700     2.2870 
   82.5000   -12.3370    97.2210     7.3180     6.2470     6.5650    25.2700     2.2950 
   82.6250   -11.8420    92.3070     7.4990     6.3250     6.7700    25.2700     2.2830 
   82.7500   -11.5990    83.4680     7.9300     6.5970     7.4960    25.2700     2.2570 
   82.8750   -11.5510    76.0510     8.4930     7.0250     8.1250    25.2700     2.2290 
   83.0000   -11.6050    73.0010     8.9400     7.4310     8.7040    25.2700     2.2110 
   83.1250   -11.7180    75.8170     9.0850     7.6400     9.1950    25.3700     2.2110 
   83.2500   -11.8080    83.3170     8.8580     7.5440     9.3060    25.4030     2.2280 
   83.3750   -11.7510    89.4010     8.3280     7.1600     8.5900    25.5370     2.2580 
   83.5000   -11.5040    91.8700     7.7710     6.7080     7.5580    25.5370     2.2880 
   83.6250   -11.1200    92.9830     7.3720     6.3400     7.0400    25.5370     2.3040 
   83.7500   -10.6780    93.0220     7.2290     6.1420     6.8980    25.5370     2.3010 
   83.8750   -10.2700    89.5830     7.3690     6.1610     7.4430    25.5370     2.2780 
   84.0000    -9.9790    84.9860     7.6490     6.3190     7.8060    25.5370     2.2490 
   84.1250    -9.8800    84.6960     7.9520     6.5320     8.0980    25.5120     2.2230 
   84.2500   -10.0440    87.7370     8.1810     6.7120     8.1620    25.4700     2.2060 
   84.3750   -10.5050    87.8230     8.2830     6.7870     8.2400    25.4280     2.2010 
   84.5000   -11.0960    83.9050     8.3230     6.7930     8.4080    25.3870     2.2050 
   84.6250   -11.7210    78.1370     8.3970     6.8010     8.7490    25.3450     2.2130 
   84.7500   -12.3960    73.5330     8.6020     6.8930     8.7770    24.0040     2.2210 
   84.8750   -13.2430    72.1810     9.0390     7.1610     9.0970    24.0210     2.2270 
   85.0000   -14.2630    72.1570     9.6550     7.5930    10.1270    24.0410     2.2310 
   85.1250   -15.3870    72.7880    10.3470     8.1320    11.9740    24.0810     2.2330 
   85.2500   -16.5290    73.8510    10.9540     8.6640    14.1420    24.1330     2.2300 
   85.3750   -17.6920    73.2120    11.2610     9.0040    16.2850    24.1930     2.2220 
   85.5000   -18.8510    71.2480    11.2410     9.0820    16.1580    24.2820     2.2130 
   85.6250   -19.9170    69.4260    10.9570     8.9230    14.4770    24.3690     2.2090 
   85.7500   -20.8010    70.3590    10.5460     8.6290    13.1740    24.4110     2.2150 
   85.8750   -21.3930    71.7700    10.1750     8.3310    12.8700    24.4170     2.2320 
   86.0000   -21.8000    71.5840     9.9330     8.1130    12.7680    24.5230     2.2510 
   86.1250   -22.1230    70.8140     9.8280     7.9990    12.6950    24.8420     2.2600 
   86.2500   -22.4330    70.7210     9.8280     7.9740    12.6690    25.4820     2.2520 
   86.3750   -22.6900    72.5960     9.8790     8.0110    12.4480    25.3550     2.2220 
   86.5000   -22.8510    73.8460     9.9160     8.0610    12.3100    24.9640     2.1830 
   86.6250   -22.8900    72.7760     9.9030     8.0910    12.2820    24.6030     2.1440 
