~V
VERS. 2.00: Ver 2.00
~W
STRT.M 50.0000:
STOP.M 268.0000:
STEP.M 0.1250:
NULL. -999.2500:
UWI. F10199:
~C
DEPT.M :
GR.API :
RML.OHMM :
RI. :
RXO.OHMM :
CALI.CM :
DEN.GM/CC :
SP.MV :
~A
# ...
   61.2500    84.4060     5.0160     5.8330     6.5340    24.7320     2.2740   -20.5750 
   61.3750    79.8240     4.9390     5.7310     6.6520    24.7630     2.2690   -20.2800 
   61.5000    80.3150     4.8500     5.6000     6.5230    24.8260     2.2710   -19.8730 
   61.6250    86.9180     4.7690     5.4600     6.1920    24.9050     2.2760   -19.4440 
   61.7500    92.1930     4.7150     5.3380     5.7820    24.9610     2.2790   -19.0150 
   61.8750    95.0020     4.7000     5.2560     5.5480    24.9750     2.2770   -18.5410 
   62.0000    98.7620     4.7280     5.2240     5.5660    24.9600     2.2700   -17.9750 
   62.1250   102.1980     4.7930     5.2410     5.6740    24.9510     2.2630   -17.4560 
   62.2500   100.9980     4.8630     5.2730     5.6850    24.9490     2.2580   -17.0320 
   62.3750    96.7810     4.9110     5.2880     5.6730    24.9530     2.2570   -16.7040 
   62.5000    91.3050     4.9030     5.2530     5.6780    24.9560     2.2590   -16.4490 
   62.6250    85.9680     4.8040     5.1360     5.6520    24.9640     2.2680   -16.2520 
   62.7500    85.9840     4.6390     4.9580     5.5990    24.9750     2.2830   -16.1040 
   62.8750    91.8400     4.4670     4.7640     5.4760    24.9830     2.3030   -15.9970 
   63.0000    97.4370     4.3830     4.6350     5.3360    24.9790     2.3270   -15.9670 
   63.1250    97.0210     4.5470     4.7130     5.3500    24.9390     2.3570   -16.0450 
   63.2500    92.4720     4.9930     5.0460     5.8350    24.8550     2.3910   -16.2780 
   63.3750    86.0930     5.6720     5.6120     7.3500    24.7470     2.4270   -16.6720 
   63.5000    79.3620     6.4300     6.2950     9.6530    24.6530     2.4540   -17.1810 
   63.6250    74.5310     6.9840     6.8570    12.2950    24.6170     2.4580   -17.6620 
   63.7500    71.6140     7.1430     7.0960    14.1090    24.6240     2.4400   -18.0720 
   63.8750    70.5810     6.8670     6.9310    12.7140    24.6550     2.4100   -18.4830 
   64.0000    72.8360     6.3160     6.4540     8.7310    24.6960     2.3820   -18.8720 
   64.1250    78.7440     5.8020     5.9080     6.9270    24.7280     2.3670   -19.2380 
   64.2500    83.8730     5.5450     5.5220     6.3400    24.7390     2.3580   -19.6200 
   64.3750    85.1260     5.5920     5.3730     6.2950    24.7330     2.3480   -20.0560 
   64.5000    83.7120     5.8840     5.4450     6.4490    24.7060     2.3310   -20.5380 
   64.6250    81.8640     6.3040     5.6700     6.7440    24.6480     2.3090   -21.2190 
   64.7500    78.2890     6.6910     5.9200     7.1740    24.5840     2.2880   -22.0730 
   64.8750    73.7040     6.9670     6.1280     7.5930    24.5460     2.2710   -23.0290 
   65.0000    72.4630     7.1330     6.2760     7.7890    24.5530     2.2570   -24.0480 
   65.1250    75.0960     7.3050     6.4240     7.8400    24.5740     2.2490   -25.0840 
   65.2500    75.1660     7.6540     6.6860     8.1690    24.5720     2.2480   -26.0590 
   65.3750    70.1590     8.2740     7.1420     9.6840    24.5530     2.2600   -26.9150 
   65.5000    63.7290     9.1270     7.7910    12.9060    24.5450     2.2860   -27.6430 
   65.6250    60.3160     9.9890     8.5100    16.8400    24.5410     2.3220   -28.2040 
   65.7500    58.0050    10.5520     9.0620    20.2470    24.5110     2.3520   -28.6280 
   65.8750    55.5920    10.6120     9.2560    20.3570    24.4620     2.3600   -28.9610 
   66.0000    53.5770    10.1380     9.0120    14.2690    24.4220     2.3390   -29.1870 
   66.1250    54.8500     9.2930     8.3920     9.3340    24.4080     2.2960   -29.3120 
   66.2500    58.8680     8.4580     7.6920     7.8640    24.4010     2.2520   -29.3360 
   66.3750    62.3060     7.8440     7.1020     7.5460    24.4070     2.2210   -29.2560 
   66.5000    65.5880     7.5240     6.7110     7.4850    24.4280     2.2050   -29.1320 
   66.6250    68.7750     7.4820     6.5480     7.4470    24.4390     2.2010   -28.9720 
   66.7500    69.9870     7.5730     6.5200     7.4360    24.4340     2.2010   -28.7930 
   66.8750    69.7980     7.7170     6.5650     7.4860    24.4320     2.2020   -28.5600 
   67.0000    69.8900     7.8660     6.6370     7.5760    24.4340     2.2030   -28.3020 
   67.1250    70.7040     7.9820     6.7020     7.6890    24.4250     2.2050   -28.0380 
   67.2500    69.6080     8.0440     6.7380     7.7740    24.4280     2.2080   -27.7920 
   67.3750    68.0000     8.0300     6.7290     7.8370    24.4450     2.2100   -27.5510 
   67.5000    68.1270     7.9380     6.6730     7.8890    24.4650     2.2090   -27.3070 
   67.6250    68.0140     7.8270     6.6030     7.9100    24.4980     2.2030   -27.0810 
   67.7500    66.5340     7.8390     6.6090     7.9220    24.5370     2.1980   -26.8680 
   67.8750    64.8240     8.1190     6.7940     8.1560    24.5650     2.2030   -26.6720 
   68.0000    63.9180     8.7370     7.2250     9.0760    24.5870     2.2310   -26.5440 
   68.1250    63.0950     9.6260     7.8940    11.7550    24.5900     2.2870   -26.4920 
   68.2500    61.6690    10.4550     8.5850    15.5300    24.5710     2.3520   -26.5200 
   68.3750    59.8250    10.9110     9.0630    19.6060    24.5370     2.3980   -26.6750 
   68.5000    57.1180    10.7720     9.1210    22.4040    24.4650     2.4010   -26.8980 
   68.6250    54.6010     9.9740     8.6310    19.6650    24.3480     2.3530   -27.1710 
   68.7500    53.0460     8.9290     7.8630    13.9690    24.2360     2.2910   -27.5240 
   68.8750    53.1060     7.9830     7.0820    10.1750    24.1430     2.2390   -27.9220 
   69.0000    54.2390     7.3530     6.4810     8.4340    24.0600     2.2080   -28.3020 
   69.1250    53.4650     7.1190     6.1660     7.8920    24.0010     2.1950   -28.6130 
   69.2500    51.6780     7.1070     6.0480     7.7560    23.9610     2.1890   -28.8540 
   69.3750    52.5770     7.1870     6.0450     7.7000    23.9270     2.1840   -28.9950 
   69.5000    56.8820     7.2660     6.0810     7.6650    23.9050     2.1790   -29.0830 
   69.6250    60.2770     7.2980     6.1080     7.6260    23.8950     2.1770   -29.0690 
   69.7500    59.7060     7.2960     6.1140     7.6020    23.8840     2.1790   -28.9490 
   69.8750    57.1450     7.2790     6.1060     7.6270    23.8810     2.1840   -28.7870 
   70.0000    56.5760     7.2640     6.0940     7.7030    23.8710     2.1900   -28.5890 
   70.1250    57.6930     7.2650     6.0860     7.7720    23.8550     2.1940   -28.3550 
   70.2500    57.8540     7.2800     6.0840     7.8280    23.8490     2.1950   -28.1520 
   70.3750    56.3840     7.3040     6.0840     7.8620    23.8480     2.1930   -27.9810 
   70.5000    54.8330     7.3270     6.0790     7.8830    23.8460     2.1900   -27.7950 
   70.6250    54.6680     7.3370     6.0620     7.8170    23.8560     2.1860   -27.6560 
   70.7500    55.9710     7.3240     6.0310     7.6860    23.8670     2.1840   -27.5480 
   70.8750    58.7020     7.2890     5.9860     7.5390    23.8640     2.1820   -27.4670 
   71.0000    61.7730     7.2380     5.9310     7.4630    23.8590     2.1820   -27.4290 
   71.1250    62.0090     7.1830     5.8750     7.4710    23.8470     2.1830   -27.4320 
   71.2500    59.2060     7.1380     5.8280     7.4770    23.8210     2.1830   -27.3960 
   71.3750    55.6680     7.1120     5.7940     7.4430    23.8010     2.1830   -27.3220 
   71.5000    53.5940     7.1030     5.7750     7.4000    23.7760     2.1810   -27.2580 
   71.6250    52.9030     7.1090     5.7700     7.4120    23.7490     2.1780   -27.1910 
   71.7500    53.6000     7.1200     5.7720     7.4210    23.7430     2.1750   -27.1180 
   71.8750    55.8200     7.1310     5.7810     7.4080    23.7550     2.1730   -26.9810 
   72.0000    57.0670     7.1450     5.7960     7.3930    23.7830     2.1720   -26.8070 
   72.1250    54.4980     7.1690     5.8240     7.3840    23.8470     2.1740   -26.6190 
   72.2500    53.1300     7.2100     5.8650     7.3850    23.9050     2.1810   -26.3610 
   72.3750    55.1930     7.2670     5.9180     7.4090    23.9340     2.1900   -26.0620 
