~V
VERS. 2.00: Ver 2.00
~W
STRT.M 50.0000:
STOP.M 284.0000:
STEP.M 0.1250:
NULL. -999.2500:
UWI. F10107:
~C
DEPT.M :
DEN.GM/CC :
SP.MV :
GR.API :
RML.OHMM :
RI. :
RXO.OHMM :
CALI.CM :
~A
# ...
  173.7500     2.4070    -3.4050    44.9870     8.9680     7.8430     8.1490    23.3890 
  173.8750     2.3930    -3.3140    46.6640     8.7850     7.6930     7.8540    23.3620 
  174.0000     2.3820    -3.2130    47.9750     8.6520     7.5740     7.8590    23.3630 
  174.1250     2.3750    -3.1040    48.3860     8.5490     7.4770     8.0450    23.4200 
  174.2500     2.3680    -2.9800    47.7160     8.3820     7.3350     8.1590    23.5070 
  174.3750     2.3580    -2.8480    46.4800     8.0620     7.0740     8.1500    23.5690 
  174.5000     2.3420    -2.7080    48.1070     7.5100     6.6510     7.8140    23.8110 
  174.6250     2.3200    -2.5710    53.6910     6.7740     6.0700     7.4690    24.3090 
  174.7500     2.2990    -2.4540    57.8180     5.9940     5.4590     6.8130    24.8010 
  174.8750     2.2870    -2.3650    58.5830     5.2810     4.9260     5.6180    25.0040 
  175.0000     2.2850    -2.3030    59.5380     4.8800     4.5470     4.4950    25.0600 
  175.1250     2.2880    -2.2500    63.1180     4.7420     4.3700     3.8780    25.0620 
  175.2500     2.2870    -2.2050    65.3840     4.7390     4.3300     3.8620    25.0180 
  175.3750     2.2810    -2.1690    66.0640     4.8010     4.3700     4.0850    24.7580 
  175.5000     2.2740    -2.1520    68.3460     4.8710     4.4390     4.2860    24.4340 
  175.6250     2.2750    -2.1640    72.1270     4.9120     4.4920     4.3770    24.2400 
  175.7500     2.2840    -2.1970    73.3410     4.9250     4.5180     4.3060    24.0770 
  175.8750     2.2950    -2.2450    71.9280     4.9250     4.5220     4.2390    23.9770 
  176.0000     2.3040    -2.3150    72.5610     4.9240     4.5160     4.4220    23.7700 
  176.1250     2.3050    -2.4130    77.3370     4.9300     4.5020     4.7510    23.6150 
  176.2500     2.3030    -2.5250    81.8420     4.9330     4.4810     4.8690    23.6160 
  176.3750     2.3020    -2.6370    82.4660     4.9240     4.4450     4.8550    23.6190 
  176.5000     2.3030    -2.7360    78.3190     4.8950     4.3900     4.9770    23.6320 
  176.6250     2.3070    -2.8070    74.6740     4.8480     4.3180     5.1260    23.6520 
  176.7500     2.3120    -2.8540    75.1240     4.8050     4.2480     5.1310    23.6840 
  176.8750     2.3160    -2.8760    76.4270     4.7910     4.1990     5.0570    23.7330 
  177.0000     2.3180    -2.8730    75.4410     4.8250     4.1910     4.9120    23.8480 
  177.1250     2.3180    -2.8450    75.1290     4.9220     4.2390     4.7270    24.1910 
  177.2500     2.3210    -2.8100    76.3540     5.0530     4.3280     4.5610    24.6420 
  177.3750     2.3260    -2.7820    76.2910     5.1900     4.4350     4.4490    24.9170 
  177.5000     2.3340    -2.7570    74.1550     5.2990     4.5340     4.4160    24.9890 
  177.6250     2.3430    -2.7450    71.1430     5.3470     4.5930     4.4040    24.9190 
  177.7500     2.3490    -2.7500    68.5420     5.3410     4.6100     4.2950    24.7780 
  177.8750     2.3500    -2.7720    67.3970     5.2960     4.5880     4.1930    24.4930 
  178.0000     2.3450    -2.8220    69.1100     5.2310     4.5420     4.2740    24.1570 
  178.1250     2.3330    -2.8940    71.6650     5.1620     4.4820     4.5780    23.9170 
  178.2500     2.3200    -2.9770    72.3490     5.0980     4.4200     4.8810    23.7440 
  178.3750     2.3080    -3.0560    72.7890     5.0440     4.3610     5.0460    23.6810 
  178.5000     2.3010    -3.1320    74.5400     5.0040     4.3120     5.0740    23.6730 
  178.6250     2.2990    -3.1910    78.2290     4.9860     4.2780     5.0770    23.6730 
  178.7500     2.3000    -3.2300    79.5440     4.9860     4.2590     5.0760    23.6730 
  178.8750     2.3000    -3.2510    76.8350     5.0010     4.2530     5.0410    23.6730 
  179.0000     2.2990    -3.2520    72.6680     5.0230     4.2550     5.0460    23.6730 
  179.1250     2.2970    -3.2540    72.6480     5.0380     4.2560     5.0910    23.6730 
  179.2500     2.2940    -3.2590    76.6470     5.0380     4.2470     5.0780    23.6730 
  179.3750     2.2930    -3.2610    80.8880     5.0200     4.2250     5.0180    23.6730 
  179.5000     2.2940    -3.2550    82.0530     4.9840     4.1890     5.0130    23.6810 
  179.6250     2.2980    -3.2370    80.4860     4.9360     4.1440     4.9420    23.7030 
  179.7500     2.3030    -3.2210    80.4660     4.8870     4.0990     4.7590    23.7280 
  179.8750     2.3080    -3.2220    81.5210     4.8460     4.0620     4.6350    23.7390 
  180.0000     2.3140    -3.2390    80.8160     4.8230     4.0370     4.6760    23.7400 
  180.1250     2.3220    -3.2570    76.7870     4.8320     4.0390     4.7730    23.7400 
  180.2500     2.3310    -3.2730    71.6380     4.8800     4.0720     4.7920    23.7450 
  180.3750     2.3400    -3.2840    68.2750     4.9730     4.1420     4.7600    23.7670 
  180.5000     2.3450    -3.2870    67.6830     5.1100     4.2520     4.7240    23.8200 
  180.6250     2.3470    -3.2710    72.4290     5.2840     4.4000     4.8100    23.8730 
  180.7500     2.3450    -3.2250    77.6100     5.4640     4.5640     4.8530    23.9270 
  180.8750     2.3410    -3.1410    79.3730     5.6260     4.7220     4.8980    23.9900 
  181.0000     2.3380    -3.0210    80.7630     5.7440     4.8530     4.9410    24.0500 
  181.1250     2.3340    -2.8800    87.0440     5.7890     4.9290     5.0240    24.1470 
  181.2500     2.3300    -2.7440    94.0430     5.7650     4.9460     4.9070    24.3350 
  181.3750     2.3240    -2.6330    96.9820     5.6780     4.9050     4.8030    24.6150 
  181.5000     2.3180    -2.5600    97.7780     5.5400     4.8130     4.8210    24.7920 
  181.6250     2.3130    -2.5530   100.4220     5.3670     4.6790     4.7690    24.4610 
  181.7500     2.3120    -2.6020   102.2380     5.1870     4.5300     4.6690    24.1070 
  181.8750     2.3160    -2.6950   101.4880     5.0210     4.3850     4.5110    23.7920 
  182.0000     2.3220    -2.8200    98.1250     4.8870     4.2610     4.4570    23.6370 
  182.1250     2.3280    -2.9590    92.8550     4.7980     4.1730     4.5340    23.6050 
  182.2500     2.3310    -3.0850    88.3590     4.7460     4.1170     4.5530    23.6050 
  182.3750     2.3320    -3.1940    84.1270     4.7180     4.0860     4.5640    23.6050 
  182.5000     2.3320    -3.2950    78.4100     4.7020     4.0730     4.5670    23.6100 
  182.6250     2.3310    -3.3750    72.6230     4.6870     4.0690     4.5640    23.6260 
  182.7500     2.3290    -3.4490    72.0140     4.6690     4.0640     4.6070    23.6480 
  182.8750     2.3280    -3.5290    76.8200     4.6460     4.0560     4.6710    23.6650 
  183.0000     2.3280    -3.6190    80.3950     4.6200     4.0440     4.6990    23.6880 
  183.1250     2.3280    -3.7180    77.6270     4.5990     4.0300     4.6740    23.7410 
  183.2500     2.3280    -3.8260    72.6910     4.5880     4.0210     4.6510    23.7980 
  183.3750     2.3300    -3.9310    72.6480     4.5950     4.0240     4.6220    23.8450 
  183.5000     2.3320    -4.0270    78.2740     4.6230     4.0420     4.5970    23.8690 
  183.6250     2.3350    -4.1260    80.5370     4.6670     4.0720     4.5680    23.8760 
  183.7500     2.3380    -4.2230    77.3980     4.7060     4.1030     4.5910    23.8790 
  183.8750     2.3410    -4.3310    73.9580     4.7220     4.1190     4.6480    23.8930 
  184.0000     2.3430    -4.4560    73.4590     4.7020     4.1120     4.6760    23.9230 
  184.1250     2.3430    -4.6080    74.9040     4.6550     4.0810     4.6160    23.9380 
  184.2500     2.3370    -4.7830    76.3800     4.6180     4.0530     4.5440    23.9470 
  184.3750     2.3210    -4.9770    76.1160     4.6360     4.0610     4.5220    23.9840 
  184.5000     2.2960    -5.1790    72.8820     4.7480     4.1380     4.5060    24.1470 
  184.6250     2.2680    -5.3690    70.1340     4.9890     4.3160     4.5070    24.5240 
  184.7500     2.2500    -5.5430    70.5090     5.3150     4.5710     4.5240    24.9070 
  184.8750     2.2490    -5.6880    69.8950     5.6690     4.8660     4.5850    24.9930 
