~V
VERS. 2.00: Ver 2.00
~W
STRT.M 43.0000:
STOP.M 249.0000:
STEP.M 0.1250:
NULL. -999.2500:
UWI. F10197:
~C
DEPT.M :
GR.API :
RML.OHMM :
RI. :
RXO.OHMM :
CALI.CM :
SP.MV :
DEN.GM/CC :
~A
# ...
  121.7500    45.6710    39.4250    35.6460    34.7230    23.3020    -1.6300     2.4680 
  121.8750    42.5720    38.7900    35.0780    32.9100    23.3030    -1.6940     2.4660 
  122.0000    40.1610    37.5400    34.1390    31.0170    23.1420    -1.7520     2.4670 
  122.1250    40.6600    35.6170    32.7120    28.1470    22.8180    -1.7930     2.4780 
  122.2500    42.4710    33.4460    31.0520    24.0360    22.4260    -1.8070     2.4920 
  122.3750    44.5630    31.3660    29.4110    20.5100    22.0370    -1.8070     2.5030 
  122.5000    46.3020    29.5660    27.9460    18.0710    21.8480    -1.8190     2.5080 
  122.6250    47.8950    28.1310    26.7300    17.8390    21.9950    -1.8540     2.5140 
  122.7500    49.9970    26.9750    25.7110    19.4560    22.5520    -1.9100     2.5280 
  122.8750    50.6100    26.0630    24.8800    21.3780    23.3990    -1.9580     2.5460 
  123.0000    49.2590    25.3510    24.2260    21.2530    24.2350    -1.9840     2.5510 
  123.1250    47.2540    24.7930    23.7360    19.9490    24.6880    -1.9910     2.5260 
  123.2500    46.3410    24.2690    23.3040    20.6930    24.8010    -2.0140     2.4930 
  123.3750    46.7910    23.6800    22.8250    22.5410    24.7020    -2.0740     2.4780 
  123.5000    47.0970    22.9720    22.2130    23.4060    24.5390    -2.1240     2.4880 
  123.6250    47.5700    22.1990    21.4730    21.9980    24.2830    -2.1500     2.5020 
  123.7500    47.5480    21.5320    20.7670    20.5780    24.1440    -2.1450     2.5010 
  123.8750    47.0850    21.1350    20.2580    18.8120    24.1750    -2.1220     2.4880 
  124.0000    47.6570    21.1430    20.0880    17.6780    24.3790    -2.1120     2.4720 
  124.1250    48.4700    21.6980    20.4150    18.1390    24.6140    -2.1100     2.4570 
  124.2500    48.7690    22.6430    21.1360    19.2970    24.5630    -2.0870     2.4460 
  124.3750    48.8480    23.7780    22.1060    21.0460    24.2870    -2.0230     2.4490 
  124.5000    49.1120    24.8560    23.1210    22.2970    23.9780    -1.9530     2.4660 
  124.6250    50.8980    25.5770    23.9070    23.0220    23.8730    -1.8940     2.4780 
  124.7500    53.2760    25.8270    24.3040    24.2920    23.8830    -1.8460     2.4790 
  124.8750    53.3020    25.5750    24.2350    25.8390    23.9140    -1.8170     2.4810 
  125.0000    48.7610    24.9110    23.7540    26.1170    23.9310    -1.7940     2.4910 
  125.1250    44.2670    24.0010    22.9980    24.5470    23.9320    -1.7730     2.5040 
  125.2500    45.7000    23.0860    22.1900    21.8960    23.8790    -1.7610     2.5120 
  125.3750    51.1890    22.3070    21.4590    19.5170    23.8120    -1.7530     2.5150 
  125.5000    54.5180    21.7510    20.8970    18.9790    23.7520    -1.7460     2.5120 
  125.6250    53.6900    21.4450    20.5510    20.1720    23.7290    -1.7390     2.5120 
  125.7500    52.6980    21.2730    20.3400    20.9660    23.7780    -1.7460     2.5240 
  125.8750    53.4110    21.1650    20.2030    19.6170    23.8690    -1.7560     2.5410 
  126.0000    54.9920    21.0560    20.0830    17.8430    23.9330    -1.7700     2.5470 
  126.1250    54.1070    20.8450    19.8850    17.5440    23.9180    -1.8040     2.5330 
  126.2500    52.0600    20.4560    19.5350    17.8020    23.7960    -1.8550     2.5140 
  126.3750    51.6410    19.8410    18.9900    17.4260    23.5590    -1.9300     2.4990 
  126.5000    53.6280    19.0160    18.2590    15.8340    23.2730    -2.0140     2.4830 
  126.6250    54.2110    18.1050    17.4380    14.2110    22.9130    -2.0860     2.4520 
  126.7500    51.7670    17.3440    16.7200    12.8840    22.5360    -2.1700     2.3970 
  126.8750    50.8490    16.9210    16.2680    12.2050    22.0760    -2.2580     2.3300 
  127.0000    54.6000    16.9430    16.1870    12.1080    21.3330    -2.3560     2.2820 
  127.1250    60.2340    17.4640    16.5620    12.7610    20.4890    -2.4550     2.2850 
  127.2500    64.2540    18.2620    17.2390    13.2090    20.1170    -2.5510     2.3220 
  127.3750    65.3790    19.1180    18.0520    13.3200    20.1240    -2.6340     2.3650 
  127.5000    63.9720    19.8090    18.7950    13.4380    20.3360    -2.7040     2.3920 
  127.6250    62.1960    20.1600    19.2720    14.3440    20.6520    -2.7790     2.4010 
  127.7500    60.4090    20.2690    19.5170    15.4850    20.9510    -2.8440     2.4090 
  127.8750    56.9220    20.2640    19.6270    15.8910    21.1480    -2.8920     2.4240 
  128.0000    53.9390    20.2490    19.6940    15.0290    21.2230    -2.9170     2.4460 
  128.1250    55.1500    20.2010    19.7260    14.5440    21.1790    -2.9210     2.4680 
  128.2500    57.0000    19.9950    19.6260    13.5740    20.7200    -2.8990     2.4820 
  128.3750    55.6690    19.5310    19.2920    11.3580    19.4660    -2.8640     2.4870 
  128.5000    52.7550    18.8180    18.7060     9.3110    17.7410    -2.8380     2.4820 
  128.6250    49.9530    17.9460    17.9240     8.7340    16.6280    -2.8300     2.4570 
  128.7500    46.5140    17.0650    17.0850     8.6180    16.2860    -2.8230     2.4310 
  128.8750    44.2140    16.2270    16.2520     8.6360    16.4910    -2.8240     2.4200 
  129.0000    47.5200    15.4080    15.4280     8.7710    17.0110    -2.8320     2.4280 
  129.1250    57.0170    14.5460    14.5790     9.2490    17.9400    -2.8490     2.4450 
  129.2500    66.1060    13.6700    13.7280     9.5950    19.1040    -2.8720     2.4600 
  129.3750    70.0240    12.8830    12.9590     9.8130    20.1820    -2.8990     2.4740 
  129.5000    68.0740    12.3160    12.3810     9.9220    21.0930    -2.9420     2.4870 
  129.6250    63.2140    12.1690    12.1560    10.2260    21.7220    -3.0040     2.4960 
  129.7500    59.0630    12.4530    12.3090    10.6270    22.1950    -3.0790     2.4950 
  129.8750    56.4470    13.1310    12.8370    11.4440    22.5300    -3.1680     2.4820 
  130.0000    54.8130    14.0870    13.6660    12.9420    22.7210    -3.2650     2.4610 
  130.1250    52.0880    15.1560    14.6680    15.4230    22.8030    -3.3740     2.4490 
  130.2500    49.8800    16.1500    15.6410    17.0580    22.9200    -3.4910     2.4590 
  130.3750    48.8230    16.9710    16.4600    16.8610    23.0440    -3.6130     2.4880 
  130.5000    48.5190    17.5990    17.0650    16.0740    23.1230    -3.7230     2.5200 
  130.6250    48.9210    18.0560    17.4440    16.1300    23.1630    -3.7960     2.5370 
  130.7500    50.3240    18.4200    17.6860    16.9340    23.1970    -3.8600     2.5420 
  130.8750    52.4990    18.7160    17.8280    17.6870    23.2360    -3.9380     2.5440 
  131.0000    54.9930    18.9740    17.9110    17.4010    23.2840    -4.0410     2.5420 
  131.1250    57.4980    19.2930    18.0260    17.7670    23.2690    -4.1760     2.5280 
  131.2500    58.6900    19.7940    18.2960    18.2990    23.1150    -4.3580     2.5110 
  131.3750    59.8620    20.5760    18.8200    18.5410    22.8570    -4.5850     2.4980 
  131.5000    63.2800    21.6860    19.6560    18.7040    22.4770    -4.8220     2.4860 
  131.6250    66.5570    23.1010    20.8320    19.6990    22.1040    -5.0750     2.4650 
  131.7500    68.5730    24.5630    22.1450    20.3620    21.7890    -5.3250     2.4360 
  131.8750    71.0360    25.8230    23.3800    20.9330    21.6850    -5.5390     2.4050 
  132.0000    75.3670    26.6990    24.3510    21.8330    21.8370    -5.7130     2.3720 
  132.1250    79.0350    27.0910    24.9130    23.2860    22.2650    -5.8530     2.3350 
  132.2500    80.8830    27.1820    25.1720    25.9100    22.9900    -5.9570     2.2920 
  132.3750    81.1960    27.1260    25.2350    26.9080    23.8210    -6.0150     2.2430 
  132.5000    80.9390    27.0230    25.1970    27.2770    24.4710    -6.0550     2.1970 
  132.6250    80.4490    26.8090    25.0270    27.0530    24.6090    -6.0810     2.1750 
  132.7500    79.9380    26.3670    24.6400    27.5540    24.4710    -6.0730     2.1770 
  132.8750    80.1190    25.6300    23.9710    26.7140    24.4150    -6.0290     2.1910 
