~V
VERS. 2.00: Ver 2.00
~W
STRT.M 55.0000:
STOP.M 251.0000:
STEP.M 0.1250:
NULL. -999.2500:
UWI. F10189:
~C
DEPT.M :
DEN.GM/CC :
SP.MV :
GR.API :
RML.OHMM :
RI. :
RXO.OHMM :
CALI.CM :
~A
# ...
   66.2500     2.4720   -35.1740    56.1100    11.4650    12.2920    31.6620    25.5190 
   66.3750     2.4830   -35.3880    53.4550    12.6790    13.8310    35.0200    24.7900 
   66.5000     2.3790   -35.5350    55.0710    12.1340    13.8930    35.0830    24.6010 
   66.6250     2.2460   -35.6540    59.7150    10.2290    12.2560    25.4410    25.1760 
   66.7500     2.1690   -35.7480    63.4380     8.4240    10.1890    13.4810    26.1970 
   66.8750     2.1560   -35.8200    63.1880     7.1680     8.4320     8.4150    27.2310 
   67.0000     2.1860   -35.8820    60.5780     6.4600     7.2450     7.4850    27.9050 
   67.1250     2.2220   -35.9080    61.0100     6.2120     6.6540     7.6310    27.9750 
   67.2500     2.2300   -35.9190    66.0830     6.2080     6.4050     7.9280    27.7540 
   67.3750     2.1950   -35.9440    69.8910     6.3500     6.3740     8.2690    27.6190 
   67.5000     2.1340   -35.9740    66.9080     6.5720     6.4770     8.5940    27.8070 
   67.6250     2.0790   -36.0230    60.8920     6.8200     6.6620     8.6390    28.3490 
   67.7500     2.0550   -36.0930    60.8670     7.0250     6.8530     8.7550    29.0080 
   67.8750     2.0800   -36.2000    65.8920     7.1390     6.9900     8.9500    29.6650 
   68.0000     2.1530   -36.3460    69.2600     7.1460     7.0320     9.2400    30.1010 
   68.1250     2.2320   -36.5450    68.1860     7.0760     6.9560     9.3860    29.9500 
   68.2500     2.2550   -36.7800    66.2610     7.0060     6.8120     9.2950    29.6070 
   68.3750     2.2290   -37.0240    62.9170     6.9850     6.6430     9.2090    29.5860 
   68.5000     2.2030   -37.2680    59.0780     7.0290     6.4950     9.1300    29.8540 
   68.6250     2.1880   -37.4630    58.9460     7.1270     6.4060     9.0610    30.0430 
   68.7500     2.1680   -37.5950    62.2790     7.2380     6.3700     8.6920    30.0760 
   68.8750     2.1420   -37.6430    64.8730     7.3370     6.3680     8.1270    29.7870 
   69.0000     2.1140   -37.6040    64.7020     7.4010     6.3670     7.7150    28.9330 
   69.1250     2.0800   -37.4660    63.9080     7.4090     6.3390     7.6270    27.7600 
   69.2500     2.0610   -37.2500    64.8510     7.3660     6.2820     7.7970    27.0970 
   69.3750     2.0740   -36.9830    66.4670     7.2860     6.2020     8.0120    26.8070 
   69.5000     2.1110   -36.6520    66.4210     7.1890     6.1050     8.0070    26.7250 
   69.6250     2.1330   -36.2810    63.9220     7.0950     5.9950     7.8350    26.8020 
   69.7500     2.1220   -35.9250    61.6690     7.0140     5.8830     7.5590    27.0680 
   69.8750     2.0990   -35.5790    60.8950     6.9590     5.7850     7.5150    27.4670 
   70.0000     2.0760   -35.2290    60.5780     6.9740     5.7350     7.6960    27.8770 
   70.1250     2.0640   -34.8490    59.7330     7.1870     5.8180     8.1200    28.1960 
   70.2500     2.0760   -34.4240    60.7370     7.6680     6.0930     8.2960    28.4130 
   70.3750     2.1220   -33.9340    63.0200     8.4240     6.5950     7.8770    28.2030 
   70.5000     2.2060   -33.3800    64.2030     9.3260     7.2810     7.3310    27.2460 
   70.6250     2.2950   -32.7410    63.4790    10.0170     7.9530     7.4580    25.8740 
   70.7500     2.3260   -32.0220    64.3580    10.1670     8.3210     8.1890    25.1410 
   70.8750     2.2800   -31.2300    66.1970     9.6950     8.2300     8.9590    24.9130 
   71.0000     2.2150   -30.3530    66.2550     8.8540     7.7690     9.2330    24.8740 
   71.1250     2.1970   -29.3720    66.7720     8.0790     7.2080     9.1290    24.8980 
   71.2500     2.2180   -28.3260    70.2280     7.5920     6.7780     8.6540    24.9490 
   71.3750     2.2560   -27.2450    75.6990     7.3720     6.5230     8.2890    25.0020 
   71.5000     2.2830   -26.1840    81.7650     7.2850     6.3880     8.1350    24.9770 
   71.6250     2.2860   -25.2290    84.9430     7.1510     6.2580     8.0820    24.7520 
   71.7500     2.2730   -24.3530    85.3840     6.9030     6.0520     7.4860    24.6750 
   71.8750     2.2540   -23.5600    85.5530     6.5870     5.7730     6.5220    24.7530 
   72.0000     2.2400   -22.8760    88.2470     6.2850     5.4750     6.1460    24.9510 
   72.1250     2.2390   -22.3590    93.1020     6.0630     5.2260     6.4890    25.0940 
   72.2500     2.2510   -21.9850    96.1010     5.9040     5.0510     7.0450    25.0230 
   72.3750     2.2730   -21.7480    94.9440     5.7750     4.9400     7.3710    24.7610 
   72.5000     2.2950   -21.6310    89.3870     5.6500     4.8570     6.9330    24.5510 
   72.6250     2.2980   -21.6230    88.1210     5.5520     4.7820     5.8090    24.4890 
   72.7500     2.2730   -21.7070    93.1440     5.5300     4.7380     4.9930    24.4810 
   72.8750     2.2370   -21.8780    96.8070     5.6110     4.7620     5.1220    24.4800 
   73.0000     2.2120   -22.1190    93.0990     5.7940     4.8780     5.5590    24.4690 
   73.1250     2.2070   -22.4150    85.9340     6.0510     5.0810     5.9540    24.4250 
   73.2500     2.2050   -22.7420    81.1290     6.3050     5.3000     5.9390    24.3550 
   73.3750     2.2040   -23.0770    78.2770     6.4870     5.4620     5.7720    24.2990 
   73.5000     2.2090   -23.4070    77.1860     6.5520     5.5150     5.5930    24.2580 
   73.6250     2.2230   -23.7290    78.4340     6.4810     5.4420     5.3040    24.2120 
   73.7500     2.2390   -24.0630    78.9270     6.3360     5.3010     5.3320    24.1860 
   73.8750     2.2570   -24.4200    78.0610     6.1690     5.1350     5.4990    24.2080 
   74.0000     2.2810   -24.8290    78.3090     6.0390     4.9790     5.4830    24.3270 
   74.1250     2.3000   -25.3260    83.8340     6.0180     4.8740     5.5360    24.4780 
   74.2500     2.3020   -25.9310    91.1680     6.1300     4.8470     5.7520    24.6400 
   74.3750     2.2810   -26.6490    93.0510     6.3910     4.9270     6.2480    24.7870 
   74.5000     2.2350   -27.4410    86.1550     6.7840     5.1220     6.9490    24.9170 
   74.6250     2.1800   -28.1870    74.1450     7.2060     5.3990     7.6390    25.1830 
   74.7500     2.1430   -28.8180    66.6360     7.5000     5.6480     7.8690    25.6430 
   74.8750     2.1340   -29.2780    66.2590     7.5560     5.7790     7.7000    26.1340 
   75.0000     2.1470   -29.5290    70.0930     7.3520     5.7470     7.4650    26.3280 
   75.1250     2.1640   -29.5300    75.2770     6.9520     5.5620     7.5740    26.0910 
   75.2500     2.1750   -29.3090    78.5420     6.5580     5.3380     7.8810    25.6930 
   75.3750     2.1760   -28.8540    78.2830     6.3260     5.1710     8.1810    25.4920 
   75.5000     2.1660   -28.1800    74.3760     6.3890     5.1610     8.7420    25.6490 
   75.6250     2.1530   -27.3060    71.1690     6.9190     5.4640     9.6860    26.1540 
   75.7500     2.1640   -26.3340    69.7720     7.8570     6.0940    10.7550    26.6040 
   75.8750     2.2210   -25.3160    67.1910     9.0430     6.9850    11.8530    26.4670 
   76.0000     2.3310   -24.2680    65.5710    10.1130     7.9060    13.1350    25.6840 
   76.1250     2.4480   -23.2060    72.0600    10.3910     8.3420    13.8950    24.8000 
   76.2500     2.4820   -22.1370    83.3390     9.6950     8.0280    13.2560    24.4070 
   76.3750     2.4260   -21.1010    92.7320     8.3310     7.0920     8.3380    24.2730 
   76.5000     2.3600   -20.1780    95.1920     6.8860     5.9390     5.4330    24.2360 
   76.6250     2.3390   -19.4930    96.3100     5.8530     4.9730     4.3800    24.2270 
   76.7500     2.3430   -19.0460   101.8740     5.2790     4.3200     4.6430    24.2150 
   76.8750     2.3520   -18.8510   107.0570     5.1350     4.0030     5.6630    24.1930 
   77.0000     2.3630   -18.9270   105.6810     5.4150     4.0230     7.4940    24.1790 
   77.1250     2.3910   -19.2820   101.0900     6.2740     4.4790    10.7550    24.1720 
   77.2500     2.4310   -19.8420    97.6920     7.7480     5.3920    15.0550    24.1650 
   77.3750     2.4720   -20.5900    91.5680     9.8840     6.8520    20.2100    24.1410 
