~V
VERS. 2.00: Ver 2.00
~W
STRT.M 58.0000:
STOP.M 228.0000:
STEP.M 0.1250:
NULL. -999.2500:
UWI. F10151:
~C
DEPT.M :
SP.MV :
GR.API :
RML.OHMM :
RI. :
RXO.OHMM :
CALI.CM :
DEN.GM/CC :
~A
# ...
  159.2500   -20.1990    60.6010   149.8670   144.2810   109.8130    25.4620     2.2340 
  159.3750   -20.6540    61.5780   169.3840   164.0970   159.7410    25.1600     2.2300 
  159.5000   -21.0070    62.1710   185.7700   181.4330   216.1230    25.6510     2.2270 
  159.6250   -21.2020    61.5450   193.9960   190.2160   223.6160    27.0920     2.2230 
  159.7500   -21.2630    61.2940   195.0830   191.0510   188.4780    28.3790     2.2180 
  159.8750   -21.1460    63.8930   192.1590   187.4340   163.6220    27.5350     2.2120 
  160.0000   -20.8270    68.9580   189.0920   183.7410   145.1620    25.9330     2.2050 
  160.1250   -20.3710    71.5990   188.6050   183.3340   130.2980    25.2010     2.1960 
  160.2500   -19.8720    68.5610   189.4340   185.2260   128.7700    25.3400     2.1840 
  160.3750   -19.3980    63.1300   188.9120   186.6240   147.4900    26.0750     2.1700 
  160.5000   -19.0710    60.7110   185.6650   184.3280   172.9670    27.2450     2.1530 
  160.6250   -18.8340    63.0550   178.9150   175.6310   165.5740    26.2030     2.1390 
  160.7500   -18.7190    63.2880   168.7410   162.7250   143.2210    25.5720     2.1320 
  160.8750   -18.6710    60.6900   155.6570   148.5810   120.2880    25.2000     2.1380 
  161.0000   -18.7120    59.7690   138.6210   136.1860   106.8250    25.1250     2.1590 
  161.1250   -18.8230    60.4590   130.4190   128.1210    95.5270    25.0740     2.1910 
  161.2500   -18.8630    60.8630   126.5050   124.2720    92.7420    24.9250     2.2210 
  161.3750   -18.9080    63.6390   126.6070   124.3730    96.4400    24.6050     2.2390 
  161.5000   -18.8470    68.5120   130.2860   127.9900    91.4400    24.3400     2.2420 
  161.6250   -18.7520    70.8450   137.4910   135.0750    75.7810    24.2400     2.2300 
  161.7500   -18.6420    71.4070   146.9200   144.3460    70.4970    24.3080     2.2150 
  161.8750   -18.4980    72.6990   157.5400   154.7890    86.1070    24.4720     2.2040 
  162.0000   -18.3530    72.9450   168.0860   165.1580   118.2780    24.6360     2.2020 
  162.1250   -18.2970    70.3980   175.2570   172.2100   150.5360    24.8410     2.2090 
  162.2500   -18.2640    68.6570   173.7770   170.7540   165.1390    24.9310     2.2180 
  162.3750   -18.2450    68.5700   158.4640   155.6970   171.7730    24.7740     2.2270 
  162.5000   -18.2830    68.9700   130.4490   128.1510   184.8310    24.5600     2.2380 
  162.6250   -18.3290    70.9640    99.5470    97.7650   176.4870    24.4410     2.2560 
  162.7500   -18.4240    73.1990    75.6710    74.2880   124.4450    24.4400     2.2780 
  162.8750   -18.5760    73.1720    61.7470    60.5970    68.2440    24.4550     2.2960 
  163.0000   -18.7640    71.9510    57.8930    56.8070    40.7200    24.4270     2.3030 
  163.1250   -18.9670    71.7550    65.5650    64.3510    38.4350    24.3020     2.2950 
  163.2500   -19.2470    70.7600    83.2520    81.7420    66.6930    24.1170     2.2800 
  163.3750   -19.5660    66.9140   109.6810   107.7290   131.3390    23.9040     2.2660 
  163.5000   -19.9170    63.3910   139.4240   136.9760   182.0950    23.8250     2.2550 
  163.6250   -20.3390    63.4140   160.5070   157.7060   148.2820    23.9880     2.2490 
  163.7500   -20.7210    64.8100   168.4040   165.4710   137.6250    24.2540     2.2430 
  163.8750   -21.1330    66.7880   167.4750   164.5570   131.8090    24.3970     2.2380 
  164.0000   -21.5070    69.1450   164.1290   161.2670   126.6170    24.4740     2.2310 
  164.1250   -21.8620    69.5170   160.4570   157.6570   137.1640    24.5620     2.2240 
  164.2500   -22.1310    67.2080   154.3820   151.6830   153.6000    24.6390     2.2170 
  164.3750   -22.2520    65.8130   144.5820   142.0470   153.7450    24.7280     2.2100 
  164.5000   -22.2950    67.1670   132.0950   129.7690   135.4420    25.0700     2.2060 
  164.6250   -22.1790    67.3690   120.0160   117.8920   114.1190    25.5270     2.2040 
  164.7500   -22.0100    65.1840   111.2580   109.2800    89.1790    25.7880     2.2050 
  164.8750   -21.8110    63.8950   107.3280   105.4160    71.6330    25.6130     2.2070 
  165.0000   -21.5960    66.1590   108.5470   106.6140    69.5470    25.7030     2.2090 
  165.1250   -21.3720    69.3650   114.7790   112.7430    87.4000    25.2570     2.2090 
  165.2500   -21.2020    69.7400   123.5970   121.4130   113.0780    24.9520     2.2070 
  165.3750   -21.0610    67.4480   135.2190   130.5580   131.3770    24.8250     2.2080 
  165.5000   -20.9360    64.4310   141.4960   137.7670   146.9130    24.8260     2.2120 
  165.6250   -20.8140    62.3780   143.3860   139.9870   146.5490    24.8850     2.2210 
  165.7500   -20.6190    60.2560   141.2690   137.1110   143.6400    24.9930     2.2270 
  165.8750   -20.2700    57.6330   135.1310   130.1550   135.3640    25.0690     2.2290 
  166.0000   -19.7440    55.1320   127.1670   121.3290   126.1830    25.2060     2.2330 
  166.1250   -18.9980    54.2750   120.5860   113.8510   110.9620    25.0770     2.2570 
  166.2500   -18.0490    55.7530   117.5850   110.0730    96.8360    24.9020     2.3050 
  166.3750   -17.0380    58.4990   119.1160   111.3250    91.9350    24.6570     2.3690 
  166.5000   -15.9250    58.7900   124.3160   117.5400   100.5280    24.3440     2.4340 
  166.6250   -14.7660    54.5640   128.7170   125.5620   112.5740    24.2880     2.4760 
  166.7500   -13.6170    50.4190   126.0750   127.9200   122.1860    24.3880     2.4960 
  166.8750   -12.5500    50.5530   113.1970   118.5550   147.7720    24.5240     2.5010 
  167.0000   -11.6050    53.9720    92.0860    97.6490   176.9100    24.5390     2.5060 
  167.1250   -10.7420    56.7390    69.2530    72.8190   133.3370    24.4100     2.5160 
  167.2500   -10.0700    57.0940    50.5830    52.3500    69.7230    24.2510     2.5250 
  167.3750    -9.4950    56.5730    37.4030    38.1240    36.5030    24.1720     2.5250 
  167.5000    -8.9780    57.5120    28.7670    28.9930    25.0440    24.3500     2.5150 
  167.6250    -8.4890    57.9140    23.3570    23.3080    18.6320    24.5720     2.4970 
  167.7500    -7.9550    55.6120    19.3170    19.0080    16.4580    24.6990     2.4810 
  167.8750    -7.3640    53.4310    16.0180    15.4740    15.3790    24.5570     2.4680 
  168.0000    -6.7410    56.7690    13.3570    12.6460    13.4420    24.3920     2.4590 
  168.1250    -6.1030    64.7590    11.8390    10.9550     9.3740    24.3630     2.4540 
  168.2500    -5.4530    69.3500    11.7480    10.5040     7.0350    24.3580     2.4620 
  168.3750    -4.8260    70.0680    13.2440    11.4280     6.8580    24.2870     2.4880 
  168.5000    -4.2220    69.6700    15.9960    13.7240    10.1970    24.1780     2.5290 
  168.6250    -3.6500    69.4680    18.7410    16.7430    23.4380    24.1070     2.5680 
  168.7500    -3.0980    69.1730    19.7740    18.2870    47.6720    24.0460     2.5850 
  168.8750    -2.5590    70.0900    18.3050    16.7700    49.8880    24.0780     2.5760 
  169.0000    -2.0500    72.1450    14.8880    13.1040    25.4560    24.2640     2.5450 
  169.1250    -1.5880    71.9450    11.1790     9.6350     9.9170    24.3350     2.5070 
  169.2500    -1.1210    68.6130     8.4130     7.3030     6.2440    24.3340     2.4760 
  169.3750    -0.6530    64.4590     6.6650     6.0030     5.3410    24.3300     2.4600 
  169.5000    -0.2360    60.8640     5.6990     5.4440     5.2620    24.3630     2.4590 
  169.6250     0.0810    58.9970     5.4540     5.4100     5.3020    24.3950     2.4730 
  169.7500     0.1930    59.0690     5.6120     5.5870     5.2360    24.3880     2.4880 
  169.8750     0.1470    60.4240     5.8600     5.8060     5.1620    24.3240     2.4950 
  170.0000    -0.0370    61.2340     5.9890     5.9540     5.1770    24.1170     2.4880 
  170.1250    -0.3420    60.9130     5.9770     5.9690     5.3730    23.6390     2.4680 
  170.2500    -0.7070    60.9500     5.8930     5.8910     5.5650    23.2280     2.4470 
  170.3750    -1.1300    60.2730     5.8040     5.7760     5.5510    23.0710     2.4360 
