~V
VERS. 2.00: Ver 2.00
~W
STRT.M 53.0000:
STOP.M 246.0000:
STEP.M 0.1250:
NULL. -999.2500:
UWI. F10192:
~C
DEPT.M :
DEN.GM/CC :
GR.API :
RML.OHMM :
RI. :
RXO.OHMM :
CALI.CM :
SP.MV :
~A
# ...
  188.0000     2.2480    59.4470   128.8670   117.8940   104.4260    24.7420   -30.2780 
  188.1250     2.2400    57.7320   124.6600   112.8910    97.5870    24.8440   -30.2120 
  188.2500     2.2290    60.4080   122.9660   110.0430    95.1560    24.9190   -30.1150 
  188.3750     2.2230    62.8440   123.3970   109.1710    95.0160    24.8890   -30.0350 
  188.5000     2.2240    62.8020   125.6230   110.1000    97.1060    24.7950   -29.9380 
  188.6250     2.2240    61.2570   129.3640   112.7180    98.8010    24.7540   -29.8030 
  188.7500     2.2190    63.7910   134.7710   117.4280    99.4240    24.7690   -29.7120 
  188.8750     2.2140    68.0980   141.6350   124.1260   100.1690    24.7160   -29.6230 
  189.0000     2.2130    69.5550   149.7990   132.7530   105.0200    24.5990   -29.5490 
  189.1250     2.2140    68.0050   158.7410   142.8220   114.6260    24.5110   -29.4800 
  189.2500     2.2140    65.5970   167.3480   153.2630   135.9560    24.5060   -29.4550 
  189.3750     2.2170    62.7860   174.3640   162.5860   151.2950    24.5400   -29.4370 
  189.5000     2.2220    59.3650   178.5750   169.4580   156.0620    24.5720   -29.4050 
  189.6250     2.2280    57.8060   178.6200   172.5100   154.4070    24.5970   -29.4190 
  189.7500     2.2290    58.8880   170.6250   168.0850   151.4200    24.6990   -29.4050 
  189.8750     2.2320    59.8910   152.0420   152.9050   143.7050    24.8350   -29.4490 
  190.0000     2.2400    60.1770   123.0700   125.5570   125.8830    24.9060   -29.4980 
  190.1250     2.2560    60.6330    89.7800    91.7530   104.0410    24.8600   -29.5590 
  190.2500     2.2740    63.9180    61.8560    62.9790    79.3730    24.7440   -29.6720 
  190.3750     2.2920    69.7000    42.7900    43.7050    52.7740    24.5710   -29.8190 
  190.5000     2.3050    74.9290    32.1640    32.9400    29.5950    24.3820   -30.0520 
  190.6250     2.3060    77.4090    28.4140    28.3990    16.9970    24.2920   -30.3410 
  190.7500     2.2850    76.3870    31.0020    29.0830    17.1850    24.3380   -30.7600 
  190.8750     2.2550    72.6920    38.2250    33.9000    23.4600    24.4570   -31.2010 
  191.0000     2.2290    67.6770    49.5070    43.3050    42.1860    24.5530   -31.7290 
  191.1250     2.2160    63.5520    63.6460    57.2610    68.0470    24.6250   -32.2810 
  191.2500     2.2170    63.6150    77.9540    73.5350    77.9080    24.6690   -32.8630 
  191.3750     2.2250    65.8400    89.3880    87.1430    80.6550    24.6860   -33.4380 
  191.5000     2.2320    68.1240    97.2270    95.9800    82.3310    24.6820   -34.0040 
  191.6250     2.2360    68.0010   103.0650   101.4930    84.9140    24.6670   -34.5340 
  191.7500     2.2360    63.0490   109.1610   106.2710    87.9880    24.6540   -34.9960 
  191.8750     2.2360    58.1740   116.0630   111.4120    97.2060    24.6750   -35.4580 
  192.0000     2.2330    58.0120   122.7060   116.1040   122.6410    24.7080   -35.8790 
  192.1250     2.2240    61.3340   127.5220   118.9690   150.4820    24.6950   -36.3160 
  192.2500     2.2150    62.4160   129.1480   118.8120   130.6270    24.6440   -36.6940 
  192.3750     2.2130    59.7800   128.8550   116.9390   102.7260    24.5620   -37.0700 
  192.5000     2.2170    56.7870   128.3170   115.0600    92.4960    24.5170   -37.4360 
  192.6250     2.2160    55.0120   128.8780   114.5970   101.4210    24.6150   -37.7620 
  192.7500     2.2040    53.5520   131.1430   116.3270   104.3300    24.7500   -38.0690 
  192.8750     2.1840    53.6300   134.2110   119.3180   107.1680    24.8350   -38.3090 
  193.0000     2.1610    55.6740   137.0960   122.5160   115.1950    24.8480   -38.5160 
  193.1250     2.1430    57.8780   138.9070   124.9060   124.8570    24.8230   -38.6530 
  193.2500     2.1450    59.6670   138.6900   125.4730   121.5850    24.6950   -38.7830 
  193.3750     2.1640    61.2850   136.1560   123.9440   112.9300    24.5210   -38.8490 
  193.5000     2.1860    62.4400   130.7660   119.8120   105.1250    24.4360   -38.8550 
  193.6250     2.1990    64.4550   122.5410   112.9390    96.7140    24.4810   -38.8240 
  193.7500     2.2050    68.7490   112.6980   104.1000    86.6530    24.5810   -38.7390 
  193.8750     2.2100    70.8370   103.9180    95.6500    77.9060    24.6480   -38.6320 
  194.0000     2.2130    66.2000    98.3020    89.5230    72.3650    24.6880   -38.4980 
  194.1250     2.2120    57.6670    97.4240    87.2720    68.8790    24.7340   -38.3790 
  194.2500     2.2080    53.9500   103.3460    91.0160    72.7920    24.8320   -38.2200 
  194.3750     2.2050    56.2710   115.4890   100.6150    88.7800    24.9370   -38.0610 
  194.5000     2.2060    59.8460   133.2590   115.7740   107.8660    24.9800   -37.8520 
  194.6250     2.2110    60.5740   154.2780   134.4430   125.1480    24.9870   -37.6400 
  194.7500     2.2170    58.1260   171.7230   150.8650   150.1410    24.9900   -37.3820 
  194.8750     2.2240    56.7040   178.4120   158.7720   176.4680    24.9960   -37.0760 
  195.0000     2.2300    58.2910   172.4160   155.8000   178.2380    25.0120   -36.7370 
  195.1250     2.2330    60.1060   158.4560   144.7850   145.8850    25.0580   -36.3160 
  195.2500     2.2300    57.6210   143.8680   131.4780   116.4190    25.1100   -35.9100 
  195.3750     2.2260    53.9080   132.8320   120.5030   103.3990    25.1550   -35.4950 
  195.5000     2.2240    54.7800   125.9520   113.0340   106.1970    25.1610   -35.1160 
  195.6250     2.2240    59.3510   122.5390   108.7560   109.9930    25.1440   -34.7720 
  195.7500     2.2280    59.3840   121.7610   107.0390   110.7490    25.1200   -34.4570 
  195.8750     2.2310    55.6370   122.2030   106.5680   106.2280    25.0940   -34.2350 
  196.0000     2.2290    54.7750   123.2660   106.7820   101.9930    25.0780   -34.0350 
  196.1250     2.2220    59.4320   124.5850   107.3420   105.4800    25.0790   -33.9110 
  196.2500     2.2140    63.0480   125.9700   108.0670   112.0660    25.0760   -33.7720 
  196.3750     2.2110    61.3090   127.6180   109.0330   115.5340    25.0710   -33.6490 
  196.5000     2.2110    58.4460   130.3240   110.8420   117.2320    25.0650   -33.5300 
  196.6250     2.2100    57.1540   135.3990   114.6000   117.2220    25.0660   -33.3800 
  196.7500     2.2050    56.0030   145.0720   122.3750   116.3600    25.0730   -33.2300 
  196.8750     2.1950    52.7680   159.1510   134.2540   122.0650    25.0840   -32.9990 
  197.0000     2.1840    49.2670   175.3460   148.5630   150.5940    25.1000   -32.7570 
  197.1250     2.1790    46.5390   187.0800   160.3510   212.5440    25.1530   -32.4400 
  197.2500     2.1870    44.9070   181.0510   159.3730   243.3790    25.2490   -32.1180 
  197.3750     2.2010    46.2000   156.5590   142.7840   199.6470    25.3440   -31.7840 
  197.5000     2.2190    50.6360   122.8970   115.3570   132.8830    25.3520   -31.4640 
  197.6250     2.2400    55.4660    91.5720    86.6860    88.5070    25.2840   -31.1580 
  197.7500     2.2630    59.4280    69.4150    65.0120    71.4340    25.1950   -30.8760 
  197.8750     2.2810    63.7820    54.3840    50.2410    54.6360    25.1270   -30.6090 
  198.0000     2.2890    68.3610    44.2820    40.5220    40.2800    25.1000   -30.3420 
  198.1250     2.2910    70.3740    37.3090    34.0170    34.5850    25.0770   -30.1270 
  198.2500     2.2960    69.3560    32.7620    29.9040    32.9390    25.0620   -29.9100 
  198.3750     2.3090    69.7040    30.0280    27.4290    30.3310    25.0400   -29.7360 
  198.5000     2.3270    71.8810    29.1890    26.5300    26.1650    25.0180   -29.5210 
  198.6250     2.3440    72.6360    30.3320    27.2320    23.4740    24.9860   -29.3150 
  198.7500     2.3710    69.3300    33.5040    29.7530    26.9110    24.8780   -29.1300 
  198.8750     2.4180    65.9690    37.4480    33.3360    35.3590    24.6680   -28.9520 
  199.0000     2.4760    65.5600    40.4880    36.6250    43.9040    24.4890   -28.7870 
  199.1250     2.5210    66.7010    40.6250    37.4950    46.5150    24.4000   -28.6070 
