~V
VERS. 2.00: Ver 2.00
~W
STRT.M 51.0000:
STOP.M 246.0000:
STEP.M 0.1250:
NULL. -999.2500:
UWI. F10182:
~C
DEPT.M :
SP.MV :
GR.API :
RML.OHMM :
RI. :
RXO.OHMM :
DEN.GM/CC :
CALI.CM :
~A
# ...
  186.0000    -6.9850    42.0550    11.6160     8.2830    15.8420     2.1820    24.2590 
  186.1250    -7.0520    44.5430    10.6010     7.6590    10.4310     2.1510    24.4360 
  186.2500    -7.1180    46.6740     9.6740     7.0080     7.9020     2.1780    24.6100 
  186.3750    -7.1990    48.5250     8.9610     6.4290     6.9970     2.2260    24.7970 
  186.5000    -7.3000    49.5040     8.4700     5.9680     6.6300     2.2810    25.1260 
  186.6250    -7.3960    48.6800     8.1770     5.6410     6.6450     2.3470    25.4030 
  186.7500    -7.5250    46.9220     8.0880     5.4700     6.8890     2.4050    25.1220 
  186.8750    -7.6540    45.8490     8.1630     5.4190     7.7740     2.4160    24.6440 
  187.0000    -7.8100    45.5800     8.3940     5.4830     8.7680     2.3670    24.3740 
  187.1250    -7.9990    45.6750     8.7600     5.6560     8.1330     2.2890    24.3010 
  187.2500    -8.2030    46.2610     9.2120     5.9340     7.6790     2.2180    24.2180 
  187.3750    -8.4200    48.4040     9.6450     6.2600     6.8330     2.1700    24.1230 
  187.5000    -8.6140    52.9390     9.1020     6.5700     6.1720     2.1440    24.2370 
  187.6250    -8.8390    58.4540     8.9400     6.7960     6.1070     2.1380    24.6520 
  187.7500    -9.0430    62.6090     8.8710     6.8730     7.0370     2.1480    24.8940 
  187.8750    -9.2370    65.9400     8.7260     6.8380     9.4470     2.1780    25.1930 
  188.0000    -9.4410    70.5230     8.5860     6.7370    12.7130     2.2360    25.5460 
  188.1250    -9.6420    76.0330     8.4910     6.6210    12.9130     2.3150    25.7450 
  188.2500    -9.8730    79.8580     8.4380     6.5270     9.9910     2.3900    25.7060 
  188.3750   -10.1460    82.4150     8.3890     6.4570     8.6570     2.4340    25.6450 
  188.5000   -10.4640    84.8490     8.3320     6.3890     8.3890     2.4400    25.6700 
  188.6250   -10.8430    88.0900     8.2670     6.2960     8.4060     2.4170    25.6930 
  188.7500   -11.2710    89.5190     8.1840     6.1490     8.2680     2.3860    25.6760 
  188.8750   -11.7550    88.0520     8.0540     5.9640     7.8660     2.3660    25.7310 
  189.0000   -12.2680    86.4460     7.8860     5.7760     7.3340     2.3620    25.8320 
  189.1250   -12.8320    86.4460     7.7600     5.6440     7.1260     2.3680    25.8930 
  189.2500   -13.4330    87.0270     7.8430     5.6610     7.3050     2.3720    25.6000 
  189.3750   -14.0560    86.3330     8.1990     5.8580     7.7270     2.3710    25.1360 
  189.5000   -14.7190    85.6080     8.8160     6.2420     8.1060     2.3710    24.8190 
  189.6250   -15.3200    84.9980     9.5910     6.7640     9.1260     2.3800    24.7250 
  189.7500   -15.8750    81.6380    10.3120     7.3050    10.5020     2.3950    24.6920 
  189.8750   -16.3380    77.3300    10.7680     7.7110    11.5960     2.4040    24.6790 
  190.0000   -16.6880    73.5400    10.8520     7.8810    12.2140     2.4020    24.6750 
  190.1250   -16.8810    71.0150    10.5740     7.7910    11.0070     2.3930    24.6670 
  190.2500   -16.8980    72.6380    10.0200     7.4730    10.1030     2.3850    24.6690 
  190.3750   -16.7760    78.0690     9.3830     7.0570     9.7320     2.3870    24.6700 
  190.5000   -16.4600    83.3080     8.7780     6.6160     9.7390     2.4020    24.6690 
  190.6250   -15.9880    84.4750     8.2900     6.2180     9.5580     2.4270    24.6470 
  190.7500   -15.4330    84.2750     8.0300     5.9520     9.1430     2.4490    24.6230 
  190.8750   -14.8190    85.6210     8.0430     5.8730     8.6690     2.4580    24.6190 
  191.0000   -14.2230    85.1850     8.3810     6.0360     8.4460     2.4540    24.6530 
  191.1250   -13.6780    82.1720     9.0640     6.4810     8.9450     2.4460    24.6840 
  191.2500   -13.2180    82.1470    10.0660     7.2290     9.9420     2.4490    24.7100 
  191.3750   -12.8360    84.6320    11.1300     8.1090    11.2450     2.4680    24.7310 
  191.5000   -12.5360    85.1510    11.9400     8.8880    12.0680     2.4980    24.6980 
  191.6250   -12.3130    81.8530    12.1310     9.2640    13.0970     2.5240    24.5790 
  191.7500   -12.0900    78.9390    11.3850     8.9180    13.9460     2.5240    24.4620 
  191.8750   -11.8620    78.1610    10.0780     8.0630    13.0440     2.5000    24.4350 
  192.0000   -11.5820    76.5990     8.6460     7.0030    10.1400     2.4600    24.4790 
  192.1250   -11.2090    71.9200     7.4430     6.0240     7.4080     2.4200    24.5370 
  192.2500   -10.7470    66.0570     6.6960     5.3420     5.7370     2.3950    24.5200 
  192.3750   -10.1940    64.1050     6.3240     4.9500     5.5470     2.3890    24.4570 
  192.5000    -9.6320    63.4550     6.2310     4.8010     5.6860     2.3940    24.4060 
  192.6250    -9.0820    59.5810     6.2990     4.8230     5.8230     2.4020    24.3930 
  192.7500    -8.6060    55.4610     6.4100     4.9390     5.7410     2.4070    24.4040 
  192.8750    -8.2160    57.4180     6.4600     5.0520     5.5190     2.4100    24.3960 
  193.0000    -7.9150    63.9210     6.4110     5.1100     5.3920     2.4130    24.3350 
  193.1250    -7.7420    68.5330     6.2820     5.0980     5.3510     2.4230    24.2570 
  193.2500    -7.6570    70.3270     6.1360     5.0340     5.4020     2.4410    24.2670 
  193.3750    -7.6780    70.9540     6.0310     4.9700     5.4110     2.4560    24.3540 
  193.5000    -7.7290    70.7930     5.9870     4.9400     5.4540     2.4590    24.4360 
  193.6250    -7.8400    71.2240     6.0120     4.9650     5.7360     2.4450    24.4660 
  193.7500    -8.0120    72.5210     6.1130     5.0530     6.1840     2.4240    24.4670 
  193.8750    -8.2060    73.1520     6.2720     5.1780     6.2640     2.4080    24.5170 
  194.0000    -8.4290    72.1820     6.4950     5.3420     6.4410     2.3990    24.5590 
  194.1250    -8.6660    70.3830     6.7910     5.5610     7.1130     2.3940    24.5650 
  194.2500    -8.9250    71.0030     7.1750     5.8530     7.5040     2.3860    24.5230 
  194.3750    -9.2110    74.8260     7.6010     6.1860     8.0530     2.3770    24.4380 
  194.5000    -9.5190    79.8570     7.9930     6.5050     9.5980     2.3720    24.3620 
  194.6250    -9.8320    82.7510     8.2550     6.7290    12.8460     2.3780    24.3380 
  194.7500   -10.1180    82.7430     8.2660     6.7540    11.7240     2.3950    24.3730 
  194.8750   -10.4000    82.9500     8.0740     6.6080     9.7680     2.4150    24.4060 
  195.0000   -10.6760    84.5460     7.7900     6.3690     8.8250     2.4320    24.4480 
  195.1250   -10.9540    85.8670     7.5790     6.1590     8.9340     2.4380    24.4970 
  195.2500   -11.2390    85.3490     7.6940     6.1670     8.8720     2.4290    24.5610 
  195.3750   -11.4830    82.7360     8.2870     6.5190     9.0970     2.4120    24.6420 
  195.5000   -11.7410    79.2270     9.4970     7.3340    10.3550     2.3960    24.6890 
  195.6250   -11.9730    75.8120    11.4050     8.7070    12.7810     2.3830    24.7140 
  195.7500   -12.2100    73.5700    14.0920    10.7970    15.6000     2.3720    24.7220 
  195.8750   -12.4610    72.5080    17.2660    13.4590    20.8820     2.3580    24.7490 
  196.0000   -12.6970    71.8860    20.6870    16.5350    29.7260     2.3380    24.7710 
  196.1250   -12.9560    72.4310    24.2280    19.8490    33.5240     2.3110    24.8110 
  196.2500   -13.1870    73.7340    28.3200    23.5710    31.8370     2.2790    24.8730 
  196.3750   -13.4230    73.4210    33.7610    28.2530    33.3800     2.2460    24.9490 
  196.5000   -13.6590    71.2560    41.5200    34.7770    41.1550     2.2190    24.9850 
  196.6250   -13.8950    68.5270    59.3450    44.0870    54.2570     2.1990    25.0030 
  196.7500   -14.1310    66.4220    76.7560    57.2550    61.6650     2.1910    24.9870 
  196.8750   -14.3570    63.3290    97.5580    72.8920    67.2690     2.1890    24.9790 
  197.0000   -14.5960    60.8090   118.8670    88.7350    70.5080     2.1880    24.9850 
  197.1250   -14.8190    60.3100   136.6360   102.0220    71.2860     2.1850    25.0060 
