~V
VERS. 2.00: Ver 2.00
~W
STRT.M 55.0000:
STOP.M 242.0000:
STEP.M 0.1250:
NULL. -999.2500:
UWI. F10187:
~C
DEPT.M :
GR.API :
RML.OHMM :
RI. :
RXO.OHMM :
CALI.CM :
DEN.GM/CC :
SP.MV :
~A
# ...
   88.7500    72.2170     8.5890     7.0120     8.2860    23.8660     2.1480   -26.0530 
   88.8750    72.9890     8.6490     7.0330     8.4680    23.8250     2.1590   -26.0980 
   89.0000    75.6450     8.5580     6.9560     8.5180    23.8670     2.1740   -26.0700 
   89.1250    77.2750     8.3040     6.7600     8.2180    23.9180     2.1880   -25.9000 
   89.2500    75.8570     7.9890     6.5000     7.4990    23.9150     2.1980   -25.6300 
   89.3750    74.7250     7.7010     6.2310     6.7130    23.8720     2.2020   -25.2990 
   89.5000    76.9780     7.5080     6.0030     6.5260    23.8270     2.1990   -24.9750 
   89.6250    81.6570     7.4530     5.8610     6.5510    23.8110     2.1910   -24.6810 
   89.7500    83.3030     7.4930     5.7960     6.6440    23.7930     2.1810   -24.4040 
   89.8750    81.3390     7.5820     5.7970     6.7130    23.7550     2.1730   -24.2080 
   90.0000    78.7300     7.6750     5.8410     6.8000    23.6980     2.1670   -24.1430 
   90.1250    76.7900     7.7350     5.9060     6.8270    23.6640     2.1640   -24.1780 
   90.2500    76.3330     7.7680     5.9700     6.8470    23.6450     2.1620   -24.3100 
   90.3750    78.2180     7.7950     6.0280     6.9650    23.6410     2.1610   -24.6340 
   90.5000    80.7520     7.8360     6.0820     7.1460    23.6590     2.1610   -25.0560 
   90.6250    80.0450     7.9070     6.1420     7.4120    23.7190     2.1630   -25.3480 
   90.7500    75.7640     8.0000     6.2170     7.6640    23.7970     2.1640   -25.5530 
   90.8750    72.4020     8.0990     6.3060     7.8380    23.8810     2.1660   -25.6770 
   91.0000    71.2090     8.1840     6.4020     7.8990    23.8850     2.1690   -25.6730 
   91.1250    70.6680     8.2380     6.4850     7.6710    23.7970     2.1720   -25.6720 
   91.2500    69.9960     8.2700     6.5440     7.2630    23.7440     2.1730   -25.6600 
   91.3750    69.3560     8.2990     6.5770     7.0380    23.7280     2.1730   -25.5270 
   91.5000    68.9590     8.3420     6.5940     7.2460    23.7920     2.1670   -25.3710 
   91.6250    68.1200     8.4020     6.6070     7.5420    23.9730     2.1560   -25.3290 
   91.7500    68.2670     8.4540     6.6250     7.7390    24.1640     2.1490   -25.3240 
   91.8750    70.5760     8.4730     6.6510     7.7580    24.2330     2.1510   -25.3850 
   92.0000    74.2390     8.4400     6.6740     7.7840    24.1920     2.1610   -25.5860 
   92.1250    75.0990     8.3440     6.6750     7.6900    24.1250     2.1700   -25.8550 
   92.2500    71.5470     8.2120     6.6440     7.6610    24.1140     2.1660   -26.1230 
   92.3750    66.7730     8.0670     6.5870     7.4870    24.1530     2.1490   -26.3510 
   92.5000    65.3480     7.9340     6.5220     7.1480    24.1250     2.1240   -26.4860 
   92.6250    69.5490     7.8430     6.4800     6.8990    23.9030     2.1000   -26.5780 
   92.7500    74.6320     7.7990     6.4710     6.8600    23.6660     2.0810   -26.6670 
   92.8750    77.3090     7.7860     6.4850     7.1460    23.4830     2.0710   -26.7310 
   93.0000    75.8320     7.7700     6.5000     7.4660    23.4580     2.0690   -26.7210 
   93.1250    73.4650     7.7010     6.4820     7.7050    23.7510     2.0790   -26.4920 
   93.2500    75.8380     7.5560     6.4100     7.6300    24.3740     2.0970   -26.1030 
   93.3750    81.4280     7.3360     6.2650     7.4020    25.0930     2.1160   -25.6780 
   93.5000    85.1120     7.0540     6.0460     7.3320    25.7590     2.1310   -25.1160 
   93.6250    85.4620     6.7290     5.7630     7.4130    26.0650     2.1380   -24.2220 
   93.7500    85.8400     6.3970     5.4620     6.7890    26.0860     2.1450   -23.2090 
   93.8750    87.4190     6.0980     5.1800     5.8830    25.9430     2.1550   -22.2070 
   94.0000    88.4050     5.8840     4.9600     5.2720    25.7420     2.1730   -21.2090 
   94.1250    89.0590     5.8330     4.8580     5.2220    25.3830     2.2000   -20.4270 
   94.2500    89.0020     5.9550     4.8820     5.4110    25.0100     2.2310   -19.8960 
   94.3750    86.1850     6.2520     5.0440     5.6330    24.8360     2.2550   -19.5520 
   94.5000    81.3790     6.6960     5.3360     6.1610    24.7770     2.2640   -19.5370 
   94.6250    76.7920     7.2280     5.7310     6.9350    24.6850     2.2510   -20.0240 
   94.7500    73.8020     7.7300     6.1440     7.0630    24.5010     2.2280   -20.7490 
   94.8750    72.8380     8.1050     6.4970     7.4450    24.3840     2.2110   -21.5750 
   95.0000    72.3150     8.2900     6.7210     7.7900    24.3700     2.2130   -22.4910 
   95.1250    72.2170     8.2740     6.7700     7.8330    24.3700     2.2370   -23.3440 
   95.2500    72.3850     8.1950     6.7230     7.7740    24.3180     2.2660   -24.1020 
   95.3750    74.3710     8.1950     6.6720     7.7220    24.2660     2.2790   -24.8160 
   95.5000    75.4030     8.4000     6.7210     7.9540    24.2700     2.2660   -25.4180 
   95.6250    73.3900     8.9240     6.9910     9.0110    24.2520     2.2240   -25.7360 
   95.7500    72.8280     9.6770     7.4690     9.0250    24.1680     2.1820   -25.8240 
   95.8750    74.7520    10.5280     8.0960     8.8350    24.0620     2.1670   -25.8030 
   96.0000    76.0310    11.3000     8.7580     8.6170    23.9480     2.2000   -25.7470 
   96.1250    74.1110    11.7850     9.2830     8.5560    23.6470     2.2800   -25.7150 
   96.2500    71.9780    11.9650     9.5770     8.3250    23.2270     2.3630   -25.6900 
   96.3750    71.0020    11.8890     9.6350     8.0600    22.9250     2.4100   -25.6850 
   96.5000    70.9550    11.6390     9.5150     8.6620    22.7860     2.4060   -25.7070 
   96.6250    72.8920    11.2590     9.2570    10.0690    22.8100     2.3600   -25.8800 
   96.7500    74.0890    10.7900     8.9120    10.8490    23.0250     2.3140   -26.3280 
   96.8750    73.4370    10.2730     8.5070    10.0960    23.3250     2.2890   -26.9420 
   97.0000    73.5100     9.8200     8.1070     9.4190    23.6300     2.2800   -27.5400 
   97.1250    73.4810     9.6750     7.8850     9.1320    23.9340     2.2690   -28.1040 
   97.2500    70.9970     9.9560     7.9660     8.8610    24.2400     2.2450   -28.6340 
   97.3750    67.3680    10.6450     8.4000     8.8490    24.5500     2.2200   -28.9930 
   97.5000    65.2930    11.5310     9.1050     9.9020    24.7530     2.2100   -29.2120 
   97.6250    63.9650    12.1540     9.7870    13.6770    24.7420     2.2300   -29.2820 
   97.7500    62.4710    12.1840    10.0650    17.2210    24.5250     2.2590   -29.0710 
   97.8750    62.5970    11.5760     9.7730    13.7630    24.1750     2.2750   -28.6430 
   98.0000    64.6820    10.5760     9.0610     9.6880    23.8670     2.2630   -28.0840 
   98.1250    64.8930     9.6190     8.2910     8.2530    23.8620     2.2280   -27.3220 
   98.2500    64.1090     9.0000     7.7440     8.1500    23.8150     2.1930   -26.4920 
   98.3750    64.5530     8.7650     7.4950     8.8840    23.6610     2.1670   -25.8040 
   98.5000    66.8120     8.8120     7.4960    10.0070    23.3860     2.1530   -25.2770 
   98.6250    68.0560     8.9680     7.6140     8.5340    22.9980     2.1450   -24.9100 
   98.7500    66.4230     9.0600     7.6870     7.5100    22.6700     2.1390   -24.7670 
   98.8750    63.3580     9.0330     7.6730     7.3080    22.4860     2.1330   -24.8710 
   99.0000    62.1480     8.9020     7.5960     7.7290    22.5380     2.1250   -25.2030 
   99.1250    63.7810     8.7240     7.5040     8.4300    22.9650     2.1140   -25.7240 
   99.2500    64.8780     8.5570     7.4240     8.7230    23.6540     2.1030   -26.3250 
   99.3750    63.6030     8.4200     7.3580     8.7650    24.3200     2.0970   -26.9150 
   99.5000    61.7520     8.3080     7.2940     8.8750    24.6850     2.1000   -27.3790 
   99.6250    61.2140     8.2110     7.2280     8.9490    24.6960     2.1140   -27.6790 
   99.7500    61.0150     8.1250     7.1680     8.7690    24.5960     2.1320   -27.8920 
   99.8750    61.4990     8.0590     7.1230     8.5390    24.5290     2.1480   -27.8890 
