~V
VERS. 2.00: Ver 2.00
~W
STRT.M 50.0000:
STOP.M 222.0000:
STEP.M 0.1250:
NULL. -999.2500:
UWI. F10145:
~C
DEPT.M :
DEN.GM/CC :
GR.API :
RML.OHMM :
RI. :
RXO.OHMM :
CALI.CM :
SP.MV :
~A
# ...
  196.2500     2.4250    91.2080     8.6310     7.2840     7.7370    24.2700    -2.5260 
  196.3750     2.4430    90.9250     8.6340     7.2800     7.6850    24.3310    -2.3400 
  196.5000     2.4590    88.2070     8.6840     7.3290     7.9650    24.3700    -2.1960 
  196.6250     2.4610    89.4330     8.7220     7.3920     8.5940    24.2940    -2.0880 
  196.7500     2.4450    94.5130     8.6870     7.4070     8.6920    24.2610    -2.0020 
  196.8750     2.4160    96.8990     8.5580     7.3400     8.1950    24.3530    -1.9160 
  197.0000     2.3830    94.5690     8.3640     7.1940     7.5200    24.4360    -1.8530 
  197.1250     2.3590    90.2460     8.1790     7.0180     6.9630    24.3840    -1.8400 
  197.2500     2.3510    87.6960     8.0770     6.8910     6.8320    24.2520    -1.8470 
  197.3750     2.3570    87.4600     8.0810     6.8540     6.9260    24.1820    -1.8630 
  197.5000     2.3720    87.5790     8.1650     6.9070     7.5090    24.1910    -1.9110 
  197.6250     2.3860    86.2130     8.2530     7.0040     7.7230    24.2140    -2.0020 
  197.7500     2.3950    85.4260     8.2640     7.0590     7.6570    24.1860    -2.0540 
  197.8750     2.4010    87.7730     8.1660     7.0220     7.4410    24.1560    -2.1010 
  198.0000     2.4090    89.7030     7.9740     6.8850     7.3900    24.1410    -2.1830 
  198.1250     2.4190    85.4810     7.7550     6.6840     7.6830    24.1260    -2.2820 
  198.2500     2.4260    78.7480     7.5890     6.4990     7.9610    24.1350    -2.3350 
  198.3750     2.4270    74.7350     7.5130     6.3820     7.7210    24.1340    -2.3690 
  198.5000     2.4200    75.8300     7.5290     6.3520     7.4600    24.0870    -2.4420 
  198.6250     2.4100    78.3980     7.6160     6.4050     7.2610    24.0590    -2.5390 
  198.7500     2.4030    78.6530     7.7230     6.4970     7.2790    24.1150    -2.6420 
  198.8750     2.4000    76.9700     7.8280     6.5980     7.4740    24.1420    -2.7800 
  199.0000     2.3990    76.4000     7.9290     6.6970     7.4050    24.1610    -2.9340 
  199.1250     2.4010    78.5580     8.0360     6.8010     7.4640    24.2140    -3.0240 
  199.2500     2.4060    81.2080     8.1540     6.9150     7.6470    24.2170    -3.0990 
  199.3750     2.4120    82.6810     8.2640     7.0270     7.9880    24.2140    -3.2020 
  199.5000     2.4180    81.5380     8.3280     7.1090     8.5080    24.2040    -3.2830 
  199.6250     2.4220    78.4570     8.2870     7.1050     8.8520    24.1740    -3.2890 
  199.7500     2.4240    76.7140     8.1450     7.0030     8.8080    24.1380    -3.2960 
  199.8750     2.4260    79.3930     7.9290     6.8180     8.2830    24.1200    -3.2590 
  200.0000     2.4290    84.0110     7.6930     6.5940     7.3930    24.1240    -3.1080 
  200.1250     2.4320    85.5060     7.5100     6.3900     6.6790    24.1340    -2.9900 
  200.2500     2.4350    83.3150     7.4150     6.2480     6.6300    24.1450    -2.9170 
  200.3750     2.4420    80.2890     7.4200     6.1850     7.0540    24.1390    -2.8400 
  200.5000     2.4530    80.1770     7.5240     6.2090     7.4700    24.1400    -2.7590 
  200.6250     2.4690    84.2350     7.7330     6.3370     7.8150    24.1910    -2.6730 
  200.7500     2.4850    88.5310     8.0150     6.5540     8.1260    24.1790    -2.6100 
  200.8750     2.4950    87.9130     8.3430     6.8480     7.9400    24.0320    -2.5810 
  201.0000     2.4950    82.6310     8.6680     7.1820     7.9850    23.8290    -2.6300 
  201.1250     2.4850    80.0680     8.9020     7.4780     8.8210    23.7480    -2.7180 
  201.2500     2.4720    82.6970     8.9900     7.6640     9.3960    23.7770    -2.7690 
  201.3750     2.4590    86.1740     8.9160     7.7050     9.6890    23.9820    -2.8140 
  201.5000     2.4490    85.6460     8.7180     7.6130     9.3680    24.2860    -2.8370 
  201.6250     2.4410    83.3430     8.4700     7.4350     8.5290    24.4350    -2.8640 
  201.7500     2.4350    82.5420     8.2430     7.2460     8.0470    24.4040    -2.8460 
  201.8750     2.4320    82.6260     8.0440     7.0600     8.2110    24.2640    -2.8040 
  202.0000     2.4340    83.3270     7.8350     6.8580     8.9550    24.1780    -2.7200 
  202.1250     2.4370    83.9590     7.5600     6.5880     8.7300    24.1990    -2.5620 
  202.2500     2.4330    82.4230     7.2220     6.2460     8.5060    24.2280    -2.4130 
  202.3750     2.4170    79.0320     6.8660     5.8610     8.1410    24.2260    -2.2450 
  202.5000     2.3920    75.7150     6.5590     5.4940     6.7210    24.1960    -2.0670 
  202.6250     2.3700    72.6670     6.3800     5.2340     5.5100    24.2130    -1.9130 
  202.7500     2.3630    70.0120     6.3300     5.1160     5.1110    24.2140    -1.8140 
  202.8750     2.3730    70.8500     6.3990     5.1500     5.4080    24.1870    -1.7590 
  203.0000     2.3920    74.6450     6.5580     5.3140     5.9970    24.1460    -1.7560 
  203.1250     2.4090    75.2520     6.7660     5.5640     6.3790    24.1310    -1.7720 
  203.2500     2.4170    73.8680     6.9570     5.8120     7.0790    24.1230    -1.8240 
  203.3750     2.4140    74.7610     7.0820     6.0000     7.3640    24.1080    -1.9290 
  203.5000     2.4050    76.7290     7.1140     6.0870     7.1070    24.0610    -2.0540 
  203.6250     2.3950    75.1110     7.0570     6.0550     6.6630    24.0320    -2.1900 
  203.7500     2.3870    72.9740     6.9730     5.9580     6.5170    24.0590    -2.3120 
  203.8750     2.3830    74.7590     6.9180     5.8490     6.6690    24.1400    -2.4060 
  204.0000     2.3840    77.0420     6.9320     5.7800     6.9290    24.1900    -2.5130 
  204.1250     2.3910    76.1860     7.0470     5.8010     7.1530    24.1960    -2.6440 
  204.2500     2.4050    76.6390     7.2350     5.9020     7.4220    24.2000    -2.8010 
  204.3750     2.4230    80.7160     7.4580     6.0560     7.5400    24.2120    -2.9380 
  204.5000     2.4400    86.8630     7.6720     6.2270     7.7030    24.2370    -3.0690 
  204.6250     2.4490    90.0730     7.8300     6.3670     8.1370    24.2400    -3.1390 
  204.7500     2.4470    88.1650     7.9230     6.4580     8.2310    24.2010    -3.1860 
  204.8750     2.4360    82.8910     7.9560     6.4970     7.9120    24.1610    -3.2280 
  205.0000     2.4210    79.8520     7.9420     6.4970     7.7600    24.1480    -3.2700 
  205.1250     2.4090    83.4340     7.8970     6.4780     8.1180    24.1080    -3.2980 
  205.2500     2.4050    87.6740     7.8460     6.4650     8.7340    24.0760    -3.2930 
  205.3750     2.4090    88.0190     7.8090     6.4710     8.8790    24.0920    -3.2540 
  205.5000     2.4200    85.4360     7.7970     6.5000     8.0470    24.1220    -3.2120 
  205.6250     2.4310    85.1570     7.7980     6.5380     7.8230    24.1340    -3.1700 
  205.7500     2.4350    86.5140     7.7830     6.5560     8.1900    24.0300    -3.1440 
  205.8750     2.4290    84.6600     7.7270     6.5300     8.5100    23.7800    -3.1470 
  206.0000     2.4170    79.4850     7.6290     6.4440     8.4320    23.6020    -3.1150 
  206.1250     2.4040    77.1640     7.5270     6.3090     8.1580    23.8330    -3.0810 
  206.2500     2.3970    78.6230     7.4920     6.1910     7.8590    24.1180    -2.9980 
  206.3750     2.3950    79.8640     7.5820     6.1660     7.5530    24.2370    -2.9300 
  206.5000     2.3990    81.5110     7.8160     6.2840     7.3690    24.2290    -2.9010 
  206.6250     2.4120    83.9170     8.1440     6.5560     7.5280    24.1840    -2.9040 
  206.7500     2.4330    82.3230     8.4220     6.8590     8.5140    24.1680    -2.9010 
  206.8750     2.4590    75.2730     8.5280     7.0660    10.4500    24.1670    -2.8490 
  207.0000     2.4800    67.1490     8.4040     7.0840    11.7870    24.1620    -2.8040 
  207.1250     2.4820    66.6240     8.0770     6.8760    10.0590    24.1850    -2.8270 
  207.2500     2.4660    72.5830     7.7160     6.5700     8.1120    24.1920    -2.9080 
  207.3750     2.4450    77.8760     7.4350     6.2750     7.1760    24.1930    -2.9640 
