~V
VERS. 2.00: Ver 2.00
~W
STRT.M 50.0000:
STOP.M 223.0000:
STEP.M 0.1250:
NULL. -999.2500:
UWI. F10135:
~C
DEPT.M :
SP.MV :
DEN.GM/CC :
GR.API :
RML.OHMM :
RI. :
RXO.OHMM :
CALI.CM :
~A
# ...
  151.2500   -18.2260     2.2480    80.1720    69.3610    60.6140    31.8640    25.7150 
  151.3750   -18.7050     2.2400    76.2320    96.2290    86.8740    65.0480    26.6180 
  151.5000   -19.2480     2.2320    70.5350   128.8340   118.5020   124.2790    27.4390 
  151.6250   -19.8370     2.2240    65.7660   163.4060   151.1590   195.4430    28.0810 
  151.7500   -20.3730     2.2160    64.5200   193.7900   179.3050   231.1440    28.4550 
  151.8750   -20.8230     2.2100    67.1030   216.2130   200.0130   216.1970    28.6480 
  152.0000   -21.2420     2.2050    70.4300   229.7560   212.8890   198.6560    28.7750 
  152.1250   -21.6550     2.2040    70.4460   234.4460   218.1470   211.1140    28.9250 
  152.2500   -22.0320     2.2080    69.1490   233.2810   218.3160   239.4160    29.0660 
  152.3750   -22.3720     2.2160    69.5230   228.0760   214.7800   243.0780    29.2350 
  152.5000   -22.7000     2.2250    70.6790   221.4790   209.6470   214.6250    29.4210 
  152.6250   -23.0230     2.2290    72.0430   217.5360   206.4700   180.0010    29.6180 
  152.7500   -23.3090     2.2280    73.1230   218.9350   208.1410   171.9710    29.7840 
  152.8750   -23.5040     2.2220    73.5840   226.9550   216.3570   191.3650    29.9310 
  153.0000   -23.6200     2.2160    74.0900   241.4730   231.2560   240.9120    30.0680 
  153.1250   -23.7520     2.2110    73.5350   259.0380   251.5520   291.6290    30.0020 
  153.2500   -23.9420     2.2080    71.4640   279.9050   272.5190   329.4490    29.6180 
  153.3750   -24.0870     2.2050    69.6360   307.2510   289.7510   337.3910    29.6880 
  153.5000   -24.0760     2.2020    70.2520   333.6970   298.9370   351.7020    29.7270 
  153.6250   -23.8710     2.2010    72.3630   337.3830   294.7170   366.0640    29.7330 
  153.7500   -23.6970     2.2050    69.9700   314.7730   278.2300   373.3990    29.7370 
  153.8750   -23.6460     2.2140    64.2050   276.5710   251.6250   338.4330    29.7510 
  154.0000   -23.6230     2.2270    60.7840   235.1350   219.1250   268.9320    29.8460 
  154.1250   -23.5600     2.2400    64.0890   196.9920   186.4300   177.6350    29.8620 
  154.2500   -23.5030     2.2490    68.5890   166.3680   158.3410   135.3720    29.8700 
  154.3750   -23.4640     2.2520    69.7050   145.0580   137.3760   110.5790    29.8840 
  154.5000   -23.4260     2.2490    69.0520   133.4190   124.7180    98.9250    29.9790 
  154.6250   -23.3830     2.2360    69.6460   132.5600   122.0860    91.0010    29.9950 
  154.7500   -23.3670     2.2200    69.5210   140.1680   127.6900    91.3580    30.0000 
  154.8750   -23.3650     2.2150    66.3770   155.0910   140.5250   113.2380    30.0000 
  155.0000   -23.3150     2.2330    62.2540   175.0660   158.4240   188.5490    30.0000 
  155.1250   -23.1460     2.2800    61.7970   195.4310   177.0490   292.9480    29.9980 
  155.2500   -22.9660     2.3360    62.8350   210.4080   190.9500   270.0860    29.9860 
  155.3750   -22.8450     2.3810    62.2150   216.9650   197.0820   207.1630    29.9110 
  155.5000   -22.8310     2.4020    60.0210   216.0920   195.8730   185.8570    29.8730 
  155.6250   -22.9140     2.3950    59.2300   212.9500   191.4610   188.9460    29.8680 
  155.7500   -22.9370     2.3820    61.0580   214.2110   190.2250   184.5890    29.8810 
  155.8750   -22.9230     2.3830    62.0690   223.7340   196.1950   175.4640    29.9610 
  156.0000   -23.0190     2.4090    59.6140   243.4380   211.6780   189.6330    30.0140 
  156.1250   -23.2110     2.4530    56.5140   274.0930   238.1940   245.6420    30.1170 
  156.2500   -23.3290     2.4870    55.8490   307.4410   269.3320   323.9610    30.1440 
  156.3750   -23.4340     2.4910    56.7970   330.4210   294.8590   377.2250    30.2180 
  156.5000   -23.5970     2.4610    55.8910   328.3480   301.8940   395.9900    30.2390 
  156.6250   -23.7810     2.4080    54.8750   291.5660   278.5720   375.5400    30.1410 
  156.7500   -23.9170     2.3610    56.7880   238.0490   235.9770   294.3150    30.0670 
  156.8750   -23.9380     2.3310    60.5650   185.3790   188.2460   189.1520    29.9930 
  157.0000   -23.9010     2.3190    64.9880   145.0190   147.5880   114.9910    29.8880 
  157.1250   -23.9690     2.3160    69.2700   121.7560   121.6180    80.4350    29.8720 
  157.2500   -24.0890     2.3090    73.1230   110.4250   107.5810    69.0400    29.8670 
  157.3750   -24.1130     2.2950    75.2770   108.3480   103.2810    66.9540    29.8670 
  157.5000   -23.9970     2.2720    74.9450   113.4240   106.6700    71.7000    29.8670 
  157.6250   -23.8530     2.2470    72.9900   124.2460   116.3980    82.0120    29.8670 
  157.7500   -23.8680     2.2240    70.3790   137.3380   128.8370   100.8250    29.8700 
  157.8750   -23.9510     2.2100    68.7440   150.0070   141.1840   121.4580    29.8840 
  158.0000   -23.9400     2.2060    69.2560   159.8750   150.9070   128.7120    29.9790 
  158.1250   -23.8300     2.2120    69.5390   165.1070   155.9390   127.3070    29.9950 
  158.2500   -23.7260     2.2200    67.7310   167.1480   157.5240   121.9640    30.0000 
  158.3750   -23.6360     2.2260    66.5140   167.8010   157.3910   115.7820    30.0000 
  158.5000   -23.5240     2.2280    67.7590   168.8920   157.4500   105.0520    30.0000 
  158.6250   -23.3890     2.2270    67.6210   171.8660   159.3470   112.1160    30.0000 
  158.7500   -23.2520     2.2240    63.3770   176.4070   162.9610   120.5310    29.9970 
  158.8750   -23.1370     2.2210    59.2850   181.6240   167.4520   129.0500    29.9820 
  159.0000   -22.9850     2.2210    59.0000   186.3180   171.5950   141.2270    29.8880 
  159.1250   -22.6950     2.2260    60.6320   189.1510   173.9890   147.5570    29.8700 
  159.2500   -22.3280     2.2340    60.4180   190.1240   174.5400   126.2290    29.8530 
  159.3750   -22.0490     2.2390    59.0630   189.7970   173.7400    90.4150    29.7720 
  159.5000   -21.9220     2.2340    60.4020   189.0820   172.4790    75.9050    29.7190 
  159.6250   -21.8120     2.2190    65.6470   188.7560   171.6370    98.7880    29.6070 
  159.7500   -21.4750     2.2020    70.8240   188.5580   171.1860   135.4690    29.5540 
  159.8750   -21.0890     2.1910    71.7410   187.4260   170.3090   166.4750    29.9730 
  160.0000   -20.8890     2.1920    67.9620   183.9970   167.7740   177.6700    30.0380 
  160.1250   -20.8820     2.2030    63.6990   176.8950   162.1390   170.5210    29.9120 
  160.2500   -20.8970     2.2120    61.9170   167.2560   154.0730   162.3760    29.8170 
  160.3750   -20.8390     2.2160    63.0220   156.7130   144.8780   149.6680    29.7910 
  160.5000   -20.7230     2.2140    65.9840   147.0830   136.2060   128.6260    29.7950 
  160.6250   -20.6930     2.2100    68.1880   140.1110   129.7800   114.7430    29.7820 
  160.7500   -20.7800     2.2100    68.9290   135.7530   125.7940   110.8020    29.7490 
  160.8750   -20.8620     2.2150    69.3880   133.5420   123.9790   120.0740    29.7040 
  161.0000   -20.9160     2.2230    70.4590   132.5610   123.6110   140.3910    29.6040 
  161.1250   -20.9790     2.2320    70.0290   131.4810   123.5650   144.8900    29.4370 
  161.2500   -21.0040     2.2400    70.1390   129.1080   122.5800   128.2590    29.3020 
  161.3750   -20.9840     2.2480    72.5650   124.8210   119.8890   109.2700    29.2430 
  161.5000   -20.9580     2.2550    74.1880   118.6140   115.2380   111.4450    29.2300 
  161.6250   -20.9770     2.2590    71.5730   111.0180   108.8100   112.2360    29.2170 
  161.7500   -21.0880     2.2610    68.8930   103.3340   101.7700   103.0040    29.1790 
  161.8750   -21.2680     2.2620    70.6930    96.4410    94.9670    91.3470    29.1340 
  162.0000   -21.3890     2.2650    76.4820    90.8930    89.0390    82.2730    29.1110 
  162.1250   -21.4420     2.2680    80.9180    87.1440    84.5480    79.3140    29.1070 
  162.2500   -21.5690     2.2700    79.5380    84.8760    81.3610    78.7540    29.1070 
  162.3750   -21.8140     2.2670    75.6660    84.0300    79.4640    72.5210    29.1070 
