~V
VERS. 2.00: Ver 2.00
~W
STRT.M 50.0000:
STOP.M 284.0000:
STEP.M 0.1250:
NULL. -999.2500:
UWI. F10107:
~C
DEPT.M :
DEN.GM/CC :
SP.MV :
GR.API :
RML.OHMM :
RI. :
RXO.OHMM :
CALI.CM :
~A
# ...
  241.2500     2.2700   -16.6480    49.9600    12.5990    10.3130    10.1320    22.6090 
  241.3750     2.2690   -16.6750    51.3080    12.5930    10.3330     9.9570    22.6090 
  241.5000     2.2710   -16.6830    52.0640    12.6500    10.4030    10.0750    22.6090 
  241.6250     2.2770   -16.6700    52.9200    12.8030    10.5480    10.3650    22.6090 
  241.7500     2.2880   -16.6420    54.5080    13.0410    10.7570    10.4780    22.6060 
  241.8750     2.3020   -16.5940    55.5250    13.3440    11.0220    10.4620    22.5940 
  242.0000     2.3170   -16.5340    54.7260    13.6770    11.3190    10.6980    22.5660 
  242.1250     2.3280   -16.4670    53.0660    13.9890    11.6190    11.1270    22.5480 
  242.2500     2.3340   -16.3990    52.4220    14.2460    11.8920    11.2670    22.5420 
  242.3750     2.3340   -16.3390    53.5970    14.4370    12.1270    11.2990    22.5520 
  242.5000     2.3320   -16.3000    56.2440    14.5730    12.3260    11.6220    22.5820 
  242.6250     2.3330   -16.2950    58.8820    14.6720    12.5070    11.8330    22.6380 
  242.7500     2.3370   -16.3100    58.4970    14.7470    12.6850    12.0340    22.6680 
  242.8750     2.3410   -16.3410    56.0180    14.7670    12.8450    12.3670    22.6790 
  243.0000     2.3420   -16.3700    53.9640    14.6870    12.9520    12.8950    22.6840 
  243.1250     2.3330   -16.3790    53.8370    14.4380    12.9480    13.4860    22.6870 
  243.2500     2.3160   -16.3720    54.1840    14.0430    12.8230    13.8880    22.6910 
  243.3750     2.2980   -16.3510    54.1720    13.5490    12.5890    13.1160    22.6950 
  243.5000     2.2830   -16.3120    53.9660    13.0380    12.2900    11.5390    22.6960 
  243.6250     2.2760   -16.2640    53.2540    12.6200    11.9990    10.7600    22.6950 
  243.7500     2.2760   -16.2190    52.5120    12.3460    11.7770    10.3430    22.6910 
  243.8750     2.2790   -16.1770    51.0700    12.2230    11.6460    10.0870    22.6880 
  244.0000     2.2810   -16.1210    48.2640    12.2130    11.5930    10.0600    22.6870 
  244.1250     2.2770   -16.0270    46.0660    12.2360    11.5640    10.1720    22.6910 
  244.2500     2.2680   -15.9020    45.7930    12.2060    11.4900    10.2570    22.6960 
  244.3750     2.2540   -15.7710    46.3820    12.1020    11.3450    10.1790    22.7020 
  244.5000     2.2420   -15.6460    44.7140    12.0130    11.1790    10.0120    22.7060 
  244.6250     2.2410   -15.5230    40.5820    12.3320    11.2520    10.0100    22.7110 
  244.7500     2.2600   -15.3670    37.7570    13.7140    11.9810     9.8980    22.7140 
  244.8750     2.3020   -15.1650    37.2240    17.0980    14.0720    10.0150    22.7120 
  245.0000     2.3650   -14.9250    36.3810    23.8450    18.7290    12.1000    22.7140 
  245.1250     2.4390   -14.6520    34.6360    37.3040    29.3260    20.8510    22.7670 
  245.2500     2.5090   -14.3620    34.6510    60.1520    48.8660    40.9500    22.8940 
  245.3750     2.5680   -14.0490    35.9390    94.5830    80.3370    83.7580    23.0620 
  245.5000     2.6130   -13.7220    36.8800   137.8940   122.2940   158.5830    23.2450 
  245.6250     2.6490   -13.3860    36.7800   176.6980   163.6240   265.8590    23.4260 
  245.7500     2.6770   -13.0480    36.5560   194.1410   186.9380   377.9890    23.5460 
  245.8750     2.6950   -12.7120    36.0130   173.6130   177.0910   511.0530    23.5800 
  246.0000     2.6940   -12.3850    36.3700   119.2090   133.0600   579.4550    23.5780 
  246.1250     2.6640   -12.1070    38.2230    69.1420    80.6040   455.3720    23.5850 
  246.2500     2.6140   -11.8900    42.5020    38.9200    44.3180   238.3760    23.6260 
  246.3750     2.5580   -11.7320    51.6500    22.8890    24.5220    86.0470    23.7170 
  246.5000     2.5090   -11.6060    64.1480    14.8960    15.0920    30.0580    23.8500 
  246.6250     2.4780   -11.5000    72.5430    11.6050    11.4380    15.3720    23.9200 
  246.7500     2.4620   -11.4110    74.4120    10.3590     9.9810    10.8500    23.9410 
  246.8750     2.4580   -11.3400    72.4250    10.3150     9.7410    10.6410    23.9080 
  247.0000     2.4600   -11.2930    70.6540    10.9960    10.2620    11.2970    23.8420 
  247.1250     2.4690   -11.2530    70.9960    12.1010    11.2880    11.8810    23.7830 
  247.2500     2.4850   -11.1960    72.2710    13.2560    12.4380    12.5390    23.7500 
  247.3750     2.5050   -11.1080    71.6480    14.1970    13.4320    13.4110    23.7190 
  247.5000     2.5280   -10.9720    67.7840    14.6910    14.0090    14.7140    23.7050 
  247.6250     2.5420   -10.7780    65.2810    14.4680    13.8650    15.9120    23.7330 
  247.7500     2.5390   -10.5570    66.3990    13.6450    13.0890    16.7370    23.8010 
  247.8750     2.5150   -10.3400    70.1680    12.4140    11.8630    15.3220    23.8790 
  248.0000     2.4690   -10.1390    75.2500    11.0810    10.4890    12.3270    23.9550 
  248.1250     2.4110    -9.9670    80.6280    10.0350     9.3370    10.4860    24.0540 
  248.2500     2.3610    -9.8080    83.8000     9.4720     8.5950     8.9900    24.1520 
  248.3750     2.3330    -9.6590    82.1480     9.4630     8.3390     8.1070    24.2340 
  248.5000     2.3320    -9.5390    76.5980     9.8610     8.5550     7.9100    24.2660 
  248.6250     2.3590    -9.4580    74.6180    10.5910     9.1860     8.6870    24.1760 
  248.7500     2.3940    -9.3980    76.5340    11.2680     9.9660    10.2030    23.9640 
  248.8750     2.4220    -9.3320    77.8210    11.5680    10.6650    11.9490    23.7720 
  249.0000     2.4340    -9.2380    77.5820    11.7690    11.0750    13.0150    23.6310 
  249.1250     2.4290    -9.0950    77.9380    11.5530    11.0220    13.0060    23.6510 
  249.2500     2.4180    -8.9070    79.2760    11.0170    10.6330    12.2670    23.7610 
  249.3750     2.4090    -8.6740    78.6510    10.3370    10.0530    10.9770    23.7520 
  249.5000     2.4030    -8.3930    77.0510     9.6450     9.4100     9.7990    23.4930 
  249.6250     2.3970    -8.0810    77.0280     8.9910     8.7680     9.3150    23.2200 
  249.7500     2.3850    -7.7710    75.6160     8.3550     8.1360     9.1480    22.9730 
  249.8750     2.3630    -7.4810    69.9780     7.7310     7.5170     8.5650    22.7630 
  250.0000     2.3350    -7.2160    61.4300     7.1590     6.9460     7.3940    22.8690 
  250.1250     2.3090    -6.9740    55.2240     6.7340     6.5050     6.1400    23.3850 
  250.2500     2.2940    -6.7830    52.8600     6.5000     6.2310     5.4470    23.8430 
  250.3750     2.2930    -6.6760    52.6890     6.4630     6.1400     5.0900    24.0120 
  250.5000     2.3040    -6.6630    54.9300     6.5870     6.2050     5.2900    23.9210 
  250.6250     2.3220    -6.7260    59.3840     6.7960     6.3700     6.1300    23.6200 
  250.7500     2.3360    -6.8110    63.9540     6.9770     6.5310     7.1260    23.2700 
  250.8750     2.3430    -6.8950    68.8310     7.0580     6.6150     7.7440    23.1300 
  251.0000     2.3440    -6.9870    75.3520     7.0080     6.5790     7.6590    23.1340 
  251.1250     2.3460    -7.1120    80.1320     6.8530     6.4270     7.3540    23.1500 
  251.2500     2.3510    -7.2740    80.4020     6.7150     6.2560     7.1590    23.1460 
  251.3750     2.3590    -7.4620    78.8810     6.6990     6.1600     6.9720    23.1290 
  251.5000     2.3680    -7.6650    78.6090     6.8840     6.2140     6.7370    23.0980 
  251.6250     2.3710    -7.8790    77.2960     7.3160     6.4730     6.8920    23.0820 
  251.7500     2.3680    -8.1050    74.4140     7.8910     6.8730     7.7120    23.0930 
  251.8750     2.3610    -8.3450    72.1880     8.5090     7.3410     8.7220    23.1600 
  252.0000     2.3510    -8.6020    72.0420     9.0740     7.8010     9.5460    23.3200 
  252.1250     2.3430    -8.8740    72.5240     9.5030     8.1780    10.1300    23.4760 
  252.2500     2.3380    -9.1160    72.0430     9.8270     8.4740    10.3800    23.5750 
  252.3750     2.3340    -9.3040    70.4500    10.1020     8.7250    10.4130    23.6090 
