~V
VERS. 2.00: Ver 2.00
~W
STRT.M 58.0000:
STOP.M 213.0000:
STEP.M 0.1250:
NULL. -999.2500:
UWI. F10138:
~C
DEPT.M :
GR.API :
RML.OHMM :
RI. :
RXO.OHMM :
CALI.CM :
DEN.GM/CC :
SP.MV :
~A
# ...
   91.7500    71.4890     9.0470     6.8760     9.3700    26.2650     2.1410   -30.6720 
   91.8750    69.9640     9.1430     6.9730     9.7720    25.9690     2.1390   -30.0480 
   92.0000    69.4730     9.1120     6.9940     9.8370    25.8150     2.1350   -29.3430 
   92.1250    67.6910     8.9160     6.8940     9.7360    25.8580     2.1320   -28.5420 
   92.2500    65.9500     8.6220     6.7020     9.7600    26.1380     2.1340   -27.6660 
   92.3750    67.2420     8.3000     6.4650     9.5360    26.6080     2.1440   -26.7160 
   92.5000    72.0440     8.0300     6.2400     9.0000    26.9810     2.1620   -25.7880 
   92.6250    76.0830     7.9060     6.0960     8.2830    27.1000     2.1800   -24.9110 
   92.7500    77.8860     7.9270     6.0540     8.0550    27.1710     2.1890   -24.0840 
   92.8750    77.0070     8.0680     6.1120     8.8770    27.1450     2.1870   -23.3890 
   93.0000    71.9390     8.2820     6.2450     9.8290    26.9930     2.1760   -22.8740 
   93.1250    64.3630     8.5040     6.4130    10.4110    26.7900     2.1630   -22.5100 
   93.2500    62.9320     8.6830     6.5700    10.7000    26.6560     2.1550   -22.2500 
   93.3750    68.8220     8.8120     6.6950    10.8720    26.5190     2.1550   -22.1550 
   93.5000    74.7980     8.9070     6.7910    10.8970    26.3960     2.1620   -22.2120 
   93.6250    75.7220     8.9920     6.8740    10.9600    26.2720     2.1740   -22.3820 
   93.7500    72.8190     9.0790     6.9580    11.0390    26.1900     2.1880   -22.6260 
   93.8750    67.9480     9.1670     7.0450    11.0530    26.0840     2.2000   -22.9100 
   94.0000    63.1710     9.2560     7.1370    10.9790    26.0080     2.2060   -23.2100 
   94.1250    63.0810     9.3530     7.2360    11.0020    25.9160     2.2040   -23.5210 
   94.2500    65.8170     9.4710     7.3510    11.1920    25.8270     2.1970   -23.8320 
   94.3750    67.5250     9.6150     7.4900    11.4720    25.7710     2.1880   -24.1060 
   94.5000    65.8820     9.7700     7.6430    11.5900    25.7020     2.1770   -24.3130 
   94.6250    61.2830     9.8810     7.7780    11.6680    25.6330     2.1660   -24.4600 
   94.7500    58.4260     9.8980     7.8530    11.7560    25.3950     2.1560   -24.5550 
   94.8750    59.2600     9.7900     7.8390    11.6720    25.0510     2.1470   -24.6100 
   95.0000    62.9900     9.5630     7.7300    11.2570    24.8670     2.1410   -24.6150 
   95.1250    66.9080     9.2690     7.5440    10.8620    24.8230     2.1420   -24.5520 
   95.2500    68.7950     9.0030     7.3520    10.6000    24.7260     2.1480   -24.4550 
   95.3750    68.4950     8.8410     7.2140    10.3760    24.5930     2.1550   -24.3310 
   95.5000    65.7410     8.8350     7.1800    10.1160    24.5910     2.1610   -24.2040 
   95.6250    62.4220     9.0200     7.2990    10.0480    24.8500     2.1620   -24.0670 
   95.7500    61.8200     9.3140     7.5280    10.5400    25.2630     2.1610   -23.9150 
   95.8750    64.0230     9.6190     7.8000    11.8030    25.6760     2.1600   -23.7550 
   96.0000    64.2320     9.8220     8.0290    13.6290    25.9790     2.1630   -23.5970 
   96.1250    59.3910     9.8050     8.1110    13.1260    26.2390     2.1740   -23.4630 
   96.2500    56.4050     9.6110     8.0440    12.1920    26.3300     2.1860   -23.3300 
   96.3750    57.9870     9.3270     7.8750    11.2370    26.3880     2.1940   -23.2190 
   96.5000    60.0570     9.0580     7.6750    10.4110    26.3870     2.1960   -23.1420 
   96.6250    59.6850     8.8860     7.5130     9.6350    26.3410     2.1940   -23.0990 
   96.7500    59.9940     8.7830     7.3990     9.6010    26.3280     2.1910   -23.0890 
   96.8750    61.1140     8.6970     7.3110     9.7120    26.2970     2.1900   -23.0980 
   97.0000    60.1040     8.5810     7.2190     9.7610    26.2530     2.1900   -23.1150 
   97.1250    57.7320     8.4240     7.1050     9.4330    26.2460     2.1890   -23.1710 
   97.2500    58.1240     8.2780     6.9890     8.9620    26.2430     2.1840   -23.2670 
   97.3750    60.6430     8.1980     6.9040     8.7730    26.2270     2.1740   -23.3900 
   97.5000    63.0370     8.2200     6.8840     9.0430    26.1570     2.1620   -23.5030 
   97.6250    62.7020     8.3580     6.9550     9.6770    25.9270     2.1520   -23.6140 
   97.7500    60.7540     8.5530     7.0830    10.2190    25.8960     2.1490   -23.7130 
   97.8750    58.3520     8.7410     7.2310    10.3250    25.9760     2.1530   -23.7750 
   98.0000    56.7580     8.8550     7.3460    10.5100    26.0150     2.1630   -23.8000 
   98.1250    57.7540     8.8110     7.3610    10.5140    26.0020     2.1710   -23.7380 
   98.2500    60.0620     8.6350     7.2720    10.4950    25.9190     2.1770   -23.5940 
   98.3750    62.2840     8.4130     7.1240    10.3130    25.7860     2.1780   -23.3490 
   98.5000    63.4640     8.2940     7.0100    10.0620    25.6480     2.1740   -23.0340 
   98.6250    64.0290     8.4940     7.0920     9.8660    25.5660     2.1670   -22.6340 
   98.7500    66.8020     9.0550     7.4430    10.1500    25.6110     2.1610   -22.2120 
   98.8750    69.1180     9.9280     8.0770    12.1850    25.9100     2.1610   -21.8270 
   99.0000    68.7450    10.9180     8.9010    17.1700    26.1920     2.1670   -21.5000 
   99.1250    66.8600    11.6150     9.6320    27.0960    26.3870     2.1740   -21.2720 
   99.2500    67.9460    11.7280     9.9590    30.7930    26.4630     2.1740   -21.1780 
   99.3750    70.9940    11.2230     9.7540    23.9400    26.4870     2.1640   -21.2540 
   99.5000    70.8130    10.3540     9.1480    14.9940    26.5130     2.1480   -21.4480 
   99.6250    65.6080     9.5170     8.4300    11.7820    26.6010     2.1340   -21.7250 
   99.7500    61.0810     8.9470     7.8600    10.8910    26.6430     2.1300   -22.0760 
   99.8750    60.5400     8.6790     7.5170    10.8390    26.6500     2.1340   -22.4670 
  100.0000    62.5410     8.6630     7.3960    10.8790    26.6500     2.1450   -22.8680 
  100.1250    63.0930     8.8440     7.4710    10.8550    26.6450     2.1570   -23.2490 
  100.2500    62.8810     9.1170     7.6560    10.8200    26.6500     2.1670   -23.5960 
  100.3750    62.2430     9.4160     7.8990    11.0300    26.6470     2.1730   -23.8740 
  100.5000    60.5600     9.6750     8.1430    11.7870    26.6320     2.1750   -24.1100 
  100.6250    59.9210     9.8030     8.3130    12.6690    26.5840     2.1740   -24.3780 
  100.7500    62.4570     9.7840     8.3730    12.4650    26.5810     2.1740   -24.6160 
  100.8750    64.4020     9.6430     8.3230    11.3720    26.6080     2.1750   -24.8070 
  101.0000    62.9950     9.4430     8.1970    10.6600    26.5700     2.1760   -24.9680 
  101.1250    60.4680     9.2620     8.0500    10.8300    26.5420     2.1780   -25.0910 
  101.2500    59.4060     9.1400     7.9250    11.0740    26.4640     2.1790   -25.1440 
  101.3750    59.3840     9.0700     7.8250    11.2180    26.4130     2.1800   -25.1370 
  101.5000    58.3130     9.0150     7.7340    11.1280    26.4330     2.1810   -25.0880 
  101.6250    57.8100     8.9420     7.6370    10.8100    26.5270     2.1800   -24.9790 
  101.7500    58.7740     8.8640     7.5450    10.4920    26.6680     2.1780   -24.8420 
  101.8750    60.5840     8.8130     7.4810    10.5370    26.8160     2.1730   -24.7290 
  102.0000    61.8940     8.8200     7.4650    11.0130    27.0480     2.1660   -24.6640 
  102.1250    60.1120     8.9030     7.5150    11.8480    27.3630     2.1570   -24.6590 
  102.2500    59.2700     9.0290     7.6050    12.2760    27.5190     2.1480   -24.7300 
  102.3750    61.4170     9.1560     7.7090    12.2990    27.5490     2.1440   -24.8510 
  102.5000    64.4560     9.2420     7.7970    12.1800    27.5170     2.1440   -25.0090 
  102.6250    65.0280     9.2510     7.8340    12.3900    27.4970     2.1500   -25.2340 
  102.7500    63.1150     9.1960     7.8200    12.8790    27.4340     2.1580   -25.4930 
  102.8750    62.0220     9.1030     7.7660    13.2530    27.4030     2.1640   -25.7290 
