~V
VERS. 2.00: Ver 2.00
~W
STRT.M 52.0000:
STOP.M 224.0000:
STEP.M 0.1250:
NULL. -999.2500:
UWI. F10155:
~C
DEPT.M :
SP.MV :
GR.API :
RML.OHMM :
RI. :
RXO.OHMM :
CALI.CM :
DEN.GM/CC :
~A
# ...
  119.5000   -25.6810    71.9490    10.2700     8.3390     9.8770    21.5950     2.2310 
  119.6250   -25.6420    70.6710    10.0600     8.1870     9.4960    21.6270     2.2170 
  119.7500   -25.1770    70.8020     9.5890     7.8110     9.5260    21.6390     2.2070 
  119.8750   -24.3930    72.6710     8.8720     7.2170     9.6600    21.6360     2.2060 
  120.0000   -23.4390    77.7710     8.0370     6.5100     9.1100    21.7020     2.2180 
  120.1250   -22.6030    84.9560     7.3450     5.9000     7.8700    21.7910     2.2370 
  120.2500   -22.0640    88.8930     7.0000     5.5350     6.8120    21.8170     2.2540 
  120.3750   -21.8940    86.1010     7.1260     5.5040     6.5590    21.7140     2.2580 
  120.5000   -22.1190    80.7810     7.7850     5.8910     7.3880    21.5600     2.2430 
  120.6250   -22.6100    79.7950     8.7360     6.5740     8.4800    21.5070     2.2180 
  120.7500   -23.2440    80.5240     9.7360     7.4120     8.9000    21.4670     2.1930 
  120.8750   -23.9510    80.3710    10.5090     8.1870     8.6490    21.3320     2.1750 
  121.0000   -24.5490    81.1420    10.7270     8.5690     8.3430    20.9650     2.1660 
  121.1250   -24.7590    81.8230    10.3800     8.4540     8.5000    20.5600     2.1650 
  121.2500   -24.3700    82.6070     9.5530     7.8770     8.8510    20.4290     2.1740 
  121.3750   -23.3510    84.8370     8.4420     7.0040     8.8370    20.7700     2.1940 
  121.5000   -21.8710    88.2680     7.3310     6.0730     7.9410    21.4590     2.2250 
  121.6250   -20.3520    90.7650     6.4850     5.3200     6.7300    22.2920     2.2550 
  121.7500   -19.0060    92.9690     6.0700     4.8740     5.8480    22.9310     2.2750 
  121.8750   -17.8870    93.7350     6.1600     4.7990     5.8540    23.3300     2.2770 
  122.0000   -17.1120    91.9450     6.7720     5.1570     6.8420    23.5780     2.2570 
  122.1250   -16.6210    89.0140     7.6080     5.7960     8.1210    23.6030     2.2260 
  122.2500   -16.3720    86.8910     8.3570     6.5130     9.1470    23.6500     2.1990 
  122.3750   -16.2780    84.7780     8.7190     7.0130     9.5520    24.1670     2.1890 
  122.5000   -16.1760    83.7990     8.4640     6.9970     9.1640    24.2940     2.2100 
  122.6250   -15.9220    86.7470     7.8190     6.5920     8.2670    23.6980     2.2530 
  122.7500   -15.4460    91.8220     7.0440     6.0150     6.9610    22.7630     2.2980 
  122.8750   -14.7560    94.8830     6.3700     5.4600     5.9900    22.2830     2.3300 
  123.0000   -13.8950    94.6660     5.9470     5.0600     6.0370    22.6670     2.3400 
  123.1250   -13.0610    93.4740     5.7220     4.8070     6.1890    23.5490     2.3400 
  123.2500   -12.3710    92.6560     5.6300     4.6670     5.8770    24.4010     2.3390 
  123.3750   -11.8680    93.3100     5.6100     4.6040     5.6840    24.8420     2.3400 
  123.5000   -11.5680    96.9620     5.6520     4.6040     5.7390    24.8690     2.3350 
  123.6250   -11.3970    98.6290     5.7770     4.6780     5.9410    24.6700     2.3160 
  123.7500   -11.3690    95.2080     6.0250     4.8540     5.9870    24.4280     2.2860 
  123.8750   -11.4930    89.9900     6.4080     5.1460     6.2340    24.3270     2.2520 
  124.0000   -11.7050    87.4970     6.8990     5.5420     6.6530    24.1380     2.2230 
  124.1250   -11.8910    85.6680     7.3940     5.9690     7.5580    23.6090     2.2070 
  124.2500   -12.0480    84.0260     7.8070     6.3610     7.9240    23.1730     2.2040 
  124.3750   -12.2440    83.9350     8.0780     6.6590     7.6240    23.0640     2.2110 
  124.5000   -12.4980    86.2200     8.1820     6.8210     7.8990    23.0820     2.2190 
  124.6250   -12.7810    89.1420     8.2160     6.9030     8.7710    23.0630     2.2210 
  124.7500   -13.0400    91.5400     8.2870     6.9860     9.5440    23.0360     2.2170 
  124.8750   -13.2260    92.4240     8.4990     7.1650     9.2980    23.0050     2.2080 
  125.0000   -13.3550    91.7840     8.9100     7.5270     8.9390    22.9910     2.2010 
  125.1250   -13.4730    90.6710     9.3840     7.9890     9.4920    22.9900     2.2050 
  125.2500   -13.5770    88.4830     9.7220     8.3950    10.8720    23.0030     2.2200 
  125.3750   -13.6020    85.8190     9.7170     8.5330    12.4370    23.0340     2.2430 
  125.5000   -13.5490    87.1420     9.2020     8.1760    11.4700    23.0590     2.2650 
  125.6250   -13.4830    92.6070     8.3740     7.4710     9.1840    23.1140     2.2780 
  125.7500   -13.4080   100.2820     7.4770     6.6500     7.1760    23.2440     2.2820 
  125.8750   -13.2860   105.7830     6.7340     5.9310     6.4350    23.4410     2.2810 
  126.0000   -13.1210   103.9490     6.2960     5.4600     6.5240    23.5850     2.2810 
  126.1250   -12.9530    97.8360     6.0760     5.1910     6.3720    23.6350     2.2850 
  126.2500   -12.7750    93.3660     5.9720     5.0550     6.1960    23.6420     2.2890 
  126.3750   -12.6130    95.0690     5.9220     4.9830     5.8220    23.6420     2.2870 
  126.5000   -12.4930    99.2460     6.0060     5.0050     5.4570    23.6420     2.2770 
  126.6250   -12.3990    99.7700     6.3930     5.2350     5.3610    23.6550     2.2700 
  126.7500   -12.3590    95.7610     7.2900     5.8260     5.6190    23.7510     2.2850 
  126.8750   -12.4020    90.1230     8.8400     6.9210     6.4750    24.0320     2.3320 
  127.0000   -12.5490    86.3480    11.0800     8.6990     9.2280    24.4880     2.4070 
  127.1250   -12.7880    82.6620    13.4950    10.8990    15.2150    24.7680     2.4700 
  127.2500   -13.1260    78.8300    15.4660    12.9820    21.2910    24.8810     2.4880 
  127.3750   -13.5430    75.9470    16.4480    14.2230    19.5700    25.0030     2.4500 
  127.5000   -13.9740    74.9190    16.1990    14.1560    13.0230    25.2190     2.3670 
  127.6250   -14.3770    74.7640    15.4460    13.4980    10.4820    25.3500     2.2800 
  127.7500   -14.7740    74.9900    14.8570    12.8960     9.9090    25.3940     2.2110 
  127.8750   -15.2170    76.4940    14.8960    12.7730    10.0690    25.3870     2.1680 
  128.0000   -15.6670    79.7730    15.7990    13.3910    10.7880    25.3800     2.1480 
  128.1250   -16.0440    81.7610    17.2160    14.5640    11.8800    25.4320     2.1370 
  128.2500   -16.3520    79.5900    18.7900    16.0680    13.0210    25.5090     2.1290 
  128.3750   -16.6080    73.6860    20.1540    17.5990    14.4970    25.5720     2.1230 
  128.5000   -16.8370    69.4360    20.9660    18.7740    15.2540    25.5740     2.1210 
  128.6250   -17.0460    69.6540    21.3140    19.5040    15.4880    25.5350     2.1240 
  128.7500   -17.1910    72.5160    21.4210    19.9150    15.1830    25.5020     2.1320 
  128.8750   -17.2340    74.6910    21.5210    20.2430    15.3910    25.5030     2.1400 
  129.0000   -17.2010    73.6410    21.6200    20.5720    16.3960    25.5070     2.1410 
  129.1250   -17.0990    72.0400    21.3480    20.5960    16.9060    25.5180     2.1360 
  129.2500   -16.8630    72.1200    20.2740    19.8220    16.2230    25.5330     2.1260 
  129.3750   -16.4500    72.7860    18.5110    17.9190    13.9320    25.5070     2.1240 
  129.5000   -15.8600    73.8770    16.4600    14.9930    10.4780    25.3660     2.1400 
  129.6250   -15.2100    77.6270    14.2300    11.9550     7.0400    25.0750     2.1740 
  129.7500   -14.5610    85.2860    11.7430     9.4170     5.5120    24.6900     2.2200 
  129.8750   -13.9380    95.7030     9.3490     7.6600     5.5010    24.2050     2.2680 
  130.0000   -13.3630   104.8320     7.8630     6.8400     6.7530    23.9510     2.3080 
  130.1250   -12.9260   106.3140     7.3700     6.7850     8.6540    23.9590     2.3340 
  130.2500   -12.6970    98.9360     7.7860     7.4890    10.7860    24.1870     2.3400 
  130.3750   -12.6860    88.7390     9.0620     8.9610    13.5790    24.4520     2.3230 
  130.5000   -12.8740    82.8210    11.1800    11.2570    15.4410    24.6570     2.2850 
  130.6250   -13.1370    79.6700    13.7580    14.0120    19.8570    24.7320     2.2470 
