~V
VERS. 2.00: Ver 2.00
~W
STRT.M 50.0000:
STOP.M 246.0000:
STEP.M 0.1250:
NULL. -999.2500:
UWI. F10164:
~C
DEPT.M :
GR.API :
RML.OHMM :
RI. :
RXO.OHMM :
CALI.CM :
SP.MV :
DEN.GM/CC :
~A
# ...
  185.0000    71.1910   202.1450   174.9970   240.9600    25.6280   -26.8310     2.2180 
  185.1250    71.2080   193.9600   169.0960   239.6760    25.8250   -26.8960     2.2190 
  185.2500    74.3340   188.1910   164.2870   236.0480    25.9130   -26.9310     2.2260 
  185.3750    77.2860   184.5560   161.1700   216.4090    25.9550   -26.9710     2.2360 
  185.5000    77.1390   183.4780   160.2270   171.8730    25.9180   -27.0630     2.2470 
  185.6250    74.3420   185.5350   162.2210   147.4040    25.8540   -26.9650     2.2510 
  185.7500    72.7920   190.1390   166.7670   162.6820    25.8230   -26.7790     2.2460 
  185.8750    74.9140   196.8870   173.5490   192.2270    25.8290   -26.6800     2.2350 
  186.0000    79.9610   205.1910   181.9980   197.2440    25.8410   -26.5680     2.2230 
  186.1250    82.1870   214.5310   191.5890   186.6680    25.8330   -26.3840     2.2150 
  186.2500    79.6950   224.4130   201.7960   180.6440    25.8380   -26.2300     2.2130 
  186.3750    76.5520   234.9420   212.7760   177.4410    25.8640   -26.0250     2.2160 
  186.5000    76.8400   246.1700   224.7630   185.0570    25.9760   -25.7750     2.2220 
  186.6250    76.8310   256.4470   236.7520   212.6150    26.1610   -25.7700     2.2290 
  186.7500    73.2340   261.3490   245.0060   243.4840    26.3250   -25.8480     2.2340 
  186.8750    70.7350   254.9410   244.0640   274.4860    26.4070   -25.8980     2.2350 
  187.0000    71.6880   233.2420   229.2940   309.8890    26.4380   -25.9700     2.2330 
  187.1250    71.9630   197.3450   199.2730   307.7810    26.4560   -25.9720     2.2330 
  187.2500    72.0830   159.3230   163.9710   243.4710    26.4470   -26.0130     2.2390 
  187.3750    74.8520   128.2900   132.3100   166.0680    26.4160   -26.1270     2.2510 
  187.5000    79.6040   109.2360   110.6410   102.2540    26.3620   -26.3060     2.2660 
  187.6250    80.1470   104.8970   103.6190    76.2130    26.2660   -26.5120     2.2720 
  187.7500    77.2680   111.3990   108.5950    80.9760    26.1850   -26.6750     2.2680 
  187.8750    73.9460   126.0430   123.2280   123.0600    26.1730   -26.8150     2.2560 
  188.0000    72.1960   144.3750   143.0000   232.1220    26.2500   -26.9410     2.2450 
  188.1250    73.1340   158.3040   159.5220   267.2420    26.3540   -27.0630     2.2450 
  188.2500    74.9800   161.8850   165.8330   191.7170    26.3920   -27.1880     2.2530 
  188.3750    76.2260   154.2790   160.1210   152.7720    26.3860   -27.3400     2.2660 
  188.5000    75.8880   139.7670   145.9510   135.9130    26.3420   -27.4650     2.2790 
  188.6250    74.6160   125.1930   129.9920   122.6160    26.2860   -27.5170     2.2880 
  188.7500    73.7160   114.8320   117.4940   109.1350    26.2550   -27.5880     2.2950 
  188.8750    74.9440   109.5750   109.9300   100.2810    26.2560   -27.6030     2.3000 
  189.0000    75.3070   109.2580   107.3690    99.9980    26.2670   -27.6550     2.3020 
  189.1250    72.1990   114.4940   110.3990   105.5770    26.2750   -27.8700     2.3000 
  189.2500    71.4020   124.5640   118.2000   113.3380    26.2800   -28.0180     2.2920 
  189.3750    74.3610   139.4850   130.7000   127.7000    26.2900   -28.0970     2.2810 
  189.5000    77.9880   158.7370   147.2890   156.1300    26.2930   -28.1610     2.2680 
  189.6250    77.1880   180.6280   166.2520   197.0200    26.2710   -28.1080     2.2610 
  189.7500    72.9820   200.8700   183.7090   230.9340    26.2750   -28.0970     2.2590 
  189.8750    69.3790   215.2140   196.0590   250.5650    26.3270   -28.1090     2.2600 
  190.0000    69.1540   220.5480   200.7520   246.3090    26.4090   -27.9540     2.2600 
  190.1250    70.4640   215.5870   196.6610   217.5980    26.4850   -27.6440     2.2520 
  190.2500    67.3530   205.6500   188.1640   192.4700    26.5960   -27.2240     2.2370 
  190.3750    61.4560   195.1510   179.0360   168.9490    26.7850   -26.7640     2.2200 
  190.5000    60.9520   187.3470   172.3270   144.4510    27.0400   -26.3000     2.2100 
  190.6250    67.8290   183.9240   170.0370   134.0510    27.2400   -25.7700     2.2140 
  190.7500    73.0790   182.4040   170.2650   142.3530    27.2470   -25.1860     2.2300 
  190.8750    72.6350   178.9080   169.5970   161.2650    27.0970   -24.5920     2.2520 
  191.0000    69.6640   169.1090   163.7180   169.0200    26.8860   -24.0110     2.2780 
  191.1250    68.9340   149.8540   148.5000   152.2860    26.6330   -23.4740     2.3070 
  191.2500    70.1820   125.8950   127.1480   135.3620    26.1830   -22.9790     2.3350 
  191.3750    71.1180   102.9670   104.6500   122.2810    25.4890   -22.4710     2.3580 
  191.5000    70.6910    85.9360    86.1960    98.0410    24.9680   -22.0270     2.3680 
  191.6250    70.6880    78.4920    76.4710    62.4900    24.9590   -21.6340     2.3610 
  191.7500    70.5270    79.0760    74.9890    42.5130    25.0790   -21.1850     2.3590 
  191.8750    67.6590    86.4080    80.8900    40.1080    25.2520   -20.7460     2.3830 
  192.0000    62.1260    98.1160    92.0150    56.7520    25.5030   -20.2820     2.4470 
  192.1250    57.3420   109.3040   103.7500   121.4870    25.6270   -19.7610     2.5390 
  192.2500    55.8330   114.5890   110.3160   194.6980    25.2440   -19.3450     2.6220 
  192.3750    56.7160   112.0530   109.0330   172.2970    24.6500   -18.9650     2.6690 
  192.5000    57.5650   104.2750   101.5350   124.2280    24.1850   -18.4810     2.6790 
  192.6250    57.7100    97.4210    93.4680    97.1530    23.9370   -18.0720     2.6700 
  192.7500    59.9760    95.3670    89.7590    80.4430    23.6970   -17.6910     2.6700 
  192.8750    64.9680    96.9350    90.3860    76.1970    23.5360   -17.3550     2.6910 
  193.0000    67.9780    97.0860    91.0720    91.9710    23.5120   -17.1930     2.7270 
  193.1250    62.5420    88.5000    84.4760   150.1290    23.7310   -17.0450     2.7560 
  193.2500    55.5100    71.6760    69.7500   227.0150    23.9740   -16.8670     2.7610 
  193.3750    54.2020    51.5200    50.8750   159.5460    23.9930   -16.7390     2.7330 
  193.5000    60.1090    33.9300    33.5990    57.3000    23.8010   -16.6560     2.6750 
  193.6250    67.4670    22.8100    22.2960    27.6000    23.6820   -16.5830     2.5990 
  193.7500    70.0030    16.4160    15.7130    17.2880    23.9840   -16.5370     2.5230 
  193.8750    68.8830    13.0230    12.1720    13.8250    24.7120   -16.5050     2.4630 
  194.0000    67.6520    11.3040    10.3110    12.7950    25.3700   -16.4790     2.4260 
  194.1250    67.6670    10.5130     9.4040    12.6630    25.6570   -16.5330     2.4180 
  194.2500    67.8900    10.0540     8.8800    12.7610    25.7380   -16.6170     2.4250 
  194.3750    68.6120     9.7340     8.5420    12.3830    25.7430   -16.7100     2.4340 
  194.5000    69.3130     9.4710     8.2840    11.0860    25.7260   -16.8270     2.4340 
  194.6250    67.6740     9.2480     8.0610     9.3950    25.6910   -17.0070     2.4210 
  194.7500    64.8940     9.0570     7.8590     8.2790    25.7200   -17.2420     2.4090 
  194.8750    62.9990     8.9080     7.6850     7.8850    25.7770   -17.4950     2.4030 
  195.0000    61.2930     8.8130     7.5530     7.9530    25.8020   -17.7790     2.4040 
  195.1250    59.8600     8.8050     7.4920     8.0690    25.7820   -18.0600     2.4040 
  195.2500    60.0240     8.8810     7.5030     7.9670    25.7120   -18.3040     2.4030 
  195.3750    61.7110     9.0280     7.5790     7.7990    25.6390   -18.5800     2.4080 
  195.5000    62.5010     9.2070     7.6940     7.8220    25.6370   -18.8470     2.4280 
  195.6250    62.4100     9.3470     7.7920     8.3300    25.6500   -19.0170     2.4640 
  195.7500    63.5990     9.3870     7.8160     9.0680    25.6450   -19.1920     2.5020 
  195.8750    66.1310     9.3260     7.7300     9.4660    25.5920   -19.3040     2.5300 
  196.0000    67.8630     9.1600     7.5350     9.2040    25.5420   -19.3170     2.5380 
  196.1250    67.3580     8.6360     7.2610     8.5670    25.4700   -19.3340     2.5300 
