~V
VERS. 2.00: Ver 2.00
~W
STRT.M 59.0000:
STOP.M 216.0000:
STEP.M 0.1250:
NULL. -999.2500:
UWI. F10129:
~C
DEPT.M :
GR.API :
RML.OHMM :
RI. :
RXO.OHMM :
CALI.CM :
DEN.GM/CC :
SP.MV :
~A
# ...
  194.0000   103.6100     8.6950     6.8770     6.5530    21.0690     2.3840    -5.3240 
  194.1250    97.0100     9.5480     7.5310     6.8960    20.4070     2.3850    -4.8080 
  194.2500    90.9620    10.5740     8.4120     7.7920    19.9660     2.3660    -4.3510 
  194.3750    88.6840    11.5490     9.3430     8.3820    19.9430     2.3270    -3.9970 
  194.5000    89.5590    12.2750    10.1050     7.9940    20.2620     2.2800    -3.7570 
  194.6250    91.0920    12.6280    10.5070     8.0850    20.6160     2.2450    -3.7320 
  194.7500    90.5370    12.7570    10.6530     8.4640    20.8900     2.2320    -3.9300 
  194.8750    87.7640    12.8100    10.6810     9.0180    21.1700     2.2390    -4.2350 
  195.0000    84.2170    12.8890    10.7080     9.3620    21.2180     2.2580    -4.4950 
  195.1250    81.5060    13.0170    10.7810     9.9490    20.8270     2.2810    -4.6520 
  195.2500    80.8590    13.1420    10.8600    10.4470    20.2570     2.3060    -4.6940 
  195.3750    80.1940    13.2370    10.9220    10.7950    19.7710     2.3290    -4.5750 
  195.5000    78.2050    13.3150    10.9880    10.2740    19.5970     2.3490    -4.3060 
  195.6250    74.1770    13.4220    11.1180     9.7830    19.8990     2.3600    -3.9060 
  195.7500    71.9820    13.5860    11.3330     9.9300    20.6310     2.3650    -3.4830 
  195.8750    73.0200    13.8000    11.6280    10.6390    21.5280     2.3670    -3.1280 
  196.0000    74.9790    14.0260    11.9600    10.9460    22.2920     2.3720    -2.9340 
  196.1250    76.4620    14.1860    12.2460    11.1600    22.8030     2.3780    -2.9060 
  196.2500    77.9910    14.2290    12.4220    10.3940    23.1270     2.3800    -2.9860 
  196.3750    79.3890    14.1370    12.4640     9.0650    23.2120     2.3750    -3.2330 
  196.5000    79.4830    13.9330    12.3880     8.0250    23.1000     2.3650    -3.6460 
  196.6250    77.6390    13.6600    12.2280     8.3350    22.8860     2.3530    -4.2400 
  196.7500    75.9280    13.3950    12.0510     8.9280    22.7460     2.3440    -4.9160 
  196.8750    74.2070    13.1900    11.8980     8.9220    22.5560     2.3360    -5.6310 
  197.0000    71.0720    13.0850    11.8060     8.3660    22.3300     2.3300    -6.3040 
  197.1250    68.2010    13.1190    11.8140     7.9510    22.3080     2.3340    -6.8900 
  197.2500    69.2340    13.2460    11.9070     8.4180    22.4050     2.3520    -7.3950 
  197.3750    72.7580    13.4060    12.0540     9.4430    22.5740     2.3840    -7.7910 
  197.5000    75.1040    13.5240    12.1990    10.6130    22.6090     2.4220    -8.1190 
  197.6250    76.6420    13.5220    12.2670    11.5280    22.5640     2.4490    -8.3630 
  197.7500    78.6700    13.4160    12.2410    11.3380    22.7060     2.4540    -8.6190 
  197.8750    79.8650    13.2670    12.1570    10.5790    23.0790     2.4370    -8.9290 
  198.0000    79.6110    13.1620    12.0860    10.4330    23.4690     2.4120    -9.2490 
  198.1250    80.6790    13.2150    12.1320    10.6820    23.8160     2.3910    -9.5710 
  198.2500    82.8810    13.4400    12.3280    10.7970    24.1200     2.3730    -9.8400 
  198.3750    84.3650    13.8130    12.6740    12.5800    24.3310     2.3510    -9.9730 
  198.5000    84.4420    14.2630    13.1200    11.9540    24.3330     2.3180    -9.9020 
  198.6250    84.5450    14.6680    13.5590    13.0060    24.3330     2.2810    -9.6230 
  198.7500    86.5530    14.9240    13.8710    13.6460    24.3870     2.2570    -9.1190 
  198.8750    90.2870    14.9720    13.9800    14.0720    24.4010     2.2560    -8.3890 
  199.0000    94.7370    14.8220    13.8740    14.0730    24.3850     2.2770    -7.5580 
  199.1250    95.3610    14.5900    13.6090    13.9550    24.4020     2.3010    -6.7680 
  199.2500    91.9770    14.4020    13.3240    13.1260    24.4710     2.3130    -6.1440 
  199.3750    86.4060    14.2710    13.1000    12.9040    24.5320     2.3120    -5.7110 
  199.5000    81.0760    14.1760    12.9780    13.4900    24.5440     2.3020    -5.4810 
  199.6250    77.5740    14.1750    13.0050    13.7210    24.5200     2.2890    -5.4290 
  199.7500    76.1210    14.3270    13.1800    12.9360    24.4860     2.2730    -5.5530 
  199.8750    76.8480    14.6450    13.5080    11.8910    24.5000     2.2600    -5.8040 
  200.0000    79.5310    15.0880    13.9620    11.3110    24.4180     2.2570    -6.1410 
  200.1250    84.1950    15.5460    14.4480    12.1630    24.0330     2.2730    -6.4770 
  200.2500    91.1900    15.8600    14.8080    12.3630    23.4890     2.3010    -6.7550 
  200.3750    97.9900    15.9260    14.9220    11.9160    23.1540     2.3320    -7.0170 
  200.5000   100.5700    15.7200    14.7510    11.6030    23.0620     2.3530    -7.2440 
  200.6250    97.0500    15.2950    14.3380    12.1230    23.1110     2.3610    -7.5250 
  200.7500    91.3840    14.8240    13.8640    12.4210    23.1590     2.3660    -7.8220 
  200.8750    86.6600    14.4170    13.4470    13.6580    23.2290     2.3710    -8.1590 
  201.0000    83.6970    14.1290    13.1510    15.5740    23.3540     2.3780    -8.4720 
  201.1250    82.7300    13.9830    13.0100    16.2870    23.6060     2.3860    -8.6780 
  201.2500    84.1330    13.9360    12.9790    15.6030    23.9140     2.3940    -8.8510 
  201.3750    86.1480    13.9790    13.0470    14.9730    24.1100     2.4020    -9.0140 
  201.5000    87.1160    14.1270    13.2280    14.6160    24.1280     2.4100    -9.1970 
  201.6250    87.2040    14.4300    13.5670    14.4800    24.1100     2.4230    -9.3780 
  201.7500    87.3600    14.8860    14.0540    14.6950    24.0930     2.4420    -9.4970 
  201.8750    87.9160    15.4840    14.6840    15.5760    24.0450     2.4650    -9.4500 
  202.0000    88.8100    16.1770    15.4200    17.5210    23.9840     2.4890    -9.1770 
  202.1250    90.6120    16.8560    16.1570    19.6500    23.8820     2.5070    -8.8040 
  202.2500    93.5450    17.3840    16.7370    20.6060    23.7840     2.5160    -8.3680 
  202.3750    97.5940    17.6460    17.0220    23.3140    23.8010     2.5170    -7.8680 
  202.5000   100.8070    17.5760    16.9290    27.0390    23.8690     2.5120    -7.3420 
  202.6250    97.8200    17.1440    16.4250    26.7260    23.8530     2.5060    -6.7610 
  202.7500    90.4480    16.5170    15.7190    23.4790    23.8090     2.5010    -6.2350 
  202.8750    83.8670    15.8420    14.9900    22.0470    23.8310     2.4980    -5.8320 
  203.0000    82.1150    15.2750    14.3930    20.9960    23.8920     2.4970    -5.6570 
  203.1250    82.8920    15.0000    14.1020    18.7710    23.7760     2.5020    -5.6200 
  203.2500    82.8510    15.0540    14.1440    17.0630    23.5060     2.5130    -5.6280 
  203.3750    82.7490    15.4330    14.5140    16.5630    23.2540     2.5260    -5.6900 
  203.5000    83.2210    16.0570    15.1450    17.4240    23.0850     2.5320    -5.7490 
  203.6250    83.7230    16.7730    15.9060    17.9840    22.9060     2.5260    -5.8320 
  203.7500    82.9710    17.3690    16.5730    17.9830    22.6450     2.5110    -5.8730 
  203.8750    81.9890    17.6920    16.9650    16.5250    22.2320     2.4970    -5.8990 
  204.0000    81.0710    17.6570    16.9720    14.4580    21.6370     2.4950    -5.9120 
  204.1250    79.2190    17.2250    16.5480    12.9260    21.4980     2.5100    -5.8910 
  204.2500    77.0540    16.5650    15.8850    12.0350    21.8040     2.5320    -5.8660 
  204.3750    76.2940    15.8160    15.1400    11.1970    22.3850     2.5480    -5.7880 
  204.5000    79.1320    15.1080    14.4460    10.6850    23.0680     2.5460    -5.6700 
  204.6250    82.4680    14.5620    13.9240    10.7740    23.7460     2.5230    -5.5450 
  204.7500    82.4680    14.1960    13.5820    11.4000    24.2430     2.4900    -5.4450 
  204.8750    82.4680    14.0010    13.4090    11.6740    24.4470     2.4570    -5.3410 
  205.0000    82.4680    13.9520    13.3750    11.8500    24.5250     2.4260    -5.2330 
  205.1250    82.4680    14.0170    13.4480    12.9970    24.5510     2.3950    -5.2080 
