~V
VERS. 2.00: Ver 2.00
~W
STRT.M 50.0000:
STOP.M 205.0000:
STEP.M 0.1250:
NULL. -999.2500:
UWI. F10148:
~C
DEPT.M :
GR.API :
RML.OHMM :
RI. :
RXO.OHMM :
CALI.CM :
SP.MV :
DEN.GM/CC :
~A
# ...
   95.0000    68.1870     9.4570     6.7600     5.0960    18.5460   -22.2320     2.1340 
   95.1250    67.1910    10.5010     7.3900     5.6450    18.6580   -22.3900     2.1470 
   95.2500    64.9900    11.9760     8.3830     6.9420    19.1370   -22.5120     2.1790 
   95.3750    61.6180    13.5530     9.6170     9.8820    20.1770   -22.5840     2.2310 
   95.5000    59.3320    14.6730    10.7500    15.0810    21.3730   -22.6160     2.2870 
   95.6250    60.1070    14.5580    11.1530    15.4930    21.6320   -22.5960     2.3160 
   95.7500    61.4540    13.3740    10.7080     9.7360    20.1170   -22.5460     2.3050 
   95.8750    61.4630    11.7190     9.6990     6.0510    18.4080   -22.5100     2.2630 
   96.0000    61.1400    10.2440     8.5720     4.8220    17.6420   -22.4820     2.2130 
   96.1250    62.0030     9.3810     7.6940     4.5560    17.3830   -22.4390     2.1780 
   96.2500    64.0510     9.0180     7.1270     4.4940    17.3170   -22.3880     2.1610 
   96.3750    65.2820     8.9900     6.8340     4.5690    17.4890   -22.3080     2.1540 
   96.5000    64.6070     9.1440     6.7390     4.7100    17.7100   -22.2140     2.1510 
   96.6250    64.0850     9.3770     6.7760     4.8400    17.7520   -22.1420     2.1440 
   96.7500    65.0050     9.6080     6.8600     4.9130    17.8570   -22.0820     2.1360 
   96.8750    65.8340     9.7830     6.9540     4.9030    17.9320   -22.0280     2.1280 
   97.0000    65.6500     9.8460     7.0290     4.8980    17.8570   -21.9570     2.1220 
   97.1250    63.1670     9.7620     7.0630     5.0390    17.8680   -21.8630     2.1190 
   97.2500    61.3850     9.6130     7.0620     5.2880    18.0460   -21.7840     2.1180 
   97.3750    62.1930     9.4830     7.0350     5.5520    18.0660   -21.7320     2.1180 
   97.5000    64.3510     9.4080     6.9970     5.7640    17.9940   -21.6830     2.1190 
   97.6250    64.4010     9.3360     6.9500     5.9160    17.9790   -21.6170     2.1220 
   97.7500    63.5140     9.1970     6.9000     6.0210    17.9910   -21.5460     2.1270 
   97.8750    64.6490     8.9850     6.8540     6.1080    18.0890   -21.4600     2.1320 
   98.0000    66.8250     8.7700     6.8240     6.1840    18.2590   -21.3780     2.1390 
   98.1250    66.4330     8.6960     6.8430     6.2020    18.2880   -21.3280     2.1420 
   98.2500    63.8940     8.8140     6.9280     6.2590    18.3000   -21.2800     2.1380 
   98.3750    59.9480     9.0810     7.0790     6.5220    18.3330   -21.2420     2.1220 
   98.5000    56.5900     9.3890     7.2710     7.1800    18.5280   -21.2190     2.0960 
   98.6250    59.1830     9.6070     7.4570     8.3540    18.9210   -21.1960     2.0630 
   98.7500    65.0170     9.6840     7.5880     9.5580    19.4200   -21.1520     2.0340 
   98.8750    65.8390     9.6210     7.6340     9.6280    19.7630   -21.0990     2.0160 
   99.0000    60.6070     9.4500     7.5950     8.9510    19.7590   -21.0420     2.0120 
   99.1250    57.2560     9.2310     7.4950     8.2500    19.5880   -20.9970     2.0260 
   99.2500    59.1170     9.0430     7.3970     7.6640    19.1830   -20.9390     2.0490 
   99.3750    61.9570     8.9470     7.3440     7.1260    18.7880   -20.8810     2.0770 
   99.5000    63.6830     8.9690     7.3530     6.7960    18.6340   -20.8230     2.1020 
   99.6250    65.7900     9.0830     7.4190     6.8210    18.6140   -20.7590     2.1180 
   99.7500    66.0890     9.2120     7.5000     6.9480    18.6040   -20.7100     2.1240 
   99.8750    63.7190     9.3170     7.5700     6.8460    18.5610   -20.6790     2.1230 
  100.0000    61.5900     9.3960     7.6160     6.6730    18.5360   -20.6580     2.1150 
  100.1250    64.7360     9.4680     7.6410     6.5490    18.5020   -20.5860     2.1040 
  100.2500    69.1130     9.5370     7.6520     6.3460    18.3960   -20.4690     2.0960 
  100.3750    68.7100     9.5710     7.6340     5.9740    18.1080   -20.2920     2.0930 
  100.5000    64.2300     9.5190     7.5470     5.5200    17.7150   -20.0780     2.0970 
  100.6250    62.0690     9.2610     7.3060     5.1570    17.5080   -19.8660     2.1040 
  100.7500    64.0620     8.7510     6.9130     4.9920    17.4510   -19.6540     2.1090 
  100.8750    67.2570     8.0550     6.4490     5.0330    17.4570   -19.4470     2.1080 
  101.0000    69.2990     7.4220     6.0790     5.1200    17.5460   -19.2240     2.1060 
  101.1250    69.9000     7.2770     6.0400     5.1980    17.9430   -19.0500     2.1240 
  101.2500    69.8100     7.7500     6.3970     5.7060    18.6160   -18.9460     2.1750 
  101.3750    69.1180     8.7870     7.1510     7.4520    19.4940   -18.8750     2.2620 
  101.5000    67.9760    10.0750     8.1800    10.9010    20.7590   -18.8210     2.3660 
  101.6250    67.4140    10.9500     9.1270    12.6530    21.7330   -18.7890     2.4390 
  101.7500    66.7980    11.0150     9.5740     9.7210    20.9650   -18.7630     2.4470 
  101.8750    65.0140    10.3770     9.3710     6.5370    18.9340   -18.7330     2.3950 
  102.0000    65.2240     9.4940     8.7020     5.0540    17.6900   -18.7050     2.3120 
  102.1250    70.2400     8.8290     7.9160     4.6890    17.4080   -18.6400     2.2360 
  102.2500    74.6240     8.4490     7.2750     4.6730    17.3850   -18.5470     2.1810 
  102.3750    75.3090     8.2460     6.8420     4.8230    17.5020   -18.4810     2.1490 
  102.5000    72.5490     8.1090     6.6010     5.0140    18.1020   -18.4430     2.1360 
  102.6250    70.2670     8.0740     6.5510     5.0710    19.2120   -18.4420     2.1370 
  102.7500    70.0150     8.2710     6.6730     4.9920    19.7010   -18.4650     2.1430 
  102.8750    69.3740     8.7700     6.9790     4.9000    19.0200   -18.5290     2.1500 
  103.0000    66.7690     9.5080     7.4560     4.7950    18.1800   -18.6570     2.1560 
  103.1250    63.7870    10.3480     8.0840     4.7030    17.9990   -18.8480     2.1590 
  103.2500    64.6450    11.1660     8.7960     4.8980    18.0820   -19.0660     2.1600 
  103.3750    67.4330    11.9420     9.5680     5.3890    18.2250   -19.2980     2.1610 
  103.5000    68.1420    12.7210    10.3890     5.9110    18.5540   -19.5360     2.1590 
  103.6250    66.5360    13.5860    11.2680     6.2990    18.9850   -19.7270     2.1520 
  103.7500    65.0470    14.4880    12.1620     6.4830    19.1210   -19.8930     2.1380 
  103.8750    64.0620    15.2820    12.9660     6.4020    18.8380   -20.0180     2.1180 
  104.0000    64.7750    15.8130    13.5380     6.3540    18.1180   -20.0980     2.0960 
  104.1250    66.6740    15.9130    13.6950     6.7290    17.6420   -20.1170     2.0760 
  104.2500    68.1540    15.6560    13.4810     7.0310    17.7280   -20.1040     2.0630 
  104.3750    68.0900    15.1680    13.0060     6.7990    18.2480   -20.0580     2.0580 
  104.5000    68.2610    14.6300    12.4590     6.1850    18.7350   -19.9690     2.0600 
  104.6250    68.2080    14.1800    12.0230     5.7020    18.7310   -19.8380     2.0690 
  104.7500    63.8510    13.8070    11.7080     5.4390    18.4790   -19.6800     2.0830 
  104.8750    56.6980    13.4840    11.4630     5.3570    18.2320   -19.4980     2.1050 
  105.0000    53.7140    13.2190    11.2600     5.4850    18.1740   -19.3040     2.1330 
  105.1250    59.1110    13.0930    11.1450     5.9120    18.3190   -19.1530     2.1620 
  105.2500    65.4790    13.1890    11.1930     6.4170    18.6000   -19.0300     2.1810 
  105.3750    67.9310    13.5670    11.4710     6.8250    19.0870   -18.9200     2.1820 
  105.5000    66.9300    14.1480    11.9650     7.4160    19.3490   -18.8280     2.1710 
  105.6250    65.3180    14.6330    12.5030     9.1930    19.7730   -18.8050     2.1560 
  105.7500    64.3190    14.7320    12.8160    11.6900    20.4680   -18.8130     2.1480 
  105.8750    64.0370    14.3810    12.7680    14.1760    21.3210   -18.8480     2.1460 
  106.0000    61.9110    13.7930    12.4230    15.3340    21.9670   -18.8960     2.1430 
  106.1250    58.1280    13.3970    12.0450    13.3810    21.9190   -18.9370     2.1290 
