~V
VERS. 2.00: Ver 2.00
~W
STRT.M 50.0000:
STOP.M 252.0000:
STEP.M 0.1250:
NULL. -999.2500:
UWI. F10101:
~C
DEPT.M :
DEN.GM/CC :
SP.MV :
GR.API :
RML.OHMM :
RI. :
RXO.OHMM :
CALI.CM :
~A
   50.0000     2.2520    66.6300  -999.2500  -999.2500  -999.2500  -999.2500  -999.2500 
   50.1250     2.2660    67.0560  -999.2500  -999.2500  -999.2500  -999.2500  -999.2500 
   50.2500     2.2740    67.4540  -999.2500  -999.2500  -999.2500  -999.2500  -999.2500 
   50.3750     2.2690    67.8210  -999.2500  -999.2500  -999.2500  -999.2500  -999.2500 
   50.5000     2.2480    68.0890  -999.2500  -999.2500  -999.2500  -999.2500  -999.2500 
   50.6250     2.2330    68.1760  -999.2500  -999.2500  -999.2500  -999.2500  -999.2500 
   50.7500     2.2390    68.2600  -999.2500  -999.2500  -999.2500  -999.2500  -999.2500 
   50.8750     2.2600    68.2340  -999.2500  -999.2500  -999.2500  -999.2500  -999.2500 
   51.0000     2.2820    68.1500    47.1230 2222645.5000     4.9990   642.8510    25.1090 
   51.1250     2.2970    68.0490    47.1230 2222645.5000     4.9990   642.8510    25.1090 
   51.2500     2.3050    67.8390    47.1290 1830730.0000     5.2230  -999.2500    25.1100 
   51.3750     2.3000    67.5830    48.9140 69793.8280     6.1300  -999.2500    25.1070 
   51.5000     2.2870    67.2470    52.5670     0.1420 2222647.5000  -999.2500    25.1030 
   51.6250     2.2750    66.9550    53.8900     0.2260 982475.0630  -999.2500    25.1110 
   51.7500     2.2690    66.5790    53.1940     0.2240  -999.2500  -999.2500    25.1330 
   51.8750     2.2680    66.1190    52.8490     0.2220     0.2180     0.2200    25.1500 
   52.0000     2.2770    65.5440    53.6240     0.2210     0.2290     0.2200    25.1450 
   52.1250     2.2950    64.7060    54.7460     0.2250     0.2310     0.2220    25.1270 
   52.2500     2.3130    63.8410    54.5300     0.2380     0.2330     0.2320    25.1370 
   52.3750     2.3270    62.9440    54.0440     0.2640     0.2350     0.2490    25.1630 
   52.5000     2.3360    62.1020    53.4460     0.2880     0.2360     0.2690    25.1760 
   52.6250     2.3460    61.3690    52.6950     0.2860     0.2350     0.2820    25.1800 
   52.7500     2.3570    60.7040    50.6370     0.2750     0.2320     0.2830    25.1700 
   52.8750     2.3700    60.1760    47.7150     0.2780     0.2270     0.2770    25.1790 
   53.0000     2.3880    59.8430    46.0920     0.2960     0.2230     0.2680    25.1970 
   53.1250     2.3970    59.8160    45.1630     0.3130     0.2200     0.2620    25.2160 
   53.2500     2.3780    60.0050    43.5760     0.3320     0.2210     0.2590    25.2120 
   53.3750     2.3300    60.3960    42.4780     0.3660     0.2240     0.2580    25.1920 
   53.5000     2.2800    61.0150    42.8280     0.3980     0.2310     0.2590    25.1760 
   53.6250     2.2540    61.7400    44.2910     0.4010     0.2390     0.2610    25.1780 
   53.7500     2.2510    62.6810    44.8260     0.3740     0.2430     0.2600    25.1910 
   53.8750     2.2660    63.8200    44.7930     0.3310     0.2400     0.2540    25.1880 
   54.0000     2.2940    65.1410    44.0150     0.2880     0.2330     0.2420    25.1620 
   54.1250     2.3310    66.7510    43.6540     0.2580     0.2270     0.2270    25.1650 
   54.2500     2.3710    68.5530    44.7290     0.2640     0.2220     0.2160    25.1730 
   54.3750     2.4140    70.6110    45.8200     0.3230     0.2190     0.2140    25.1250 
   54.5000     2.4620    72.8130    45.9180     0.3970     0.2180     0.2220    25.0670 
   54.6250     2.4970    75.2930    46.7010     0.4070     0.2170     0.2370    25.0380 
   54.7500     2.5090    77.8580    48.2320     0.3570     0.2150     0.2550    25.0220 
   54.8750     2.5140    80.4550    47.8990     0.2990     0.2120     0.2680    24.9820 
   55.0000     2.5260    83.0180    45.0800     0.2680     0.2120     0.2750    24.9590 
   55.1250     2.5390    85.2990    43.6450     0.2500     0.2170     0.2740    25.0040 
   55.2500     2.5370    87.3490    44.5330     0.2280     0.2250     0.2690    25.0580 
   55.3750     2.5310    89.0500    46.4620     0.2090     0.2270     0.2620    25.0420 
   55.5000     2.5370    90.4650    47.7490     0.2040     0.2230     0.2550    25.0100 
   55.6250     2.5660    91.4170    47.6640     0.2100     0.2150     0.2490    24.9680 
   55.7500     2.6010    92.0270    46.7240     0.2130     0.2290     0.2470    24.9470 
   55.8750     2.6230    92.2940    45.9970     0.2110     0.2790     0.2490    24.9250 
   56.0000     2.6220    92.2470    46.7740     0.2090     0.3390     0.2560    24.9100 
   56.1250     2.6080    91.9690    47.8880     0.2090     0.3510     0.2670    24.8970 
   56.2500     2.5950    91.4350    47.7210     0.2090     0.3170     0.2820    24.8490 
   56.3750     2.5850    90.7090    46.7160     0.2080     0.2750     0.2980    24.6200 
   56.5000     2.5760    89.7140    47.8760     0.2060     0.2530     0.3120    24.1490 
   56.6250     2.5690    88.4370    55.1830     0.2040     0.2480     0.3160    23.5290 
   56.7500     2.5560    86.8120    63.9050     0.2020     0.2390     0.3080    23.2550 
   56.8750     2.5360    84.8430    67.2920     0.2540     0.2250     0.2920    23.2490 
   57.0000     2.5120    82.5120    65.2740     0.2280     0.2120     0.2720    23.3750 
   57.1250     2.4920    79.8170    63.8900     0.1970     0.2070     0.2540    23.6050 
   57.2500     2.4800    76.7160    64.8940     0.1980     0.2060     0.2390    23.8540 
   57.3750     2.4790    73.1950    63.8280     0.2000     0.2060     0.2260    23.9410 
   57.5000     2.4950    69.1820    60.3250     0.2000     0.2060     0.2160    23.8390 
   57.6250     2.5330    64.5190    57.6900     0.2000     0.2040     0.2090    23.7580 
   57.7500     2.5830    59.2970    55.9130     0.2000     0.2020     0.2090    23.7380 
   57.8750     2.6340    53.4390    54.4770     0.2000     0.2020     0.2470    23.7620 
   58.0000     2.6770    46.8790    53.4670     0.2050     0.1990     0.4100    23.8170 
   58.1250     2.6980    39.4900    55.1900     0.1820     0.1410     0.9850    23.7260 
   58.2500     2.6710    31.6880    61.5320     0.2200     0.1600     2.0110    23.4190 
   58.3750     2.5770    23.7850    69.1900     1.1930     0.3420     3.8540    23.0770 
   58.5000     2.4370    16.1480    72.8440     2.1900     0.7410     6.3580    22.8700 
   58.6250     2.3140     9.0640    70.9930     3.6090     1.5290     8.2180    22.7980 
   58.7500     2.2410     2.7270    69.7280     5.3100     2.6640     9.5270    22.7430 
   58.8750     2.2080    -2.7450    70.5090     6.5400     3.8880    10.5400    22.6490 
   59.0000     2.1920    -7.1850    71.2040     6.8540     4.8440     9.4670    22.5040 
   59.1250     2.1840   -10.4020    71.9460     6.6400     5.3360     8.3520    22.4080 
   59.2500     2.1880   -12.6780    73.6300     6.4580     5.5500     7.8530    22.3620 
   59.3750     2.2040   -14.3330    75.7980     6.3930     5.6030     7.7700    22.3370 
   59.5000     2.2250   -15.5590    78.1360     6.4230     5.5750     7.4640    22.3100 
   59.6250     2.2470   -16.4980    82.6150     6.5490     5.5530     7.0280    22.2590 
   59.7500     2.2670   -17.3020    89.0680     6.7670     5.5990     6.7830    22.2070 
   59.8750     2.2770   -18.0010    94.2510     7.0810     5.7310     7.1690    22.1340 
   60.0000     2.2660   -18.6420    92.4850     7.4720     5.9360     7.4830    22.0790 
   60.1250     2.2350   -19.2350    83.5790     7.8630     6.1800     7.5510    22.0790 
   60.2500     2.2060   -19.8040    76.7660     8.1620     6.4130     7.5460    22.1390 
   60.3750     2.1880   -20.3140    74.1560     8.3460     6.6080     7.7360    22.1940 
   60.5000     2.1800   -20.8210    71.7690     8.4430     6.7500     7.9220    22.2460 
   60.6250     2.1770   -21.2570    68.3660     8.5090     6.8270     7.9860    22.2690 
   60.7500     2.1770   -21.5770    67.5930     8.6000     6.8530     8.0170    22.2430 
   60.8750     2.1830   -21.8200    68.8800     8.7080     6.8360     7.9340    22.2720 
   61.0000     2.1890   -21.9560    69.4310     8.7870     6.7900     7.8590    22.4090 
   61.1250     2.1820   -21.9820    69.0020     8.7710     6.7330     7.7550    22.5930 
