~V
VERS. 2.00: Ver 2.00
~W
STRT.M 50.0000:
STOP.M 211.0000:
STEP.M 0.1250:
NULL. -999.2500:
UWI. F10140:
~C
DEPT.M :
DEN.GM/CC :
GR.API :
RML.OHMM :
RI. :
RXO.OHMM :
CALI.CM :
SP.MV :
~A
# ...
  173.7500     2.1250    75.0610    96.4840    83.8180    76.9350    32.6070   -16.0890 
  173.8750     2.1100    75.5710   107.4980    94.5210    95.4440    32.4040   -16.4190 
  174.0000     2.0940    72.3550   118.5980   106.2270   110.1950    32.3700   -16.6810 
  174.1250     2.0850    72.2630   127.0540   116.6390   115.7840    32.3970   -16.9130 
  174.2500     2.0870    75.2260   130.8700   123.4010   125.2130    32.5240   -17.1450 
  174.3750     2.0990    74.2030   128.9220   124.7450   132.3400    32.7470   -17.3570 
  174.5000     2.1190    68.9100   121.6570   120.3280   129.9890    33.0130   -17.5350 
  174.6250     2.1410    67.5230   110.9230   111.3300   120.8900    33.2230   -17.6670 
  174.7500     2.1610    70.7610   100.1720   101.4440   104.9610    33.0960   -17.7570 
  174.8750     2.1760    72.9390    91.2580    92.9980    85.4480    32.9720   -17.8220 
  175.0000     2.1880    72.0140    84.7270    87.1340    66.3690    32.8420   -17.9250 
  175.1250     2.1950    72.2420    79.9120    83.4720    66.1170    32.7160   -18.0600 
  175.2500     2.1960    75.2110    75.0710    79.7040    70.7020    32.6040   -18.1810 
  175.3750     2.1960    77.6790    69.4850    74.4810    76.7860    32.5020   -18.2870 
  175.5000     2.1990    77.1430    63.5670    67.9290    78.8840    32.3920   -18.3760 
  175.6250     2.2110    75.5130    59.2350    61.8990    64.0130    32.2850   -18.4480 
  175.7500     2.2290    74.3370    58.3710    58.6180    42.6880    32.2080   -18.4990 
  175.8750     2.2490    73.3860    62.6020    60.0140    31.8670    32.1610   -18.5400 
  176.0000     2.2600    73.8140    73.2110    67.8140    42.4350    32.1040   -18.5260 
  176.1250     2.2550    74.3700    92.4350    84.9390    72.0170    31.9900   -18.4150 
  176.2500     2.2360    71.7540   119.0410   110.6540   110.4300    31.7920   -18.2460 
  176.3750     2.2090    66.3390   151.0460   143.0980   139.9550    31.4620   -17.9950 
  176.5000     2.1830    63.1580   184.1880   177.0280   164.8840    31.0190   -17.7130 
  176.6250     2.1680    66.3240   211.9710   203.8200   177.7080    30.5730   -17.4450 
  176.7500     2.1670    70.7050   231.9900   221.1950   175.9690    30.1690   -17.1520 
  176.8750     2.1800    71.8670   244.8380   231.2540   175.8810    29.8150   -16.8450 
  177.0000     2.2030    68.6680   252.5120   237.0000   176.9570    29.5280   -16.5370 
  177.1250     2.2280    64.7350   255.8750   239.8330   171.8920    29.3240   -16.2400 
  177.2500     2.2480    64.9800   255.6090   240.4150   173.8910    29.1820   -15.9630 
  177.3750     2.2600    68.7040   251.3400   238.1110   181.4140    29.1310   -15.7270 
  177.5000     2.2630    70.6970   243.1700   232.4440   177.0260    29.2040   -15.5120 
  177.6250     2.2580    67.3750   231.8800   223.6760   165.5860    29.4370   -15.2880 
  177.7500     2.2490    64.3930   219.8890   214.0090   154.5670    29.7550   -15.0740 
  177.8750     2.2410    63.6640   208.7660   205.0300   147.6050    30.0470   -14.9270 
  178.0000     2.2320    64.0060   199.2940   197.6620   149.2480    30.2040   -14.8900 
  178.1250     2.2250    66.3240   191.3820   191.9450   150.1440    30.1840   -14.9720 
  178.2500     2.2200    69.4730   183.7740   186.3960   154.9220    30.0750   -15.0740 
  178.3750     2.2160    71.8920   175.7420   179.8490   149.7050    29.9440   -15.1720 
  178.5000     2.2150    71.4180   167.3630   172.0540   134.4550    29.7980   -15.2250 
  178.6250     2.2170    70.9470   159.9520   164.2930   106.7560    29.4630   -15.2250 
  178.7500     2.2210    71.5430   154.9660   158.5710    85.9730    28.8790   -15.2070 
  178.8750     2.2270    71.9070   153.4320   156.3050    74.8340    28.2010   -15.1650 
  179.0000     2.2300    72.6610   155.7700   158.0950    77.6430    27.6390   -15.1150 
  179.1250     2.2310    72.6720   161.0890   164.1040    89.4980    27.2830   -15.0130 
  179.2500     2.2280    72.3140   170.3380   172.3820   110.8070    27.0460   -14.9140 
  179.3750     2.2250    71.1620   186.3830   181.3730   122.4110    26.8750   -14.8140 
  179.5000     2.2210    68.9240   206.4990   189.5670   121.0150    26.7140   -14.6640 
  179.6250     2.2180    65.7220   220.3250   195.1940   118.1530    26.5430   -14.4180 
  179.7500     2.2170    64.0830   223.6840   197.3930   125.8510    26.3680   -14.1480 
  179.8750     2.2160    66.8080   219.4480   195.2390   141.5250    26.2010   -13.8520 
  180.0000     2.2180    71.8140   211.2420   188.5350   147.4660    26.0290   -13.4610 
  180.1250     2.2220    74.0860   200.1330   178.2610   131.1850    25.7890   -13.0590 
  180.2500     2.2260    73.1920   189.4090   167.8010   113.8160    25.4740   -12.7090 
  180.3750     2.2310    72.2620   181.3080   159.6640    98.2870    25.1310   -12.4150 
  180.5000     2.2380    72.6730   176.9240   155.2710    91.0180    24.8170   -12.1890 
  180.6250     2.2490    71.8730   176.2410   154.9990    92.6690    24.5160   -12.0660 
  180.7500     2.2590    68.9240   176.8030   156.4790   101.0390    24.1790   -11.9470 
  180.8750     2.2670    66.5300   176.5210   157.5300   105.7110    23.7820   -11.7710 
  181.0000     2.2690    66.9940   173.8200   156.3130    98.4590    23.2980   -11.5950 
  181.1250     2.2650    70.5380   167.8930   151.6770    86.7560    22.7440   -11.4410 
  181.2500     2.2620    73.5020   160.3330   145.1010    82.3550    22.2650   -11.2290 
  181.3750     2.2660    73.9450   152.7700   138.2450    88.8470    22.0070   -10.9760 
  181.5000     2.2780    73.3880   146.6190   132.6040    99.4340    21.9310   -10.7610 
  181.6250     2.2970    74.4970   143.0040   129.3280   101.0290    22.0030   -10.5970 
  181.7500     2.3150    75.9480   141.4360   127.9810    86.9150    22.1610   -10.4700 
  181.8750     2.3280    74.7500   141.2530   127.9760    64.6440    22.3840   -10.3800 
  182.0000     2.3350    71.5940   141.5050   128.5160    46.3730    22.6280   -10.3370 
  182.1250     2.3310    72.9890   140.8000   128.4440    36.1050    22.8260   -10.3350 
  182.2500     2.3210    78.0690   138.1310   126.7610    29.1770    22.9680   -10.3950 
  182.3750     2.3060    82.2390   132.9260   122.8040    24.2510    23.0890   -10.5370 
  182.5000     2.2870    81.5290   125.2630   116.4470    21.1200    23.2180   -10.7130 
  182.6250     2.2610    77.5430   115.8740   108.0920    18.6830    23.4040   -10.9030 
  182.7500     2.2250    75.4590   106.5960    99.4050    16.6260    23.5890   -11.1020 
  182.8750     2.1820    75.8120    98.9120    91.8400    15.1710    23.6710   -11.2820 
  183.0000     2.1430    76.2670    93.9910    86.6950    14.0600    23.5780   -11.3900 
  183.1250     2.1290    77.1700    92.9360    85.4120    14.1590    23.3170   -11.4140 
  183.2500     2.1450    79.8480    94.6940    87.4140    15.7870    23.1060   -11.4310 
  183.3750     2.1880    80.8700    97.7480    91.5920    17.9230    23.0490   -11.4630 
  183.5000     2.2410    78.1610    99.7720    95.7210    18.8590    23.1340   -11.5540 
  183.6250     2.2890    76.9810    97.5850    96.0540    18.3390    23.2780   -11.7300 
  183.7500     2.3230    80.8430    90.8640    91.2120    18.8600    23.3960   -11.9090 
  183.8750     2.3410    85.3270    80.9190    82.0490    22.0020    23.5280   -12.0370 
  184.0000     2.3430    85.8750    70.2430    71.2150    26.4440    23.7600   -12.0800 
  184.1250     2.3330    86.7230    61.7430    61.9800    31.3250    24.0270   -12.0100 
  184.2500     2.3210    89.1460    56.3870    55.7060    34.9040    24.1000   -11.8820 
  184.3750     2.3110    89.5480    54.1930    52.5450    37.3950    23.8830   -11.6970 
  184.5000     2.3060    87.5470    54.6620    52.0570    38.9580    23.4350   -11.4440 
  184.6250     2.3030    86.6200    57.3630    53.8160    48.7950    22.9330   -11.1230 
  184.7500     2.2970    85.5600    61.3650    56.7700    61.4790    22.5830   -10.7910 
  184.8750     2.2890    81.6700    66.5040    60.4960    66.2150    22.4080   -10.4960 
