~V
VERS. 2.00: Ver 2.00
~W
STRT.M 60.0000:
STOP.M 220.0000:
STEP.M 0.1250:
NULL. -999.2500:
UWI. F10154:
~C
DEPT.M :
GR.API :
RML.OHMM :
RI. :
RXO.OHMM :
CALI.CM :
DEN.GM/CC :
SP.MV :
~A
# ...
  138.7500    61.7240    17.7980    16.1150    15.2940    24.6520     2.5120   -12.5200 
  138.8750    62.2210    17.7780    16.1050    14.2740    24.6130     2.5180   -12.4290 
  139.0000    60.5890    17.8520    16.1440    13.8660    24.5640     2.5240   -12.3570 
  139.1250    58.7000    18.0020    16.2660    14.8010    24.6010     2.5240   -12.3470 
  139.2500    57.4120    18.1830    16.4560    15.9070    24.6400     2.5160   -12.3670 
  139.3750    55.8820    18.4010    16.7110    16.4310    24.5970     2.5020   -12.3720 
  139.5000    53.7920    18.6980    17.0520    16.4600    24.5700     2.4850   -12.3310 
  139.6250    53.1990    19.1500    17.5410    15.8420    24.6200     2.4740   -12.2900 
  139.7500    55.0020    19.7400    18.1720    15.7770    24.6890     2.4730   -12.2980 
  139.8750    59.0170    20.3720    18.8810    17.1880    24.6840     2.4810   -12.3460 
  140.0000    62.8350    20.8680    19.5080    19.7370    24.5740     2.4940   -12.3770 
  140.1250    62.2730    20.9550    19.7640    20.8420    24.4620     2.5060   -12.3410 
  140.2500    59.5710    20.6030    19.5820    19.2680    24.3870     2.5110   -12.3080 
  140.3750    59.2330    19.9000    19.0500    17.1410    24.4240     2.5070   -12.3490 
  140.5000    62.2950    19.0380    18.3730    15.6180    24.5650     2.4990   -12.4550 
  140.6250    63.5590    18.2650    17.8020    14.9110    24.6410     2.4920   -12.5220 
  140.7500    60.5600    17.7260    17.4610    14.8280    24.6620     2.4940   -12.5010 
  140.8750    57.4290    17.4720    17.3740    15.3770    24.6610     2.5040   -12.3910 
  141.0000    57.1440    17.4850    17.5090    15.1100    24.5500     2.5210   -12.2200 
  141.1250    58.4770    17.7250    17.8120    14.1980    24.2340     2.5370   -12.0530 
  141.2500    58.7770    18.0400    18.1520    13.5820    23.8830     2.5450   -11.9100 
  141.3750    57.7680    18.2800    18.4030    14.0550    23.6440     2.5460   -11.7710 
  141.5000    56.7640    18.2740    18.4060    14.8230    23.5410     2.5430   -11.6450 
  141.6250    55.5730    17.8320    17.9290    15.9540    23.5110     2.5460   -11.5460 
  141.7500    54.9820    17.0750    17.0680    17.3200    23.5310     2.5530   -11.4980 
  141.8750    54.9080    16.2790    16.1000    17.7230    23.6350     2.5560   -11.5490 
  142.0000    53.4560    15.8920    15.4310    15.8170    23.8560     2.5430   -11.7040 
  142.1250    51.6600    16.6860    15.6780    13.1540    24.1080     2.5030   -11.8950 
  142.2500    51.4540    19.3820    17.2840    12.4270    24.3460     2.4410   -12.0530 
  142.3750    53.0900    24.9710    20.9650    15.0120    24.5090     2.3690   -12.1780 
  142.5000    56.1590    34.1310    27.6210    21.0560    24.6670     2.2990   -12.2720 
  142.6250    59.8590    47.3340    38.7460    25.2150    24.9630     2.2440   -12.3490 
  142.7500    61.7490    62.8690    53.3760    28.7650    25.2840     2.2100   -12.3830 
  142.8750    60.2740    78.7500    69.2080    34.3420    25.4500     2.1960   -12.3490 
  143.0000    58.3540    92.4610    82.6840    49.1720    25.4740     2.1980   -12.2790 
  143.1250    58.8960   101.3650    90.5330    70.8220    25.4660     2.2090   -12.2660 
  143.2500    58.7320   106.4630    94.2710    81.7780    25.5300     2.2170   -12.3110 
  143.3750    57.6220   109.5540    95.9330    73.6570    25.6320     2.2160   -12.3870 
  143.5000    59.4710   112.7640    97.4930    65.5500    25.7270     2.2030   -12.4810 
  143.6250    64.7300   118.4540   101.1400    73.3390    25.7090     2.1830   -12.6410 
  143.7500    67.9300   127.5080   107.8690    88.8830    25.5060     2.1660   -12.8730 
  143.8750    66.9500   140.0140   117.8950   111.6580    25.2740     2.1590   -13.1440 
  144.0000    64.6150   154.8010   130.2590   133.6820    25.1680     2.1630   -13.4020 
  144.1250    62.8710   168.8040   142.2480   149.5040    25.1740     2.1770   -13.6040 
  144.2500    62.0190   178.6100   150.6190   159.0610    25.1870     2.1920   -13.8000 
  144.3750    62.7120   182.2530   153.5130   156.9350    25.1900     2.2060   -13.9720 
  144.5000    65.7390   179.7850   151.0700   163.9240    25.1900     2.2160   -14.0810 
  144.6250    68.9630   172.7010   144.9650   142.8850    25.1900     2.2220   -14.1420 
  144.7500    68.9640   164.2590   138.2020   127.5890    25.1900     2.2260   -14.2250 
  144.8750    66.8470   155.9780   132.0500   119.4080    25.1890     2.2290   -14.2980 
  145.0000    64.9530   148.4820   126.9300   116.0190    25.1810     2.2300   -14.3230 
  145.1250    64.6430   141.7390   122.8500   113.8570    25.1350     2.2280   -14.3570 
  145.2500    64.1160   134.8690   118.9780   103.7520    25.0300     2.2260   -14.3950 
  145.3750    62.0940   126.8970   114.2080    93.1640    24.8750     2.2250   -14.4080 
  145.5000    59.9380   117.0550   107.3670    85.9420    24.7100     2.2270   -14.3620 
  145.6250    60.7110   105.0630    97.5860    96.6680    24.5730     2.2330   -14.2300 
  145.7500    63.7950    92.2250    86.1450   111.2840    24.5300     2.2420   -14.0520 
  145.8750    65.0420    79.7640    74.4640    94.3550    24.5530     2.2530   -13.8840 
  146.0000    62.3610    68.6830    63.8170    54.7210    24.6090     2.2670   -13.7550 
  146.1250    60.5840    59.9360    55.3310    43.0790    24.6230     2.2840   -13.5250 
  146.2500    61.7960    53.4410    48.9830    43.3540    24.5920     2.3020   -13.1540 
  146.3750    64.0610    49.3410    44.8380    45.1100    24.5530     2.3180   -12.7240 
  146.5000    64.2230    47.9150    43.0260    43.1590    24.5510     2.3260   -12.3570 
  146.6250    63.2830    50.3880    44.4940    40.9610    24.5980     2.3180   -12.0930 
  146.7500    65.6280    57.2950    49.7370    45.9470    24.6820     2.2990   -11.7990 
  146.8750    70.9510    69.8670    59.9740    52.5350    24.7810     2.2740   -11.4900 
  147.0000    74.3210    89.0560    76.3270    63.7350    24.8860     2.2530   -11.2080 
  147.1250    69.3830   114.2370    99.0120   120.2490    24.9490     2.2430   -10.9730 
  147.2500    63.2960   137.8110   121.6500   216.5120    24.9870     2.2460   -10.8090 
  147.3750    62.5420   150.5000   134.9430   235.2550    24.9700     2.2580   -10.7440 
  147.5000    64.1260   146.0940   131.4010   172.3580    24.9120     2.2760   -10.7570 
  147.6250    63.9690   125.5890   112.0190   149.7970    24.8700     2.2960   -10.8290 
  147.7500    64.4660   101.8370    90.2520   114.6820    24.8950     2.3150   -10.9240 
  147.8750    66.7180    82.7580    73.3960    87.3550    24.9390     2.3270   -10.9990 
  148.0000    68.4460    71.3690    63.8730    69.4770    24.9070     2.3270   -11.0710 
  148.1250    67.1700    67.5600    61.9000    62.4800    24.7520     2.3100   -11.2090 
  148.2500    65.4890    66.8220    63.6540    60.4860    24.5830     2.2880   -11.3580 
  148.3750    64.7390    65.4310    65.3370    66.7190    24.5190     2.2780   -11.4230 
  148.5000    67.2370    60.3900    62.6770    80.4490    24.5510     2.2920   -11.4040 
  148.6250    74.8250    50.4430    52.8240    97.7670    24.6240     2.3320   -11.3430 
  148.7500    85.5880    38.6720    40.1270    61.8650    24.6260     2.3770   -11.3250 
  148.8750    95.5160    27.8820    28.7600    27.8530    24.5280     2.4110   -11.3510 
  149.0000   100.2390    19.7570    20.6820    12.4120    24.3350     2.4260   -11.3640 
  149.1250   100.8600    14.8960    16.0720     9.3340    24.0780     2.4250   -11.3810 
  149.2500   102.2490    12.0860    13.3840     7.7910    24.0460     2.4200   -11.4660 
  149.3750   103.7760    10.6360    11.9220     7.5530    24.2300     2.4160   -11.6490 
  149.5000   103.0140    10.0460    11.2510     7.6310    24.3590     2.4130   -11.8800 
  149.6250   102.4300    10.0560    11.1500     7.9020    24.3720     2.4130   -12.1040 
  149.7500   102.9920    10.4190    11.3810     8.2760    24.3940     2.4180   -12.3020 
  149.8750   100.8680    11.1270    11.9170     8.6360    24.3560     2.4240   -12.4840 
