~V
VERS. 2.00: Ver 2.00
~W
STRT.M 55.0000:
STOP.M 224.0000:
STEP.M 0.1250:
NULL. -999.2500:
UWI. F10137:
~C
DEPT.M :
DEN.GM/CC :
SP.MV :
GR.API :
RML.OHMM :
RI. :
RXO.OHMM :
CALI.CM :
~A
# ...
  212.5000     2.1290   -13.7710    61.9850     9.2280     8.5780     4.9000    24.7160 
  212.6250     2.1010   -13.7890    61.1980     9.1740     8.5890     5.0400    24.7630 
  212.7500     2.1050   -13.8030    60.5400     9.0660     8.5270     5.2580    24.7890 
  212.8750     2.1500   -13.8160    59.8770     8.9840     8.4500     5.9100    24.7680 
  213.0000     2.2240   -13.8260    59.0470     8.9690     8.4010     6.7410    24.7450 
  213.1250     2.2940   -13.8310    59.0270     9.0260     8.3990     7.4100    24.7260 
  213.2500     2.3330   -13.8330    60.6560     9.1460     8.4470     7.7490    24.7080 
  213.3750     2.3390   -13.8330    62.7780     9.3270     8.5490     7.6590    24.7050 
  213.5000     2.3260   -13.8330    63.5620     9.5650     8.7040     7.8640    24.7210 
  213.6250     2.3090   -13.8330    62.5050     9.8380     8.9000     9.4470    24.7560 
  213.7500     2.3040   -13.8330    61.5320    10.1060     9.1090    13.3280    24.7880 
  213.8750     2.3350   -13.8320    61.3530    10.3110     9.2880    17.0880    24.7890 
  214.0000     2.3970   -13.8230    61.3530    10.4220     9.4060    17.5330    24.7400 
  214.1250     2.4600   -13.8040    61.3530    10.4570     9.4660    14.6340    24.6600 
  214.2500     2.4880   -13.7830    61.3530    10.4730     9.5020    11.2310    24.6070 
  214.3750     2.4750   -13.7620    61.3530    10.5620     9.5740     9.7340    24.6170 
  214.5000     2.4550   -13.7410    61.3530    10.7860     9.7360    10.1600    24.6770 
  214.6250     2.4540   -13.7200    61.3530    11.1510    10.0070    11.5820    24.7320 
  214.7500     2.4720   -13.7000    61.3530    11.6120    10.3730    12.9030    24.7400 
  214.8750     2.4880   -13.6810    61.3530    12.0560    10.7650    13.5330    24.7180 
  215.0000     2.4880   -13.6690    61.3530    12.3640    11.0840    13.7970    24.6840 
  215.1250     2.4710   -13.6630    61.3530    12.4720    11.2560    13.9900    24.6480 
  215.2500     2.4440   -13.6490    61.3530    12.3800    11.2620    13.6730    24.6240 
  215.3750     2.4190   -13.6290    61.3530    12.1500    11.1380    13.1370    24.6480 
  215.5000     2.4080   -13.6080    61.3530    11.9030    10.9820    13.1680    24.6830 
  215.6250     2.4130   -13.5870    61.3530    11.7470    10.8870    13.4920    24.6770 
  215.7500     2.4240   -13.5660    61.3530    11.7380    10.9070    13.1770    24.6120 
  215.8750     2.4280   -13.5450    61.3530    11.8930    11.0660    12.7210    24.5680 
  216.0000     2.4300   -13.5250    61.3530    12.1580    11.3280    12.9380    24.5850 
  216.1250     2.4400   -13.5080    61.3530    12.4390    11.6220    13.3890    24.6540 
  216.2500     2.4560   -13.5010    61.3530    12.6530    11.8790    13.2360    24.7470 
  216.3750     2.4590   -13.4920    61.3530    12.7260    12.0320    12.5440    24.8140 
  216.5000     2.4400   -13.4750    61.3530    12.6400    12.0500    11.8070    24.8270 
  216.6250     2.4050   -13.4540    61.3530    12.4130    11.9350    11.4380    24.8010 
  216.7500     2.3740   -13.4290    61.3530    12.0740    11.7000    11.3630    24.7740 
  216.8750     2.3630   -13.3910    61.3530    11.6690    11.3810    11.2670    24.7700 
  217.0000     2.3690   -13.3390    61.3530    11.2640    11.0390    11.1740    24.7910 
  217.1250     2.3780   -13.2760    61.3530    10.9070    10.7250    11.3970    24.8210 
  217.2500     2.3880   -13.1990    61.3530    10.6210    10.4630    12.0300    24.8260 
  217.3750     2.4010   -13.1170    61.3530    10.4060    10.2580    12.5690    24.7920 
  217.5000     2.4160   -13.0330    61.3530    10.2340    10.0890    11.7920    24.7580 
  217.6250     2.4240   -12.9500    61.3530    10.0820     9.9410    10.1120    24.7660 
  217.7500     2.4230   -12.8720    61.3530     9.9430     9.8170     9.3830    24.8050 
  217.8750     2.4230   -12.8050    61.3530     9.8290     9.7310    11.0330    24.8180 
  218.0000     2.4280   -12.7520    61.3530     9.7470     9.6840    13.9200    24.7960 
  218.1250     2.4310   -12.7080    61.3530     9.7000     9.6630    15.1320    24.7890 
  218.2500     2.4280   -12.6670    61.3530     9.6790     9.6590    14.5170    24.8100 
  218.3750     2.4080   -12.6400    61.3530     9.6800     9.6620    13.4090    24.8050 
  218.5000     2.3700   -12.6330    61.3530     9.7040     9.6710    12.6620    24.7460 
  218.6250     2.3300   -12.6330    61.3530     9.7520     9.6910    12.6070    24.7190 
  218.7500     2.3100   -12.6330    61.3530     9.8180     9.7260    13.1330    24.7320 
  218.8750     2.3140   -12.6330    61.3530     9.8860     9.7730    13.0170    24.7280 
  219.0000     2.3300   -12.6330    61.3530     9.9410     9.8230    11.4520    24.7190 
  219.1250     2.3460   -12.6330    61.3530     9.9780     9.8620    10.0830    24.7150 
  219.2500     2.3560   -12.6330    61.3530     9.9940     9.8850     9.8910    24.6880 
  219.3750     2.3570   -12.6260    61.3530     9.9960     9.8930    10.1800    24.6860 
  219.5000     2.3550   -12.6080    61.3530     9.9920     9.8950     9.8280    24.7210 
  219.6250     2.3630   -12.5870    61.3530     9.9890     9.8950     8.9960    24.7490 
  219.7500     2.3840   -12.5660    61.3530     9.9890     9.8950     8.7350    24.7380 
  219.8750     2.4150   -12.5450    61.3530     9.9890     9.8950     9.6120    24.6800 
  220.0000     2.4420   -12.5250    61.3530     9.9890     9.8950    11.2020    24.6300 
  220.1250     2.4450   -12.5080    61.3530     9.9890     9.8950    12.8030    24.6100 
  220.2500     2.4200   -12.5010    61.3530     9.9890     9.8950    14.3340    24.5900 
  220.3750     2.3780   -12.5000    61.3530     9.9890     9.8950    15.9710    24.5700 
  220.5000     2.3430   -12.5000    61.3530     9.9890     9.8950    18.4440    24.6200 
  220.6250     2.3270   -12.5010    61.3530     9.9890     9.8950    21.0870    24.7410 
  220.7500     2.3270   -12.5040    61.3530     9.9890     9.8950    22.7470    24.8460 
  220.8750     2.3370   -12.5170    61.3530     9.9890     9.8950    22.3590    24.8610 
  221.0000     2.3580   -12.5270    61.3530     9.9890     9.8950    20.2800    24.8100 
  221.1250     2.3990   -12.5530    61.3530     9.9890     9.8950    17.2390    24.7600 
  221.2500     2.4450   -12.6190    61.3530     9.9890     9.8950    14.0650    24.7190 
  221.3750     2.4710   -12.6660    61.3530     9.9890     9.8950    11.9580    24.6940 
  221.5000     2.4680   -12.6720    61.3530     9.9890     9.8950    10.3550    24.7140 
  221.6250     2.4530   -12.6970    61.3530     9.9890     9.8950     9.3250    24.7530 
  221.7500     2.4380   -12.7510    61.3530     9.9890     9.8950     9.1900    24.7440 
  221.8750     2.4250   -12.8080    61.3530     9.9890     9.8950     9.8830    24.6670 
  222.0000     2.4120   -12.8410    61.3530     9.9890     9.8950    11.5950    24.5300 
  222.1250     2.4050   -12.8480    61.3530     9.9890     9.8950    13.6720    24.2720 
  222.2500     2.4080   -12.8520    61.3530     9.9890     9.8950    14.9900    23.7640 
  222.3750     2.4130   -12.8770    61.3530     9.9890     9.8950    14.6680    22.9500 
  222.5000     2.4080   -12.9080    61.3530     9.9890     9.8950    13.5690    22.0830 
  222.6250     2.3870   -12.8840    61.3530     9.9890     9.8950    12.8720    21.5540 
  222.7500     2.3590   -12.7650    61.3530     9.9890     9.8950    12.6650    21.3910 
  222.8750     2.3360   -12.6760    61.3530     9.9890     9.8950    12.6390    21.3710 
  223.0000     2.3230   -12.6790    61.3530     9.9890     9.8950    12.6380    21.3710 
  223.1250     2.3190   -12.7140    61.3530     9.9890     9.8950    12.6390    21.3710 
  223.2500     2.3200   -12.7450    61.3530     9.9890     9.8950    12.6410    21.3710 
  223.3750     2.3200   -12.7660    61.3530     9.9890     9.8950    12.6410    21.3710 
  223.5000     2.3150   -12.8010    61.3530     9.9890     9.8950    12.6400    21.3710 
  223.6250     2.3100   -12.8300    61.3530     9.9890     9.8950    12.6410    21.3710 
