~V
VERS. 2.00: Ver 2.00
~W
STRT.M 50.0000:
STOP.M 200.0000:
STEP.M 0.1250:
NULL. -999.2500:
UWI. F10131:
~C
DEPT.M :
GR.API :
RML.OHMM :
RI. :
RXO.OHMM :
CALI.CM :
SP.MV :
DEN.GM/CC :
~A
# ...
   95.0000    82.3850     7.7760     6.4250     9.0220    24.6400    -8.0880     2.2090 
   95.1250    78.3600     7.9790     6.6110    10.0680    24.6120    -8.8280     2.1840 
   95.2500    74.9950     8.0620     6.7270    10.1240    24.6300    -9.5290     2.1670 
   95.3750    76.4570     8.0150     6.7490     9.9030    24.6380   -10.2060     2.1590 
   95.5000    81.9880     7.8680     6.6810     9.6270    24.6220   -10.8770     2.1600 
   95.6250    82.6400     7.6930     6.5510     9.2060    24.6460   -11.5490     2.1670 
   95.7500    78.1030     7.5780     6.4270     8.8500    24.8130   -12.2020     2.1810 
   95.8750    75.2480     7.6010     6.3670     8.7160    25.0360   -12.7820     2.1990 
   96.0000    77.2780     7.8210     6.4310     9.0340    25.2390   -13.2940     2.2170 
   96.1250    76.9580     8.2970     6.6890     9.5670    25.4820   -13.7740     2.2330 
   96.2500    72.4970     8.9250     7.1010     9.7800    25.8330   -14.2470     2.2450 
   96.3750    69.4250     9.5630     7.5940    10.4150    26.2490   -14.7330     2.2510 
   96.5000    71.8460    10.0290     8.0440    13.2260    26.4170   -15.2410     2.2510 
   96.6250    74.9160    10.1130     8.2790    14.2730    26.0520   -15.7360     2.2410 
   96.7500    75.0180     9.8580     8.2680    12.1030    25.4310   -16.1660     2.2250 
   96.8750    75.0670     9.3940     8.0540    10.3770    24.9380   -16.5230     2.2080 
   97.0000    76.9110     8.8990     7.7440    10.0080    24.7350   -16.7980     2.1940 
   97.1250    78.0890     8.5440     7.4630    10.3390    24.8040   -16.9630     2.1880 
   97.2500    76.8760     8.3410     7.2710    10.5610    24.8960   -17.0140     2.1850 
   97.3750    75.2740     8.2380     7.1650    10.8280    24.9970   -16.9470     2.1820 
   97.5000    76.8680     8.1650     7.1090    10.9030    25.0590   -16.7490     2.1780 
   97.6250    79.7490     8.0710     7.0600    10.4650    25.0550   -16.3540     2.1730 
   97.7500    80.3900     7.9610     6.9940    10.0380    24.9970   -15.7510     2.1710 
   97.8750    78.2420     7.8530     6.9110     9.7690    24.9280   -15.0020     2.1720 
   98.0000    76.1060     7.7610     6.8170     9.1610    24.8770   -14.1730     2.1740 
   98.1250    77.9450     7.6760     6.7180     8.9270    24.8870   -13.2960     2.1770 
   98.2500    83.9140     7.5740     6.6100     8.3180    24.9600   -12.4400     2.1790 
   98.3750    90.5280     7.4300     6.4820     7.7120    25.0660   -11.6480     2.1790 
   98.5000    91.9530     7.2190     6.3140     7.6300    25.0290   -10.9260     2.1800 
   98.6250    90.1770     6.9220     6.0860     7.9880    24.8350   -10.3250     2.1840 
   98.7500    92.0720     6.5880     5.8210     7.4740    24.7050    -9.8670     2.1940 
   98.8750    99.4170     6.2950     5.5700     6.8730    24.6600    -9.5330     2.2130 
   99.0000   106.4350     6.1390     5.4010     6.3580    24.6460    -9.3270     2.2420 
   99.1250   105.9290     6.2500     5.4170     6.2140    24.6380    -9.3590     2.2770 
   99.2500    98.6780     6.6180     5.6330     5.8790    24.5780    -9.6780     2.3090 
   99.3750    88.6530     7.1890     6.0340     6.6040    24.4480   -10.2720     2.3270 
   99.5000    81.8810     7.8410     6.5480     8.3670    24.3390   -11.0790     2.3240 
   99.6250    79.1830     8.3860     7.0420     9.8100    24.3910   -12.0190     2.2930 
   99.7500    75.5200     8.7040     7.3880    10.5000    24.6370   -12.9980     2.2430 
   99.8750    72.2310     8.7670     7.5310    10.5990    25.0720   -13.9640     2.1830 
  100.0000    72.3980     8.6450     7.4900    10.4140    25.5830   -14.8690     2.1270 
  100.1250    74.9620     8.4740     7.3450    10.1850    25.9020   -15.6020     2.0930 
  100.2500    76.9840     8.3950     7.2210    10.0120    25.9770   -16.0900     2.0920 
  100.3750    80.5190     8.4590     7.1820    10.1150    25.7370   -16.3080     2.1250 
  100.5000    88.5420     8.6510     7.2450    10.2700    25.3010   -16.3030     2.1820 
  100.6250    98.1240     8.9010     7.3990    10.1250    24.7850   -16.1600     2.2390 
  100.7500   101.6730     9.1030     7.5720    10.1890    24.4020   -16.0100     2.2770 
  100.8750    94.5730     9.1900     7.7060    10.6820    24.1680   -15.9570     2.2910 
  101.0000    79.5960     9.1400     7.7600    11.0550    24.0850   -16.0710     2.2840 
  101.1250    69.6100     8.9670     7.7100    11.2430    24.2900   -16.3920     2.2610 
  101.2500    67.2740     8.7490     7.5950    10.9500    24.8560   -16.8410     2.2300 
  101.3750    65.8990     8.5400     7.4510    10.4510    25.5900   -17.3850     2.1950 
  101.5000    62.9720     8.3740     7.3100    10.2130    26.2050   -17.9510     2.1600 
  101.6250    63.8690     8.2760     7.2020    10.3080    26.5170   -18.4700     2.1360 
  101.7500    68.3910     8.2320     7.1310    10.3500    26.5580   -18.9310     2.1260 
  101.8750    71.7910     8.2270     7.0970    10.3840    26.4130   -19.2870     2.1280 
  102.0000    71.8990     8.2420     7.0930    10.2990    26.0610   -19.4830     2.1370 
  102.1250    70.9470     8.2600     7.1140    10.4810    25.5740   -19.4940     2.1490 
  102.2500    71.0000     8.2770     7.1480    10.5290    25.2340   -19.3980     2.1690 
  102.3750    71.6090     8.3020     7.1900    10.4580    25.1000   -19.2240     2.2030 
  102.5000    72.5910     8.3430     7.2380    10.2990    25.0750   -19.0010     2.2470 
  102.6250    73.4160     8.4030     7.2870    10.2860    25.0800   -18.7270     2.2790 
  102.7500    73.7460     8.4580     7.3290    10.3580    25.0810   -18.4210     2.2830 
  102.8750    72.0850     8.4870     7.3560    10.5700    25.0520   -18.1210     2.2550 
  103.0000    69.6680     8.4680     7.3550    10.7750    24.9260   -17.8540     2.2120 
  103.1250    71.7300     8.3860     7.3100    11.0210    24.7780   -17.6600     2.1780 
  103.2500    75.0700     8.2580     7.2250    10.7400    24.7040   -17.5330     2.1610 
  103.3750    74.3400     8.1060     7.1050    10.5070    24.7230   -17.4480     2.1540 
  103.5000    70.3540     7.9540     6.9700    10.2520    24.8080   -17.3900     2.1490 
  103.6250    69.0220     7.8360     6.8500     9.9850    24.8260   -17.3650     2.1480 
  103.7500    70.0230     7.7660     6.7660     9.6950    24.7850   -17.3750     2.1590 
  103.8750    71.2270     7.7480     6.7270     9.4570    24.7440   -17.4160     2.1890 
  104.0000    73.7850     7.7700     6.7290     9.3450    24.7630   -17.4940     2.2310 
  104.1250    78.7740     7.8120     6.7590     9.3280    24.8910   -17.5870     2.2670 
  104.2500    82.7730     7.8490     6.7940     9.0640    25.0280   -17.6490     2.2840 
  104.3750    82.8470     7.8760     6.8270     8.8920    25.1060   -17.7350     2.2830 
  104.5000    78.9220     7.9000     6.8610     9.2730    25.0740   -17.8900     2.2690 
  104.6250    73.6620     7.9320     6.9030    10.0630    25.1070   -18.1590     2.2520 
  104.7500    70.0170     7.9740     6.9550    11.0240    25.2470   -18.5190     2.2330 
  104.8750    68.2580     8.0170     7.0120    12.0440    25.4350   -18.9340     2.2140 
  105.0000    68.1070     8.0470     7.0640    11.0580    25.6040   -19.3550     2.1950 
  105.1250    70.4470     8.0450     7.0930    10.1280    25.8440   -19.7630     2.1810 
  105.2500    71.4820     8.0090     7.0950     9.6340    26.1370   -20.1730     2.1740 
  105.3750    69.2220     7.9390     7.0670     9.4540    26.4890   -20.5150     2.1680 
  105.5000    66.8790     7.8420     7.0120     9.9360    26.8270   -20.7350     2.1590 
  105.6250    66.3840     7.7270     6.9370    10.2690    27.1160   -20.7760     2.1460 
  105.7500    64.7870     7.6080     6.8550    10.0050    27.3110   -20.6550     2.1340 
  105.8750    61.8920     7.4940     6.7720     9.4530    27.2060   -20.3880     2.1290 
  106.0000    61.4540     7.3980     6.6980     9.6920    26.7520   -19.9900     2.1320 
  106.1250    63.8120     7.3800     6.6690    10.1230    26.1770   -19.4480     2.1390 
