~V
VERS. 2.00: Ver 2.00
~W
STRT.M 52.0000:
STOP.M 233.0000:
STEP.M 0.1250:
NULL. -999.2500:
UWI. F10175:
~C
DEPT.M :
GR.API :
RML.OHMM :
RI. :
RXO.OHMM :
CALI.CM :
DEN.GM/CC :
SP.MV :
~A
   52.0000    64.0600     4.1790     0.4570     0.4760    25.7720  -999.2500  -999.2500 
   52.1250    62.9120     4.1290     0.4750     0.5870    25.7650  -999.2500  -999.2500 
   52.2500    58.7650     4.1900     0.4920     0.7410    25.7480  -999.2500  -999.2500 
   52.3750    54.1880     4.2310     0.5030     0.7370    25.7100  -999.2500  -999.2500 
   52.5000    51.5640     4.1880     0.5040     0.5890    25.6630  -999.2500  -999.2500 
   52.6250    52.4550     4.0330     0.4940     0.4920    25.6320  -999.2500  -999.2500 
   52.7500    55.0100     3.8070     0.4770     0.4850    25.6000  -999.2500  -999.2500 
   52.8750    55.8780     3.5680     0.4570     0.4880    25.5750  -999.2500  -999.2500 
   53.0000    53.1470     3.3820     0.4370     0.5050    25.5940  -999.2500  -999.2500 
   53.1250    49.3700     3.3150     0.4260     0.5250    25.6440  -999.2500  -999.2500 
   53.2500    48.2460     3.3530     0.4240     0.5350    25.6830  -999.2500  -999.2500 
   53.3750    48.5480     3.4570     0.4310     0.5180    25.6970  -999.2500  -999.2500 
   53.5000    48.4350     3.5670     0.4430     0.4970    25.6980  -999.2500  -999.2500 
   53.6250    48.2590     3.6110     0.4570     0.5100    25.6920  -999.2500  -999.2500 
   53.7500    49.6500     3.5710     0.4660     0.5580    25.6740  -999.2500  -999.2500 
   53.8750    52.4130     3.4710     0.4690     0.6560    25.6500  -999.2500  -999.2500 
   54.0000    54.5500     3.3680     0.4660     0.8350    25.6220  -999.2500  -999.2500 
   54.1250    56.1170     3.3310     0.4620     1.1240    25.5750  -999.2500  -999.2500 
   54.2500    57.2950     3.3720     0.4610     1.2140    25.5260  -999.2500  -999.2500 
   54.3750    56.2700     3.4660     0.4610     0.9470    25.5050  -999.2500  -999.2500 
   54.5000    52.7030     3.5790     0.4650     0.6690    25.4930  -999.2500  -999.2500 
   54.6250    50.7370     3.6860     0.4700     0.5520    25.4430  -999.2500  -999.2500 
   54.7500    52.9370     3.7970     0.4780     0.5210    25.3290  -999.2500  -999.2500 
   54.8750    57.5280     3.9250     0.4900     0.5140    25.1060  -999.2500  -999.2500 
   55.0000    61.3210     4.0690     0.5060     0.5370    24.5990  -999.2500  -999.2500 
   55.1250    61.7190     4.2110     0.5190     0.5920    24.1840  -999.2500  -999.2500 
   55.2500    59.4580     4.3420     0.5240     0.5930    23.9600  -999.2500  -999.2500 
   55.3750    57.6650     4.4910     0.5160     0.6070    23.8880  -999.2500  -999.2500 
   55.5000    59.0680     4.7190     0.4990     0.6740    23.8720  -999.2500  -999.2500 
   55.6250    62.6350     5.1140     0.4830     0.8190    23.8720  -999.2500  -999.2500 
   55.7500    64.3990     5.6230     0.4760     0.9140    23.8740  -999.2500  -999.2500 
   55.8750    62.6600     6.1080     0.4780     0.9270    23.8790  -999.2500  -999.2500 
   56.0000    59.2350     6.3680     0.4840     0.9780    23.9000  -999.2500  -999.2500 
   56.1250    58.3070     6.1940     0.4890     1.1060    23.9470  -999.2500  -999.2500 
   56.2500    58.1940     5.6900     0.4960     1.1690    23.9910  -999.2500  -999.2500 
   56.3750    57.0390     5.0280     0.5070     1.0130    24.0210  -999.2500  -999.2500 
   56.5000    54.8750     4.3940     0.5240     0.7930    24.0520  -999.2500  -999.2500 
   56.6250    52.1400     3.9240     0.5400     0.7390    24.0550  -999.2500  -999.2500 
   56.7500    49.3830     3.6090     0.5510     0.7830    24.0260  -999.2500  -999.2500 
   56.8750    48.2820     3.4230     0.5520     0.8210    23.9820  -999.2500  -999.2500 
   57.0000    51.0260     3.3410     0.5450     0.7900    23.9600  -999.2500  -999.2500 
   57.1250    54.7120     3.3680     0.5370     0.7640    23.9760  -999.2500  -999.2500 
   57.2500    56.1660     3.4990     0.5340     0.7610    24.0200  -999.2500  -999.2500 
   57.3750    56.7630     3.7730     0.5380     0.7700    24.1000  -999.2500  -999.2500 
   57.5000    57.2450     4.2490     0.5550     0.7790    24.2300  -999.2500  -999.2500 
   57.6250    55.8940     5.0270     0.5850     0.7700    24.3260  -999.2500  -999.2500 
   57.7500    52.5190     5.9980     0.6250     0.7510    24.4350  -999.2500  -999.2500 
   57.8750    48.5690     6.9130     0.6650     0.7200    24.5630  -999.2500  -999.2500 
   58.0000    45.3070     7.3980     0.6910     0.7050    24.6450  -999.2500  -999.2500 
   58.1250    45.7780     7.0380     0.6880     0.6960    24.6840  -999.2500  -999.2500 
   58.2500    49.7750     6.0560     0.6570     0.6800    24.7350  -999.2500  -999.2500 
   58.3750    54.3820     4.8290     0.6070     0.6450    24.8280  -999.2500  -999.2500 
   58.5000    55.9400     3.7380     0.5530     0.6120    24.9310  -999.2500  -999.2500 
   58.6250    53.0280     3.0350     0.5130     0.6310    24.9600  -999.2500  -999.2500 
   58.7500    48.6040     2.6450     0.4900     0.7640    24.8490  -999.2500  -999.2500 
   58.8750    46.6780     2.4760     0.4810     1.1120    24.7110  -999.2500  -999.2500 
   59.0000    47.8400     2.4320     0.4810     1.7660    24.7080  -999.2500   177.3060 
   59.1250    47.6560     2.4310     0.4860     1.7640    24.7290  -999.2500   177.3060 
   59.2500    46.3790     2.4030     0.4920     1.1980    24.6930  -999.2500   176.8400 
   59.3750    47.5590     2.3220     0.4950     0.8470    24.6190  -999.2500   175.7870 
   59.5000    50.6170     2.1920     0.4940     0.7090    24.5320  -999.2500   175.3580 
   59.6250    51.8570     2.0410     0.4890     0.6650    24.4530  -999.2500   175.8240 
   59.7500    50.8610     1.9080     0.4830     0.6700    24.3940  -999.2500   176.7270 
   59.8750    49.1530     1.8160     0.4800     0.6950    24.3530  -999.2500   177.9690 
   60.0000    47.8560     1.7720     0.4800     0.7220    24.3350  -999.2500   179.3700 
   60.1250    49.6950     1.7670     0.4820     0.7170    24.3420  -999.2500   180.4700 
   60.2500    51.9920     1.7680     0.4850     0.7010    24.3600  -999.2500   180.7280 
   60.3750    51.0010     1.7560     0.4890     0.6810    24.3740  -999.2500   179.4100 
   60.5000    47.5930     1.7230     0.4940     0.6820    24.3810     2.0190   178.3930 
   60.6250    45.8540     1.6770     0.5000     0.6980    24.4090     2.0190   179.6240 
   60.7500    45.9560     1.6400     0.5070     0.7680    24.4240     2.0180   179.8550 
   60.8750    47.6810     1.6230     0.5160     0.9200    24.4430     2.0160   179.2370 
   61.0000    50.1400     1.6300     0.5280     1.1440    24.4530     2.0140   177.8950 
   61.1250    50.8140     1.6560     0.5440     1.4700    24.4700     2.0130   175.8820 
   61.2500    49.0630     1.6840     0.5650     1.8630    24.5620     2.0130   173.7250 
   61.3750    47.3640     1.7000     0.5840     2.2950    24.7420     2.0140   172.3580 
   61.5000    48.7240     1.6970     0.5990     2.2720    24.8690     2.0140   169.7100 
   61.6250    51.7150     1.6710     0.6080     1.7920    24.9010     2.0110   163.3600 
   61.7500    53.5680     1.6370     0.6150     1.3240    24.8990     2.0100   156.9490 
   61.8750    54.2420     1.6050     0.6240     1.1210    24.9220     2.0130   150.2900 
   62.0000    54.8530     1.5840     0.6350     1.0620    24.9880     2.0220   143.3270 
   62.1250    56.0680     1.5840     0.6450     0.9780    24.9880     2.0360   136.0890 
   62.2500    55.3950     1.5970     0.6540     0.8600    24.9000     2.0480   128.8510 
   62.3750    54.0300     1.6120     0.6640     0.7780    24.7150     2.0590   121.8260 
   62.5000    54.5860     1.6160     0.6720     0.7530    24.5490     2.0700   115.0800 
   62.6250    57.7370     1.5980     0.6790     0.7650    24.4210     2.0950   108.8970 
   62.7500    59.8830     1.5700     0.6800     0.7420    24.3340     2.1400   103.3210 
   62.8750    58.9600     1.5560     0.6750     0.6950    24.2940     2.2030    98.3430 
   63.0000    55.7280     1.5710     0.6610     0.6690    24.2610     2.2750    93.9820 
   63.1250    52.0980     1.5960     0.6330     0.6960    24.3630     2.3390    90.4520 
