~V
VERS. 2.00: Ver 2.00
~W
STRT.M 30.0000:
STOP.M 209.0000:
STEP.M 0.1250:
NULL. -999.2500:
UWI. F10150:
~C
DEPT.M :
SP.MV :
DEN.GM/CC :
GR.API :
RML.OHMM :
RI. :
RXO.OHMM :
CALI.CM :
~A
# ...
  165.0000   -37.6590     2.3020    62.7100    52.8900    55.2510    31.8330    24.9650 
  165.1250   -37.5590     2.3140    65.0320    50.6620    52.0490    29.4850    24.9530 
  165.2500   -37.4660     2.3260    67.4680    52.6060    53.0470    32.1680    24.9520 
  165.3750   -37.3720     2.3330    67.6340    57.9260    57.7020    40.9010    24.9750 
  165.5000   -37.3270     2.3330    65.9830    65.3970    64.9910    54.2920    25.0160 
  165.6250   -37.2380     2.3250    65.4400    73.1020    72.9980    62.1610    25.0520 
  165.7500   -37.2070     2.3130    64.8540    79.2430    79.3920    61.0730    25.0600 
  165.8750   -37.1860     2.3040    63.7860    83.6790    83.3960    53.2190    25.0360 
  166.0000   -37.1730     2.3010    63.2280    88.0900    86.1800    44.0170    25.0120 
  166.1250   -37.1740     2.3000    63.3140    96.1290    91.1490    43.2550    25.0030 
  166.2500   -37.1690     2.2940    63.0390   110.0630   101.1140    56.1920    25.0150 
  166.3750   -37.1910     2.2830    61.6940   131.4500   117.7880    79.1590    25.0470 
  166.5000   -37.1590     2.2670    58.8340   161.0540   141.7530    94.7590    25.0730 
  166.6250   -37.1300     2.2530    54.4820   199.4180   173.1510    99.1100    25.0780 
  166.7500   -37.0390     2.2420    50.4490   241.9240   208.0550   128.4630    25.0850 
  166.8750   -36.9070     2.2330    48.6910   282.8460   242.1410   173.0350    25.1010 
  167.0000   -36.7730     2.2220    50.4450   315.1060   270.0950   194.3070    25.1020 
  167.1250   -36.6030     2.2090    55.4230   329.7300   284.4860   178.4400    25.0970 
  167.2500   -36.4360     2.1970    59.1310   328.2170   285.1750   160.3580    25.1080 
  167.3750   -36.2100     2.1890    59.2190   315.9040   275.4490   142.4650    25.1130 
  167.5000   -35.9840     2.1860    57.0400   300.3450   261.5490   132.9360    25.1200 
  167.6250   -35.7700     2.1880    57.5800   287.0900   249.0630   129.7710    25.0930 
  167.7500   -35.5280     2.1950    59.9350   276.5030   239.0860   113.4120    24.9630 
  167.8750   -35.2860     2.2030    60.8570   267.4860   230.6880    83.2890    24.6840 
  168.0000   -34.9870     2.2110    58.3920   259.4110   223.1280    60.4950    24.3480 
  168.1250   -34.6940     2.2170    55.2910   253.1020   216.8860    49.4560    24.1140 
  168.2500   -34.3760     2.2210    55.7410   249.7090   212.9590    45.6850    24.0060 
  168.3750   -34.0720     2.2210    58.9130   250.5580   212.6760    46.3830    23.9980 
  168.5000   -33.7640     2.2180    60.7770   256.6080   217.1750    52.4220    24.0780 
  168.6250   -33.4700     2.2130    58.6340   268.8260   227.7780    74.7990    24.2910 
  168.7500   -33.2080     2.2110    56.9680   284.9010   242.6770   117.3910    24.5880 
  168.8750   -32.9650     2.2160    57.4690   301.9430   259.6440   169.9450    24.8350 
  169.0000   -32.7680     2.2270    57.8880   314.9940   274.9450   211.5660    24.9840 
  169.1250   -32.5550     2.2410    55.6500   311.7000   279.3980   219.8130    25.0040 
  169.2500   -32.3850     2.2510    52.1130   282.5480   263.6860   225.9410    24.9820 
  169.3750   -32.2250     2.2540    50.4420   227.1450   222.8630   228.1810    24.9570 
  169.5000   -32.1190     2.2550    51.3680   161.0510   165.3270   222.4480    24.9270 
  169.6250   -32.0420     2.2650    52.9370   106.6710   111.2330   181.4950    24.8850 
  169.7500   -31.9380     2.2890    55.4510    69.6800    72.1230   108.0050    24.8280 
  169.8750   -31.8570     2.3240    61.2700    47.3130    48.0110    52.0900    24.8250 
  170.0000   -31.7570     2.3570    68.6230    34.9810    34.8180    28.2540    24.9370 
  170.1250   -31.6760     2.3750    71.6540    29.4770    28.9570    22.3280    25.0250 
  170.2500   -31.5820     2.3760    72.3980    27.1410    26.3570    20.7570    25.0550 
  170.3750   -31.4840     2.3660    74.2850    26.4460    25.5080    21.3160    25.0140 
  170.5000   -31.4070     2.3550    76.2010    26.2290    25.3320    22.8470    24.9610 
  170.6250   -31.2760     2.3510    74.9880    25.5640    24.8990    24.3940    24.9720 
  170.7500   -31.1750     2.3530    73.1940    24.3390    23.9350    23.9260    25.0130 
  170.8750   -31.0780     2.3590    73.4940    22.9580    22.7370    20.8270    25.0370 
  171.0000   -31.0030     2.3650    75.4220    21.9830    21.7990    17.0420    25.0560 
  171.1250   -30.9690     2.3680    78.6350    22.0430    21.6840    16.0920    25.0620 
  171.2500   -30.9350     2.3640    79.8090    23.1980    22.5110    18.4430    25.0310 
  171.3750   -30.9280     2.3520    78.9750    25.4000    24.3140    22.5620    24.9680 
  171.5000   -30.8790     2.3350    77.9920    28.4050    26.9520    24.9060    24.9160 
  171.6250   -30.8760     2.3220    77.3840    31.7020    30.0730    24.3180    24.8830 
  171.7500   -30.8750     2.3190    75.2280    34.3990    32.8770    26.3110    24.8590 
  171.8750   -30.8880     2.3260    71.0420    35.6070    34.5050    31.9400    24.8330 
  172.0000   -30.9140     2.3400    68.5920    34.6670    34.2100    34.3450    24.8040 
  172.1250   -30.9500     2.3550    70.2890    31.3440    31.5420    30.7430    24.8090 
  172.2500   -31.0350     2.3650    73.7780    26.9840    27.6480    25.7410    24.8020 
  172.3750   -31.1250     2.3730    76.0310    22.7530    23.6140    21.0580    24.7610 
  172.5000   -31.2720     2.3800    75.4510    19.5070    20.2990    16.9420    24.7030 
  172.6250   -31.4430     2.3900    75.4010    17.8020    18.2980    14.2080    24.6440 
  172.7500   -31.6340     2.4010    78.1380    17.3230    17.4120    13.2720    24.5640 
  172.8750   -31.8630     2.4080    81.4310    17.8610    17.5040    13.2330    24.4760 
  173.0000   -32.1190     2.4080    81.7260    19.1410    18.3980    13.6720    24.4510 
  173.1250   -32.3660     2.3990    79.0160    20.7070    19.7880    14.6670    24.4550 
  173.2500   -32.5820     2.3870    75.7210    21.8750    20.9900    15.9380    24.4450 
  173.3750   -32.8030     2.3790    74.2820    22.2730    21.5110    17.6550    24.4320 
  173.5000   -33.0140     2.3790    77.0420    22.0560    21.3120    18.6860    24.4660 
  173.6250   -33.2210     2.3900    79.3480    22.1950    21.0380    17.3530    24.5430 
  173.7500   -33.5080     2.4020    77.2720    23.9700    21.7300    15.8320    24.6110 
  173.8750   -33.8030     2.4040    74.4230    28.5860    24.4380    15.9220    24.6610 
  174.0000   -34.1170     2.3890    72.7430    37.0580    30.3210    21.8730    24.7110 
  174.1250   -34.4550     2.3530    69.1540    50.6330    41.1800    49.7680    24.7870 
  174.2500   -34.8300     2.3110    64.2100    67.6050    56.0970    90.5740    24.8560 
  174.3750   -35.2470     2.2770    63.5370    84.7400    72.3280    99.5900    24.8900 
  174.5000   -35.6660     2.2600    67.2640    97.0870    84.9480    81.9940    24.9100 
  174.6250   -36.1250     2.2600    66.4690    99.9230    88.7870    76.0060    24.9320 
  174.7500   -36.4920     2.2650    61.7960    96.7040    86.4280    75.8510    24.9530 
  174.8750   -36.8130     2.2690    59.1510    91.5310    81.5370    72.9000    24.9710 
  175.0000   -37.0800     2.2690    60.9920    87.4010    76.9910    61.6120    24.9730 
  175.1250   -37.3020     2.2680    63.4740    86.8410    75.1100    51.0430    24.9340 
  175.2500   -37.4670     2.2670    63.3520    90.9050    77.0470    46.5370    24.9490 
  175.3750   -37.5900     2.2660    62.9980   100.5010    83.9190    52.4690    25.0510 
  175.5000   -37.6700     2.2620    64.2450   115.6110    96.0830    77.0040    25.1590 
  175.6250   -37.6380     2.2510    63.4440   134.5410   112.4870   115.6430    25.2120 
  175.7500   -37.5780     2.2330    60.5130   151.5330   128.2290   136.6850    25.2370 
  175.8750   -37.4720     2.2100    58.0670   160.8350   138.3820   122.4910    25.2280 
  176.0000   -37.3880     2.1860    58.8260   159.4910   139.8160   103.7200    25.1170 
  176.1250   -37.2820     2.1660    62.2270   149.4270   132.7970   100.7320    24.8450 
