~V
VERS. 2.00: Ver 2.00
~W
STRT.M 62.0000:
STOP.M 275.0000:
STEP.M 0.1250:
NULL. -999.2500:
UWI. F10141:
~C
DEPT.M :
GR.API :
RML.OHMM :
RI. :
RXO.OHMM :
CALI.CM :
DEN.GM/CC :
SP.MV :
~A
# ...
  253.2500    47.8140    60.2910    55.2280    77.6890    24.1530     2.5600    -0.1870 
  253.3750    45.0430    37.4670    33.8860    39.9740    24.1310     2.4880     0.1110 
  253.5000    45.4620    22.5830    20.0830    17.3770    24.0780     2.4310     0.3640 
  253.6250    48.6260    12.8310    13.0450     9.5830    24.0040     2.3950     0.5910 
  253.7500    52.3820     8.8880     9.3110     6.6130    23.9430     2.3710     0.7990 
  253.8750    54.6100     7.0770     7.4700     5.6200    23.9470     2.3530     0.9770 
  254.0000    55.2280     6.5690     6.7600     5.3960    23.9710     2.3380     1.1570 
  254.1250    53.2430     6.8810     6.8440     5.3770    23.9550     2.3310     1.3150 
  254.2500    50.4790     7.4460     7.2780     5.4190    23.9200     2.3320     1.4280 
  254.3750    48.9750     7.9290     7.7670     5.8110    23.8930     2.3400     1.5190 
  254.5000    49.2720     8.0990     8.0580     6.6370    23.8850     2.3520     1.5920 
  254.6250    50.1020     7.8640     7.9870     7.2690    23.9250     2.3630     1.7150 
  254.7500    50.4900     7.4460     7.7010     6.2760    23.9500     2.3720     1.8590 
  254.8750    52.2650     7.0390     7.3600     5.4980    23.9630     2.3760     1.9500 
  255.0000    55.7140     6.7710     7.0840     5.2430    23.9750     2.3770     1.9790 
  255.1250    59.5640     6.6990     6.9380     5.2340    23.9910     2.3720     1.9540 
  255.2500    62.0720     6.7440     6.8730     5.1990    23.9840     2.3660     1.8870 
  255.3750    61.7570     6.8450     6.8450     5.1780    23.9780     2.3600     1.7780 
  255.5000    59.8160     6.9560     6.8210     5.1780    23.9860     2.3570     1.6490 
  255.6250    58.2030     7.0510     6.7890     5.1980    23.9610     2.3580     1.4990 
  255.7500    58.0640     7.1280     6.7540     5.1770    23.9250     2.3580     1.3680 
  255.8750    58.4200     7.1880     6.7170     5.1750    23.8810     2.3560     1.2780 
  256.0000    58.3420     7.2350     6.6770     5.2260    23.8360     2.3510     1.1850 
  256.1250    58.4150     7.2730     6.6330     5.2630    23.8060     2.3470     1.0470 
  256.2500    57.2880     7.3010     6.5870     5.2490    23.7850     2.3450     0.9360 
  256.3750    55.2550     7.3210     6.5380     5.2830    23.7890     2.3480     0.8730 
  256.5000    53.0790     7.3320     6.4890     5.3650    23.7930     2.3530     0.8340 
  256.6250    53.6450     7.3350     6.4420     5.3480    23.8140     2.3590     0.7870 
  256.7500    57.0590     7.3390     6.4020     5.3340    23.8200     2.3630     0.7330 
  256.8750    59.3170     7.3560     6.3780     5.3030    23.8080     2.3650     0.7050 
  257.0000    58.8550     7.4000     6.3810     5.2380    23.7580     2.3660     0.7290 
  257.1250    57.7920     7.4970     6.4300     5.2150    23.6880     2.3650     0.8270 
  257.2500    57.7750     7.6480     6.5240     5.2580    23.6460     2.3620     0.9190 
  257.3750    57.2660     7.8460     6.6540     5.3940    23.6610     2.3590     0.9780 
  257.5000    54.9390     8.0630     6.8020     5.4840    23.6860     2.3540     1.0170 
  257.6250    52.9520     8.2470     6.9320     5.4140    23.6970     2.3480     1.0540 
  257.7500    52.8940     8.3610     7.0200     5.4210    23.6970     2.3410     1.0910 
  257.8750    54.7510     8.3910     7.0560     5.5860    23.6970     2.3360     1.1010 
  258.0000    57.2270     8.3460     7.0380     5.7250    23.6970     2.3390     1.0730 
  258.1250    58.9330     8.2560     6.9770     5.7300    23.7070     2.3550     1.0030 
  258.2500    60.0900     8.1650     6.9030     5.6350    23.7310     2.3780     0.9470 
  258.3750    60.0580     8.0970     6.8360     5.5660    23.7550     2.4000     0.9380 
  258.5000    58.1830     8.0660     6.7910     5.6290    23.7650     2.4110     0.9680 
  258.6250    55.5150     8.0820     6.7800     5.7610    23.7670     2.4060     0.9430 
  258.7500    53.5260     8.1250     6.7920     5.8810    23.7770     2.3930     0.8380 
  258.8750    52.7370     8.1780     6.8190     6.0020    23.7950     2.3790     0.7270 
  259.0000    53.0620     8.2250     6.8510     6.0980    23.7910     2.3680     0.6940 
  259.1250    55.6330     8.2650     6.8880     6.0320    23.7510     2.3620     0.7260 
  259.2500    58.4920     8.3140     6.9350     5.9290    23.7100     2.3630     0.7220 
  259.3750    60.0920     8.3860     6.9970     5.9000    23.6820     2.3750     0.6500 
  259.5000    60.0910     8.4830     7.0750     5.9810    23.6450     2.3960     0.5190 
  259.6250    60.5340     8.5940     7.1640     6.0280    23.5990     2.4210     0.4660 
  259.7500    61.6120     8.7060     7.2580     6.1150    23.5310     2.4370     0.4900 
  259.8750    61.6700     8.8130     7.3540     6.4350    23.4510     2.4390     0.5050 
  260.0000    61.3700     8.9200     7.4520     6.8830    23.3950     2.4280     0.4690 
  260.1250    62.1390     9.0300     7.5560     7.1020    23.3460     2.4160     0.3890 
  260.2500    61.7290     9.1410     7.6610     6.9600    23.2870     2.4130     0.3080 
  260.3750    61.3250     9.2420     7.7610     7.2660    23.2700     2.4240     0.2540 
  260.5000    63.8780     9.3190     7.8470     7.9270    23.2630     2.4420     0.2310 
  260.6250    67.1430     9.3550     7.9070     8.4920    23.2050     2.4590     0.1920 
  260.7500    66.1600     9.3720     7.9490     7.7590    23.0490     2.4640     0.1360 
  260.8750    63.5600     9.4030     7.9880     7.6510    22.7750     2.4580     0.0480 
  261.0000    63.5340     9.4790     8.0430     7.8880    22.3480     2.4430    -0.0990 
  261.1250    64.4530     9.6080     8.1260     7.9260    21.7150     2.4270    -0.1750 
  261.2500    64.2970     9.7540     8.2210     7.8430    20.8730     2.4220    -0.1690 
  261.3750    64.7490     9.8820     8.3120     7.5380    19.8860     2.4330    -0.2010 
  261.5000    65.7060     9.9790     8.3840     7.1360    18.9550     2.4560    -0.2750 
  261.6250    64.7110    10.0410     8.4320     7.1280    18.2210     2.4850    -0.3360 
  261.7500    63.7940    10.0750     8.4600     7.7800    17.8090     2.5080    -0.4080 
  261.8750    64.8620    10.0920     8.4780     8.2360    17.5540     2.5220    -0.4590 
  262.0000    67.1380    10.1190     8.5120     8.4720    17.3710     2.5280    -0.4150 
  262.1250    67.6480    10.2230     8.6160     8.6760    17.3040     2.5310    -0.4400 
  262.2500    67.4670    10.4360     8.8090     8.9640    17.3620     2.5320    -0.5550 
  262.3750    68.4760    10.7630     9.0920     9.6130    17.5230     2.5340    -0.5870 
  262.5000    68.8970    11.1740     9.4460    10.1480    17.7540     2.5340    -0.4990 
  262.6250    67.1550    11.6060     9.8310    10.0090    18.0480     2.5290    -0.4780 
  262.7500    66.1030    11.9810    10.1890     9.5350    18.3140     2.5150    -0.4890 
  262.8750    66.5830    12.2470    10.4800     9.5050    18.5860     2.4890    -0.4310 
  263.0000    66.7630    12.3740    10.6690     9.9370    18.9250     2.4600    -0.3520 
  263.1250    64.1930    12.3290    10.7210     9.7090    19.3000     2.4510    -0.2030 
  263.2500    62.0920    12.1700    10.6760     9.7340    19.6250     2.4720     0.0310 
  263.3750    61.5270    11.9610    10.5900    10.1780    19.9550     2.5160     0.2590 
  263.5000    61.8400    11.7900    10.5350    11.4410    20.3440     2.5620     0.4410 
  263.6250    61.8750    11.7920    10.6150    12.0890    20.7320     2.5800     0.6760 
  263.7500    62.0610    12.0190    10.8740    12.3160    21.0730     2.5670     0.9290 
  263.8750    62.7630    12.4580    11.3160    11.9160    21.4050     2.5370     1.1190 
  264.0000    62.8600    12.9940    11.8640    12.6510    21.7760     2.5110     1.2350 
  264.1250    63.1320    13.3740    12.3270    14.6200    22.1630     2.5020     1.3310 
  264.2500    64.5310    13.4010    12.5150    16.8580    22.6120     2.5040     1.4310 
  264.3750    65.8160    12.9940    12.3270    16.8430    22.9570     2.5080     1.5260 
