~V
VERS. 2.00: Ver 2.00
~W
STRT.M 59.0000:
STOP.M 212.0000:
STEP.M 0.1250:
NULL. -999.2500:
UWI. F10143:
~C
DEPT.M :
GR.API :
RML.OHMM :
RI. :
RXO.OHMM :
CALI.CM :
SP.MV :
DEN.GM/CC :
~A
   59.0000    48.7750     3.0340     0.6810     0.5020    25.7010   102.0690     2.0990 
   59.1250    46.9980     1.3440     0.5610     0.7510    25.6870    98.3460     2.1790 
   59.2500    47.1760     0.7420     0.4880     0.8180    25.6290    93.7710     2.2950 
   59.3750    50.2850     0.5680     0.4570     0.8190    25.5240    88.0800     2.4230 
   59.5000    56.0710     0.5470     0.4630     1.0340    25.4030    81.0360     2.5050 
   59.6250    63.3810     0.5990     0.5230     2.5820    25.3300    72.2990     2.4880 
   59.7500    70.7760     0.7210     0.6790     4.9640    25.2390    62.3810     2.4180 
   59.8750    77.7560     0.9850     1.0080     6.6470    25.1130    51.8360     2.3440 
   60.0000    83.7420     1.5430     1.6120     6.8250    25.0160    41.1320     2.2900 
   60.1250    88.4450     2.6520     2.5690     6.2720    25.0120    30.7110     2.2620 
   60.2500    91.3590     3.8850     3.6230     5.9730    25.0670    20.9840     2.2510 
   60.3750    93.9260     4.5730     4.4790     5.7520    25.1180    12.3410     2.2520 
   60.5000    96.4760     4.7150     5.0170     5.7440    25.1380     5.0720     2.2580 
   60.6250    97.6250     4.7260     5.3020     5.5300    25.1940    -0.2500     2.2540 
   60.7500    98.3660     4.8130     5.5120     5.1240    25.3200    -4.0860     2.2360 
   60.8750    97.7940     5.0080     5.7320     4.9480    25.4080    -6.9060     2.2080 
   61.0000    95.6360     5.3260     6.0320     5.0780    25.4020    -9.0940     2.1770 
   61.1250    93.6380     5.7970     6.4670     5.4750    25.2110   -10.9040     2.1570 
   61.2500    91.7870     6.3790     6.9910     6.0960    24.8760   -12.6100     2.1650 
   61.3750    89.8370     7.0080     7.5180     6.7330    24.5490   -14.2430     2.1980 
   61.5000    88.8020     7.5550     7.9300     7.1990    24.3700   -15.7960     2.2330 
   61.6250    88.9930     7.8310     8.0900     7.3650    24.3260   -17.2990     2.2320 
   61.7500    86.9120     7.8000     8.0010     7.6210    24.3230   -18.7590     2.2110 
   61.8750    81.5200     7.4760     7.6930     8.2450    24.3330   -20.1640     2.1950 
   62.0000    75.4750     7.0020     7.2740     8.5150    24.3630   -21.4660     2.1920 
   62.1250    72.9030     6.7080     7.0040     8.1950    24.4450   -22.6260     2.2040 
   62.2500    73.8040     6.8700     7.1420     7.7530    24.5590   -23.6450     2.2300 
   62.3750    74.3790     7.6900     7.9070     7.8820    24.7360   -24.5410     2.2750 
   62.5000    71.4550     9.3730     9.4700    10.2530    24.9150   -25.3970     2.3410 
   62.6250    66.5930    12.2250    11.9570    18.9750    24.9870   -26.2860     2.4160 
   62.7500    64.9700    15.4470    14.6130    34.0690    24.9850   -27.1970     2.4630 
   62.8750    65.2540    17.2220    16.1850    35.6490    24.9660   -28.1450     2.4580 
   63.0000    63.5870    16.2140    15.6830    23.1540    24.9210   -29.1810     2.4110 
   63.1250    59.9700    13.4800    13.4300    13.9250    24.8210   -30.2950     2.3380 
   63.2500    58.3710    11.0720    11.0390     9.8820    24.7440   -31.4150     2.2550 
   63.3750    60.2670     9.5030     9.2040     8.7070    24.7470   -32.5390     2.1780 
   63.5000    62.6220     8.7430     8.0870     8.5490    24.7980   -33.5750     2.1270 
   63.6250    61.6270     8.6970     7.6790     8.4590    24.8240   -34.4770     2.1060 
   63.7500    59.3770     9.0110     7.6930     8.6900    24.8350   -35.3000     2.0980 
   63.8750    58.9920     9.4430     7.9520     9.2000    24.8610   -36.0260     2.0910 
   64.0000    60.2860     9.7720     8.2760     9.7530    24.9180   -36.6210     2.0840 
   64.1250    62.8010     9.8020     8.4740     9.5730    24.9840   -37.1050     2.0830 
   64.2500    65.6860     9.5910     8.4870     9.2470    24.9870   -37.5640     2.0880 
   64.3750    67.3520     9.2710     8.3440     9.1270    24.9170   -38.0050     2.0950 
   64.5000    66.8010     8.9750     8.1250     9.1520    24.7750   -38.4460     2.0970 
   64.6250    65.9950     8.7950     7.9280     9.0690    24.6710   -38.8560     2.0940 
   64.7500    65.9300     8.7220     7.8040     9.0610    24.6610   -39.2150     2.0900 
   64.8750    65.5840     8.7330     7.7540     9.1110    24.7190   -39.5420     2.0840 
   65.0000    64.4980     8.7990     7.7480     9.0810    24.8040   -39.8680     2.0780 
   65.1250    64.1860     8.8950     7.7460     8.9360    24.9500   -40.1690     2.0780 
   65.2500    64.9420     8.9890     7.7280     8.6950    25.1240   -40.4420     2.0860 
   65.3750    65.9030     9.0750     7.6960     8.4750    25.2740   -40.6870     2.0970 
   65.5000    65.7580     9.1710     7.6620     8.4890    25.3270   -40.9240     2.1060 
   65.6250    62.7800     9.2990     7.6430     8.6620    25.2370   -41.1590     2.1090 
   65.7500    59.5670     9.4450     7.6390     9.0640    25.1370   -41.3790     2.1050 
   65.8750    58.6150     9.5840     7.6440     9.4860    25.1950   -41.5660     2.0930 
   66.0000    58.6380     9.7010     7.6540     9.6520    25.3730   -41.7050     2.0740 
   66.1250    57.9050     9.8110     7.6840     9.4890    25.5590   -41.7560     2.0550 
   66.2500    55.8280     9.9540     7.7440     9.4580    25.6040   -41.6930     2.0420 
   66.3750    53.5950    10.1500     7.8260     9.7680    25.5490   -41.5020     2.0320 
   66.5000    53.2260    10.3520     7.8930    10.1870    25.4330   -41.1740     2.0200 
   66.6250    57.9320    10.4090     7.8630    10.4610    25.2970   -40.7070     2.0060 
   66.7500    64.9820    10.2330     7.6830    10.2850    25.2470   -40.1520     2.0040 
   66.8750    68.9100     9.8420     7.3570     9.3990    25.3070   -39.5460     2.0210 
   67.0000    68.8250     9.3620     6.9540     8.2470    25.3740   -38.9280     2.0550 
   67.1250    70.5270     9.0060     6.6010     7.4090    25.3060   -38.3540     2.0970 
   67.2500    74.8060     8.8910     6.3800     7.3620    25.1000   -37.8780     2.1350 
   67.3750    76.9220     9.0320     6.3240     8.1620    24.8710   -37.5490     2.1580 
   67.5000    73.3030     9.3710     6.4200     9.6720    24.7460   -37.3720     2.1610 
   67.6250    66.6000     9.8080     6.6300    11.0640    24.7120   -37.3350     2.1500 
   67.7500    63.3370    10.2270     6.8720    11.6680    24.7230   -37.3900     2.1370 
   67.8750    65.3450    10.5820     7.1010    11.3270    24.7840   -37.5090     2.1270 
   68.0000    69.4130    10.8690     7.2940    11.8350    24.8930   -37.6520     2.1220 
   68.1250    69.5940    11.0970     7.4360    12.3770    24.9700   -37.7530     2.1200 
   68.2500    65.3960    11.2770     7.5300    11.1870    24.9810   -37.7560     2.1150 
   68.3750    60.7270    11.3850     7.5640    10.3590    24.9700   -37.6170     2.1050 
   68.5000    58.7740    11.3740     7.5160    10.2150    24.9510   -37.3350     2.0980 
   68.6250    59.4210    11.1650     7.3540     9.9850    24.9420   -36.9220     2.1010 
   68.7500    60.8060    10.7880     7.1040     9.4600    25.0400   -36.4130     2.1060 
   68.8750    60.3240    10.2950     6.7980     8.8790    25.3500   -35.8230     2.1000 
   69.0000    57.7340     9.7560     6.4750     8.6480    25.8640   -35.1560     2.0830 
   69.1250    56.9840     9.2840     6.2060     8.4520    26.3530   -34.4530     2.0730 
   69.2500    59.2460     9.0390     6.0740     8.3860    26.6170   -33.7370     2.0830 
   69.3750    60.6220     9.2130     6.1760     8.3680    26.7800   -33.0120     2.1030 
   69.5000    58.0270     9.9910     6.5980     8.4910    26.8600   -32.2810     2.1180 
   69.6250    55.8000    11.5330     7.4420     9.3800    26.7100   -31.5110     2.1500 
   69.7500    57.2950    13.4560     8.5380    12.0770    26.2360   -30.6950     2.2240 
   69.8750    61.4530    15.1080     9.5710    16.9550    25.6320   -29.8460     2.3300 
   70.0000    66.1680    15.6600    10.0780    16.6110    25.2740   -29.0040     2.4160 
   70.1250    70.9340    14.5030     9.6400    13.9520    25.2080   -28.2240     2.4140 
