~V
VERS. 2.00: Ver 2.00
~W
STRT.M 53.0000:
STOP.M 219.0000:
STEP.M 0.1250:
NULL. -999.2500:
UWI. F10171:
~C
DEPT.M :
SP.MV :
DEN.GM/CC :
GR.API :
RML.OHMM :
RI. :
RXO.OHMM :
CALI.CM :
~A
# ...
  120.5000   -25.6070     2.4650    60.2850    15.6530    15.2150    13.0490    24.8720 
  120.6250   -25.2680     2.4580    60.7180    16.6580    15.5550    16.3690    24.8720 
  120.7500   -24.9450     2.4680    58.7710    19.8720    17.6680    22.6060    24.8810 
  120.8750   -24.6610     2.4920    52.9040    25.6610    22.1260    33.1480    24.8640 
  121.0000   -24.4510     2.5200    45.6600    33.0100    28.3100    44.0870    24.8550 
  121.1250   -24.2630     2.5400    41.0480    40.3270    34.9870    48.1500    24.8600 
  121.2500   -24.0780     2.5470    41.4510    45.5860    40.3320    47.1380    24.8800 
  121.3750   -23.9930     2.5450    45.5590    47.5520    42.9700    42.7680    24.9100 
  121.5000   -24.0110     2.5490    48.2820    48.0550    44.1190    42.8650    24.9230 
  121.6250   -24.0430     2.5600    47.5860    48.6540    45.0250    45.0340    24.9260 
  121.7500   -24.0840     2.5680    45.2420    50.1320    46.4370    47.2820    24.9260 
  121.8750   -24.2480     2.5620    43.4800    52.2920    48.3310    51.4060    24.9260 
  122.0000   -24.4480     2.5450    41.8500    53.8470    49.7720    58.5450    24.9260 
  122.1250   -24.6380     2.5280    40.8230    53.5060    49.7340    63.7650    24.9260 
  122.2500   -24.8470     2.5200    40.9020    50.6350    47.6310    56.6540    24.9250 
  122.3750   -25.0670     2.5230    42.0240    45.8500    43.7790    43.9230    24.9160 
  122.5000   -25.2780     2.5290    43.0100    41.0910    39.7240    36.5080    24.9030 
  122.6250   -25.4740     2.5290    43.8790    37.3520    36.3560    30.3690    24.9080 
  122.7500   -25.6410     2.5190    45.3430    34.8680    33.9920    26.5330    24.9110 
  122.8750   -25.7550     2.5030    46.4940    33.4040    32.5570    27.8540    24.8680 
  123.0000   -25.8210     2.4870    47.4520    32.2540    31.4940    31.0740    24.7760 
  123.1250   -25.8360     2.4750    48.7870    31.1180    30.5360    30.5520    24.7080 
  123.2500   -25.7930     2.4620    50.5130    29.9710    29.6200    26.5430    24.7120 
  123.3750   -25.6610     2.4440    51.6490    28.9810    28.8290    23.6220    24.7250 
  123.5000   -25.4700     2.4190    51.4580    28.2320    28.1990    24.1870    24.6800 
  123.6250   -25.2330     2.3970    50.3030    27.6910    27.7080    29.5360    24.5660 
  123.7500   -24.9510     2.3880    48.5830    27.2380    27.2820    32.5330    24.4240 
  123.8750   -24.6280     2.3930    47.0870    26.7590    26.8480    27.6420    24.4800 
  124.0000   -24.2830     2.3970    45.8490    26.2680    26.4060    23.5560    24.6540 
  124.1250   -23.9100     2.4080    44.8930    25.8500    26.0050    22.8300    24.7790 
  124.2500   -23.5660     2.4380    44.6910    25.5690    25.6910    24.9650    24.8050 
  124.3750   -23.2890     2.4800    44.8810    25.4410    25.4970    25.0740    24.8150 
  124.5000   -23.0010     2.5090    44.9210    25.3870    25.3820    24.9600    24.8370 
  124.6250   -22.7490     2.5200    44.9440    25.3940    25.3300    23.8420    24.8490 
  124.7500   -22.6130     2.5240    44.9420    25.5320    25.3790    23.0710    24.8440 
  124.8750   -22.5040     2.5300    43.7540    25.9500    25.6430    23.8910    24.8230 
  125.0000   -22.4240     2.5360    42.9580    26.5780    26.0920    27.5220    24.7940 
  125.1250   -22.4870     2.5390    43.2660    27.2310    26.6000    31.0660    24.7670 
  125.2500   -22.6070     2.5380    42.8520    27.6550    26.9690    28.1970    24.7140 
  125.3750   -22.6990     2.5430    40.8940    27.5710    26.9430    25.9870    24.6130 
  125.5000   -22.8580     2.5570    41.2090    27.0500    26.5280    25.5870    24.5380 
  125.6250   -23.0850     2.5720    43.7520    26.2580    25.8310    25.2770    24.5270 
  125.7500   -23.2600     2.5750    45.6400    25.4010    25.0230    24.4260    24.5900 
  125.8750   -23.3960     2.5560    45.8570    24.6520    24.2770    23.9150    24.6950 
  126.0000   -23.5440     2.5260    45.9800    24.0560    23.6670    23.3090    24.7900 
  126.1250   -23.6330     2.4950    45.8800    23.6060    23.2070    22.9630    24.8380 
  126.2500   -23.6570     2.4790    45.7020    23.2610    22.8670    22.1900    24.8510 
  126.3750   -23.6530     2.4900    46.5820    22.9810    22.6030    21.2900    24.8510 
  126.5000   -23.6140     2.5150    48.7300    22.7470    22.3840    20.6710    24.8480 
  126.6250   -23.5350     2.5370    50.3220    22.5740    22.2270    20.4780    24.8360 
  126.7500   -23.4190     2.5520    50.9300    22.4380    22.1210    20.2740    24.8080 
  126.8750   -23.2560     2.5620    49.7510    22.2380    21.9860    20.6670    24.7860 
  127.0000   -23.0650     2.5670    48.1480    21.8830    21.7220    20.9720    24.7770 
  127.1250   -22.8150     2.5630    47.7050    21.3280    21.2690    21.3610    24.7760 
  127.2500   -22.5460     2.5500    49.8810    20.6050    20.6360    19.9340    24.7760 
  127.3750   -22.3200     2.5380    52.8200    19.8680    19.9300    17.4940    24.7740 
  127.5000   -22.0890     2.5350    52.6750    19.3280    19.3500    17.0630    24.7750 
  127.6250   -21.8020     2.5390    49.8460    19.1050    19.0260    18.8150    24.7920 
  127.7500   -21.5510     2.5480    49.3240    19.1870    18.9840    20.2510    24.8280 
  127.8750   -21.4130     2.5550    51.9240    19.4100    19.1310    20.3450    24.8460 
  128.0000   -21.2710     2.5540    52.7080    19.5000    19.2240    20.6890    24.8510 
  128.1250   -21.1880     2.5480    50.6650    19.3140    19.1110    20.7270    24.8510 
  128.2500   -21.2160     2.5360    48.7040    18.8920    18.7870    19.6090    24.8510 
  128.3750   -21.2980     2.5130    48.1400    18.4520    18.4130    17.2760    24.8400 
  128.5000   -21.3930     2.4830    48.0150    18.2070    18.1860    16.8340    24.8130 
  128.6250   -21.5790     2.4580    47.8750    18.2060    18.1740    17.8170    24.7870 
  128.7500   -21.8570     2.4470    47.0010    18.3670    18.3420    19.2310    24.7760 
  128.8750   -22.1330     2.4500    45.3410    18.5070    18.5570    19.6040    24.7760 
  129.0000   -22.4330     2.4580    43.4070    18.5000    18.6710    19.0370    24.7760 
  129.1250   -22.7800     2.4640    42.3140    18.3770    18.6580    18.6000    24.7760 
  129.2500   -23.1320     2.4690    41.5740    18.2940    18.6170    18.2400    24.7760 
  129.3750   -23.4480     2.4800    41.2040    18.4340    18.7090    18.1140    24.7760 
  129.5000   -23.7460     2.4970    42.0380    18.7210    18.9180    17.9190    24.7770 
  129.6250   -24.0430     2.5120    42.6610    18.9200    19.0680    18.4340    24.7770 
  129.7500   -24.3220     2.5130    42.6800    18.7210    18.8800    18.8590    24.7610 
  129.8750   -24.5800     2.4980    43.8290    17.8370    18.0610    17.8890    24.7290 
  130.0000   -24.8080     2.4750    47.7340    16.5160    16.8110    15.6980    24.7120 
  130.1250   -24.9570     2.4520    53.9510    15.1240    15.4550    12.9930    24.7480 
  130.2500   -25.0670     2.4470    59.5150    14.0380    14.3280    11.4720    24.7940 
  130.3750   -25.1780     2.4670    63.3710    13.6060    13.7490    11.2230    24.8330 
  130.5000   -25.2590     2.4910    67.1240    13.8040    13.7320    12.4320    24.8480 
  130.6250   -25.2850     2.4960    70.9990    14.5840    14.2780    14.2270    24.8520 
  130.7500   -25.2620     2.4830    73.7160    15.8410    15.3340    16.2860    24.8610 
  130.8750   -25.1910     2.4650    73.3470    17.4440    16.8260    18.0490    24.8810 
  131.0000   -25.1310     2.4480    72.2840    19.1060    18.4730    19.1200    24.8980 
  131.1250   -25.1360     2.4360    72.4540    20.5780    20.0330    20.4020    24.8550 
  131.2500   -25.1160     2.4360    72.9950    21.5950    21.2360    23.0740    24.7230 
  131.3750   -25.0880     2.4530    72.3000    21.8450    21.7350    24.3140    24.5580 
  131.5000   -25.1530     2.4690    72.4810    21.5050    21.6160    22.9450    24.4520 
  131.6250   -25.2210     2.4720    74.9020    20.8820    21.1140    20.2440    24.3710 
