~V
VERS. 2.00: Ver 2.00
~W
STRT.M 56.0000:
STOP.M 214.0000:
STEP.M 0.1250:
NULL. -999.2500:
UWI. F10128:
~C
DEPT.M :
SP.MV :
GR.API :
RML.OHMM :
RI. :
RXO.OHMM :
CALI.CM :
DEN.GM/CC :
~A
# ...
   67.2500   -22.7200    64.3860     8.0200     7.4500     9.1150    23.9670     2.1220 
   67.3750   -22.3790    65.5920     8.3010     7.5950     8.8520    23.9120     2.1420 
   67.5000   -22.0580    68.3880     8.5340     7.6640     8.8330    23.6640     2.1650 
   67.6250   -21.7970    72.6180     8.6760     7.6390     8.8390    23.4730     2.1820 
   67.7500   -21.6090    75.0040     8.7400     7.5390     8.4200    23.4670     2.1850 
   67.8750   -21.5310    76.0810     8.7680     7.4100     8.1400    23.5130     2.1780 
   68.0000   -21.5360    77.7390     8.7900     7.2940     8.4450    23.5130     2.1730 
   68.1250   -21.5910    76.8910     8.7800     7.1960     9.0760    23.5000     2.1740 
   68.2500   -21.6620    71.9640     8.6900     7.0950     9.4420    23.4890     2.1780 
   68.3750   -21.7440    68.0770     8.4930     6.9550     9.2080    23.4960     2.1750 
   68.5000   -21.8090    69.5640     8.2850     6.7990     8.7360    23.4710     2.1670 
   68.6250   -21.8240    73.7070     8.2210     6.7230     8.4810    23.4320     2.1570 
   68.7500   -21.7690    77.6870     8.4830     6.8800     8.5690    23.4530     2.1550 
   68.8750   -21.6490    80.6840     9.3400     7.5080     9.1160    23.5990     2.1740 
   69.0000   -21.4760    80.5070    10.7900     8.6370    10.2320    23.8120     2.2180 
   69.1250   -21.3130    77.3480    12.6740    10.2090    13.4640    24.0770     2.2830 
   69.2500   -21.1970    73.5560    14.4830    11.8970    21.9920    24.3360     2.3570 
   69.3750   -21.1530    70.5490    15.2400    12.8640    24.9100    24.4970     2.4220 
   69.5000   -21.1670    68.3120    14.6520    12.6310    16.2920    24.4600     2.4680 
   69.6250   -21.2850    68.1910    13.0340    11.3700    10.1780    24.2320     2.4860 
   69.7500   -21.5160    70.3550    11.0870     9.7010     8.0370    24.0190     2.4740 
   69.8750   -21.8700    72.5120     9.5190     8.2540     7.9240    24.0030     2.4270 
   70.0000   -22.2910    72.9140     8.5020     7.2420     7.9750    24.0640     2.3630 
   70.1250   -22.7320    71.1950     7.9810     6.6510     7.9460    24.0560     2.2980 
   70.2500   -23.1590    68.3410     7.8290     6.3850     7.8810    23.9680     2.2480 
   70.3750   -23.5370    67.1080     7.9270     6.3550     8.1030    23.8810     2.2230 
   70.5000   -23.8880    67.7720     8.1090     6.4250     8.6140    23.8680     2.2100 
   70.6250   -24.2040    68.4640     8.2840     6.5280     8.9870    23.9640     2.1960 
   70.7500   -24.4900    68.3440     8.3990     6.6160     9.0330    24.0970     2.1760 
   70.8750   -24.6910    70.5750     8.4320     6.6650     9.0420    24.1770     2.1520 
   71.0000   -24.8520    72.9530     8.4400     6.7010     8.8630    24.1600     2.1300 
   71.1250   -24.9790    71.8640     8.4890     6.7640     8.5820    24.0730     2.1180 
   71.2500   -25.0820    68.7820     8.6300     6.8850     8.3640    23.9610     2.1180 
   71.3750   -25.1220    67.2230     8.8770     7.0770     8.2900    23.9120     2.1360 
   71.5000   -25.0790    67.8130     9.1360     7.2880     8.7760    23.8850     2.1640 
   71.6250   -24.9060    68.1410     9.3020     7.4550     9.7540    23.8500     2.1960 
   71.7500   -24.5760    67.7740     9.2950     7.5240    10.3610    23.8280     2.2190 
   71.8750   -24.0320    67.5510     9.0720     7.4500     9.3900    23.8920     2.2260 
   72.0000   -23.2760    68.8140     8.7170     7.2650     8.8050    23.9860     2.2160 
   72.1250   -22.2890    71.5060     8.2880     6.9960     8.4390    24.0030     2.1980 
   72.2500   -21.0640    74.3810     7.8280     6.6700     8.2450    23.8990     2.1810 
   72.3750   -19.6200    79.2340     7.3620     6.3110     7.9370    23.8240     2.1790 
   72.5000   -18.0900    87.5490     6.9200     5.9510     7.1470    23.9510     2.1940 
   72.6250   -16.5750    96.4890     6.5370     5.6230     5.9510    24.2300     2.2200 
   72.7500   -15.1430   101.5520     6.2490     5.3630     5.3660    24.4340     2.2490 
   72.8750   -13.9050   102.0410     6.0970     5.2170     5.2450    24.4720     2.2710 
   73.0000   -12.8770   100.2510     6.0520     5.1650     5.3670    24.3840     2.2840 
   73.1250   -12.0740    97.3470     6.0830     5.1820     5.5450    24.2410     2.2920 
   73.2500   -11.5100    93.6380     6.1470     5.2330     5.6140    24.1320     2.3030 
   73.3750   -11.1730    92.3370     6.2050     5.2870     5.7870    24.1140     2.3200 
   73.5000   -10.9850    94.6600     6.2490     5.3370     5.8570    24.2050     2.3370 
   73.6250   -10.9010    97.6280     6.2970     5.3970     6.0420    24.3460     2.3460 
   73.7500   -10.9250    97.8910     6.3720     5.4800     5.8770    24.4230     2.3400 
   73.8750   -11.0400    94.7110     6.4860     5.5900     5.8600    24.4150     2.3180 
   74.0000   -11.2310    89.9860     6.6110     5.7050     6.0040    24.4020     2.2910 
   74.1250   -11.4770    85.8490     6.7160     5.7990     6.0730    24.3970     2.2660 
   74.2500   -11.7830    83.6420     6.7840     5.8490     5.9470    24.3120     2.2480 
   74.3750   -12.1770    85.2330     6.8170     5.8460     6.1430    24.1490     2.2400 
   74.5000   -12.6380    86.9880     6.8410     5.8110     6.3230    23.9840     2.2390 
   74.6250   -13.1530    87.2510     6.8680     5.7610     6.3460    23.8900     2.2420 
   74.7500   -13.6790    86.2150     6.9080     5.7090     6.3860    23.8810     2.2460 
   74.8750   -14.1780    84.7250     6.9820     5.6790     6.6230    23.9020     2.2470 
   75.0000   -14.6300    84.0490     7.1230     5.6940     6.8350    23.8930     2.2420 
   75.1250   -15.0180    82.7570     7.3840     5.7940     7.0820    23.8210     2.2330 
   75.2500   -15.3020    78.5780     7.8330     6.0320     7.6280    23.7130     2.2220 
   75.3750   -15.4390    72.4580     8.5980     6.5130     8.9150    23.6340     2.2140 
   75.5000   -15.4490    69.4330     9.7190     7.2860    11.6790    23.6600     2.2190 
   75.6250   -15.3440    70.0360    11.2640     8.4340    17.1880    23.8400     2.2470 
   75.7500   -15.1760    70.0580    13.2790    10.0340    23.5290    24.1650     2.3010 
   75.8750   -15.0060    67.3220    15.8710    12.2300    28.7630    24.5130     2.3810 
   76.0000   -14.8730    65.2770    18.9630    14.9600    32.1310    24.7610     2.4640 
   76.1250   -14.8200    65.6030    22.5230    18.2110    34.6010    24.8520     2.5360 
   76.2500   -14.9160    67.2090    26.3420    21.8900    37.0300    24.8420     2.5940 
   76.3750   -15.2120    67.7450    29.5710    25.4330    40.2470    24.7740     2.6400 
   76.5000   -15.6780    66.5610    31.0180    27.5510    46.2990    24.6920     2.6800 
   76.6250   -16.2890    65.5420    29.7590    26.8820    55.1990    24.6030     2.7050 
   76.7500   -16.9920    67.9760    25.8280    23.2210    52.3520    24.4640     2.6980 
   76.8750   -17.7340    71.9550    20.3610    18.0540    32.6470    24.2150     2.6370 
   77.0000   -18.4790    73.5800    15.2740    13.4710    16.7470    23.9130     2.5400 
   77.1250   -19.2140    73.9660    11.4460    10.1300     9.6730    23.6430     2.4280 
   77.2500   -19.8860    75.7720     9.0420     7.9960     7.8990    23.5050     2.3290 
   77.3750   -20.4600    78.7030     7.9470     6.9050     7.8920    23.5580     2.2610 
   77.5000   -20.9310    78.3130     7.5720     6.4180     8.0800    23.7380     2.2200 
   77.6250   -21.2870    74.0640     7.6140     6.3320     8.3210    23.9360     2.1960 
   77.7500   -21.5360    69.7370     7.8370     6.4650     8.5620    24.0660     2.1810 
   77.8750   -21.6410    68.5530     8.0670     6.6560     8.7850    24.1140     2.1730 
   78.0000   -21.6290    69.5290     8.2230     6.7930     9.0620    24.1330     2.1710 
   78.1250   -21.4880    69.2420     8.2880     6.8480     9.4320    24.1190     2.1710 
   78.2500   -21.2370    67.7830     8.2740     6.8290     9.7450    24.0950     2.1720 
   78.3750   -20.8870    67.5100     8.2100     6.7710     9.6320    24.0700     2.1720 
