~V
VERS. 2.00: Ver 2.00
~W
STRT.M 50.0000:
STOP.M 236.0000:
STEP.M 0.1250:
NULL. -999.2500:
UWI. F10144:
~C
DEPT.M :
DEN.GM/CC :
GR.API :
RML.OHMM :
RI. :
RXO.OHMM :
CALI.CM :
SP.MV :
~A
# ...
  173.7500     2.2830    77.5910    39.1900    34.7280    50.6300    24.7710   -36.5250 
  173.8750     2.2800    70.7080    47.5260    40.3890    70.9120    24.8010   -36.7680 
  174.0000     2.2660    63.9730    57.7560    47.0930    96.3770    24.8320   -37.0310 
  174.1250     2.2400    62.5690    68.7730    54.0140   100.3310    24.8900   -37.3160 
  174.2500     2.2080    62.5790    78.6420    60.0820    98.7980    24.9140   -37.6190 
  174.3750     2.1860    61.2480    86.1250    64.7230   103.6990    24.8940   -37.9400 
  174.5000     2.1830    59.7860    90.9210    67.8580   115.9900    24.8560   -38.2750 
  174.6250     2.1940    60.6040    93.0660    69.5420   126.8150    24.8230   -38.6290 
  174.7500     2.2100    62.7850    93.3160    70.2300   123.2800    24.7890   -38.9750 
  174.8750     2.2190    64.4040    91.9230    70.0840   114.8590    24.7530   -39.2810 
  175.0000     2.2220    64.0440    89.4270    69.3500   104.3320    24.7230   -39.5120 
  175.1250     2.2240    63.1600    86.8310    68.4450    96.9940    24.7080   -39.6260 
  175.2500     2.2270    63.0750    85.0550    67.8300    95.5810    24.6940   -39.6320 
  175.3750     2.2270    64.0750    84.3620    67.6860    96.6310    24.6690   -39.5380 
  175.5000     2.2220    64.5560    84.3560    67.9040    96.9020    24.6420   -39.3710 
  175.6250     2.2160    63.4180    83.7530    67.9370   103.5710    24.6360   -39.1640 
  175.7500     2.2160    62.2160    81.4920    67.2210   107.1960    24.6410   -38.9680 
  175.8750     2.2210    63.1660    77.6070    65.6420   101.5470    24.6440   -38.8200 
  176.0000     2.2270    66.6020    73.2260    63.6260    84.5260    24.6420   -38.7360 
  176.1250     2.2260    69.0910    70.2770    62.0920    69.0370    24.6390   -38.7190 
  176.2500     2.2160    68.6100    69.7570    61.7210    73.4640    24.6380   -38.7480 
  176.3750     2.2040    65.8700    71.9040    62.7720    99.6110    24.6270   -38.8130 
  176.5000     2.1950    62.6400    76.1410    65.0210   125.2010    24.5810   -38.9050 
  176.6250     2.1930    61.9710    81.0700    67.8040   131.7980    24.5010   -39.0210 
  176.7500     2.1970    62.8810    84.9070    70.2190   120.2100    24.4390   -39.1610 
  176.8750     2.2020    63.0740    86.7930    71.8220   105.4650    24.4010   -39.3180 
  177.0000     2.2040    62.4490    86.7620    72.5280    94.7050    24.3500   -39.5090 
  177.1250     2.2040    62.0460    85.1710    72.3770    94.3180    24.2700   -39.7370 
  177.2500     2.2030    61.6040    82.4600    71.5490    95.5240    24.2100   -39.9760 
  177.3750     2.2030    62.7890    78.3360    69.8920    96.1200    24.1880   -40.1990 
  177.5000     2.2070    66.3430    72.6330    67.2510    93.4820    24.1840   -40.3870 
  177.6250     2.2140    68.9800    65.6460    63.5690    81.7090    24.1680   -40.5130 
  177.7500     2.2230    67.6290    58.3750    59.2980    71.3450    24.1500   -40.5680 
  177.8750     2.2330    66.2710    51.4050    54.7500    62.6130    24.1610   -40.5490 
  178.0000     2.2440    68.4130    45.1860    50.2720    58.0780    24.2280   -40.4550 
  178.1250     2.2560    72.3060    40.4710    46.4950    52.3080    24.3060   -40.3030 
  178.2500     2.2640    74.7980    37.6350    43.9500    46.1870    24.3310   -40.1400 
  178.3750     2.2650    76.4510    37.1340    43.1510    41.3460    24.3090   -39.9940 
  178.5000     2.2560    77.1050    39.1830    44.3940    40.5140    24.2890   -39.8920 
  178.6250     2.2380    73.1840    43.7770    47.7310    47.8700    24.2950   -39.8590 
  178.7500     2.2220    67.8620    49.3150    51.8750    67.3340    24.3010   -39.8920 
  178.8750     2.2150    65.7990    54.0420    55.5100    82.4250    24.3000   -39.9800 
  179.0000     2.2200    66.1320    56.4490    57.5670    66.4880    24.2980   -40.1140 
  179.1250     2.2320    65.9810    56.5350    57.8790    40.2530    24.2950   -40.2900 
  179.2500     2.2420    66.7220    57.1430    58.1470    33.2220    24.2900   -40.4870 
  179.3750     2.2420    69.0850    60.7220    59.9430    39.1990    24.2800   -40.6910 
  179.5000     2.2330    69.1450    68.7550    64.1980    63.4280    24.2850   -40.8770 
  179.6250     2.2160    63.9120    82.2120    71.0970    85.4870    24.3760   -41.0130 
  179.7500     2.1980    58.5150    98.5230    78.8720    93.4590    24.5690   -41.0910 
  179.8750     2.1840    54.4870   113.9150    85.7240    92.8930    24.8100   -41.1060 
  180.0000     2.1780    52.4120   124.1740    90.2510    96.3820    25.0010   -41.0710 
  180.1250     2.1800    53.7120   127.2500    91.9580    97.9910    25.0290   -41.0020 
  180.2500     2.1850    56.2700   127.0260    92.2810    89.3310    24.9770   -40.9540 
  180.3750     2.1840    57.8910   125.8550    92.0860    82.4560    24.9670   -40.9610 
  180.5000     2.1770    58.2430   124.7290    91.8290    95.7640    25.0340   -41.0390 
  180.6250     2.1690    57.5740   124.4000    91.8470   112.9390    25.1440   -41.1890 
  180.7500     2.1680    56.4500   125.3350    92.3350   118.5640    25.2950   -41.3610 
  180.8750     2.1710    56.6920   127.7580    93.3650   116.6930    25.4900   -41.5170 
  181.0000     2.1760    59.1860   131.4040    94.8120   116.5020    25.6710   -41.6360 
  181.1250     2.1820    59.4870   135.1830    96.2380   115.5130    25.7550   -41.7020 
  181.2500     2.1770    55.4170   137.2630    97.0140   110.7340    25.8130   -41.7390 
  181.3750     2.1440    51.3600   136.1160    96.6370    96.5110    25.9520   -41.7620 
  181.5000     2.0850    50.0150   131.2750    94.9220    81.2230    26.2240   -41.7880 
  181.6250     2.0140    50.3510   123.7850    92.1090    76.1640    26.7470   -41.8290 
  181.7500     1.9620    50.6450   116.6750    89.2140    67.2910    27.3420   -41.8680 
  181.8750     1.9490    51.4080   112.3140    87.1400    52.4010    27.5870   -41.8670 
  182.0000     1.9830    53.6170   112.5230    86.6990    31.6940    27.2790   -41.7840 
  182.1250     2.0600    56.0300   119.6110    88.8520    25.1410    26.6350   -41.5720 
  182.2500     2.1710    55.5580   133.5030    93.4120    36.5370    25.9930   -41.2460 
  182.3750     2.3060    53.0620   154.7710   100.1700    76.0900    25.3360   -40.8250 
  182.5000     2.4560    52.3590   183.5020   108.5560   178.3410    24.6750   -40.3330 
  182.6250     2.5900    54.6560   219.2740   117.5920   298.7240    24.2810   -39.7890 
  182.7500     2.6670    55.0800   257.2410   125.9260   346.8400    24.1340   -39.2180 
  182.8750     2.6950    53.3200   290.6580   132.3920   368.3900    24.0990   -38.6370 
  183.0000     2.6980    53.0950   306.9310   135.4780   418.5430    24.0670   -38.0570 
  183.1250     2.6930    54.9530   280.8800   131.6550   446.5810    24.0090   -37.4610 
  183.2500     2.6900    55.3920   218.9340   119.6940   445.7750    23.9580   -36.8330 
  183.3750     2.6800    53.5600   147.8470   100.1080   393.1790    23.9190   -36.1590 
  183.5000     2.6510    50.7810    90.9770    76.5150   278.5300    23.8900   -35.4270 
  183.6250     2.6020    50.4860    56.3590    54.7740   145.3240    23.8730   -34.6300 
  183.7500     2.5350    53.1170    40.9910    38.0220    69.0840    23.9080   -33.7680 
  183.8750     2.4550    56.7640    31.4030    26.4590    34.4230    24.0680   -32.8450 
  184.0000     2.3680    57.9170    20.7790    18.9720    17.6520    24.4670   -31.8690 
  184.1250     2.2870    55.3180    15.0590    14.5590    11.4860    25.2320   -30.8910 
  184.2500     2.2370    53.5150    11.6800    11.7420     7.9840    26.2590   -29.9560 
  184.3750     2.2350    54.0170     9.6970     9.9560     7.1590    27.0550   -29.1050 
  184.5000     2.2830    55.4000     8.5370     8.8420     7.9540    27.0190   -28.3700 
  184.6250     2.3550    56.5950     7.9180     8.2280     8.3610    26.1220   -27.8010 
  184.7500     2.3990    59.2860     7.5830     7.8920     8.0210    25.2330   -27.3680 
  184.8750     2.4030    63.0810     7.4690     7.7670     6.7710    24.7330   -27.0630 
