~V
VERS. 2.00: Ver 2.00
~W
STRT.M 30.0000:
STOP.M 209.0000:
STEP.M 0.1250:
NULL. -999.2500:
UWI. F10150:
~C
DEPT.M :
SP.MV :
DEN.GM/CC :
GR.API :
RML.OHMM :
RI. :
RXO.OHMM :
CALI.CM :
~A
# ...
   63.7500    -8.2890     2.0300    95.6420     4.2010     4.9720     6.4140    25.3150 
   63.8750    -9.5240     2.1520    93.3780     4.3580     5.2580     6.2580    25.3560 
   64.0000   -10.6990     2.2190    90.8220     4.4740     5.4230     6.0720    25.3560 
   64.1250   -11.9010     2.2370    89.1440     4.5810     5.5270     6.2060    25.3210 
   64.2500   -13.2030     2.2370    89.3190     4.7330     5.6620     6.3990    25.3250 
   64.3750   -14.5840     2.2300    91.7900     4.9650     5.8820     6.4880    25.3340 
   64.5000   -16.0620     2.2210    92.8750     5.3140     6.2080     6.7510    25.2930 
   64.6250   -17.5770     2.2110    89.4290     5.8520     6.6330     7.1330    25.2190 
   64.7500   -19.0550     2.1990    84.9650     6.5900     7.0740     7.5940    25.1750 
   64.8750   -20.4870     2.1880    80.2530     7.4550     7.4400     8.2700    25.1610 
   65.0000   -21.8710     2.1780    72.8400     8.1520     7.6450     8.9270    25.1370 
   65.1250   -23.1000     2.1720    65.5020     8.2120     7.6230     9.4130    25.0980 
   65.2500   -24.2140     2.1700    62.9180     7.8800     7.4620     9.4260    25.0960 
   65.3750   -25.2260     2.1760    65.1410     7.5470     7.2530     9.1690    25.0980 
   65.5000   -26.1050     2.1900    69.4570     7.4320     7.0780     8.9470    25.0840 
   65.6250   -26.9270     2.2130    71.8310     7.6430     6.9970     9.1990    25.0840 
   65.7500   -27.7210     2.2330    71.9250     8.0440     6.9910     9.0690    25.1200 
   65.8750   -28.4560     2.2370    69.2420     8.4810     7.0310     8.5460    25.1710 
   66.0000   -29.1180     2.2190    64.1910     8.8340     7.0850     8.0950    25.2270 
   66.1250   -29.7200     2.1800    60.2080     9.1230     7.1160     7.8610    25.2300 
   66.2500   -30.2100     2.1390    60.2070     9.4770     7.1130     7.8880    25.1720 
   66.3750   -30.5800     2.1080    64.0110     9.8920     7.0770     8.2330    25.0880 
   66.5000   -30.8190     2.0960    67.0080    10.1920     7.0090     8.6260    25.0190 
   66.6250   -30.8480     2.1030    66.5880    10.0660     6.9160     8.8200    24.9600 
   66.7500   -30.7390     2.1190    66.1260     9.5660     6.8100     8.7500    24.9360 
   66.8750   -30.5300     2.1330    66.9790     8.9170     6.7000     8.4920    24.9220 
   67.0000   -30.2560     2.1420    68.3160     8.3520     6.5910     8.4840    24.9050 
   67.1250   -30.0240     2.1420    68.1590     8.0020     6.4950     8.4520    24.8970 
   67.2500   -29.8550     2.1370    67.6190     7.8050     6.4190     8.4300    24.8940 
   67.3750   -29.7740     2.1320    67.6380     7.7160     6.3740     8.4740    24.8930 
   67.5000   -29.8390     2.1270    68.8710     7.7000     6.3670     8.5590    24.8930 
   67.6250   -30.0600     2.1250    71.5390     7.7590     6.4120     8.5630    24.8920 
   67.7500   -30.3690     2.1240    73.8870     7.8530     6.4930     8.5990    24.8850 
   67.8750   -30.7930     2.1250    74.1940     7.9220     6.5840     8.6820    24.8640 
   68.0000   -31.2780     2.1260    73.0830     7.8700     6.6510     8.7670    24.8300 
   68.1250   -31.7060     2.1260    71.4980     7.5160     6.6470     8.8150    24.7850 
   68.2500   -32.1410     2.1250    69.9990     6.9300     6.5710     8.7730    24.7680 
   68.3750   -32.5520     2.1250    68.8920     6.3230     6.4360     8.4580    24.7820 
   68.5000   -32.9060     2.1280    69.3430     5.8560     6.2700     7.9840    24.8110 
   68.6250   -33.2360     2.1370    70.4950     5.5760     6.1090     7.8660    24.8240 
   68.7500   -33.5090     2.1490    68.8930     5.4140     5.9740     8.4390    24.8380 
   68.8750   -33.6720     2.1560    63.4920     5.3460     5.8790     9.0310    24.8710 
   69.0000   -33.7710     2.1540    57.1550     5.3650     5.8440     9.1240    24.9260 
   69.1250   -33.8570     2.1400    55.7330     5.5170     5.9210     8.9730    24.9580 
   69.2500   -33.8550     2.1190    58.7490     5.8450     6.1280     8.9980    24.9700 
   69.3750   -33.7800     2.1070    62.6630     6.3850     6.4640     9.2720    24.9900 
   69.5000   -33.6160     2.1190    62.9240     7.0360     6.8770     9.7040    25.0390 
   69.6250   -33.3300     2.1730    58.1010     7.4160     7.2430    12.1440    25.0890 
   69.7500   -33.0170     2.2490    55.4030     7.3900     7.4200    17.1490    25.0320 
   69.8750   -32.6760     2.3150    56.9620     7.0810     7.3310    18.3130    24.9100 
   70.0000   -32.3270     2.3390    58.9910     6.6690     7.0100    13.1260    24.7840 
   70.1250   -31.9220     2.3060    59.5430     6.3800     6.5900    10.5580    24.7120 
   70.2500   -31.4740     2.2490    61.2920     6.3430     6.2330     9.8940    24.7060 
   70.3750   -30.9760     2.1970    63.7880     6.5790     6.0140     9.7930    24.7270 
   70.5000   -30.3900     2.1640    62.7850     6.9990     5.9500     9.7280    24.7710 
   70.6250   -29.6540     2.1500    59.8030     7.4100     6.0210     9.8230    24.8240 
   70.7500   -28.7690     2.1440    59.5170     7.6420     6.1330    10.0150    24.8500 
   70.8750   -27.7500     2.1410    60.9670     7.6540     6.2210    10.1100    24.8600 
   71.0000   -26.5310     2.1410    62.3620     7.4940     6.2380    10.1000    24.8750 
   71.1250   -25.1430     2.1450    66.5480     7.2090     6.1290     9.7820    24.9300 
   71.2500   -23.6950     2.1530    74.5790     6.8640     5.9120     8.7440    25.0210 
   71.3750   -22.1820     2.1660    82.0030     6.5280     5.6240     7.1510    25.1030 
   71.5000   -20.7180     2.1840    84.4160     6.2800     5.3280     6.0140    25.1060 
   71.6250   -19.4470     2.2030    84.0880     6.2080     5.1010     5.7060    25.0490 
   71.7500   -18.3190     2.2220    85.0270     6.2940     4.9710     5.6100    25.0450 
   71.8750   -17.3740     2.2380    86.1350     6.4920     4.9420     5.7170    25.0920 
   72.0000   -16.6880     2.2480    85.6240     6.7240     4.9870     6.1110    25.1650 
   72.1250   -16.2450     2.2460    84.9160     6.8790     5.0500     5.9540    25.2460 
   72.2500   -15.9980     2.2370    85.5250     6.8950     5.0650     5.8280    25.3180 
   72.3750   -15.9970     2.2250    86.3480     6.7460     4.9900     5.7740    25.3600 
   72.5000   -16.2040     2.2200    88.1250     6.4350     4.8090     5.6170    25.3690 
   72.6250   -16.6220     2.2380    91.6350     6.0340     4.5390     5.2060    25.3610 
   72.7500   -17.3570     2.2780    94.8410     5.7210     4.2820     4.8410    25.3590 
   72.8750   -18.3990     2.3330    96.3090     5.6620     4.1430     4.6850    25.3800 
   73.0000   -19.7000     2.3860    96.3120     5.9670     4.2110     4.5750    25.4000 
   73.1250   -21.3280     2.4030    93.9820     6.7240     4.5760     4.7040    25.4130 
   73.2500   -23.1260     2.3690    88.1050     7.7510     5.1670     5.4440    25.4350 
   73.3750   -25.0300     2.2910    78.7530     8.7980     5.8610     6.8520    25.4920 
   73.5000   -26.9550     2.1950    68.6330     9.5330     6.4630     7.8320    25.5650 
   73.6250   -28.7750     2.1140    61.8750     9.6280     6.7220     8.2070    25.5560 
   73.7500   -30.3660     2.0620    60.2190     9.2770     6.6600     8.5530    25.5250 
   73.8750   -31.6830     2.0360    60.2970     8.7670     6.4050     8.8910    25.5940 
   74.0000   -32.7030     2.0300    59.2780     8.3450     6.1130     9.0260    25.7750 
   74.1250   -33.4180     2.0370    58.4620     8.1350     5.8990     8.9950    25.8830 
   74.2500   -33.9720     2.0500    59.3290     8.0530     5.7690     8.9650    25.9100 
   74.3750   -34.3470     2.0690    58.1590     8.0150     5.6860     8.7900    25.8800 
   74.5000   -34.6300     2.0910    53.7120     7.9780     5.6220     8.6230    25.7980 
   74.6250   -34.8780     2.1070    54.2040     7.9540     5.5820     8.6700    25.7240 
   74.7500   -35.0320     2.1150    60.4710     7.9590     5.5710     8.8340    25.7150 
   74.8750   -35.0660     2.1120    65.5350     7.9830     5.5880     8.7550    25.7720 
