~V
VERS. 2.00: Ver 2.00
~W
STRT.M 50.0000:
STOP.M 223.0000:
STEP.M 0.1250:
NULL. -999.2500:
UWI. F10135:
~C
DEPT.M :
SP.MV :
DEN.GM/CC :
GR.API :
RML.OHMM :
RI. :
RXO.OHMM :
CALI.CM :
~A
# ...
   95.0000   -10.6030     2.1670    72.4610     8.5490     7.1200     8.0820    24.8000 
   95.1250   -10.6360     2.1630    71.4390     8.5450     7.1930     8.0120    24.8000 
   95.2500   -10.6060     2.1700    72.0450     8.4000     7.1550     7.9950    24.8070 
   95.3750   -10.5200     2.1850    74.7640     8.1330     7.0060     8.0440    24.8350 
   95.5000   -10.3880     2.2030    76.5610     7.7890     6.7650     8.0510    25.0240 
   95.6250   -10.1730     2.2130    76.7040     7.4260     6.4650     8.0500    25.0670 
   95.7500    -9.8840     2.2120    77.9740     7.1070     6.1650     7.7640    25.1330 
   95.8750    -9.6000     2.2010    80.1640     6.8710     5.9070     7.1470    25.1950 
   96.0000    -9.3550     2.1880    80.9760     6.7400     5.7220     6.4970    25.2210 
   96.1250    -9.1340     2.1800    81.0710     6.7360     5.6400     6.3330    25.3160 
   96.2500    -8.9850     2.1780    81.6730     6.8280     5.6480     6.5170    25.3300 
   96.3750    -8.9370     2.1820    80.8680     6.9910     5.7350     6.8900    25.3330 
   96.5000    -8.9570     2.1880    77.7000     7.2010     5.8840     7.2990    25.3330 
   96.6250    -9.0650     2.1960    73.8020     7.4350     6.0790     7.7180    25.3330 
   96.7500    -9.2860     2.2020    70.4300     7.6750     6.2920     8.0640    25.3330 
   96.8750    -9.6260     2.2070    68.9450     7.9080     6.5030     8.3280    25.3280 
   97.0000   -10.0540     2.2090    70.0960     8.1140     6.6960     8.7170    25.3060 
   97.1250   -10.4760     2.2080    73.6560     8.2570     6.8440     9.1200    25.1740 
   97.2500   -10.8280     2.2080    75.7520     8.3300     6.9390     9.3940    25.0870 
   97.3750   -11.1210     2.2100    74.6130     8.3430     6.9860     9.4070    25.0910 
   97.5000   -11.3890     2.2160    72.2390     8.3250     7.0020     9.3530    25.2000 
   97.6250   -11.6010     2.2240    69.7150     8.3080     7.0110     9.3730    25.3120 
   97.7500   -11.7150     2.2280    68.7220     8.2940     7.0210     9.4220    25.3440 
   97.8750   -11.7380     2.2280    70.4640     8.2590     7.0200     9.5610    25.4230 
   98.0000   -11.7110     2.2220    73.4560     8.1680     6.9840     9.8160    25.4600 
   98.1250   -11.6330     2.2150    73.5280     7.9940     6.8840     9.9400    25.4670 
   98.2500   -11.5180     2.2110    74.0530     7.7680     6.7320     9.3760    25.4670 
   98.3750   -11.3990     2.2120    77.6580     7.5290     6.5530     8.8590    25.4670 
   98.5000   -11.3070     2.2170    79.8340     7.3190     6.3790     8.6620    25.4670 
   98.6250   -11.2100     2.2250    77.5410     7.1690     6.2430     8.6600    25.4670 
   98.7500   -11.1050     2.2300    75.0700     7.0680     6.1470     8.6600    25.4670 
   98.8750   -10.9990     2.2320    75.2680     7.0020     6.0860     8.6480    25.4670 
   99.0000   -10.8840     2.2310    76.7510     6.9580     6.0470     8.6050    25.4670 
   99.1250   -10.7910     2.2260    77.7250     6.9420     6.0290     8.6510    25.4670 
   99.2500   -10.6880     2.2210    79.1480     6.9640     6.0360     8.6960    25.4670 
   99.3750   -10.5670     2.2170    79.8790     7.0350     6.0800     8.6690    25.4670 
   99.5000   -10.4310     2.2140    80.3200     7.1510     6.1630     8.6210    25.4730 
   99.6250   -10.2870     2.2140    79.8930     7.2780     6.2710     8.7380    25.5110 
   99.7500   -10.0950     2.2150    77.5740     7.3550     6.3590     9.2700    25.5860 
   99.8750    -9.8240     2.2180    74.7490     7.3250     6.3780    10.2800    25.5980 
  100.0000    -9.5390     2.2240    74.7330     7.1520     6.2870    10.4940    25.6000 
  100.1250    -9.2700     2.2370    78.9700     6.8220     6.0570     9.3540    25.6000 
  100.2500    -8.9820     2.2520    82.6760     6.4220     5.7460     8.5370    25.6000 
  100.3750    -8.6360     2.2640    85.6960     6.0460     5.4210     7.6650    25.6010 
  100.5000    -8.3220     2.2650    88.5250     5.7800     5.1550     6.2480    25.6210 
  100.6250    -8.2000     2.2500    87.3200     5.7170     5.0350     5.4600    25.6220 
  100.7500    -8.2760     2.2250    83.0020     5.8320     5.0640     5.4820    25.6230 
  100.8750    -8.5300     2.1980    80.5260     6.0820     5.2300     6.0810    25.6270 
  101.0000    -8.8890     2.1760    83.8770     6.3990     5.4920     7.6330    25.6300 
  101.1250    -9.3430     2.1630    85.1070     6.6970     5.7870     8.6370    25.6360 
  101.2500    -9.8670     2.1570    79.3600     6.9150     6.0460     8.8430    25.6620 
  101.3750   -10.4100     2.1570    73.2020     7.0220     6.2330     8.7220    25.7150 
  101.5000   -10.8830     2.1620    71.8000     7.0100     6.3270     8.7150    25.7570 
  101.6250   -11.1740     2.1710    74.7490     6.8560     6.2980     8.8300    25.7780 
  101.7500   -11.2910     2.1790    75.4770     6.5940     6.1610     8.9480    25.8080 
  101.8750   -11.1930     2.1850    75.3570     6.2620     5.9340     8.8850    25.8970 
  102.0000   -10.8880     2.1860    79.2340     5.9240     5.6600     8.2570    26.0310 
  102.1250   -10.5290     2.1790    87.1960     5.6790     5.4080     6.9430    26.1590 
  102.2500   -10.2980     2.1710    92.8950     5.5790     5.2410     6.0480    26.2080 
  102.3750   -10.2320     2.1670    92.1330     5.6360     5.1870     6.4900    26.2180 
  102.5000   -10.2570     2.1670    86.8490     5.8150     5.2450     7.5290    26.2200 
  102.6250   -10.3780     2.1620    82.7140     6.0340     5.3800     8.0390    26.2640 
  102.7500   -10.5830     2.1410    79.1030     6.1860     5.5070     8.2960    26.3860 
  102.8750   -10.8710     2.1040    73.9200     6.2120     5.5670     8.5650    26.5570 
  103.0000   -11.2020     2.0600    68.2050     6.1190     5.5330     8.7400    26.6840 
  103.1250   -11.3910     2.0330    67.6840     6.0370     5.4530     8.5360    26.6150 
  103.2500   -11.3480     2.0400    72.3290     6.2010     5.4720     8.2230    26.3190 
  103.3750   -11.0710     2.0920    76.4830     6.8620     5.7640     8.0750    25.8980 
  103.5000   -10.5720     2.1890    77.3090     8.2480     6.5300     8.2020    25.6280 
  103.6250    -9.8330     2.3140    75.9510    10.5570     8.0720    10.7550    25.5630 
  103.7500    -8.9780     2.4250    72.2930    13.2880    10.2330    19.2910    25.5590 
  103.8750    -8.1510     2.4920    67.8710    15.6050    12.5130    34.2380    25.5600 
  104.0000    -7.3840     2.4970    66.1640    16.4700    14.0250    35.3790    25.5590 
  104.1250    -6.6390     2.4480    68.8510    15.0610    13.7160    25.1210    25.5580 
  104.2500    -5.8730     2.3870    72.8130    12.4320    11.9930    16.8430    25.5640 
  104.3750    -5.0740     2.3410    79.2710     9.6990     9.6830    11.1260    25.5910 
  104.5000    -4.2330     2.3180    90.9970     7.5870     7.5930     7.9590    25.6530 
  104.6250    -3.4230     2.3120   102.3130     6.3590     6.2060     5.8860    25.6900 
  104.7500    -2.6910     2.3080   107.8090     5.7270     5.3780     5.2050    25.7030 
  104.8750    -1.9970     2.3020   109.5620     5.5030     4.9540     5.0560    25.7040 
  105.0000    -1.3270     2.2950   111.3270     5.4860     4.7880     5.1000    25.7040 
  105.1250    -0.7170     2.2900   113.7060     5.5440     4.7790     5.0640    25.7040 
  105.2500    -0.2490     2.2860   115.5100     5.6000     4.8210     5.0810    25.7040 
  105.3750    -0.0090     2.2820   115.5300     5.6340     4.8700     5.1280    25.7040 
  105.5000    -0.0250     2.2750   113.0250     5.6450     4.9060     5.0600    25.7040 
  105.6250    -0.2440     2.2680   107.0870     5.6600     4.9290     5.4150    25.7040 
  105.7500    -0.5460     2.2700   102.1550     5.7320     4.9730     5.6880    25.7040 
  105.8750    -0.9300     2.2870   101.3340     5.9230     5.0880     5.9630    25.7040 
  106.0000    -1.4580     2.3170   103.2050     6.2840     5.3190     5.8670    25.7110 
  106.1250    -2.1930     2.3460   102.1760     6.8360     5.7070     6.1810    25.7380 
