~V
VERS. 2.00: Ver 2.00
~W
STRT.M 44.0000:
STOP.M 255.0000:
STEP.M 0.1250:
NULL. -999.2500:
UWI. F10191:
~C
DEPT.M :
DEN.GM/CC :
SP.MV :
GR.API :
RML.OHMM :
RI. :
RXO.OHMM :
CALI.CM :
~A
# ...
  156.5000     2.2060   -27.5450    67.7720    17.5200    14.2050    13.5870    24.3750 
  156.6250     2.2190   -27.3670    67.8120    17.5030    14.2150    14.5360    24.4280 
  156.7500     2.2290   -27.1700    68.4570    17.6520    14.3770    15.2820    24.5190 
  156.8750     2.2330   -27.0140    68.8570    17.8660    14.6410    15.2250    24.5090 
  157.0000     2.2290   -26.9410    69.2500    18.0470    14.9340    14.8920    24.3670 
  157.1250     2.2180   -26.8400    70.2550    18.0520    15.1320    15.0360    24.4220 
  157.2500     2.2080   -26.7670    71.9310    17.7450    15.0890    15.1030    24.6670 
  157.3750     2.2080   -26.7850    73.6390    16.9900    14.6610    14.8190    24.8970 
  157.5000     2.2140   -26.8130    74.4240    15.7380    13.7770    14.2330    25.0010 
  157.6250     2.2260   -26.8360    75.7090    14.0840    12.4750    12.7540    25.0290 
  157.7500     2.2450   -26.9380    77.7840    12.4110    11.0720    10.0640    25.0670 
  157.8750     2.2690   -27.0400    79.3970    11.0130     9.8130     7.8010    25.0890 
  158.0000     2.2880   -27.1180    79.3160    10.0670     8.8600     6.7390    25.0560 
  158.1250     2.2920   -27.2640    79.6100     9.6450     8.3090     6.6630    24.9780 
  158.2500     2.2900   -27.3960    80.2310     9.5360     8.0330     6.9510    24.9030 
  158.3750     2.2920   -27.4810    78.7180     9.5940     7.9460     7.4370    24.8610 
  158.5000     2.3000   -27.5570    76.1550     9.7260     7.9790     7.4740    24.8390 
  158.6250     2.3110   -27.5850    76.2730     9.9830     8.1440     6.8160    24.8040 
  158.7500     2.3200   -27.5700    77.8690    10.4790     8.4860     6.7560    24.7410 
  158.8750     2.3280   -27.5360    78.7470    11.2450     9.0360     8.3420    24.6740 
  159.0000     2.3370   -27.4290    79.0140    12.1140     9.7110    10.9510    24.6170 
  159.1250     2.3390   -27.2730    77.2640    12.7130    10.2860    11.5670    24.5450 
  159.2500     2.3280   -27.0870    72.9750    12.9240    10.6410    11.1260    24.4820 
  159.3750     2.3120   -26.8510    68.4840    12.9920    10.8910    11.4530    24.4760 
  159.5000     2.3040   -26.5990    67.2780    13.4440    11.3490    10.5360    24.5110 
  159.6250     2.3020   -26.3210    67.5060    15.1290    12.6070    11.0860    24.5750 
  159.7500     2.2940   -25.9920    64.7360    18.2870    15.0000    17.1850    24.6190 
  159.8750     2.2780   -25.6760    60.5890    22.7390    18.6470    28.7320    24.6470 
  160.0000     2.2650   -25.3780    57.8460    27.3570    22.9380    37.5510    24.6880 
  160.1250     2.2620   -25.0460    57.4950    29.0340    25.3690    38.0800    24.7770 
  160.2500     2.2540   -24.7860    57.5030    26.3100    24.0040    36.7770    24.8970 
  160.3750     2.2350   -24.5540    59.1040    20.7140    19.6490    31.2020    25.0680 
  160.5000     2.2120   -24.2860    64.5640    15.0990    14.7510    19.8850    25.2370 
  160.6250     2.1960   -24.1330    71.2980    11.3530    11.1410    11.3380    25.2080 
  160.7500     2.1900   -24.0720    74.8080     9.1950     8.8160     7.0940    25.1350 
  160.8750     2.1900   -23.9930    73.9010     8.1570     7.4670     5.8110    25.1220 
  161.0000     2.1910   -23.9500    72.2450     7.7810     6.7640     5.6700    25.1920 
  161.1250     2.1880   -23.9940    74.4060     7.6990     6.4620     5.8070    25.2780 
  161.2500     2.1910   -24.0230    75.7050     7.6370     6.3100     5.9570    25.3260 
  161.3750     2.2090   -24.0800    73.5420     7.6020     6.2680     5.5870    25.2220 
  161.5000     2.2400   -24.2310    71.5600     7.7710     6.4080     4.7410    25.1010 
  161.6250     2.2640   -24.3380    74.2130     8.4710     6.9310     5.0910    25.1320 
  161.7500     2.2640   -24.3990    76.2790     9.7330     7.8820     6.8190    25.1110 
  161.8750     2.2410   -24.5150    72.8290    11.4380     9.2340     9.0850    24.9220 
  162.0000     2.2150   -24.6090    67.1830    13.2770    10.8020    10.7170    24.6630 
  162.1250     2.2080   -24.6580    65.1550    14.7170    12.1640    11.2310    24.3950 
  162.2500     2.2180   -24.7010    64.7840    15.5110    13.0000    11.2630    24.0450 
  162.3750     2.2370   -24.6660    63.4550    15.7760    13.3120    11.3400    23.8760 
  162.5000     2.2560   -24.5600    61.6040    15.8680    13.3600    12.0950    24.0300 
  162.6250     2.2660   -24.4140    62.2140    16.1580    13.4710    14.1410    24.3440 
  162.7500     2.2680   -24.2030    64.6110    16.7630    13.8080    16.1810    24.6110 
  162.8750     2.2650   -23.9430    66.4170    17.7290    14.4460    17.1900    24.7780 
  163.0000     2.2610   -23.6940    66.6230    19.0830    15.4290    18.9290    24.8420 
  163.1250     2.2580   -23.3780    64.9130    20.7860    16.7660    20.0580    24.8490 
  163.2500     2.2550   -23.0530    61.8990    22.4060    18.1380    19.9290    24.8460 
  163.3750     2.2560   -22.8190    58.9000    23.3150    19.0460    22.3940    24.8270 
  163.5000     2.2640   -22.5830    56.9290    22.8600    18.9120    25.2950    24.7710 
  163.6250     2.2790   -22.3850    59.1750    20.6330    17.3200    24.2840    24.6450 
  163.7500     2.2890   -22.3020    64.9470    17.5740    14.9760    17.7520    24.5300 
  163.8750     2.2870   -22.2470    70.3540    14.5860    12.5790    11.3110    24.4670 
  164.0000     2.2740   -22.2110    72.3650    12.2810    10.6210     8.8720    24.4870 
  164.1250     2.2610   -22.3170    72.8560    10.9760     9.3780     8.3760    24.5400 
  164.2500     2.2550   -22.4700    74.7500    10.3920     8.7040     7.9930    24.5820 
  164.3750     2.2560   -22.6000    76.5110    10.3260     8.4940     8.0800    24.6350 
  164.5000     2.2580   -22.8030    77.3020    10.5610     8.6200     8.6290    24.6830 
  164.6250     2.2600   -23.0350    79.0220    10.8870     8.9470     8.8180    24.7020 
  164.7500     2.2660   -23.2150    80.1140    11.1180     9.2800     9.4770    24.7050 
  164.8750     2.2740   -23.4130    77.6320    11.1210     9.4760    10.1920    24.6980 
  165.0000     2.2770   -23.6020    73.1010    10.8020     9.4150     9.8560    24.6650 
  165.1250     2.2710   -23.7040    71.8250    10.1400     9.0370     8.6220    24.6000 
  165.2500     2.2640   -23.7910    73.6020     9.3770     8.5190     7.2560    24.5720 
  165.3750     2.2620   -23.8510    75.0780     8.7230     8.0210     6.2450    24.5770 
  165.5000     2.2640   -23.8340    74.8110     8.3130     7.6640     5.8270    24.4930 
  165.6250     2.2660   -23.7900    77.1190     8.2010     7.5080     5.7420    24.1820 
  165.7500     2.2620   -23.7030    82.1750     8.2300     7.4680     5.8510    23.8840 
  165.8750     2.2490   -23.5790    84.7470     8.2630     7.4480     5.9430    23.8530 
  166.0000     2.2290   -23.4440    82.8240     8.1980     7.3690     6.0400    24.1900 
  166.1250     2.2050   -23.3110    79.4850     8.0000     7.1830     5.8250    24.5770 
  166.2500     2.1880   -23.2120    79.1630     7.7530     6.9380     5.7510    24.8400 
  166.3750     2.1870   -23.1580    80.1300     7.5260     6.6870     5.6880    24.9410 
  166.5000     2.2020   -23.1440    79.8310     7.3500     6.4650     5.5860    24.9400 
  166.6250     2.2210   -23.2310    79.9040     7.2350     6.3060     5.6980    24.9250 
  166.7500     2.2350   -23.4400    80.1330     7.2240     6.2520     5.9400    24.9320 
  166.8750     2.2450   -23.6770    80.5680     7.4540     6.3950     6.1560    24.9670 
  167.0000     2.2530   -23.9930    81.1760     8.1220     6.8660     6.4140    25.0070 
  167.1250     2.2570   -24.4170    78.0920     9.5390     7.8940     7.7180    25.0520 
  167.2500     2.2580   -24.8200    70.9000    11.6430     9.4970    11.1390    25.0800 
  167.3750     2.2580   -25.2360    65.2540    14.2200    11.6250    17.1560    25.1070 
  167.5000     2.2550   -25.7200    67.6170    16.7860    13.9890    22.4590    25.1150 
  167.6250     2.2470   -26.1780    72.6820    18.5400    15.9040    22.2140    25.0990 
