~V
VERS. 2.00: Ver 2.00
~W
STRT.M 49.0000:
STOP.M 290.0000:
STEP.M 0.1250:
NULL. -999.2500:
UWI. F10103:
~C
DEPT.M :
DEN.GM/CC :
SP.MV :
GR.API :
RML.OHMM :
RI. :
RXO.OHMM :
CALI.CM :
~A
# ...
  127.7500     2.1730    -8.0010    55.6310    10.7800     9.2210    11.7010    24.1280 
  127.8750     2.1630    -7.8450    51.9610    10.7290     9.2760    11.6840    24.1240 
  128.0000     2.1550    -7.6190    48.9040    10.6240     9.2910    11.6520    24.1120 
  128.1250     2.1490    -7.3370    49.8590    10.4820     9.2680    11.5880    24.1040 
  128.2500     2.1470    -6.9840    55.5590    10.3650     9.2380    11.5010    24.1080 
  128.3750     2.1470    -6.5810    60.1320    10.3490     9.2570    11.3810    24.1180 
  128.5000     2.1500    -6.1460    59.9680    10.4750     9.3590    11.3690    24.1430 
  128.6250     2.1560    -5.6840    56.5800    10.6930     9.5210    11.6870    24.1980 
  128.7500     2.1690    -5.1740    54.7290    10.7890     9.5960    12.3530    24.3010 
  128.8750     2.1920    -4.6280    55.6270    10.5330     9.4060    13.5210    24.4240 
  129.0000     2.2250    -4.0800    58.3510     9.7910     8.8290    14.4740    24.5270 
  129.1250     2.2630    -3.5680    62.2550     8.6140     7.8820    12.7430    24.6020 
  129.2500     2.2950    -3.1620    67.3080     7.2840     6.7610     8.3060    24.6610 
  129.3750     2.3140    -2.8660    72.8990     6.2290     5.8120     5.9310    24.7110 
  129.5000     2.3150    -2.6880    77.4990     5.7020     5.2420     5.2740    24.7050 
  129.6250     2.2980    -2.6270    77.5150     5.7860     5.1420     5.8090    24.6270 
  129.7500     2.2700    -2.6900    68.8780     6.4740     5.5630     6.9450    24.5070 
  129.8750     2.2390    -2.8250    57.5700     7.4540     6.3090     8.6330    24.3740 
  130.0000     2.2130    -2.9840    52.8390     8.4480     7.1920     9.6020    24.2330 
  130.1250     2.1950    -3.1270    56.8260     9.1760     7.9770     9.4270    24.1240 
  130.2500     2.1890    -3.1980    63.4730     9.3500     8.3730     8.9930    24.0390 
  130.3750     2.1930    -3.1840    69.1750     9.0310     8.3310     8.6430    23.9700 
  130.5000     2.2020    -3.0690    73.6050     8.3610     7.9130     8.1290    23.9270 
  130.6250     2.2150    -2.8730    75.9950     7.5450     7.2720     7.5330    23.9280 
  130.7500     2.2340    -2.6100    74.4220     6.8430     6.6230     7.0100    23.9980 
  130.8750     2.2580    -2.3440    72.3200     6.4670     6.1750     6.6130    24.1590 
  131.0000     2.2880    -2.1190    72.5250     6.5970     6.0890     6.6530    24.4170 
  131.1250     2.3210    -1.9580    74.7840     7.3550     6.4840     7.9310    24.6760 
  131.2500     2.3510    -1.8890    75.3420     8.8020     7.4750    10.6110    24.7740 
  131.3750     2.3710    -1.8880    69.9930    10.5550     8.8360    14.8310    24.7140 
  131.5000     2.3740    -1.9410    60.1180    12.1630    10.2710    18.5220    24.5610 
  131.6250     2.3570    -2.0320    51.7540    13.1290    11.3830    17.9450    24.4040 
  131.7500     2.3300    -2.1750    50.1350    12.9860    11.6830    15.0080    24.3140 
  131.8750     2.3080    -2.3510    53.6000    12.1190    11.2960    14.1420    24.3140 
  132.0000     2.3010    -2.5430    59.3570    11.1270    10.6310    14.6960    24.3450 
  132.1250     2.3110    -2.7450    65.0510    10.5680    10.1520    15.5550    24.3800 
  132.2500     2.3270    -2.9640    67.2490    10.7850    10.1920    19.0130    24.4780 
  132.3750     2.3340    -3.2020    65.0850    11.4970    10.6440    28.1810    24.5870 
  132.5000     2.3230    -3.4570    61.0860    12.3570    11.3130    33.4630    24.5900 
  132.6250     2.2950    -3.7160    58.6500    13.0100    11.9440    23.1770    24.4550 
  132.7500     2.2580    -3.9610    57.1870    13.1600    12.2680    14.6860    24.2520 
  132.8750     2.2220    -4.1980    53.8980    12.9650    12.2760    12.4480    24.0610 
  133.0000     2.1930    -4.3970    49.9510    12.6450    12.0970    12.1520    23.9160 
  133.1250     2.1740    -4.5350    49.0460    12.4420    11.9220    12.0970    23.8470 
  133.2500     2.1660    -4.5870    51.5520    12.5810    11.9090    12.0970    23.8370 
  133.3750     2.1670    -4.5830    53.1160    12.7000    12.0280    12.2980    23.8470 
  133.5000     2.1730    -4.5490    52.9610    12.8020    12.2030    12.5010    23.8670 
  133.6250     2.1810    -4.5070    52.8250    12.9240    12.3690    12.4530    23.9070 
  133.7500     2.1870    -4.4670    53.9520    13.0080    12.4930    12.2620    23.9600 
  133.8750     2.1920    -4.4210    55.9380    13.0650    12.5940    12.2260    23.9800 
  134.0000     2.1980    -4.3800    58.1430    13.1730    12.7060    12.4100    23.9460 
  134.1250     2.2090    -4.3410    60.1470    13.3680    12.8560    12.5600    23.8780 
  134.2500     2.2220    -4.2780    59.3990    13.6620    13.0340    12.9200    23.8250 
  134.3750     2.2320    -4.1760    56.6780    13.9080    13.1490    13.2360    23.8380 
  134.5000     2.2330    -4.0240    53.2890    13.9320    13.0670    12.9850    23.9070 
  134.6250     2.2230    -3.8160    51.0670    13.5790    12.6570    12.8570    24.0240 
  134.7500     2.2070    -3.5570    51.8380    12.7210    11.8100    12.6490    24.1640 
  134.8750     2.1960    -3.2810    55.1430    11.6260    10.7350    12.1340    24.2560 
  135.0000     2.2000    -3.0170    59.8530    10.7050     9.7480    11.2010    24.3320 
  135.1250     2.2210    -2.8010    65.2510    10.5020     9.2450    10.6160    24.4340 
  135.2500     2.2630    -2.6850    71.2450    11.8300     9.8190    12.4820    24.5670 
  135.3750     2.3170    -2.6680    74.2930    14.8500    11.6930    18.1260    24.6880 
  135.5000     2.3780    -2.7630    70.1830    19.4740    15.0270    27.3840    24.7450 
  135.6250     2.4360    -2.9690    61.7270    25.0140    19.5690    44.7560    24.7380 
  135.7500     2.4790    -3.2750    56.3030    29.8780    24.3580    56.9530    24.6930 
  135.8750     2.5010    -3.6320    56.1920    32.4600    27.8420    50.7400    24.6010 
  136.0000     2.5040    -4.0090    59.1530    31.9280    28.8110    35.6260    24.4730 
  136.1250     2.4940    -4.3720    61.7410    28.9310    27.2430    27.0980    24.3270 
  136.2500     2.4820    -4.6710    62.1110    25.5670    24.6880    25.0150    24.1700 
  136.3750     2.4750    -4.8970    60.8730    23.5440    22.8790    25.1810    24.0330 
  136.5000     2.4740    -5.0350    59.7100    23.2100    22.3080    25.5730    23.9820 
  136.6250     2.4780    -5.1030    60.2580    24.3660    22.9870    26.8100    23.9910 
  136.7500     2.4840    -5.1370    61.4940    26.6840    24.8270    30.2220    24.0420 
  136.8750     2.4900    -5.1670    62.9380    29.3150    27.1680    37.5500    24.1420 
  137.0000     2.4930    -5.2130    63.7790    31.5230    29.3700    48.7640    24.2980 
  137.1250     2.4880    -5.2920    62.4980    32.5900    30.7180    56.9950    24.4600 
  137.2500     2.4730    -5.4410    60.3740    31.8040    30.4140    51.4140    24.4820 
  137.3750     2.4490    -5.6400    59.5660    29.6700    28.7570    39.2070    24.3850 
  137.5000     2.4200    -5.8700    59.9560    26.9360    26.3740    28.0970    24.3080 
  137.6250     2.3920    -6.1060    59.5600    24.4140    24.0150    23.8180    24.2730 
  137.7500     2.3730    -6.3190    57.8770    22.7460    22.3020    22.1060    24.3230 
  137.8750     2.3700    -6.4910    56.7990    21.8430    21.2530    22.1330    24.3560 
  138.0000     2.3810    -6.6040    58.3770    21.4960    20.7480    22.9750    24.3160 
  138.1250     2.3990    -6.6450    61.7050    21.4730    20.6120    23.4340    24.2040 
  138.2500     2.4120    -6.6080    62.8870    21.6390    20.7280    24.6150    24.1230 
  138.3750     2.4120    -6.5320    60.0560    21.9110    20.9800    26.3630    24.1420 
  138.5000     2.3990    -6.4490    56.9850    22.2600    21.3270    27.5470    24.2420 
  138.6250     2.3820    -6.3610    56.8630    22.6220    21.7030    25.9560    24.3740 
  138.7500     2.3760    -6.2810    56.7240    22.8400    21.9740    25.2710    24.4080 
  138.8750     2.3850    -6.2300    56.1530    22.8100    22.0330    24.8730    24.3680 
