~V
VERS. 2.00: Ver 2.00
~W
STRT.M 50.0000:
STOP.M 252.0000:
STEP.M 0.1250:
NULL. -999.2500:
UWI. F10101:
~C
DEPT.M :
DEN.GM/CC :
SP.MV :
GR.API :
RML.OHMM :
RI. :
RXO.OHMM :
CALI.CM :
~A
# ...
  207.5000     2.4290    -3.1880    84.4320     7.1360     4.7760     6.1710    24.3280 
  207.6250     2.4270    -3.5130    85.5200     7.3440     4.9100     6.3780    24.3190 
  207.7500     2.4270    -3.8710    87.4110     7.6880     5.1370     6.8030    24.3160 
  207.8750     2.4310    -4.2480    88.1260     8.1260     5.4390     7.3530    24.3240 
  208.0000     2.4390    -4.6160    88.5530     8.5870     5.7740     7.8110    24.3180 
  208.1250     2.4490    -4.9510    90.1350     8.9720     6.0800     8.1250    24.2820 
  208.2500     2.4570    -5.2380    90.9500     9.2360     6.3170     8.4220    24.2420 
  208.3750     2.4580    -5.4790    90.5520     9.3620     6.4730     8.3410    24.2360 
  208.5000     2.4550    -5.7080    89.4840     9.3710     6.5550     8.1070    24.2410 
  208.6250     2.4610    -5.8560    87.2090     9.2960     6.5750     8.0130    24.2690 
  208.7500     2.4810    -5.9310    85.1180     9.1910     6.5560     7.9360    24.2630 
  208.8750     2.4990    -6.0330    85.3780     9.0750     6.5020     7.9670    24.2640 
  209.0000     2.4950    -6.0620    87.6230     8.9550     6.4190     7.9550    24.2750 
  209.1250     2.4660    -6.0730    89.2590     8.8340     6.3320     7.8900    24.2850 
  209.2500     2.4370    -6.1320    89.0280     8.7120     6.2570     7.5810    24.3350 
  209.3750     2.4200    -6.0910    86.0940     8.5890     6.1950     7.2370    24.3870 
  209.5000     2.4150    -6.0380    81.2890     8.4720     6.1370     7.0640    24.4050 
  209.6250     2.4140    -6.0580    79.0220     8.3740     6.0860     6.9250    24.3980 
  209.7500     2.4130    -6.0040    81.6510     8.3050     6.0510     7.0770    24.3660 
  209.8750     2.4150    -5.9330    87.6120     8.2900     6.0540     7.3640    24.3020 
  210.0000     2.4190    -5.9160    91.2840     8.3660     6.1220     7.5560    24.2450 
  210.1250     2.4210    -5.8440    89.9130     8.5720     6.2830     7.8270    24.1920 
  210.2500     2.4180    -5.7880    88.2430     8.8750     6.5160     7.9360    24.1480 
  210.3750     2.4120    -5.7820    88.6770     9.2300     6.7920     8.3110    24.1490 
  210.5000     2.4040    -5.7630    88.4800     9.5800     7.0790     8.9940    24.1590 
  210.6250     2.3940    -5.8140    84.5400     9.8620     7.3330     9.5980    24.1540 
  210.7500     2.3820    -5.9370    82.2530    10.1060     7.5640     9.3590    24.1490 
  210.8750     2.3680    -6.0240    84.5500    10.4110     7.8310     9.3070    24.0870 
  211.0000     2.3550    -6.1600    88.5410    10.9140     8.2250     9.7620    23.9580 
  211.1250     2.3420    -6.3690    90.1880    11.7900     8.8740    11.0370    23.8080 
  211.2500     2.3320    -6.5380    89.7170    13.0150     9.7850    13.0860    23.6800 
  211.3750     2.3260    -6.7810    88.1310    14.5000    10.9270    15.9840    23.5850 
  211.5000     2.3240    -7.0390    83.4780    16.0580    12.1880    18.8140    23.6930 
  211.6250     2.3200    -7.2270    77.2730    17.4390    13.3860    20.1040    24.0440 
  211.7500     2.3140    -7.4630    75.1860    18.5820    14.4240    19.5600    24.3490 
  211.8750     2.3050    -7.7320    77.9290    19.5570    15.3200    19.0020    24.4630 
  212.0000     2.2960    -7.9180    81.9150    20.4780    16.1390    19.2960    24.4740 
  212.1250     2.2930    -8.1560    81.4700    21.4300    16.9490    20.2680    24.4570 
  212.2500     2.2990    -8.4240    78.9620    22.3840    17.7610    22.3260    24.4510 
  212.3750     2.3070    -8.6100    77.7400    23.2470    18.5260    24.4430    24.4410 
  212.5000     2.3110    -8.8760    77.6680    23.9810    19.2140    24.1690    24.4440 
  212.6250     2.3020    -9.2060    75.5460    24.8230    19.9560    23.4050    24.4690 
  212.7500     2.2850    -9.4650    71.9930    26.2300    21.0620    23.7690    24.4840 
  212.8750     2.2650    -9.7610    70.9130    28.7130    22.9170    25.1250    24.5210 
  213.0000     2.2470   -10.1580    70.7610    32.7950    25.9710    28.3600    24.6210 
  213.1250     2.2360   -10.4670    69.6300    39.3820    31.0830    37.1590    24.7160 
  213.2500     2.2310   -10.8050    70.0200    48.4030    38.3850    50.3260    24.7620 
  213.3750     2.2300   -11.1830    72.8740    59.6380    47.8390    61.2210    24.7760 
  213.5000     2.2320   -11.4820    74.9700    72.2210    58.7720    67.6550    24.7770 
  213.6250     2.2340   -11.7870    72.8150    84.1760    69.5620    72.8790    24.7800 
  213.7500     2.2310   -12.1080    70.1630    93.4720    78.3720    77.5150    24.7800 
  213.8750     2.2250   -12.3690    68.9030    99.2680    84.2980    73.7560    24.7750 
  214.0000     2.2170   -12.5990    67.8720   102.2470    87.6050    61.5590    24.7880 
  214.1250     2.2130   -12.8100    66.6990   104.1130    89.4580    53.9730    24.8330 
  214.2500     2.2110   -12.9780    64.7530   106.7910    91.6880    56.7630    24.9160 
  214.3750     2.2090   -13.1680    63.5620   111.3270    95.4630    66.6530    24.9840 
  214.5000     2.2060   -13.3320    64.0510   118.2310   101.5330    76.6050    24.9780 
  214.6250     2.2020   -13.3970    65.5160   127.6030   110.4000    83.7320    24.9320 
  214.7500     2.1990   -13.5120    66.4370   137.8960   120.8980    85.8700    24.8630 
  214.8750     2.1980   -13.6310    66.5120   147.2260   131.6240    89.6170    24.8080 
  215.0000     2.1970   -13.6370    66.8910   153.2320   140.6300    95.9550    24.7580 
  215.1250     2.1940   -13.6980    66.2640   152.6950   144.7990    96.9820    24.6730 
  215.2500     2.1910   -13.7310    65.0880   146.0430   143.2030    91.7450    24.5390 
  215.3750     2.1930   -13.6370    65.2080   142.6950   136.0620    82.6700    24.4170 
  215.5000     2.1970   -13.5820    65.3260   130.7610   125.0120    72.9430    24.3430 
  215.6250     2.1990   -13.4920    65.5050   115.5550   112.1880    65.2180    24.3360 
  215.7500     2.2000   -13.2740    67.4590   101.0860    99.5020    60.3960    24.3710 
  215.8750     2.2040   -13.0740    71.9200    87.7980    87.5820    57.9320    24.4260 
  216.0000     2.2110   -12.8740    75.7250    76.3510    76.9210    55.3730    24.5030 
  216.1250     2.2220   -12.5870    75.2090    68.3630    68.8460    53.4920    24.5730 
  216.2500     2.2320   -12.3310    72.9810    64.4100    64.1410    57.0550    24.5910 
  216.3750     2.2410   -12.0930    70.1510    65.2060    63.7600    64.8370    24.6120 
  216.5000     2.2480   -11.8610    66.8140    71.4280    68.6810    76.0280    24.6120 
  216.6250     2.2560   -11.7320    64.1630    84.9240    81.0370    96.1300    24.5670 
  216.7500     2.2640   -11.6200    62.9920   104.9180    99.9370   125.8850    24.5610 
  216.8750     2.2660   -11.4930    61.9190   129.9250   123.4480   151.1660    24.6230 
  217.0000     2.2590   -11.5130    59.7240   155.4190   146.9890   165.0180    24.6750 
  217.1250     2.2500   -11.5810    59.5470   172.5360   162.9260   167.7400    24.6390 
  217.2500     2.2450   -11.6350    62.5510   178.8860   169.3680   147.9010    24.5060 
  217.3750     2.2410   -11.8160    66.0820   177.8310   168.8070   117.7290    24.3690 
  217.5000     2.2350   -11.9520    66.7000   174.2970   165.4160    92.5870    24.2230 
  217.6250     2.2280   -12.0280    63.6690   170.8830   161.9420    80.0600    24.0990 
  217.7500     2.2230   -12.2330    60.2230   167.3540   158.6390    85.1900    24.1000 
  217.8750     2.2150   -12.4330    58.1590   162.8690   154.8080    99.6130    24.2690 
  218.0000     2.2060   -12.4950    59.1330   156.9200   149.7820   115.4570    24.4670 
  218.1250     2.2010   -12.6240    62.3300   149.2810   143.0340   120.4940    24.6020 
  218.2500     2.2010   -12.7150    65.4000   140.4600   135.0220   120.0900    24.6380 
  218.3750     2.2050   -12.7010    65.7400   130.6880   126.1480   117.0910    24.6430 
  218.5000     2.2090   -12.7640    63.2620   120.2740   116.8170   112.7900    24.6380 
  218.6250     2.2100   -12.8170    62.3540   109.8270   107.4730   105.0920    24.6360 
