~V
VERS. 2.00: Ver 2.00
~W
STRT.M 64.0000:
STOP.M 215.0000:
STEP.M 0.1250:
NULL. -999.2500:
UWI. F10146:
~C
DEPT.M :
DEN.GM/CC :
GR.API :
RML.OHMM :
RI. :
RXO.OHMM :
CALI.CM :
SP.MV :
~A
# ...
  187.7500     2.4990    75.2220    12.4800    13.1330    10.6490    22.2260   -18.1510 
  187.8750     2.4560    87.2330     9.3620     9.5100     8.3880    22.2170   -17.9210 
  188.0000     2.4190    92.8240     8.5550     8.1600     7.9900    22.2340   -17.7280 
  188.1250     2.4010    90.9110     9.5900     8.5300     8.9560    22.4080   -17.5520 
  188.2500     2.4010    85.5700    11.9430    10.1850    12.1890    22.7350   -17.4280 
  188.3750     2.4170    80.8870    15.2670    12.9860    18.2190    23.0330   -17.3120 
  188.5000     2.4420    79.6940    18.6920    16.3520    23.8830    23.3060   -17.2430 
  188.6250     2.4690    80.5210    20.3760    18.5680    25.5650    23.3830   -17.1190 
  188.7500     2.4860    82.4890    19.5970    18.4490    23.3430    23.5160   -16.9850 
  188.8750     2.4840    84.8350    16.9860    16.3510    18.8970    23.6060   -16.8060 
  189.0000     2.4630    83.1710    13.9140    13.5680    13.5280    23.6670   -16.5690 
  189.1250     2.4290    77.4250    10.7120    11.2640     9.7800    23.6080   -16.3130 
  189.2500     2.3960    74.1570     9.3460     9.6870     7.6840    23.3070   -16.0090 
  189.3750     2.3700    72.8280     8.6090     8.7280     6.9710    23.0710   -15.7000 
  189.5000     2.3510    67.8100     8.2610     8.1960     7.1750    23.0390   -15.3630 
  189.6250     2.3380    61.1060     8.1100     7.9280     7.5060    23.0070   -15.0960 
  189.7500     2.3300    60.8290     8.0060     7.7590     7.4140    22.8750   -14.8370 
  189.8750     2.3270    64.1980     7.9580     7.6660     6.7060    22.6410   -14.5880 
  190.0000     2.3270    66.0530     8.0590     7.7040     6.1340    22.5140   -14.3840 
  190.1250     2.3300    65.8650     8.4340     7.9800     6.3000    22.5160   -14.1890 
  190.2500     2.3350    65.1810     8.9980     8.4440     7.1060    22.5610   -14.0380 
  190.3750     2.3420    65.0420     9.5700     8.9570     8.6650    22.5640   -13.8860 
  190.5000     2.3520    68.1750     9.9000     9.2970    10.9150    22.5550   -13.7710 
  190.6250     2.3640    72.4940     9.7460     9.2070    11.7230    22.4940   -13.6330 
  190.7500     2.3750    75.8730     9.2920     8.8020    10.2120    22.4030   -13.5190 
  190.8750     2.3850    79.1650     8.8380     8.3220     7.9910    22.2950   -13.4600 
  191.0000     2.3950    82.9740     8.6410     7.9960     7.4160    22.2620   -13.4200 
  191.1250     2.4050    84.5550     8.8280     7.9550     8.7780    22.2620   -13.4160 
  191.2500     2.4150    83.0080     9.1980     8.0820    10.1070    22.2670   -13.4030 
  191.3750     2.4210    79.3710     9.5050     8.2200     9.7150    22.2620   -13.4130 
  191.5000     2.4180    73.6590     9.5250     8.2140     7.9600    22.2590   -13.3870 
  191.6250     2.4030    70.8000     9.1590     7.9820     6.9090    22.2620   -13.3830 
  191.7500     2.3820    74.0010     8.6520     7.6520     6.5980    22.2860   -13.3760 
  191.8750     2.3590    80.2210     8.2240     7.3370     6.8530    22.3320   -13.3600 
  192.0000     2.3400    83.3920     7.2830     7.1170     7.3870    22.4070   -13.3290 
  192.1250     2.3300    78.0410     7.3310     7.0380     7.5520    22.4200   -13.2710 
  192.2500     2.3300    69.1730     7.5190     7.0650     7.6570    22.4280   -13.2540 
  192.3750     2.3400    63.7490     7.7710     7.1690     8.0450    22.4580   -13.2360 
  192.5000     2.3580    65.9260     8.0360     7.3290     8.6860    22.5020   -13.2710 
  192.6250     2.3790    72.4050     8.2720     7.5300     8.2840    22.5480   -13.2870 
  192.7500     2.3930    76.2380     8.4510     7.7300     8.0430    22.5210   -13.3180 
  192.8750     2.3920    75.7910     8.5570     7.8920     7.7800    22.5220   -13.3450 
  193.0000     2.3700    73.9580     8.6000     7.9840     7.5220    22.6350   -13.3660 
  193.1250     2.3280    74.3880     8.6130     7.9930     7.4940    22.7430   -13.4180 
  193.2500     2.2810    74.9240     8.6390     7.9660     7.8500    22.8700   -13.4370 
  193.3750     2.2460    74.8050     8.6910     7.9380     8.1620    22.8900   -13.4560 
  193.5000     2.2330    75.7080     8.7540     7.9250     8.2520    22.8930   -13.4420 
  193.6250     2.2440    77.6550     8.7940     7.9200     7.9270    22.9060   -13.4410 
  193.7500     2.2670    76.7400     8.7890     7.9070     7.6830    22.9820   -13.3760 
  193.8750     2.2900    74.2820     8.7410     7.8790     7.6420    23.1310   -13.2890 
  194.0000     2.3070    74.6850     8.6670     7.8400     7.7710    23.3220   -13.1950 
  194.1250     2.3180    77.4000     8.5700     7.7850     8.1610    23.7440   -13.0460 
  194.2500     2.3210    78.6460     8.4480     7.7040     8.5360    23.7430   -12.9010 
  194.3750     2.3140    79.3740     8.2970     7.5850     8.0460    23.5540   -12.7460 
  194.5000     2.2990    80.8250     8.1290     7.4340     7.3960    23.2250   -12.6240 
  194.6250     2.2830    78.4210     7.9800     7.2730     7.0720    23.3110   -12.4990 
  194.7500     2.2750    72.8330     7.8780     7.1330     6.8840    23.5720   -12.4490 
  194.8750     2.2780    69.4250     7.8180     7.0290     6.5220    23.6330   -12.4410 
  195.0000     2.2890    71.5860     7.7830     6.9660     6.0410    23.6260   -12.4510 
  195.1250     2.3010    74.4060     7.7540     6.9380     5.9110    23.6900   -12.5380 
  195.2500     2.3070    75.1080     7.7220     6.9200     6.0170    23.6960   -12.6510 
  195.3750     2.3080    76.9090     7.6910     6.8990     6.0080    23.5070   -12.7950 
  195.5000     2.3090    79.5060     7.6600     6.8660     5.8730    23.3010   -12.9360 
  195.6250     2.3120    78.6010     7.6210     6.8200     5.9060    23.1980   -13.0820 
  195.7500     2.3190    76.4170     7.5810     6.7820     6.1430    23.1560   -13.2060 
  195.8750     2.3290    76.1590     7.5660     6.7730     6.4590    23.1420   -13.3030 
  196.0000     2.3400    77.6250     7.6150     6.8090     6.5010    23.1800   -13.4090 
  196.1250     2.3500    77.2060     7.7750     6.9010     6.5160    23.2120   -13.4400 
  196.2500     2.3560    78.5540     8.0060     7.0260     6.7750    23.3440   -13.4410 
  196.3750     2.3580    82.3120     8.2390     7.1590     7.0840    23.4840   -13.4150 
  196.5000     2.3580    83.8220     8.3970     7.2730     7.1620    23.5140   -13.3630 
  196.6250     2.3590    80.3600     8.4220     7.3470     7.2250    23.5140   -13.3220 
  196.7500     2.3620    78.3200     8.3630     7.3830     7.3050    23.5180   -13.2700 
  196.8750     2.3650    80.9630     8.2780     7.3860     7.4770    23.5790   -13.2330 
  197.0000     2.3660    83.9720     8.2130     7.3660     7.4830    23.6450   -13.1650 
  197.1250     2.3560    82.3110     8.1850     7.3290     7.5220    23.6630   -13.1320 
  197.2500     2.3350    79.9080     8.1720     7.2910     7.3470    23.6950   -13.1060 
  197.3750     2.3080    78.7790     8.1550     7.2640     7.2130    23.7110   -13.0880 
  197.5000     2.2820    76.2120     8.1290     7.2620     7.1940    23.6450   -13.0950 
  197.6250     2.2700    72.4520     8.1080     7.3020     7.6860    23.5850   -13.1050 
  197.7500     2.2750    71.2420     8.1190     7.3790     9.0270    23.9680   -13.1490 
  197.8750     2.2920    73.3920     8.1790     7.4840    10.8240    24.4180   -13.1740 
  198.0000     2.3140    77.9080     8.2700     7.5970    11.2540    24.6040   -13.2080 
  198.1250     2.3340    81.9510     8.3150     7.6720     9.4950    24.8400   -13.2120 
  198.2500     2.3510    82.4910     8.2370     7.6540     8.7360    24.7520   -13.2070 
  198.3750     2.3670    80.5660     7.9970     7.4960     8.1120    24.5910   -13.1790 
  198.5000     2.3840    79.2770     7.6180     7.1860     7.3990    24.5370   -13.0890 
  198.6250     2.3890    78.2370     7.1730     6.7570     6.4920    24.5560   -12.9710 
  198.7500     2.3700    75.1590     6.7560     6.3130     5.5270    24.5860   -12.7950 
  198.8750     2.3180    72.3700     6.4150     5.9250     4.7540    24.5540   -12.6280 
