~V
VERS. 2.00: Ver 2.00
~W
STRT.M 55.0000:
STOP.M 215.0000:
STEP.M 0.1250:
NULL. -999.2500:
UWI. F10125:
~C
DEPT.M :
GR.API :
RML.OHMM :
RI. :
RXO.OHMM :
CALI.CM :
DEN.GM/CC :
SP.MV :
~A
# ...
  133.7500    78.2010    16.9860    15.1860    13.4860    25.7810     2.4920   -19.9570 
  133.8750    73.9780    15.4290    13.9630    12.0020    25.7280     2.5010   -20.0650 
  134.0000    71.2380    14.5300    13.2170    11.1910    25.6440     2.5050   -20.1670 
  134.1250    70.1260    14.3030    13.0140    11.3260    25.6170     2.5010   -20.2720 
  134.2500    69.9350    14.4470    13.1560    12.0080    25.6710     2.4860   -20.3890 
  134.3750    71.6030    14.8030    13.5130    12.6370    25.7570     2.4630   -20.5160 
  134.5000    74.6900    15.2870    13.9870    13.1160    25.8290     2.4350   -20.6540 
  134.6250    75.6090    15.9040    14.5430    13.3100    25.8020     2.4080   -20.8030 
  134.7500    75.5150    16.6200    15.1590    13.8010    25.7950     2.3860   -20.9680 
  134.8750    75.9250    17.3270    15.7810    14.3610    25.7730     2.3740   -21.1370 
  135.0000    77.1180    17.8210    16.2600    15.4350    25.6470     2.3780   -21.3240 
  135.1250    77.1520    17.7990    16.3120    15.8810    25.3110     2.3970   -21.5440 
  135.2500    77.7180    17.2850    15.9050    16.1250    25.0730     2.4180   -21.7660 
  135.3750    81.5830    16.4580    15.1680    15.1060    24.9460     2.4320   -21.9930 
  135.5000    85.0880    15.6430    14.3660    12.3920    24.8720     2.4340   -22.2200 
  135.6250    83.1770    15.3290    13.8720    11.4570    24.8340     2.4220   -22.4340 
  135.7500    80.2660    15.8390    13.9250    12.2070    24.8100     2.4040   -22.6530 
  135.8750    79.8140    17.5000    14.7490    13.5480    24.7840     2.3840   -22.9000 
  136.0000    80.2940    20.6370    16.5730    14.6150    24.7980     2.3510   -23.1530 
  136.1250    75.0830    25.8540    19.9130    17.1630    24.8940     2.2940   -23.4140 
  136.2500    66.0120    32.9050    24.8150    25.0960    25.1030     2.2310   -23.6990 
  136.3750    59.3050    41.3870    31.2630    38.6390    25.4650     2.1860   -23.9880 
  136.5000    59.4850    50.3800    38.7630    47.9640    25.8230     2.1760   -24.2690 
  136.6250    64.2200    58.2990    46.0570    50.4940    26.0890     2.1970   -24.5690 
  136.7500    65.2990    64.2540    51.9330    56.5230    26.1850     2.2280   -24.8720 
  136.8750    62.7530    68.2240    56.0260    64.5980    26.2050     2.2550   -25.1480 
  137.0000    61.3620    70.7730    58.6720    67.6090    26.2330     2.2720   -25.4030 
  137.1250    63.6890    72.2870    60.2370    67.2310    26.2860     2.2820   -25.6450 
  137.2500    66.6880    72.9840    61.0390    68.6550    26.3060     2.2900   -25.8690 
  137.3750    67.7520    72.9690    61.1720    69.9450    26.3060     2.2980   -26.0980 
  137.5000    65.8160    72.7830    61.0500    66.5530    26.2800     2.3080   -26.3110 
  137.6250    61.7830    73.3200    61.3940    60.2360    26.2780     2.3150   -26.5210 
  137.7500    59.0300    74.8520    62.5180    55.9330    26.3320     2.3140   -26.7160 
  137.8750    58.8100    77.1690    64.3560    58.2510    26.4490     2.3050   -26.9160 
  138.0000    58.3510    79.7470    66.5950    72.6800    26.5560     2.2900   -27.1340 
  138.1250    56.9750    82.0080    68.8300    91.0870    26.6230     2.2730   -27.3530 
  138.2500    57.7000    84.1270    70.9950    89.6770    26.6990     2.2520   -27.5660 
  138.3750    60.7940    87.0800    73.6590    68.7860    26.8360     2.2270   -27.7710 
  138.5000    64.1710    92.3540    77.9490    61.6980    26.9430     2.2020   -27.9990 
  138.6250    66.5300   102.1540    85.8200    74.3720    26.8440     2.1920   -28.2000 
  138.7500    67.8990   116.5680    97.6690    99.8390    26.5090     2.1970   -28.4070 
  138.8750    66.2300   134.9570   113.1560   119.0900    26.0910     2.2110   -28.6060 
  139.0000    61.7300   155.0950   130.4950   137.3920    25.7740     2.2250   -28.7730 
  139.1250    57.8540   172.6940   146.1540   147.6550    25.5500     2.2380   -28.9310 
  139.2500    56.2280   184.8920   157.5620   160.3870    25.4070     2.2470   -29.0650 
  139.3750    57.4520   190.8810   163.8090   166.7460    25.3820     2.2510   -29.1990 
  139.5000    61.3700   191.3650   165.2230   168.7420    25.5540     2.2500   -29.2910 
  139.6250    64.1210   187.3870   162.4430   174.9670    25.7920     2.2440   -29.3650 
  139.7500    64.0360   181.6300   157.7690   179.8310    25.9890     2.2380   -29.4640 
  139.8750    63.8850   175.9800   152.8150   165.4190    26.0920     2.2380   -29.5350 
  140.0000    65.5600   172.3520   149.2790   149.3790    26.1010     2.2410   -29.6130 
  140.1250    67.3980   173.2060   149.4570   156.6890    26.0230     2.2460   -29.6720 
  140.2500    68.9060   178.7200   153.7090   184.3440    25.9260     2.2490   -29.7220 
  140.3750    70.0270   188.6210   161.8100   196.6760    25.9280     2.2500   -29.7310 
  140.5000    69.4410   201.9960   172.9180   172.6250    26.0280     2.2470   -29.7520 
  140.6250    65.7090   217.0720   185.6440   182.5020    26.0740     2.2470   -29.7590 
  140.7500    62.0550   230.1740   197.1530   203.7410    26.0720     2.2520   -29.7150 
  140.8750    60.3300   237.4430   204.4590   209.1760    26.0460     2.2560   -29.6750 
  141.0000    60.8780   235.6790   204.8480   222.4540    25.9840     2.2540   -29.6230 
  141.1250    62.2370   222.7200   195.8400   245.3610    25.9600     2.2470   -29.5670 
  141.2500    61.7220   203.6480   180.7110   246.0560    25.9720     2.2450   -29.4880 
  141.3750    59.0680   183.9030   163.6450   193.6390    26.0080     2.2500   -29.4130 
  141.5000    57.9580   168.5330   149.2380   142.3440    25.9690     2.2560   -29.3590 
  141.6250    59.4440   162.2240   142.1090   133.8890    25.9320     2.2580   -29.3420 
  141.7500    61.1720   165.3710   143.1990   122.1400    25.9190     2.2560   -29.3400 
  141.8750    62.2290   178.7820   153.5610   120.2920    25.9320     2.2530   -29.3430 
  142.0000    62.7710   202.3120   173.2410   141.4430    25.9650     2.2490   -29.3090 
  142.1250    61.8120   233.1710   199.9290   214.2200    26.0300     2.2430   -29.2640 
  142.2500    59.9490   259.8480   224.1930   268.1800    26.1240     2.2350   -29.2470 
  142.3750    60.0690   269.2900   235.8390   267.9080    26.1690     2.2280   -29.2440 
  142.5000    61.3000   254.3800   228.1360   233.7040    26.1790     2.2260   -29.2220 
  142.6250    60.7290   220.4830   202.1290   192.5700    26.1910     2.2280   -29.1810 
  142.7500    58.9550   184.5740   171.2640   149.6860    26.2140     2.2320   -29.1060 
  142.8750    57.9920   153.6730   142.9640   116.1300    26.2220     2.2390   -29.0350 
  143.0000    59.1170   129.5970   120.2330    89.4750    26.1790     2.2490   -28.9950 
  143.1250    62.4130   113.0210   104.2810    78.6780    26.0410     2.2610   -28.9600 
  143.2500    66.2250   102.0070    93.4550    69.4010    25.8040     2.2740   -28.9180 
  143.3750    69.2130    95.6960    86.9890    49.5620    25.2570     2.2860   -28.8770 
  143.5000    70.1430    93.1800    84.0590    29.1870    24.1400     2.2930   -28.8230 
  143.6250    67.0160    94.0290    84.2490    24.1420    23.3690     2.2910   -28.7720 
  143.7500    62.1150    97.1150    86.4470    28.7290    23.1480     2.2860   -28.7250 
  143.8750    60.2520   102.2240    90.3740    33.5050    23.2760     2.2790   -28.6500 
  144.0000    63.0840   109.3690    95.9980    32.5620    23.4270     2.2640   -28.5960 
  144.1250    66.5020   118.7380   103.5400    29.7020    23.4830     2.2360   -28.5010 
  144.2500    65.4810   129.1870   112.1880    31.2520    23.5330     2.2060   -28.4000 
  144.3750    60.5270   139.0170   120.6960    36.9320    23.6460     2.1880   -28.2760 
  144.5000    56.4270   145.8880   127.2210    45.1090    23.7920     2.1920   -28.1610 
  144.6250    56.3860   147.1820   129.4340    51.6160    23.9050     2.2100   -27.9870 
  144.7500    58.8680   144.6100   128.1800    48.2960    23.9280     2.2220   -27.7890 
  144.8750    62.1090   141.1230   125.5930    39.9280    23.8520     2.2250   -27.6270 
