~V
VERS. 2.00: Ver 2.00
~W
STRT.M 50.0000:
STOP.M 224.0000:
STEP.M 0.1250:
NULL. -999.2500:
UWI. F10153:
~C
DEPT.M :
GR.API :
RML.OHMM :
RI. :
RXO.OHMM :
CALI.CM :
SP.MV :
DEN.GM/CC :
~A
# ...
  173.7500   107.1390     8.5560     6.4500     5.8040    23.5380   -34.3610     2.3880 
  173.8750   110.8880     8.8380     6.6080     6.1370    23.6930   -34.7020     2.3750 
  174.0000   110.1230     9.1160     6.7730     7.0440    23.7890   -35.0470     2.3590 
  174.1250   108.2240     9.2980     6.8880     7.6900    23.8270   -35.3390     2.3390 
  174.2500   106.4970     9.3710     6.9380     7.5780    23.8780   -35.5480     2.3190 
  174.3750   103.3870     9.3610     6.9270     7.1370    23.9690   -35.6540     2.3040 
  174.5000    99.2280     9.3780     6.9190     7.1650    24.0080   -35.6900     2.2850 
  174.6250    96.1760     9.5120     6.9740     7.6060    23.9580   -35.6600     2.2560 
  174.7500    94.8040     9.7700     7.1050     8.1500    23.8850   -35.5660     2.2200 
  174.8750    94.9370    10.1380     7.3180     8.6950    23.8970   -35.3830     2.1980 
  175.0000    95.5160    10.5160     7.5530     9.1280    23.9990   -35.1310     2.2030 
  175.1250    95.2740    10.8100     7.7450     9.2900    24.0990   -34.8260     2.2310 
  175.2500    94.4630    11.0000     7.8760     9.2770    24.1370   -34.4680     2.2670 
  175.3750    95.4800    11.0470     7.9310     9.2410    24.0590   -34.0020     2.2870 
  175.5000    96.8380    10.9860     7.9350     9.3800    23.8820   -33.4140     2.2830 
  175.6250    95.3510    10.8920     7.9290     9.5960    23.6500   -32.7260     2.2610 
  175.7500    92.4340    10.8540     7.9570     9.7150    23.4240   -31.9710     2.2330 
  175.8750    92.2290    11.0470     8.1130     9.5650    23.3110   -31.1230     2.2230 
  176.0000    93.4120    11.5170     8.4250     9.3650    23.3400   -30.1430     2.2470 
  176.1250    91.3500    12.1620     8.8480     9.6540    23.4650   -29.0050     2.3040 
  176.2500    87.4600    12.7810     9.2720    10.8440    23.6050   -27.7490     2.3720 
  176.3750    90.2690    12.9580     9.4400    12.2370    23.6350   -26.4130     2.4130 
  176.5000   100.4020    12.4600     9.1760    11.5640    23.5400   -25.0600     2.4050 
  176.6250   109.7410    11.3730     8.4890     9.3570    23.4240   -23.7190     2.3620 
  176.7500   112.8160    10.0270     7.5800     7.4900    23.3510   -22.3960     2.3110 
  176.8750   105.6070     8.8140     6.6950     6.4360    23.3250   -21.1480     2.2870 
  177.0000    92.0030     7.9920     6.0310     5.7720    23.3170   -20.0620     2.2970 
  177.1250    77.6230     7.6260     5.6670     5.4560    23.3490   -19.2130     2.3290 
  177.2500    66.2360     7.5980     5.5440     5.3920    23.4280   -18.5660     2.3650 
  177.3750    60.4690     7.8170     5.6370     5.5190    23.5390   -18.1320     2.3910 
  177.5000    58.6090     8.0820     5.8170     5.7160    23.6380   -17.8620     2.4030 
  177.6250    58.2720     8.2340     5.9700     5.8470    23.7060   -17.7060     2.4070 
  177.7500    57.3650     8.2330     6.0500     5.8390    23.7460   -17.6100     2.4050 
  177.8750    55.8880     8.0920     6.0300     5.6240    23.7730   -17.5500     2.4040 
  178.0000    56.3150     7.9450     5.9740     5.3630    23.8040   -17.4930     2.4050 
  178.1250    58.0150     7.9080     5.9570     5.2660    23.8320   -17.4080     2.4080 
  178.2500    58.5850     7.9940     6.0090     5.3850    23.8470   -17.2930     2.4120 
  178.3750    58.1260     8.1960     6.1470     5.7060    23.8550   -17.1400     2.4190 
  178.5000    59.7940     8.4220     6.3180     6.0380    23.8800   -16.9220     2.4290 
  178.6250    64.7170     8.5760     6.4540     6.2000    23.9350   -16.6290     2.4410 
  178.7500    70.4370     8.6240     6.5210     6.1320    24.0050   -16.2950     2.4470 
  178.8750    73.2990     8.5290     6.4780     5.8930    24.0590   -15.9310     2.4360 
  179.0000    74.3690     8.3460     6.3550     5.7010    24.0750   -15.5180     2.4110 
  179.1250    77.0120     8.1520     6.1990     5.6210    24.0480   -15.0180     2.3790 
  179.2500    81.9840     7.9950     6.0490     5.5760    23.9940   -14.4360     2.3520 
  179.3750    87.2020     7.9210     5.9440     5.4360    23.9450   -13.8070     2.3440 
  179.5000    90.2010     7.9130     5.8860     5.3550    23.9110   -13.2140     2.3520 
  179.6250    92.2330     7.9230     5.8510     5.4980    23.8670   -12.7140     2.3670 
  179.7500    95.2770     7.9080     5.8120     5.7850    23.8030   -12.2880     2.3840 
  179.8750   100.9430     7.8380     5.7430     5.8870    23.7520   -11.9040     2.3960 
  180.0000   106.1540     7.7480     5.6590     5.7440    23.7630   -11.5530     2.4040 
  180.1250   106.9910     7.7140     5.6040     5.5570    23.8310   -11.2640     2.4100 
  180.2500   103.6340     7.7730     5.6050     5.5120    23.9090   -11.0480     2.4160 
  180.3750    98.9480     7.9650     5.7040     5.7720    23.9530   -10.9080     2.4160 
  180.5000    96.4470     8.2410     5.8770     6.2720    23.9730   -10.8080     2.4130 
  180.6250    96.2110     8.5350     6.0800     6.6650    23.9930   -10.7350     2.4050 
  180.7500    96.4340     8.8130     6.2840     6.7890    24.0140   -10.7020     2.3950 
  180.8750    96.1560     9.0650     6.4740     6.8190    24.0270   -10.7410     2.3870 
  181.0000    95.7960     9.3170     6.6720     6.9390    24.0410   -10.8240     2.3840 
  181.1250    94.8230     9.6020     6.9040     7.2500    24.0590   -10.9200     2.3850 
  181.2500    92.7860     9.9170     7.1700     7.6630    24.0650   -11.0140     2.3880 
  181.3750    90.3430    10.2350     7.4550     8.0840    24.0420   -11.1140     2.3890 
  181.5000    89.2740    10.5010     7.7160     8.4620    23.9990   -11.2280     2.3880 
  181.6250    91.2330    10.6740     7.9160     8.5840    23.9540   -11.3390     2.3870 
  181.7500    95.5070    10.7610     8.0510     8.6100    23.9120   -11.4170     2.3840 
  181.8750    98.7770    10.7590     8.1020     8.4320    23.8780   -11.4270     2.3790 
  182.0000    97.6300    10.6860     8.0800     8.3420    23.8570   -11.4110     2.3760 
  182.1250    94.2540    10.5300     7.9890     8.3330    23.8510   -11.3940     2.3760 
  182.2500    93.4610    10.2980     7.8450     8.1440    23.8480   -11.3700     2.3820 
  182.3750    97.1160     9.9890     7.6580     7.8970    23.8380   -11.2910     2.3930 
  182.5000    99.0090     9.6660     7.4660     7.6890    23.8130   -11.1280     2.4030 
  182.6250    97.5480     9.4190     7.3180     7.5300    23.7700   -10.8870     2.4080 
  182.7500    96.7800     9.2950     7.2430     7.4410    23.7170   -10.6180     2.4100 
  182.8750    99.4220     9.3760     7.2960     7.3960    23.6810   -10.3690     2.4080 
  183.0000   101.4570     9.6180     7.4590     7.5230    23.6850   -10.1300     2.4070 
  183.1250   100.8650     9.9130     7.6790     8.0030    23.7160    -9.8930     2.4080 
  183.2500    99.6920    10.1560     7.8870     8.7290    23.7550    -9.6700     2.4080 
  183.3750    99.3700    10.1880     7.9780     9.1200    23.8000    -9.4830     2.4070 
  183.5000    99.7640     9.9870     7.9150     8.8550    23.8580    -9.3450     2.4050 
  183.6250   100.8250     9.6440     7.7400     8.1610    23.9280    -9.2540     2.4040 
  183.7500   102.0490     9.2820     7.5330     7.4800    23.9950    -9.1880     2.4040 
  183.8750   101.4240     9.0600     7.4020     7.2360    24.0270    -9.1400     2.4080 
  184.0000    99.8710     9.0410     7.4130     7.3090    24.0170    -9.1300     2.4140 
  184.1250    99.8350     9.1920     7.5650     7.5730    23.9770    -9.1640     2.4180 
  184.2500   100.4560     9.4150     7.8020     7.9810    23.9240    -9.2130     2.4190 
  184.3750    99.0680     9.5840     8.0380     8.3460    23.8550    -9.2690     2.4140 
  184.5000    96.9210     9.6230     8.1950     8.6080    23.7680    -9.3500     2.4040 
  184.6250    96.5190     9.5380     8.2500     8.5030    23.6810    -9.4820     2.3960 
  184.7500    97.6320     9.3960     8.2380     8.0310    23.6150    -9.6470     2.3930 
  184.8750    98.0870     9.2840     8.2120     7.6580    23.6070    -9.7930     2.3970 
