~V
VERS. 2.00: Ver 2.00
~W
STRT.M 50.0000:
STOP.M 230.0000:
STEP.M 0.1250:
NULL. -999.2500:
UWI. F10167:
~C
DEPT.M :
DEN.GM/CC :
GR.API :
RML.OHMM :
RI. :
RXO.OHMM :
CALI.CM :
SP.MV :
~A
# ...
   83.7500     2.3380    65.3820     9.5280     8.2160    10.2150    21.7720   -20.2260 
   83.8750     2.2860    66.7820     8.9710     7.7510     8.9500    21.7340   -20.0970 
   84.0000     2.2240    65.8900     8.4190     7.2270     8.3200    21.7340   -20.1240 
   84.1250     2.1770    64.3760     8.0150     6.7680     8.1700    21.7600   -20.3300 
   84.2500     2.1540    62.2610     7.7670     6.4260     8.0290    21.7720   -20.5550 
   84.3750     2.1510    60.7000     7.6360     6.2030     7.8680    21.7740   -20.8800 
   84.5000     2.1580    60.2220     7.5640     6.0690     7.7540    21.7730   -21.2650 
   84.6250     2.1620    60.7580     7.5170     5.9990     7.7590    21.7720   -21.5840 
   84.7500     2.1590    61.5900     7.4880     5.9660     7.8250    21.7710   -21.8800 
   84.8750     2.1530    61.5700     7.4910     5.9670     7.8690    21.7680   -22.1390 
   85.0000     2.1520    60.5260     7.5290     6.0010     7.9170    21.7640   -22.2420 
   85.1250     2.1630    59.4550     7.5920     6.0620     7.9960    21.7680   -22.2170 
   85.2500     2.1830    58.4440     7.6490     6.1290     8.0480    21.7700   -22.1710 
   85.3750     2.2030    56.6760     7.6790     6.1830     8.0280    21.7640   -21.9960 
   85.5000     2.2140    55.6560     7.6690     6.2090     7.9780    21.7450   -21.6560 
   85.6250     2.2100    57.6490     7.6160     6.1910     8.0050    21.7200   -21.2350 
   85.7500     2.1980    60.7480     7.5390     6.1370     8.0550    21.7120   -20.7380 
   85.8750     2.1850    61.9660     7.4520     6.0550     8.0620    21.7150   -20.1420 
   86.0000     2.1790    63.0000     7.3660     5.9590     7.9880    21.7260   -19.5790 
   86.1250     2.1850    66.9490     7.3050     5.8680     7.7790    21.7200   -19.0480 
   86.2500     2.1960    70.4520     7.2880     5.8060     7.5710    21.7080   -18.5090 
   86.3750     2.2060    72.5410     7.3340     5.7920     7.4640    21.6900   -18.1280 
   86.5000     2.2090    73.7160     7.4510     5.8360     7.4700    21.6640   -17.9720 
   86.6250     2.2040    71.9680     7.6240     5.9450     7.6590    21.6630   -18.0020 
   86.7500     2.1970    66.9290     7.7970     6.0820     8.0380    21.6320   -18.2190 
   86.8750     2.1930    60.8270     7.9210     6.2110     8.4660    21.5160   -18.5550 
   87.0000     2.1930    57.2400     7.9620     6.2970     8.6340    21.4070   -18.8600 
   87.1250     2.1970    56.6710     7.9100     6.3130     8.5560    21.3850   -19.1990 
   87.2500     2.2000    57.7260     7.8190     6.2820     8.4250    21.4100   -19.5830 
   87.3750     2.2010    59.6560     7.7360     6.2330     8.3420    21.4360   -19.8710 
   87.5000     2.1990    61.5790     7.6920     6.1950     8.3090    21.4680   -20.0450 
   87.6250     2.1950    62.2160     7.6990     6.1860     8.3370    21.4940   -20.1740 
   87.7500     2.1890    61.2230     7.7310     6.1950     8.4140    21.5400   -20.1880 
   87.8750     2.1830    59.0950     7.7690     6.2120     8.4920    21.6110   -20.0870 
   88.0000     2.1790    56.7750     7.8030     6.2280     8.4940    21.6850   -20.0190 
   88.1250     2.1790    54.0390     7.8280     6.2440     8.4250    21.7210   -19.9580 
   88.2500     2.1840    51.9360     7.8410     6.2610     8.4410    21.7380   -19.8440 
   88.3750     2.1900    52.7390     7.8350     6.2760     8.4950    21.7520   -19.7810 
   88.5000     2.1940    55.8520     7.8020     6.2800     8.5570    21.7730   -19.8020 
   88.6250     2.1930    58.1070     7.7410     6.2630     8.6300    21.8000   -19.7780 
   88.7500     2.1870    59.9080     7.6790     6.2350     8.5800    21.8230   -19.7500 
   88.8750     2.1800    60.8880     7.6390     6.2090     8.4980    21.8190   -19.7990 
   89.0000     2.1760    59.7920     7.6350     6.2020     8.5460    21.8040   -19.7820 
   89.1250     2.1790    55.4440     7.6560     6.2170     8.8990    21.8180   -19.5760 
   89.2500     2.1860    53.3730     7.6570     6.2240     9.9790    21.8300   -19.2790 
   89.3750     2.1890    57.2160     7.5910     6.1880    11.6130    21.8180   -18.8160 
   89.5000     2.1880    64.1040     7.4290     6.0750    11.2580    21.7750   -18.1550 
   89.6250     2.1790    67.9580     7.1590     5.8650     9.0140    21.7720   -17.4570 
   89.7500     2.1710    67.2020     6.8450     5.5990     8.1010    21.8420   -16.7170 
   89.8750     2.1690    67.7500     6.5560     5.3270     7.7190    21.9620   -15.8580 
   90.0000     2.1780    72.5860     6.3690     5.1080     7.2920    22.0720   -15.0120 
   90.1250     2.2010    76.4850     6.4030     5.0330     6.7290    22.1930   -14.3420 
   90.2500     2.2370    75.6450     6.6970     5.1390     6.6930    22.2850   -13.7960 
   90.3750     2.2870    74.1560     7.2670     5.4580     7.3310    22.2710   -13.4160 
   90.5000     2.3500    74.9310     8.0650     5.9850     8.3900    22.1920   -13.2400 
   90.6250     2.4200    73.4050     8.9340     6.6650     9.0440    22.2760   -13.1780 
   90.7500     2.4740    69.4380     9.6260     7.3180     9.2230    22.5640   -13.2010 
   90.8750     2.4920    68.4090     9.9570     7.7800     9.1800    22.8910   -13.3770 
   91.0000     2.4670    71.5380     9.8690     7.9430     9.1720    23.0430   -13.6380 
   91.1250     2.4050    73.0050     9.4400     7.7760     9.1220    22.9400   -13.8900 
   91.2500     2.3360    69.9520     8.9460     7.4610     9.0240    22.8460   -14.2060 
   91.3750     2.2790    65.8580     8.5570     7.1360     8.9570    22.7950   -14.6020 
   91.5000     2.2430    64.1440     8.3480     6.8920     8.9740    22.7450   -14.9770 
   91.6250     2.2240    66.0710     8.3180     6.7750     9.2340    22.6980   -15.3000 
   91.7500     2.2140    68.8410     8.3590     6.7380     9.4230    22.6710   -15.6550 
   91.8750     2.2070    69.3570     8.4030     6.7400     9.5050    22.6500   -15.9630 
   92.0000     2.2040    66.0330     8.4140     6.7450     9.4150    22.6200   -16.1750 
   92.1250     2.2050    60.3350     8.3920     6.7390     9.2800    22.6080   -16.4210 
   92.2500     2.2100    56.6150     8.3670     6.7300     9.1770    22.5980   -16.6030 
   92.3750     2.2170    56.1820     8.3630     6.7310     9.0830    22.5830   -16.5950 
   92.5000     2.2250    56.6820     8.3830     6.7480     8.9920    22.5440   -16.4910 
   92.6250     2.2320    57.0860     8.4010     6.7690     8.9580    22.4950   -16.3230 
   92.7500     2.2360    59.1250     8.3780     6.7690     8.9430    22.4400   -16.0180 
   92.8750     2.2330    62.7840     8.2810     6.7200     8.8220    22.4220   -15.6940 
   93.0000     2.2230    67.1670     8.1030     6.6110     8.6780    22.4650   -15.4110 
   93.1250     2.2070    70.0080     7.8670     6.4460     8.8960    22.5350   -15.0600 
   93.2500     2.1920    69.9160     7.6370     6.2710     9.2180    22.6140   -14.7600 
   93.3750     2.1810    66.2070     7.4640     6.1230     9.0710    22.6530   -14.6500 
   93.5000     2.1760    62.2070     7.3770     6.0310     8.5190    22.6360   -14.6860 
   93.6250     2.1730    62.6020     7.3860     6.0120     8.2720    22.5480   -14.8480 
   93.7500     2.1710    64.9450     7.4400     6.0370     8.3430    22.4350   -15.1710 
   93.8750     2.1700    66.2510     7.4990     6.0780     8.4220    22.3560   -15.5900 
   94.0000     2.1720    67.6050     7.5320     6.1100     8.3970    22.3650   -15.9860 
   94.1250     2.1770    68.9630     7.5390     6.1240     8.3280    22.3990   -16.3620 
   94.2500     2.1830    66.7150     7.5630     6.1420     8.3580    22.4460   -16.6680 
   94.3750     2.1980    61.0270     7.6500     6.1950     8.4320    22.4730   -16.7830 
   94.5000     2.2330    58.4620     7.8250     6.3090     8.4380    22.4540   -16.7210 
   94.6250     2.2920    63.8950     8.0790     6.4940     8.3520    22.4020   -16.5940 
   94.7500     2.3500    70.3280     8.3360     6.7060     8.2100    22.3270   -16.3900 
   94.8750     2.3790    72.1140     8.5280     6.8980     8.0740    22.1910   -16.1010 
