~V
VERS. 2.00: Ver 2.00
~W
STRT.M 52.0000:
STOP.M 233.0000:
STEP.M 0.1250:
NULL. -999.2500:
UWI. F10175:
~C
DEPT.M :
GR.API :
RML.OHMM :
RI. :
RXO.OHMM :
CALI.CM :
DEN.GM/CC :
SP.MV :
~A
# ...
  153.2500    67.6460    52.2210    48.8780    32.5970    24.6560     2.2470   -19.1340 
  153.3750    66.8820    52.8200    49.5520    34.2430    24.6570     2.2480   -18.8460 
  153.5000    63.6210    53.2110    50.0770    34.8270    24.6450     2.2480   -18.3120 
  153.6250    61.9870    53.2400    50.2910    35.4940    24.6620     2.2460   -17.4920 
  153.7500    63.5460    52.8850    50.1400    35.7040    24.6620     2.2450   -16.4070 
  153.8750    66.4150    52.1550    49.5790    36.2490    24.5720     2.2460   -15.1810 
  154.0000    68.4570    51.1690    48.6700    37.6560    24.3930     2.2490   -13.9450 
  154.1250    69.0790    50.2140    47.6660    39.2180    24.1980     2.2560   -12.8520 
  154.2500    69.7690    49.6730    46.9920    40.3480    24.1190     2.2620   -11.8780 
  154.3750    69.9460    49.8740    47.0160    40.4280    24.1520     2.2670   -11.0790 
  154.5000    68.4990    51.0380    48.0210    39.7370    24.2760     2.2690   -10.4190 
  154.6250    65.5780    53.3240    50.2880    42.0410    24.7000     2.2690    -9.9910 
  154.7500    64.0090    56.2710    53.4020    47.4900    25.2040     2.2680    -9.8310 
  154.8750    64.8620    59.4080    56.8600    51.1580    25.2110     2.2640    -9.8400 
  155.0000    65.4490    62.2030    60.0080    52.2200    25.0420     2.2590    -9.9150 
  155.1250    64.6300    64.0640    62.0600    52.1690    24.7500     2.2520    -9.9440 
  155.2500    64.8140    64.9820    62.9510    51.7000    24.2650     2.2460   -10.0020 
  155.3750    65.5410    65.1340    62.9090    50.9560    23.8400     2.2430   -10.1180 
  155.5000    65.1440    64.8820    62.3860    49.6760    23.9460     2.2460   -10.3930 
  155.6250    63.2480    64.7310    61.9150    49.2840    24.6070     2.2520   -10.7910 
  155.7500    61.3670    65.1140    61.9230    49.1210    25.1250     2.2590   -11.2380 
  155.8750    60.4090    66.3060    62.7160    48.9600    25.3270     2.2650   -11.6740 
  156.0000    61.6050    68.4180    64.4950    49.7320    25.3580     2.2690   -11.9850 
  156.1250    64.4400    71.4480    67.3630    53.3690    25.3570     2.2720   -12.1560 
  156.2500    65.5360    74.9180    70.7900    58.6730    25.3550     2.2710   -12.3470 
  156.3750    65.0330    78.4810    74.3250    63.6200    25.3550     2.2670   -12.5620 
  156.5000    64.0320    81.9180    77.6520    68.1830    25.3520     2.2590   -12.7680 
  156.6250    63.8980    85.2520    80.7320    69.8730    25.3410     2.2500   -12.9200 
  156.7500    65.9640    88.7270    83.9250    67.3450    25.3180     2.2420   -12.8680 
  156.8750    71.4340    92.4300    87.5890    63.9980    25.2880     2.2370   -12.5060 
  157.0000    75.6100    96.0430    91.7340    68.0130    25.2790     2.2350   -11.9590 
  157.1250    72.8890    98.4010    95.3050    73.8070    25.2630     2.2350   -11.4080 
  157.2500    66.9050    98.4950    96.6400    78.8010    25.2490     2.2360   -10.7880 
  157.3750    63.2940    95.7990    94.5760    81.0050    25.2400     2.2380   -10.1010 
  157.5000    63.9690    90.7260    89.2940    81.1830    25.2460     2.2390    -9.3910 
  157.6250    65.6520    84.6970    82.5000    71.4360    25.2650     2.2420    -8.7210 
  157.7500    66.5650    79.7560    76.8380    58.8600    25.2870     2.2450    -8.2580 
  157.8750    66.6680    77.1580    73.7790    54.6220    25.3010     2.2460    -8.1690 
  158.0000    65.8850    77.4500    73.8600    61.7700    25.3160     2.2440    -8.4270 
  158.1250    65.0670    80.8540    77.2870    66.5290    25.3300     2.2400    -8.8630 
  158.2500    66.8470    86.1330    82.8120    71.0610    25.3100     2.2360    -9.3810 
  158.3750    70.4080    92.3890    89.4510    78.4760    25.2740     2.2340    -9.9810 
  158.5000    71.6850    98.8020    96.1190    85.1410    25.2570     2.2340   -10.6200 
  158.6250    67.7000   104.7500   101.8750    84.1800    25.2340     2.2350   -11.3780 
  158.7500    63.0340   110.1960   106.7930    84.7430    25.2140     2.2340   -12.2950 
  158.8750    60.2180   115.2970   111.2400    87.8230    25.1980     2.2290   -13.2510 
  159.0000    59.6680   120.1830   115.5730    93.7380    25.1970     2.2220   -14.0100 
  159.1250    61.2140   124.6800   119.8730    96.5190    25.2070     2.2150   -14.3670 
  159.2500    62.4290   128.4520   123.7560    97.0340    25.2090     2.2130   -14.4080 
  159.3750    62.9260   131.0840   126.6950    96.9400    25.1840     2.2160   -14.1620 
  159.5000    63.5130   132.2730   128.3970   101.3490    25.1480     2.2230   -13.8160 
  159.6250    63.9300   131.5980   128.6970   106.5870    25.0850     2.2320   -13.5170 
  159.7500    63.6230   129.1620   127.8720    99.6790    25.0300     2.2370   -13.2790 
  159.8750    62.6340   124.5610   125.7010    85.4470    25.0370     2.2390   -13.1430 
  160.0000    61.9440   117.1520   121.2970    81.1480    25.1070     2.2370   -13.2210 
  160.1250    62.0430   105.6710   112.1890    90.6900    25.1950     2.2330   -13.5540 
  160.2500    63.0670    91.6620    98.2790    98.9680    25.2390     2.2280   -14.0330 
  160.3750    66.1490    77.3610    81.3570   100.6990    25.2510     2.2240   -14.6330 
  160.5000    69.8700    64.4330    64.7150    97.1510    25.2290     2.2210   -15.1870 
  160.6250    72.1270    53.7150    51.9320    70.2920    25.1450     2.2230   -15.4950 
  160.7500    72.1980    45.4020    43.4720    44.2390    25.0570     2.2300   -15.5720 
  160.8750    71.1820    40.2210    38.8560    31.7600    25.0340     2.2420   -15.5090 
  161.0000    72.2190    38.1160    37.1270    30.6680    25.0860     2.2560   -15.4400 
  161.1250    75.1760    38.2420    37.5110    34.9090    25.1280     2.2700   -15.6100 
  161.2500    76.7500    39.4020    38.8550    39.1550    25.1000     2.2830   -15.9670 
  161.3750    75.1460    41.1380    40.6030    39.5020    25.0560     2.2930   -16.4460 
  161.5000    71.5390    43.3520    42.5100    39.2860    25.0490     2.3010   -16.9340 
  161.6250    69.9520    46.5330    44.9400    39.4550    25.0980     2.3010   -17.3080 
  161.7500    70.8550    51.2940    48.5850    40.3770    25.1700     2.2950   -17.4620 
  161.8750    72.2650    58.3250    54.2510    46.0150    25.2370     2.2820   -17.4410 
  162.0000    72.6360    67.1160    62.5700    55.3350    25.3040     2.2660   -17.2840 
  162.1250    71.8050    76.7070    74.0550    69.7570    25.3480     2.2490   -17.0140 
  162.2500    70.4000    86.8020    87.1710    85.2800    25.3720     2.2320   -16.7430 
  162.3750    68.1730    97.2140    99.8570   109.6090    25.3790     2.2170   -16.5900 
  162.5000    66.6180   106.3890   109.6340   141.9980    25.3810     2.2040   -16.6820 
  162.6250    67.0780   111.4270   113.9040   158.2630    25.3790     2.1980   -17.2030 
  162.7500    67.7060   112.6600   113.7670   143.6080    25.3170     2.1980   -18.1800 
  162.8750    66.6030   111.3940   110.9690   131.1460    25.1990     2.2040   -19.4670 
  163.0000    64.6240   109.1420   107.4740   119.6660    25.0670     2.2130   -20.9260 
  163.1250    63.9450   107.4180   104.9850   107.1040    24.9900     2.2230   -22.3570 
  163.2500    66.1810   106.9270   104.0490    95.2820    24.9810     2.2290   -23.6110 
  163.3750    68.8540   107.8380   104.7140    89.1900    24.9800     2.2330   -24.5200 
  163.5000    68.8170   110.0780   106.7810    89.6820    24.9090     2.2330   -24.8860 
  163.6250    67.2100   113.6580   110.2070    92.2620    24.8180     2.2320   -24.4070 
  163.7500    66.9880   118.2060   114.6410    90.4180    24.7770     2.2300   -23.2620 
  163.8750    66.9670   123.5620   119.9050    96.0390    24.7940     2.2280   -21.7960 
  164.0000    65.1400   129.5640   125.7670   109.8150    24.8600     2.2270   -20.2530 
  164.1250    64.0370   136.1190   132.0900   126.8270    24.9810     2.2280   -18.8170 
  164.2500    66.8220   142.9910   138.6930   136.2300    25.1640     2.2300   -17.5230 
  164.3750    70.0690   150.0270   145.4480   140.3820    25.3250     2.2320   -16.4770 
