~V
VERS. 2.00: Ver 2.00
~W
STRT.M 50.0000:
STOP.M 233.0000:
STEP.M 0.1250:
NULL. -999.2500:
UWI. F10166:
~C
DEPT.M :
SP.MV :
DEN.GM/CC :
GR.API :
RML.OHMM :
RI. :
RXO.OHMM :
CALI.CM :
~A
# ...
  185.0000   -24.9690     2.1410    62.5610   177.5780   159.7090    32.4660    24.0070 
  185.1250   -24.9570     2.1390    60.8330   173.1140   156.1100    24.6230    23.8080 
  185.2500   -24.9830     2.1390    60.2380   168.2210   152.4900    22.0900    23.8260 
  185.3750   -25.0170     2.1430    60.5100   162.7210   148.5960    24.5900    23.9910 
  185.5000   -25.0920     2.1510    61.4040   156.9130   144.5340    32.6670    24.1500 
  185.6250   -25.2020     2.1580    62.0100   151.5880   140.8560    41.9210    24.0950 
  185.7500   -25.3170     2.1620    61.6410   147.2790   138.0490    41.5950    23.8750 
  185.8750   -25.4520     2.1620    61.3070   143.9860   136.2360    35.3280    23.6610 
  186.0000   -25.5590     2.1610    62.1300   141.0320   134.9410    31.4800    23.5580 
  186.1250   -25.6700     2.1640    63.3590   137.2200   132.0280    31.6260    23.5430 
  186.2500   -25.7460     2.1710    63.0670   131.7940   124.9000    33.7850    23.5420 
  186.3750   -25.7830     2.1810    61.4740   122.2910   114.1410    37.0910    23.5430 
  186.5000   -25.7920     2.1960    61.3410   109.2430   100.6330    39.7770    23.5430 
  186.6250   -25.7520     2.2170    64.5910    95.0010    86.8450    38.5440    23.5430 
  186.7500   -25.7340     2.2390    68.3870    82.5740    75.2790    34.0980    23.5430 
  186.8750   -25.7210     2.2530    69.1670    73.5200    67.1170    30.3050    23.5430 
  187.0000   -25.7200     2.2520    66.6970    68.3140    62.5730    29.5060    23.5360 
  187.1250   -25.7530     2.2340    65.2320    66.8910    61.3700    31.0690    23.5150 
  187.2500   -25.7900     2.2180    65.2480    67.3560    61.6920    32.8130    23.4930 
  187.3750   -25.8350     2.2180    64.8130    68.3430    62.3030    35.0320    23.4800 
  187.5000   -25.8840     2.2350    63.9940    68.7500    62.3070    37.9060    23.4770 
  187.6250   -25.9320     2.2530    64.0160    68.0480    61.4510    36.1380    23.4800 
  187.7500   -25.9820     2.2560    64.7700    67.2220    60.7780    31.6260    23.4750 
  187.8750   -26.0290     2.2410    64.9860    67.7030    61.5940    29.7580    23.4450 
  188.0000   -26.0980     2.2190    63.6450    70.7860    64.9550    29.5610    23.3960 
  188.1250   -26.1710     2.2060    61.5990    77.6550    71.8050    25.6610    23.3580 
  188.2500   -26.2470     2.2070    61.5880    87.6090    81.4560    20.7120    23.3470 
  188.3750   -26.3480     2.2170    64.1880   100.0450    93.3810    18.5240    23.3430 
  188.5000   -26.4330     2.2200    66.2650   114.1920   106.9360    18.8710    23.3360 
  188.6250   -26.5330     2.1970    65.5960   129.7190   121.9500    19.4390    23.4530 
  188.7500   -26.6110     2.1540    65.1410   146.8500   138.6060    18.8670    23.8220 
  188.8750   -26.6510     2.1080    66.0820   166.6240   157.6530    17.3040    24.3510 
  189.0000   -26.6750     2.0760    66.3440   189.7690   179.4500    16.4400    24.7360 
  189.1250   -26.6320     2.0690    62.9320   216.0850   203.4960    20.5140    24.7250 
  189.2500   -26.5530     2.0750    58.9870   241.7490   226.4640    36.3310    24.5450 
  189.3750   -26.4200     2.0820    57.8100   260.9360   243.3830    74.6480    24.4110 
  189.5000   -26.2680     2.0860    59.2520   267.7870   249.4460   118.7800    24.3610 
  189.6250   -26.0820     2.0930    59.8690   259.9670   243.2980   118.0470    24.2890 
  189.7500   -25.8840     2.1060    58.3810   246.9900   233.4160   111.4690    24.1740 
  189.8750   -25.6800     2.1160    56.2800   236.8870   226.4290   113.5320    24.1270 
  190.0000   -25.4440     2.1170    56.0730   235.2430   226.6590   114.3430    24.2580 
  190.1250   -25.2140     2.1090    57.0330   246.9150   237.7730   120.6360    24.4380 
  190.2500   -24.9920     2.1020    56.1420   269.7150   257.7840   152.7630    24.3470 
  190.3750   -24.7720     2.1020    54.6200   299.8590   283.4940   211.6020    23.9740 
  190.5000   -24.5680     2.1100    53.6910   329.9570   308.6810   250.4440    23.5890 
  190.6250   -24.3540     2.1240    53.3890   347.4300   322.7330   225.3560    23.4620 
  190.7500   -24.1790     2.1370    52.5260   347.3340   322.0630   185.3430    23.5350 
  190.8750   -24.0250     2.1500    51.9450   332.3480   309.7820   152.2790    23.7880 
  191.0000   -23.8840     2.1580    52.2200   311.0090   293.5130   133.8980    24.2450 
  191.1250   -23.7650     2.1510    51.7770   293.5970   280.9860   125.3270    24.7360 
  191.2500   -23.6560     2.1200    51.2150   289.8790   270.9480   120.8530    25.0160 
  191.3750   -23.5830     2.0720    50.4070   296.8870   268.7660   120.1970    25.0500 
  191.5000   -23.4980     2.0260    48.9790   313.7990   274.2600   116.2900    24.9410 
  191.6250   -23.4350     2.0230    47.7430   336.8370   287.2800   111.4070    24.7180 
  191.7500   -23.3420     2.0890    47.5980   356.6840   303.4260   112.1240    24.4030 
  191.8750   -23.1970     2.2330    47.9120   364.1660   316.3560   116.9630    24.1020 
  192.0000   -23.0270     2.4220    46.6260   351.9930   316.7480   120.8800    23.9320 
  192.1250   -22.7790     2.5770    44.9240   317.0800   293.9830   128.0610    23.9000 
  192.2500   -22.4980     2.6600    45.1160   272.3650   255.7840   145.2890    23.8380 
  192.3750   -22.1940     2.6910    46.9100   228.4070   213.7900   142.9370    23.7040 
  192.5000   -21.8870     2.6990    48.6800   192.1780   177.6750   115.3090    23.6120 
  192.6250   -21.6010     2.6950    50.1530   167.3690   152.8390   102.5440    23.7020 
  192.7500   -21.3170     2.6820    51.1230   150.2820   136.1840   112.3860    23.8990 
  192.8750   -21.0760     2.6620    50.7360   137.4280   124.2170   125.5150    24.0860 
  193.0000   -20.8380     2.6410    50.2720   124.7880   112.9780   104.9750    24.2080 
  193.1250   -20.6320     2.6330    50.2310   107.8120    98.1780    79.2400    24.2650 
  193.2500   -20.4620     2.6340    48.7400    86.2100    79.1080    70.1920    24.2810 
  193.3750   -20.3230     2.6310    46.7250    62.9180    58.2090    60.9060    24.2390 
  193.5000   -20.2450     2.6050    46.5000    42.1560    39.5220    38.6050    24.1070 
  193.6250   -20.1690     2.5500    48.4040    28.0540    26.4950    20.1280    23.8830 
  193.7500   -20.0950     2.4880    50.2480    18.9010    18.0910    11.1050    23.6670 
  193.8750   -20.0010     2.4370    51.3880    13.4400    13.0410     7.4330    23.4920 
  194.0000   -19.8720     2.4040    51.7110    10.4900    10.1980     6.1830    23.3170 
  194.1250   -19.7450     2.3830    51.5930     9.2820     8.9150     5.9820    23.1300 
  194.2500   -19.6140     2.3570    51.4860     8.8980     8.4410     6.1220    23.0040 
  194.3750   -19.5240     2.3290    51.7500     8.9750     8.4790     6.3720    23.0250 
  194.5000   -19.4960     2.3110    52.2010     9.2760     8.8100     6.9000    23.2000 
  194.6250   -19.5550     2.3220    53.4370     9.6470     9.2660     7.8620    23.4020 
  194.7500   -19.7090     2.3510    54.3970     9.9820     9.7040     8.7750    23.4840 
  194.8750   -19.8890     2.3730    54.0280    10.2320    10.0550     8.8960    23.4410 
  195.0000   -20.0780     2.3660    52.7510    10.3660    10.2740     8.0820    23.3720 
  195.1250   -20.2530     2.3330    53.0830    10.3740    10.3250     7.2730    23.3490 
  195.2500   -20.3830     2.3020    54.3580    10.3340    10.2770     7.4760    23.3440 
  195.3750   -20.4790     2.2920    55.1580    10.3180    10.1840     8.4630    23.3440 
  195.5000   -20.5050     2.3040    55.9110    10.3640    10.0770     8.8960    23.3440 
  195.6250   -20.4910     2.3210    56.6520    10.4230     9.9270     7.9150    23.3480 
  195.7500   -20.4420     2.3250    54.9210    10.3730     9.6770     6.7400    23.3520 
  195.8750   -20.3960     2.3170    51.3930    10.1200     9.2920     6.0690    23.3070 
  196.0000   -20.3680     2.3040    50.1980     9.6590     8.7890     5.7800    23.1710 
  196.1250   -20.3410     2.2930    53.4080     9.1040     8.2570     5.6400    23.0100 
