~V
VERS. 2.00: Ver 2.00
~W
STRT.M 52.0000:
STOP.M 326.0000:
STEP.M 0.1250:
NULL. -999.2500:
UWI. F10108:
~C
DEPT.M :
DEN.GM/CC :
SP.MV :
GR.API :
RML.OHMM :
RI. :
RXO.OHMM :
CALI.CM :
~A
# ...
  108.2500     2.1720   -12.6670    61.4380     8.3660     7.7790     7.8370    23.7160 
  108.3750     2.1730   -12.6270    62.8590     8.5000     7.9000     7.9270    23.7180 
  108.5000     2.1710   -12.5730    62.1570     8.4840     7.9430     7.9940    23.7670 
  108.6250     2.1660   -12.5130    60.6540     8.3080     7.8540     7.8860    23.8330 
  108.7500     2.1590   -12.4560    60.3870     8.0730     7.6840     7.6110    23.8770 
  108.8750     2.1520   -12.4230    61.1260     7.8530     7.4880     7.3940    23.9080 
  109.0000     2.1470   -12.4210    61.3840     7.6980     7.3120     7.2710    23.9510 
  109.1250     2.1460   -12.4510    61.6480     7.6430     7.1980     7.2410    24.0040 
  109.2500     2.1460   -12.5060    61.2180     7.6680     7.1390     7.2270    24.0460 
  109.3750     2.1490   -12.5950    59.3720     7.7450     7.1220     7.2620    24.0650 
  109.5000     2.1520   -12.6900    58.8080     7.8450     7.1270     7.3800    24.0700 
  109.6250     2.1570   -12.7760    60.9830     7.9280     7.1360     7.5370    24.0930 
  109.7500     2.1620   -12.8530    63.0020     7.9740     7.1360     7.6420    24.1300 
  109.8750     2.1680   -12.9230    62.3310     7.9850     7.1280     7.6910    24.1580 
  110.0000     2.1760   -12.9930    60.3080     7.9760     7.1160     7.6870    24.1600 
  110.1250     2.1840   -13.0860    59.7950     7.9610     7.1090     7.6780    24.1400 
  110.2500     2.1900   -13.2180    61.2520     7.9500     7.1110     7.6920    24.1420 
  110.3750     2.1910   -13.3790    64.0400     7.9370     7.1170     7.7190    24.1830 
  110.5000     2.1850   -13.5510    65.9900     7.9230     7.1190     7.8740    24.2490 
  110.6250     2.1710   -13.7010    64.9390     7.9120     7.1020     8.0680    24.3010 
  110.7500     2.1560   -13.8140    63.8970     7.9090     7.0640     8.1290    24.3200 
  110.8750     2.1440   -13.8760    64.1780     7.9090     7.0030     8.0460    24.3260 
  111.0000     2.1360   -13.8830    64.4080     7.8990     6.9180     8.0230    24.3360 
  111.1250     2.1350   -13.8070    63.0360     7.8620     6.8110     8.0510    24.3350 
  111.2500     2.1400   -13.6210    63.7020     7.8050     6.6970     8.0080    24.3030 
  111.3750     2.1520   -13.3530    68.8210     7.7420     6.5950     7.8110    24.2460 
  111.5000     2.1680   -13.0480    75.8300     7.6980     6.5240     7.6100    24.1850 
  111.6250     2.1860   -12.7790    77.4190     7.7000     6.5060     7.4210    24.1390 
  111.7500     2.1980   -12.5650    72.3900     7.7550     6.5380     7.3960    24.0910 
  111.8750     2.2020   -12.3980    65.7960     7.8580     6.6160     7.6940    24.0340 
  112.0000     2.2000   -12.2600    61.8550     7.9980     6.7360     8.2170    23.9740 
  112.1250     2.1980   -12.1480    61.0110     8.1700     6.9030     8.3460    23.9350 
  112.2500     2.2030   -12.0800    59.8490     8.3750     7.1100     8.2730    23.9330 
  112.3750     2.2150   -12.0350    57.5820     8.6340     7.3610     8.3430    23.9620 
  112.5000     2.2290   -11.9810    56.9000     8.9690     7.6590     8.8890    23.9940 
  112.6250     2.2380   -11.8530    60.2930     9.3760     7.9970     9.7840    24.0210 
  112.7500     2.2390   -11.6440    63.9780     9.7760     8.3280    10.0200    24.0590 
  112.8750     2.2320   -11.3840    63.8890    10.0710     8.5890     9.3020    24.1280 
  113.0000     2.2210   -11.0950    61.0120    10.1600     8.7070     8.4120    24.2180 
  113.1250     2.2110   -10.7820    60.9220     9.9310     8.5850     8.0660    24.2750 
  113.2500     2.2050   -10.4490    63.6410     9.4460     8.2510     8.0440    24.2720 
  113.3750     2.2060   -10.0990    65.6190     8.7950     7.7640     8.2960    24.2390 
  113.5000     2.2150    -9.7640    67.9640     8.1120     7.2240     8.3630    24.2210 
  113.6250     2.2310    -9.4940    73.4710     7.5620     6.7630     7.8330    24.2580 
  113.7500     2.2490    -9.3280    79.6780     7.2260     6.4580     7.0530    24.3250 
  113.8750     2.2620    -9.2910    82.2060     7.1290     6.3410     6.6270    24.3910 
  114.0000     2.2640    -9.3920    80.4670     7.2460     6.3980     6.9790    24.4480 
  114.1250     2.2460    -9.6750    76.3100     7.5250     6.5990     7.9420    24.5180 
  114.2500     2.2150   -10.1040    69.9350     7.8490     6.8500     8.8750    24.6260 
  114.3750     2.1760   -10.6440    63.5920     8.1370     7.0870     9.8260    24.7720 
  114.5000     2.1420   -11.2270    60.9670     8.3210     7.2570    10.6250    24.9280 
  114.6250     2.1220   -11.7690    60.9460     8.3350     7.3130    10.1900    25.0610 
  114.7500     2.1140   -12.2170    58.2620     8.2060     7.2730     9.4300    25.1760 
  114.8750     2.1130   -12.5290    55.7010     7.9800     7.1630     9.2190    25.2720 
  115.0000     2.1100   -12.6670    57.5270     7.7350     7.0300     9.4980    25.3320 
  115.1250     2.0980   -12.5460    61.0030     7.6220     6.9620     9.6580    25.3260 
  115.2500     2.0840   -12.1780    60.0870     7.7650     7.0490     9.4080    25.2480 
  115.3750     2.0800   -11.5770    56.4010     8.2460     7.3640     9.1420    25.1170 
  115.5000     2.1050   -10.7720    55.4790     9.0250     7.9150     9.2700    24.9670 
  115.6250     2.1750    -9.7620    58.9080     9.8620     8.5700    10.2980    24.8240 
  115.7500     2.2690    -8.6100    61.2700    10.3660     9.0390    11.9700    24.6720 
  115.8750     2.3610    -7.3490    62.4310    10.2480     9.0620    14.4280    24.5100 
  116.0000     2.4180    -6.0490    66.5670     9.4170     8.5020    17.7770    24.3650 
  116.1250     2.4220    -4.8300    74.6280     8.0520     7.4170    16.4920    24.2790 
  116.2500     2.4020    -3.7570    80.6710     6.6910     6.2450     9.8660    24.2470 
  116.3750     2.3840    -2.8860    83.2320     5.6550     5.2750     6.0150    24.2380 
  116.5000     2.3760    -2.2570    85.6870     5.0560     4.6380     4.9110    24.2080 
  116.6250     2.3750    -1.9380    87.8960     4.8940     4.3820     4.8190    24.1400 
  116.7500     2.3700    -1.8650    86.9660     4.9770     4.3730     4.7720    24.0620 
  116.8750     2.3590    -2.0160    84.7490     5.1990     4.5250     4.7790    23.9970 
  117.0000     2.3440    -2.3630    84.4340     5.4880     4.7650     4.8990    23.9400 
  117.1250     2.3270    -2.8840    84.3190     5.8140     5.0420     5.0650    23.8540 
  117.2500     2.3130    -3.5340    81.3700     6.1540     5.3210     5.1990    23.7350 
  117.3750     2.2980    -4.2570    77.2890     6.4850     5.5880     5.3570    23.6110 
  117.5000     2.2840    -5.0020    73.7280     6.7720     5.8260     5.4310    23.5140 
  117.6250     2.2710    -5.7360    70.5490     6.9620     6.0080     5.7070    23.4470 
  117.7500     2.2600    -6.4240    69.0700     7.0470     6.1160     6.0690    23.3830 
  117.8750     2.2510    -7.0620    70.5490     7.0430     6.1420     6.1960    23.3120 
  118.0000     2.2450    -7.6410    70.7470     6.9930     6.0980     6.0190    23.2540 
  118.1250     2.2420    -8.1360    67.1720     6.9600     6.0250     5.7310    23.2530 
  118.2500     2.2430    -8.5590    64.9220     6.9910     5.9830     5.5720    23.3080 
  118.3750     2.2470    -8.9420    66.1080     7.1040     6.0080     5.5760    23.3920 
  118.5000     2.2520    -9.3230    67.6920     7.2900     6.1080     5.7450    23.4940 
  118.6250     2.2550    -9.7250    67.3530     7.5140     6.2680     6.0410    23.6470 
  118.7500     2.2520   -10.1590    67.5270     7.7090     6.4300     6.4750    23.8600 
  118.8750     2.2400   -10.5910    69.0240     7.8310     6.5500     6.9730    24.1080 
  119.0000     2.2210   -10.9850    69.5440     7.8630     6.6000     7.3990    24.3420 
  119.1250     2.1990   -11.3280    68.2510     7.8140     6.5650     7.5950    24.5290 
  119.2500     2.1790   -11.6270    66.7940     7.7410     6.4870     7.6700    24.6750 
  119.3750     2.1670   -11.8870    67.2380     7.6720     6.3990     7.6310    24.7930 
