~V
VERS. 2.00: Ver 2.00
~W
STRT.M 50.0000:
STOP.M 294.0000:
STEP.M 0.1250:
NULL. -999.2500:
UWI. F10104:
~C
DEPT.M :
GR.API :
RML.OHMM :
RI. :
RXO.OHMM :
CALI.CM :
DEN.GM/CC :
SP.MV :
~A
# ...
  286.2500    82.2170     7.0900     5.3770     7.3350    23.8160     2.3170    -8.4400 
  286.3750    82.2170     7.2420     5.5070     8.2640    23.8160     2.3180    -8.4710 
  286.5000    82.2170     7.1530     5.5760     9.0850    23.8150     2.3210    -8.5330 
  286.6250    82.2170     6.8870     5.5930     8.7680    23.8130     2.3260    -8.5820 
  286.7500    82.2170     6.6050     5.5870     8.3390    23.8150     2.3320    -8.6190 
  286.8750    82.2170     6.3720     5.5730     8.0100    23.8160     2.3430    -8.6340 
  287.0000    82.2170     6.2100     5.5640     7.1010    23.8160     2.3570    -8.6200 
  287.1250    82.2170     6.1340     5.5640     6.5300    23.8160     2.3720    -8.5770 
  287.2500    82.2170     6.1280     5.5720     6.6860    23.8160     2.3870    -8.5570 
  287.3750    82.2170     6.2150     5.5850     7.6070    23.8160     2.4120    -8.5290 
  287.5000    82.2170     6.3960     5.5960     8.6380    23.8160     2.4500    -8.4700 
  287.6250    82.2170     6.5950     5.6010     8.5320    23.8170     2.4750    -8.3860 
  287.7500    82.2170     6.7230     5.5980     8.0140    23.8170     2.4610    -8.2850 
  287.8750    82.2170     6.7430     5.5870     7.9940    23.8120     2.4180    -8.2010 
  288.0000    82.2170     6.6900     5.5720     7.9710    23.7750     2.3800    -8.1670 
  288.1250    82.2170     6.6440     5.5560     7.5510    23.6940     2.3650    -8.1780 
  288.2500    82.2170     6.6440     5.5420     7.4960    23.6200     2.3590    -8.1830 
  288.3750    82.2170     6.6730     5.5340     7.2160    23.5910     2.3540    -8.1930 
  288.5000    82.2170     6.6880     5.5370     6.9530    23.5820     2.3470    -8.2050 
  288.6250    82.2170     6.6850     5.5490     6.8400    23.5510     2.3440    -8.2450 
  288.7500    82.2170     6.6850     5.5490     6.8110    23.4940     2.3490    -8.3040 
  288.8750    82.2170     6.6850     5.5490     6.7750    23.4510     2.3620    -8.3530 
  289.0000    82.2170     6.6850     5.5490     6.7300    23.4350     2.3760    -8.3900 
  289.1250    82.2170     6.6850     5.5490     6.7010    23.4350     2.3820    -8.4170 
  289.2500    82.2170     6.6850     5.5490     6.7250    23.4350     2.3800    -8.4370 
  289.3750    82.2170     6.6850     5.5490     6.6870    23.4350     2.3690    -8.4620 
  289.5000    82.2170     6.6850     5.5490     6.5620    23.4350     2.3500    -8.4840 
  289.6250    82.2170     6.6850     5.5490     6.8180    23.4350     2.3230    -8.4890 
  289.7500    82.2170     6.6850     5.5490     6.8670    23.4350     2.2920    -8.5000 
  289.8750    82.2170     6.6850     5.5490     6.6280    23.4300     2.2580    -8.5210 
  290.0000    82.2170     6.6850     5.5490     6.4010    23.3900     2.2190    -8.5170 
  290.1250    82.2170     6.6850     5.5490     6.2720    23.2110     2.1800    -8.5020 
  290.2500    82.2170     6.6850     5.5490     5.8440    22.8090     2.1430    -8.4990 
  290.3750    82.2170     6.6850     5.5490     5.5570    22.1170     2.1040    -8.4870 
  290.5000    82.2170     6.6850     5.5490     5.5420    20.9440     2.0640    -8.4700 
  290.6250    82.2170     6.6850     5.5490     5.6340    19.1220     2.0320    -8.4500 
  290.7500    82.2170     6.6850     5.5490     5.8320    17.0520     2.0060    -8.4190 
  290.8750    82.2170     6.6850     5.5490     6.1040    15.5950     1.9820    -8.3780 
  291.0000    82.2170     6.6850     5.5490     6.4410    14.8410     1.9590    -8.3560 
  291.1250    82.2170     6.6850     5.5490     6.6380    14.5010     1.9400    -8.3460 
  291.2500    82.2170     6.6850     5.5490     6.8570    14.0480     1.9350    -8.3350 
  291.3750    82.2170     6.6850     5.5490     6.9160    13.3170     1.9530    -8.3340 
  291.5000    82.2170     6.6850     5.5490     6.9700    12.7890     1.9870    -8.3390 
  291.6250    82.2170     6.6850     5.5490     7.0030    12.6260     2.0140  -999.2500 
  291.7500    82.2170     6.6850     5.5490     7.0210    12.6190     2.0240  -999.2500 
  291.8750    82.2170     6.6850     5.5490     7.0230    12.6180     2.0250  -999.2500 
  292.0000    82.2170     6.6850     5.5490     7.0250    12.6170     2.0250  -999.2500 
  292.1250    82.2170     6.6850     5.5490     7.0210    12.6140     2.0260  -999.2500 
  292.2500    82.2170     6.6850     5.5490     7.0210    12.6140     2.0250  -999.2500 
  292.3750    82.2170     6.6850     5.5490     7.0190    12.6140     2.0230  -999.2500 
  292.5000    82.2170     6.6850     5.5490     7.0170    12.6130     2.0210  -999.2500 
  292.6250    82.2170     6.6850     5.5490     7.0180    12.6140     2.0200  -999.2500 
  292.7500    82.2170     6.6850     5.5490     7.0190    12.6130     2.0210  -999.2500 
  292.8750    82.2170     6.6850     5.5490     7.0190    12.6120     2.0210  -999.2500 
  293.0000    82.2170     6.6850     5.5490     7.0180    12.6100     2.0190  -999.2500 
  293.1250    82.2170     6.6850     5.5490     7.0180    12.6090     2.0180  -999.2500 
  293.2500    82.2170     6.6850     5.5490     7.0180    12.6090     2.0180  -999.2500 
  293.3750    82.2170     6.6850     5.5490     7.0190    12.6090     2.0200  -999.2500 
  293.5000    82.2170     6.6850     5.5490     7.0200    12.6090     2.0220  -999.2500 
  293.6250  -999.2500  -999.2500  -999.2500  -999.2500  -999.2500     2.0240  -999.2500 
  293.7500  -999.2500  -999.2500  -999.2500  -999.2500  -999.2500     2.0240  -999.2500 
  293.8750  -999.2500  -999.2500  -999.2500  -999.2500  -999.2500     2.0220  -999.2500 
  294.0000  -999.2500  -999.2500  -999.2500  -999.2500  -999.2500     2.0210  -999.2500 
