~V
VERS. 2.00: Ver 2.00
~W
STRT.M 50.0000:
STOP.M 222.0000:
STEP.M 0.1250:
NULL. -999.2500:
UWI. F10145:
~C
DEPT.M :
DEN.GM/CC :
GR.API :
RML.OHMM :
RI. :
RXO.OHMM :
CALI.CM :
SP.MV :
~A
# ...
  207.5000     2.4320    78.2540     7.2820     6.0630     7.2620    24.1990    -3.0180 
  207.6250     2.4370    75.5050     7.2450     5.9620     7.4290    24.1960    -3.0810 
  207.7500     2.4520    73.9760     7.2380     5.9160     7.3060    24.1610    -3.0890 
  207.8750     2.4670    73.2990     7.2110     5.8780     6.9860    24.0810    -3.0630 
  208.0000     2.4760    74.9240     7.1600     5.8290     6.6320    24.0500    -2.9980 
  208.1250     2.4750    79.1050     7.1320     5.7890     6.6590    24.0420    -2.9090 
  208.2500     2.4670    81.7940     7.1820     5.8010     7.2140    24.0900    -2.8200 
  208.3750     2.4550    81.8810     7.3400     5.9010     8.0400    24.1650    -2.7120 
  208.5000     2.4400    82.1050     7.6040     6.1020     9.0540    24.2130    -2.5450 
  208.6250     2.4220    83.8380     7.9410     6.3980     9.1180    24.1790    -2.3890 
  208.7500     2.4020    84.1320     8.2660     6.7200     8.2470    24.1200    -2.3120 
  208.8750     2.3840    82.3890     8.5070     7.0000     7.7340    24.1050    -2.3090 
  209.0000     2.3730    80.4650     8.6100     7.1740     7.8520    24.1420    -2.3320 
  209.1250     2.3780    80.9910     8.5360     7.1800     7.5230    24.1410    -2.3110 
  209.2500     2.3940    82.3720     8.3490     7.0540     7.4120    24.1220    -2.2900 
  209.3750     2.4140    82.0520     8.1060     6.8430     7.5720    24.0780    -2.3270 
  209.5000     2.4290    79.8640     7.8660     6.6040     8.1060    24.0570    -2.3900 
  209.6250     2.4300    78.0980     7.6810     6.3940     7.4080    24.0610    -2.4730 
  209.7500     2.4210    77.6220     7.5620     6.2390     7.0840    24.0830    -2.5550 
  209.8750     2.4080    78.1710     7.5110     6.1480     6.8700    24.0830    -2.6330 
  210.0000     2.3950    78.9370     7.5230     6.1230     6.8410    24.0340    -2.7390 
  210.1250     2.3870    77.3710     7.5990     6.1690     6.7940    23.9740    -2.8770 
  210.2500     2.3850    74.9560     7.7130     6.2660     6.9900    23.9490    -3.0080 
  210.3750     2.3950    75.2820     7.8420     6.3960     7.0070    23.8700    -3.1240 
  210.5000     2.4200    79.0920     7.9560     6.5330     6.9580    23.6750    -3.2250 
  210.6250     2.4530    81.9670     8.0140     6.6350     7.1840    23.4390    -3.2830 
  210.7500     2.4770    82.2360     8.0030     6.6800     7.3920    23.3620    -3.3090 
  210.8750     2.4780    82.2360     7.9260     6.6570     7.3050    23.5400    -3.3250 
  211.0000     2.4550    82.2360     7.8040     6.5770     7.3330    23.8030    -3.3410 
  211.1250     2.4170    82.2360     7.6660     6.4580     7.5690    24.0140    -3.3230 
  211.2500     2.3850    82.2360     7.5410     6.3350     7.6840    24.1010    -3.3190 
  211.3750     2.3680    82.2360     7.4410     6.2250     7.4070    24.1240    -3.3620 
  211.5000     2.3660    82.2360     7.3670     6.1370     7.1760    24.1260    -3.4250 
  211.6250     2.3770    82.2360     7.3220     6.0780     6.9410    24.1040    -3.4710 
  211.7500     2.3890    82.2360     7.3030     6.0440     6.6140    24.0630    -3.5000 
  211.8750     2.4000    82.2360     7.3140     6.0400     6.3920    24.0500    -3.5340 
  212.0000     2.4100    82.2360     7.3570     6.0710     6.5550    24.0940    -3.6000 
  212.1250     2.4250    82.2360     7.4340     6.1460     7.0060    24.1150    -3.6760 
  212.2500     2.4440    82.2360     7.5310     6.2540     7.2550    24.0970    -3.7200 
  212.3750     2.4640    82.2360     7.6390     6.3830     7.1780    24.0640    -3.7340 
  212.5000     2.4750    82.2360     7.7450     6.5150     7.0640    24.0220    -3.7420 
  212.6250     2.4670    82.2360     7.8360     6.6270     7.4280    24.0730    -3.7600 
  212.7500     2.4480    82.2360     7.9070     6.7120     8.2140    24.1310    -3.7940 
  212.8750     2.4270    82.2360     7.9570     6.7720     9.6620    24.1590    -3.8380 
  213.0000     2.4150    82.2360     7.9960     6.8180    12.0510    24.1540    -3.8130 
  213.1250     2.4180    82.2360     8.0340     6.8610    10.2920    24.1360    -3.7580 
  213.2500     2.4350    82.2360     8.0820     6.9090     8.9180    24.1250    -3.7030 
  213.3750     2.4590    82.2360     8.1440     6.9660     7.8470    24.1140    -3.6680 
  213.5000     2.4850    82.2360     8.2210     7.0330     7.4740    24.1020    -3.6780 
  213.6250     2.4990    82.2360     8.3090     7.1080     7.7050    24.1080    -3.7410 
  213.7500     2.4920    82.2360     8.3960     7.1840     7.9260    24.1120    -3.8390 
  213.8750     2.4600    82.2360     8.4700     7.2520     8.3490    24.1440    -3.8850 
  214.0000     2.4150    82.2360     8.5200     7.3040     9.3470    24.2560    -4.0270 
  214.1250     2.3740    82.2360     8.5360     7.3260     9.7090    24.4440    -4.1270 
  214.2500     2.3550    82.2360     8.5350     7.3320     9.5550    24.5700    -4.2630 
  214.3750     2.3600    82.2360     8.5230     7.3250     9.1950    24.5470    -4.3310 
  214.5000     2.3800    82.2360     8.5250     7.3210     8.8260    24.3820    -4.3380 
  214.6250     2.4040    82.2360     8.5680     7.3450     8.4210    24.2350    -4.2730 
  214.7500     2.4220    82.2360     8.6760     7.4190     8.1560    24.1580    -4.1660 
  214.8750     2.4340    82.2360     8.8660     7.5680     8.6860    24.1690    -4.0500 
  215.0000     2.4430    82.2360     9.1090     7.7740     9.7710    24.1730    -3.9620 
  215.1250     2.4530    82.2360     9.3610     8.0140    10.1230    24.1420    -3.9120 
  215.2500     2.4640    82.2360     9.5740     8.2500    10.3290    24.1020    -3.9010 
  215.3750     2.4750    82.2360     9.7010     8.4360    10.5410    24.0640    -3.9190 
  215.5000     2.4790    82.2360     9.7570     8.5550    10.7820    24.0400    -3.9430 
  215.6250     2.4710    82.2360     9.7740     8.6080    10.5140    23.9240    -3.9900 
  215.7500     2.4570    82.2360     9.7850     8.6100    10.2560    23.7620    -4.0720 
  215.8750     2.4420    82.2360     9.8120     8.5850    10.0240    23.7220    -4.1940 
  216.0000     2.4360    82.2360     9.8420     8.5550    10.2880    23.8180    -4.3890 
  216.1250     2.4440    82.2360     9.8620     8.5280    10.4060    23.9010    -4.5570 
  216.2500     2.4590    82.2360     9.8640     8.5060    10.1430    23.9310    -4.6480 
  216.3750     2.4720    82.2360     9.8510     8.4900     9.2570    23.9690    -4.7480 
  216.5000     2.4730    82.2360     9.8350     8.4790     9.0150    23.9360    -4.9070 
  216.6250     2.4540    82.2360     9.8230     8.4730     9.5430    23.8160    -5.1070 
  216.7500     2.4270    82.2360     9.8170     8.4710    10.1660    23.6110    -5.2920 
  216.8750     2.4080    82.2360     9.8160     8.4710     9.9180    23.4940    -5.4080 
  217.0000     2.4070    82.2360     9.8170     8.4710     9.6640    23.4970    -5.4500 
  217.1250     2.4240    82.2360     9.8170     8.4710     9.4770    23.5910    -5.5100 
  217.2500     2.4340    82.2360     9.8170     8.4710     9.4610    23.6760    -5.5890 
  217.3750     2.4230    82.2360     9.8170     8.4710     9.6050    23.7790    -5.6930 
  217.5000     2.3960    82.2360     9.8170     8.4710     9.7210    23.9290    -5.7930 
  217.6250     2.3800    82.2360     9.8170     8.4710     9.7500    24.0590    -5.8480 
  217.7500     2.3880    82.2360     9.8170     8.4710     9.3920    24.0840    -5.8870 
  217.8750     2.4080    82.2360     9.8170     8.4710     8.7430    23.9830    -5.8970 
  218.0000     2.4160    82.2360     9.8170     8.4710     9.0940    23.8500    -5.9030 
  218.1250     2.3920    82.2360     9.8170     8.4710    10.9900    23.8340    -5.9000 
  218.2500     2.3560    82.2360     9.8170     8.4710    17.5100    23.9000    -5.9230 
  218.3750     2.3370    82.2360     9.8170     8.4710    36.2180    23.8890    -5.9160 
  218.5000     2.3490    82.2360     9.8170     8.4710    37.8520    23.7670    -5.8900 
  218.6250     2.3900    82.2360     9.8170     8.4710    21.3750    23.4670    -5.9470 
