~V
VERS. 2.00: Ver 2.00
~W
STRT.M 50.0000:
STOP.M 294.0000:
STEP.M 0.1250:
NULL. -999.2500:
UWI. F10104:
~C
DEPT.M :
GR.API :
RML.OHMM :
RI. :
RXO.OHMM :
CALI.CM :
DEN.GM/CC :
SP.MV :
~A
# ...
  196.2500    97.8890    18.0540    17.2820    16.4620    24.1480     2.3030   -18.9740 
  196.3750   100.6270    15.5540    15.4040    14.2640    23.9690     2.3300   -18.9470 
  196.5000   100.7070    13.8150    13.8470    13.5950    23.6590     2.3500   -18.9750 
  196.6250    99.5600    13.2680    13.1340    13.5830    23.5200     2.3560   -19.0430 
  196.7500    99.7640    13.4650    13.0950    14.4970    23.4880     2.3530   -19.1500 
  196.8750   102.0880    13.9470    13.4430    15.6280    23.4940     2.3460   -19.2760 
  197.0000   104.5980    14.3220    13.8390    14.7580    23.4770     2.3410   -19.4410 
  197.1250   104.3990    14.4240    14.0560    13.8550    23.4710     2.3450   -19.6080 
  197.2500   102.1320    14.4420    14.1680    14.0120    23.4820     2.3500   -19.7750 
  197.3750   101.2040    14.5130    14.2850    14.9650    23.5150     2.3520   -19.9140 
  197.5000   103.4980    14.6600    14.4500    15.3490    23.5850     2.3520   -20.0530 
  197.6250   106.7300    14.8120    14.6290    14.7950    23.6440     2.3520   -20.1680 
  197.7500   108.2660    14.8900    14.7620    14.9770    23.7350     2.3490   -20.2710 
  197.8750   108.9430    14.8850    14.8250    16.1370    23.7200     2.3440   -20.3600 
  198.0000   108.7300    14.8450    14.8430    16.1680    23.6460     2.3430   -20.4150 
  198.1250   107.1690    14.8660    14.8800    14.2870    23.6300     2.3520   -20.4520 
  198.2500   104.6460    15.0350    15.0020    13.8060    23.7980     2.3620   -20.4710 
  198.3750   103.3060    15.3900    15.2500    14.6050    24.1230     2.3630   -20.4990 
  198.5000   103.9440    15.8550    15.5960    16.1460    24.1340     2.3550   -20.5030 
  198.6250   105.9880    16.2020    15.8990    16.2790    24.1250     2.3490   -20.5160 
  198.7500   107.3800    16.2980    16.0230    15.4320    24.1740     2.3470   -20.5280 
  198.8750   106.3230    16.2210    15.9940    14.8730    24.3310     2.3450   -20.5640 
  199.0000   103.3790    16.2090    15.9970    15.2060    24.5930     2.3390   -20.6090 
  199.1250   100.8900    16.5870    16.3030    15.1470    24.7910     2.3290   -20.6850 
  199.2500   102.7030    17.4510    16.9960    15.3370    24.9900     2.3200   -20.8020 
  199.3750   106.7230    18.8140    18.1010    16.2440    25.0790     2.3110   -20.9320 
  199.5000   106.2280    20.5690    19.5700    18.3400    25.0970     2.3050   -21.1170 
  199.6250   100.4250    22.5480    21.3300    18.7810    24.7840     2.3000   -21.3180 
  199.7500    94.4630    24.5620    23.2520    18.8210    24.6000     2.2970   -21.5360 
  199.8750    91.6000    26.5620    25.3210    20.2000    24.3060     2.2910   -21.7550 
  200.0000    89.6010    28.5710    27.5390    23.6900    24.0180     2.2830   -22.0040 
  200.1250    87.9230    30.4890    29.7790    27.5900    24.0080     2.2740   -22.2260 
  200.2500    87.3520    31.9890    31.6730    30.7510    24.1450     2.2680   -22.4390 
  200.3750    87.9560    32.7580    32.8370    31.5490    24.2100     2.2630   -22.6470 
  200.5000    90.1450    32.8500    33.1870    30.0570    24.2560     2.2620   -22.8120 
  200.6250    91.3000    32.9000    33.2010    28.8140    24.3630     2.2630   -22.9480 
  200.7500    90.6410    33.5690    33.6470    29.4750    24.2470     2.2630   -23.0660 
  200.8750    90.3880    35.0390    34.8650    31.6960    24.2510     2.2560   -23.1840 
  201.0000    93.3970    37.1340    36.8350    33.7340    24.2310     2.2450   -23.2470 
  201.1250    96.2260    39.4210    39.2720    35.0090    24.4610     2.2380   -23.3040 
  201.2500    94.6240    41.4770    41.6840    35.8640    24.6660     2.2360   -23.3370 
  201.3750    90.1650    43.2250    43.8700    36.3920    24.6900     2.2370   -23.3420 
  201.5000    85.1340    44.7750    45.8240    37.6940    24.8560     2.2360   -23.3410 
  201.6250    84.7830    47.4670    46.0980    41.9080    24.9230     2.2330   -23.3410 
  201.7500    87.4860    48.5640    46.9030    44.8240    24.9620     2.2280   -23.3360 
  201.8750    90.4570    48.7910    46.8510    44.1780    25.0700     2.2240   -23.2980 
  202.0000    92.2870    48.1220    45.9600    40.5900    25.1660     2.2230   -23.2880 
  202.1250    94.0180    47.0570    44.8150    36.9530    25.0660     2.2230   -23.2940 
  202.2500    94.7650    46.4450    44.2430    37.3360    24.6320     2.2220   -23.3130 
  202.3750    91.6220    46.7410    44.6170    38.9440    24.3010     2.2210   -23.3500 
  202.5000    86.4820    47.9780    45.8580    40.5530    24.1990     2.2190   -23.4060 
  202.6250    84.6640    49.8070    47.4740    41.6980    24.1150     2.2170   -23.4480 
  202.7500    85.4010    51.5250    48.8060    41.9980    23.9800     2.2150   -23.4890 
  202.8750    87.6530    52.7290    49.6240    41.8250    23.9030     2.2140   -23.5350 
  203.0000    89.5830    53.4040    50.0970    42.0140    23.8740     2.2160   -23.5850 
  203.1250    90.0380    53.9420    50.6910    43.3360    23.8580     2.2230   -23.6130 
  203.2500    88.9200    54.7760    51.6640    45.7830    23.8340     2.2310   -23.6100 
  203.3750    87.1230    55.9960    52.9230    47.7080    23.8350     2.2370   -23.5940 
  203.5000    84.7680    57.3820    54.1640    49.1330    23.8520     2.2420   -23.5500 
  203.6250    82.7280    58.5300    55.0650    48.5230    23.8660     2.2460   -23.5200 
  203.7500    83.1230    59.4010    55.7860    46.8740    23.9480     2.2460   -23.4660 
  203.8750    85.5050    60.4210    56.7670    45.0630    24.1230     2.2390   -23.4070 
  204.0000    85.3670    62.2210    58.4700    45.6450    24.2710     2.2300   -23.3260 
  204.1250    80.3460    65.1630    60.9950    51.5270    24.3170     2.2230   -23.2610 
  204.2500    76.3360    68.3750    63.4620    55.9440    24.2840     2.2170   -23.2140 
  204.3750    76.7280    70.8070    64.9690    55.5940    24.2370     2.2120   -23.1680 
  204.5000    78.6000    71.7040    65.0130    53.5340    24.1720     2.2110   -23.1270 
  204.6250    77.6090    70.8670    63.6510    54.0750    24.1070     2.2130   -23.0800 
  204.7500    76.6960    69.1730    61.7350    54.2130    24.0410     2.2160   -23.0730 
  204.8750    78.9110    67.1240    59.7020    51.1140    23.9370     2.2190   -23.0750 
  205.0000    82.1010    64.9970    57.7820    46.1280    23.8330     2.2240   -23.1110 
  205.1250    81.1140    63.0510    56.2050    45.5520    23.7380     2.2300   -23.1330 
  205.2500    77.6950    61.6280    55.1510    46.8260    23.6850     2.2320   -23.1760 
  205.3750    76.8830    61.0230    54.7880    48.0980    23.6610     2.2290   -23.2330 
  205.5000    79.5640    61.3350    55.1840    47.0800    23.6730     2.2250   -23.3080 
  205.6250    81.2350    62.7140    56.5450    46.7180    23.7490     2.2230   -23.4000 
  205.7500    80.3170    65.0020    58.7870    49.1450    23.8770     2.2230   -23.4890 
  205.8750    77.8390    68.1080    61.8210    51.3010    23.9610     2.2210   -23.5960 
  206.0000    74.5770    71.8320    65.4490    50.3310    23.9090     2.2170   -23.6880 
  206.1250    72.4590    76.0410    69.4920    52.5450    23.8300     2.2130   -23.8110 
  206.2500    73.5040    80.4150    73.5800    60.2230    23.7890     2.2100   -23.9090 
  206.3750    77.7290    84.5180    77.2920    65.5350    23.7680     2.2040   -24.0030 
  206.5000    80.7870    87.9900    80.3420    59.8290    23.6810     2.1980   -24.0690 
  206.6250    79.1000    90.7600    82.7080    59.3940    23.4930     2.1970   -24.1350 
  206.7500    75.3170    93.1760    84.7160    64.0210    23.4720     2.1990   -24.1770 
  206.8750    72.9430    95.3460    86.4540    67.9250    23.9200     2.2010   -24.1820 
  207.0000    73.1440    97.0970    87.7570    68.6800    24.6010     2.2000   -24.1870 
  207.1250    73.5920    97.7140    88.0030    68.8840    25.0630     2.1960   -24.1550 
  207.2500    74.0960    96.9560    87.1100    68.6410    25.1320     2.1940   -24.1240 
  207.3750    76.7070    95.1290    85.4320    67.5710    24.9650     2.1940   -24.0780 
