~V
VERS. 2.00: Ver 2.00
~W
STRT.M 52.0000:
STOP.M 322.0000:
STEP.M 0.1250:
NULL. -999.2500:
UWI. F10105:
~C
DEPT.M :
GR.API :
RML.OHMM :
RI. :
RXO.OHMM :
CALI.CM :
DEN.GM/CC :
SP.MV :
~A
# ...
  220.7500    71.4830    89.6180    86.5050    61.3810    26.5090     2.2110   -16.8590 
  220.8750    69.0030    90.6400    86.9000    63.5930    26.5380     2.2170   -17.2370 
  221.0000    67.4910    93.0800    88.7830    67.6780    26.6010     2.2230   -17.4760 
  221.1250    69.7080    97.0950    92.5020    71.3320    26.6350     2.2250   -17.5730 
  221.2500    72.4740   101.9950    97.5980    73.5020    26.6460     2.2220   -17.6360 
  221.3750    73.5310   106.8090   103.3610    77.4930    26.6400     2.2170   -17.7830 
  221.5000    73.3620   110.0060   108.3480    83.6750    26.6250     2.2100   -18.0180 
  221.6250    72.1680   109.1650   109.7620    90.0250    26.6100     2.2030   -18.1370 
  221.7500    69.6050   104.0390   106.4830    89.2040    26.6300     2.1970   -18.0580 
  221.8750    68.0390    95.4510    98.8450    85.1170    26.6580     2.1950   -17.8920 
  222.0000    68.8790    85.2970    88.7170    75.7880    26.6550     2.1990   -17.8150 
  222.1250    70.4620    76.0360    78.7640    63.9190    26.6480     2.2100   -17.7980 
  222.2500    71.1940    69.1080    70.8580    57.3530    26.6330     2.2260   -17.7560 
  222.3750    73.0570    65.0640    65.7540    54.1920    26.6040     2.2430   -17.6590 
  222.5000    76.3650    63.9440    63.6500    52.5950    26.5590     2.2600   -17.5680 
  222.6250    78.1570    65.8460    64.8230    49.4850    26.4630     2.2690   -17.5560 
  222.7500    76.6290    69.7350    68.3190    46.2020    26.2950     2.2680   -17.6360 
  222.8750    72.9420    74.8780    73.4390    43.7030    26.0270     2.2540   -17.7260 
  223.0000    69.5800    80.4560    79.2520    40.7180    25.7210     2.2350   -17.7840 
  223.1250    67.8850    85.6840    84.6560    37.8920    25.4800     2.2190   -17.8670 
  223.2500    68.9950    90.4360    89.2470    38.8770    25.4730     2.2140   -18.0000 
  223.3750    71.9790    95.1070    93.4030    44.4340    25.6850     2.2190   -18.1790 
  223.5000    74.9160   100.2940    97.9040    56.0560    26.0020     2.2260   -18.2770 
  223.6250    74.5830   106.3610   103.4970    69.3200    26.3690     2.2280   -18.2390 
  223.7500    70.5980   112.4040   109.5830    75.7660    26.6580     2.2210   -18.1690 
  223.8750    66.1160   116.8550   114.5780    77.7570    26.7690     2.2080   -18.0910 
  224.0000    64.6170   118.0190   116.3820    77.0690    26.7290     2.1960   -18.0000 
  224.1250    65.8440   114.4190   112.9270    73.3400    26.6170     2.1900   -17.9240 
  224.2500    65.9280   107.7630   105.8220    67.5700    26.5370     2.1930   -17.7930 
  224.3750    66.0220   100.0970    97.2590    60.6990    26.4580     2.2030   -17.5750 
  224.5000    66.8300    93.5410    89.5600    54.6890    26.3590     2.2180   -17.3530 
  224.6250    67.0950    90.1490    84.9990    49.9590    26.2580     2.2310   -17.2460 
  224.7500    66.2840    89.9770    83.8680    52.7150    26.2040     2.2400   -17.1770 
  224.8750    67.1580    92.5560    86.0090    52.7370    26.1880     2.2450   -17.1120 
  225.0000    69.9650    96.6410    90.5450    55.4900    26.1890     2.2470   -17.0570 
  225.1250    70.6610    99.9240    95.3700    60.2470    26.2290     2.2450   -17.0000 
  225.2500    67.9680   100.3510    97.7160    66.9360    26.3460     2.2380   -16.9670 
  225.3750    64.7700    97.0970    96.0390    75.5100    26.5120     2.2260   -16.9400 
  225.5000    64.3240    90.8550    90.5730    79.9930    26.6250     2.2110   -16.8780 
  225.6250    66.5070    83.6880    83.2940    68.8780    26.6690     2.1990   -16.7890 
  225.7500    67.9290    77.9670    77.1140    58.2840    26.6850     2.1970   -16.7080 
  225.8750    68.7810    74.6440    73.4330    55.7390    26.6530     2.2050   -16.6050 
  226.0000    69.2070    73.4310    72.2820    58.3340    26.5700     2.2190   -16.4160 
  226.1250    70.2290    72.9100    72.3520    59.1810    26.5440     2.2340   -16.1550 
  226.2500    71.5580    71.2360    71.3400    62.4570    26.5700     2.2430   -16.0090 
  226.3750    72.4630    67.6750    67.9970    67.3900    26.5270     2.2480   -15.9830 
  226.5000    72.0700    62.6990    62.5790    60.6280    26.4090     2.2510   -16.0460 
  226.6250    72.9910    57.9900    56.8820    45.6630    26.2340     2.2520   -16.0430 
  226.7500    76.6870    55.2460    52.8840    36.4450    26.1000     2.2510   -15.9660 
  226.8750    81.2330    55.4160    51.5880    35.9760    26.0660     2.2490   -15.9160 
  227.0000    83.7300    58.8850    53.4290    41.2820    26.1160     2.2450   -15.9900 
  227.1250    80.7400    66.1320    59.0980    51.2470    26.0880     2.2390   -16.2430 
  227.2500    75.4400    76.0660    67.9040    57.0750    26.0800     2.2310   -16.4620 
  227.3750    71.2440    87.4480    79.1100    61.9410    26.1880     2.2210   -16.6110 
  227.5000    69.3030    97.9960    90.8530    67.9370    26.3560     2.2100   -16.6620 
  227.6250    68.0000   103.4300    98.8120    79.4810    26.4250     2.2000   -16.7240 
  227.7500    66.1330   101.8210    99.6670    93.7910    26.4250     2.1970   -16.9060 
  227.8750    65.4120    93.5070    92.6730   100.8650    26.4410     2.2020   -17.1010 
  228.0000    67.0480    81.4180    80.6540    81.8530    26.4920     2.2110   -17.1430 
  228.1250    72.0560    69.9540    68.6740    54.2920    26.5240     2.2180   -16.9830 
  228.2500    77.2380    61.7200    59.9930    41.0980    26.4630     2.2220   -16.8190 
  228.3750    78.9180    56.9550    55.0340    40.6620    26.2590     2.2220   -16.6980 
  228.5000    78.6220    54.6430    52.8550    48.4510    26.0390     2.2210   -16.5760 
  228.6250    80.9830    53.2810    51.9720    56.5160    25.9360     2.2240   -16.3550 
  228.7500    84.7020    51.4570    50.6820    57.7160    25.9530     2.2350   -16.0550 
  228.8750    85.9460    48.8250    48.3780    47.6020    26.0150     2.2550   -15.8190 
  229.0000    83.0440    45.7550    45.3580    36.7520    26.0520     2.2830   -15.7070 
  229.1250    80.0560    43.1520    42.6350    33.1370    26.0570     2.3150   -15.6300 
  229.2500    80.2470    41.5610    40.9150    33.6610    26.0380     2.3400   -15.4880 
  229.3750    82.8510    41.0290    40.3320    34.9870    26.0120     2.3520   -15.2910 
  229.5000    84.6730    41.2260    40.6250    36.1450    25.9960     2.3490   -15.1830 
  229.6250    84.4630    41.6150    41.2430    36.8520    25.9910     2.3330   -15.2640 
  229.7500    84.4100    41.7290    41.5280    37.1820    25.9910     2.3160   -15.3520 
  229.8750    84.8700    41.4610    41.2370    36.9720    25.9850     2.3040   -15.3010 
  230.0000    84.3600    40.9480    40.4940    37.0840    25.9710     2.3000   -15.2010 
  230.1250    83.6650    40.5050    39.6640    37.2320    25.9480     2.3070   -15.1860 
  230.2500    84.8950    40.3930    39.0990    37.0510    25.9410     2.3180   -15.2570 
  230.3750    86.1690    40.7490    38.9530    36.1540    25.9520     2.3280   -15.3690 
  230.5000    84.8730    41.6480    39.2850    37.2890    26.0030     2.3340   -15.4170 
  230.6250    82.3350    43.2810    40.2230    40.8470    26.1130     2.3320   -15.3210 
  230.7500    81.0660    45.7180    41.7860    42.7150    26.2600     2.3240   -15.2260 
  230.8750    80.8440    49.2280    44.1980    41.7950    26.3510     2.3100   -15.2690 
  231.0000    79.6390    54.1520    47.8270    40.9790    26.3800     2.2940   -15.3740 
  231.1250    76.2410    61.0730    53.4310    45.5450    26.3770     2.2830   -15.4030 
  231.2500    71.2400    69.6530    60.9520    53.2260    26.3830     2.2830   -15.3650 
  231.3750    65.9960    79.3200    70.0610    61.9280    26.4030     2.2940   -15.3720 
  231.5000    62.2880    89.0070    79.7800    73.3970    26.4380     2.3090   -15.4970 
  231.6250    60.7620    97.0400    88.2280    83.7300    26.4730     2.3190   -15.6930 
  231.7500    60.8320   102.6940    94.2400    79.7340    26.5060     2.3150   -15.8270 
  231.8750    61.9970   106.1880    97.6810    73.5510    26.5260     2.2970   -15.8590 
