~V
VERS. 2.00: Ver 2.00
~W
STRT.M 50.0000:
STOP.M 205.0000:
STEP.M 0.1250:
NULL. -999.2500:
UWI. F10148:
~C
DEPT.M :
GR.API :
RML.OHMM :
RI. :
RXO.OHMM :
CALI.CM :
SP.MV :
DEN.GM/CC :
~A
   50.0000  -999.2500  -999.2500  -999.2500  -999.2500  -999.2500  -999.2500  -999.2500 
   50.1250  -999.2500  -999.2500  -999.2500  -999.2500  -999.2500  -999.2500  -999.2500 
   50.2500  -999.2500  -999.2500  -999.2500  -999.2500  -999.2500  -999.2500  -999.2500 
   50.3750  -999.2500  -999.2500  -999.2500  -999.2500  -999.2500  -999.2500  -999.2500 
   50.5000  -999.2500  -999.2500  -999.2500  -999.2500  -999.2500  -999.2500  -999.2500 
   50.6250  -999.2500  -999.2500  -999.2500  -999.2500  -999.2500  -999.2500  -999.2500 
   50.7500  -999.2500  -999.2500  -999.2500  -999.2500  -999.2500  -999.2500  -999.2500 
   50.8750  -999.2500  -999.2500  -999.2500  -999.2500  -999.2500  -999.2500  -999.2500 
   51.0000  -999.2500  -999.2500  -999.2500  -999.2500  -999.2500  -999.2500  -999.2500 
   51.1250  -999.2500  -999.2500  -999.2500  -999.2500  -999.2500  -999.2500  -999.2500 
   51.2500  -999.2500  -999.2500  -999.2500  -999.2500  -999.2500  -999.2500  -999.2500 
   51.3750  -999.2500  -999.2500  -999.2500  -999.2500  -999.2500  -999.2500  -999.2500 
   51.5000  -999.2500  -999.2500  -999.2500  -999.2500  -999.2500  -999.2500  -999.2500 
   51.6250  -999.2500  -999.2500  -999.2500  -999.2500  -999.2500  -999.2500  -999.2500 
   51.7500  -999.2500  -999.2500  -999.2500  -999.2500  -999.2500  -999.2500  -999.2500 
   51.8750  -999.2500  -999.2500  -999.2500  -999.2500  -999.2500  -999.2500  -999.2500 
   52.0000  -999.2500  -999.2500  -999.2500  -999.2500  -999.2500  -999.2500  -999.2500 
   52.1250  -999.2500  -999.2500  -999.2500  -999.2500  -999.2500  -999.2500  -999.2500 
   52.2500  -999.2500  -999.2500  -999.2500  -999.2500  -999.2500  -999.2500  -999.2500 
   52.3750  -999.2500  -999.2500  -999.2500  -999.2500  -999.2500  -999.2500  -999.2500 
   52.5000  -999.2500  -999.2500  -999.2500  -999.2500  -999.2500  -999.2500  -999.2500 
   52.6250  -999.2500  -999.2500  -999.2500  -999.2500  -999.2500  -999.2500  -999.2500 
   52.7500  -999.2500  -999.2500  -999.2500  -999.2500  -999.2500  -999.2500  -999.2500 
   52.8750  -999.2500  -999.2500  -999.2500  -999.2500  -999.2500  -999.2500  -999.2500 
   53.0000  -999.2500  -999.2500  -999.2500  -999.2500  -999.2500  -999.2500  -999.2500 
   53.1250  -999.2500  -999.2500  -999.2500  -999.2500  -999.2500  -999.2500  -999.2500 
   53.2500  -999.2500  -999.2500  -999.2500  -999.2500  -999.2500  -999.2500  -999.2500 
   53.3750  -999.2500  -999.2500  -999.2500  -999.2500  -999.2500  -999.2500  -999.2500 
   53.5000  -999.2500  -999.2500  -999.2500  -999.2500  -999.2500  -999.2500  -999.2500 
   53.6250  -999.2500  -999.2500  -999.2500  -999.2500  -999.2500  -999.2500  -999.2500 
   53.7500  -999.2500  -999.2500  -999.2500  -999.2500  -999.2500  -999.2500  -999.2500 
   53.8750  -999.2500  -999.2500  -999.2500  -999.2500  -999.2500  -999.2500  -999.2500 
   54.0000  -999.2500  -999.2500  -999.2500  -999.2500  -999.2500  -999.2500  -999.2500 
   54.1250  -999.2500  -999.2500  -999.2500  -999.2500  -999.2500  -999.2500  -999.2500 
   54.2500  -999.2500  -999.2500  -999.2500  -999.2500  -999.2500  -999.2500  -999.2500 
   54.3750  -999.2500  -999.2500  -999.2500  -999.2500  -999.2500  -999.2500  -999.2500 
   54.5000  -999.2500  -999.2500  -999.2500  -999.2500  -999.2500  -999.2500  -999.2500 
   54.6250    42.9760     2.9030     0.2750     0.1230    25.3490  -999.2500  -999.2500 
   54.7500    42.9760     2.9030     0.2750     0.1230    25.3490  -999.2500  -999.2500 
   54.8750    45.3840     2.8920     0.2830     0.1210    25.3490  -999.2500  -999.2500 
   55.0000    47.5200     2.5930     0.2990     0.1210    25.3480  -999.2500  -999.2500 
   55.1250    48.6750     2.0750     0.3120     0.1290    25.3470  -999.2500  -999.2500 
   55.2500    49.6820     1.6570     0.3110     0.1470    25.3430  -999.2500  -999.2500 
   55.3750    49.5660     1.4240     0.2940     0.1620    25.3450  -999.2500  -999.2500 
   55.5000    47.0940     1.3020     0.2640     0.1560    25.3470  -999.2500  -999.2500 
   55.6250    43.8260     1.1710     0.2350     0.1380    25.3480  -999.2500  -999.2500 
   55.7500    42.3690     1.0500     0.2160     0.1260    25.3470  -999.2500  -999.2500 
   55.8750    42.4210     0.9810     0.2120     0.1210    25.3430  -999.2500  -999.2500 
   56.0000    42.8230     0.9470     0.2170     0.1200    25.3520  -999.2500  -999.2500 
   56.1250    42.2440     0.9080     0.2230     0.1190    25.3390  -999.2500  -999.2500 
   56.2500    42.5310     0.8660     0.2240     0.1180    25.3380  -999.2500  -999.2500 
   56.3750    44.1470     0.8450     0.2190     0.1160    25.3380  -999.2500  -999.2500 
   56.5000    45.9320     0.8530     0.2120     0.1150    25.3460  -999.2500  -999.2500 
   56.6250    47.7510     0.8680     0.2080     0.1170    25.3470  -999.2500  -999.2500 
   56.7500    49.7050     0.8610     0.2050     0.1170    25.3420  -999.2500  -999.2500 
   56.8750    50.7850     0.8320     0.2000     0.1240    25.3380  -999.2500  -999.2500 
   57.0000    52.1870     0.7940     0.1920     0.1320    25.3370  -999.2500     1.9790 
   57.1250    53.7820     0.7610     0.1840     0.1370    25.3380  -999.2500     1.9790 
   57.2500    53.7860     0.7340     0.1780     0.1400    25.3410  -999.2500     1.9830 
   57.3750    50.6430     0.7040     0.1760     0.1410    25.3410  -999.2500     1.9890 
   57.5000    47.6770     0.6670     0.1770     0.1380    25.3450  -999.2500     1.9940 
   57.6250    48.7450     0.6350     0.1780     0.1340    25.3390  -999.2500     1.9940 
   57.7500    50.7990     0.6240     0.1760     0.1290    25.3470     0.0000     1.9860 
   57.8750    51.8880     0.6280     0.1750     0.1250    25.3480     0.0000     1.9710 
   58.0000    52.5090     0.6280     0.1800     0.1280    25.3390    54.4980     1.9540 
   58.1250    54.1860     0.6050     0.1980     0.1370    25.3390    54.6290     1.9440 
   58.2500    54.6160     0.5690     0.2210     0.1390    25.3460    54.8340     1.9420 
   58.3750    52.4070     0.5290     0.2390     0.1410    25.3420    55.1250     1.9460 
   58.5000    51.1440     0.4920     0.2460     0.1430    25.3380    55.4810     1.9530 
   58.6250    52.8690     0.4660     0.2430     0.1440    25.3370    55.8790     1.9590 
   58.7500    53.0600     0.4640     0.2380     0.1450    25.3380    56.3750     1.9630 
   58.8750    49.4190     0.4840     0.2350     0.1480    25.3430    56.9070     1.9620 
   59.0000    46.1990     0.5200     0.2300     0.1590    25.3380    57.4760     1.9540 
   59.1250    48.4680     0.5450     0.2240     0.1720    25.3380    58.0870     1.9380 
   59.2500    50.3370     0.5280     0.2180     0.1710    25.3410    58.7090     1.9180 
   59.3750    48.1170     0.4580     0.2140     0.1620    25.3400    59.3270     1.9010 
   59.5000    44.5910     0.3560     0.2130     0.1720    25.3370    59.9540     1.8950 
   59.6250    44.8730     0.2670     0.2140     0.1960    25.3370    60.6290     1.9070 
   59.7500    47.5210     0.2110     0.2100     0.2110    25.3370    61.2940     1.9290 
   59.8750    48.4090     0.1870     0.2010     0.2140    25.3370    61.9780     1.9530 
   60.0000    46.5960     0.1790     0.1890     0.2210    25.3370    62.7370     1.9690 
   60.1250    44.1530     0.1690     0.1800     0.2290    25.3370    63.5860     1.9710 
   60.2500    43.2480     0.1590     0.1750     0.2330    25.3370    64.4550     1.9650 
   60.3750    43.5760     0.1600     0.1760     0.2450    25.3370    65.3340     1.9580 
   60.5000    43.8560     0.1880     0.1810     0.2870    25.3370    66.2100     1.9550 
   60.6250    43.5470     0.2470     0.1920     0.3480    25.3400    66.9980     1.9600 
   60.7500    44.6650     0.3120     0.2100     0.3840    25.3410    67.6020     1.9710 
   60.8750    47.5320     0.3600     0.2310     0.4100    25.3350    67.9220     1.9840 
   61.0000    49.5180     0.3800     0.2500     0.4510    25.3260    67.9070     1.9930 
   61.1250    49.7280     0.3840     0.2580     0.4630    25.2800    67.5130     1.9930 
