~V
VERS. 2.00: Ver 2.00
~W
STRT.M 50.0000:
STOP.M 207.0000:
STEP.M 0.1250:
NULL. -999.2500:
UWI. F10134:
~C
DEPT.M :
SP.MV :
DEN.GM/CC :
GR.API :
RML.OHMM :
RI. :
RXO.OHMM :
CALI.CM :
~A
# ...
  117.5000     0.8780     2.1620    66.8460    11.6200     8.3730    15.2040    24.3180 
  117.6250     0.7510     2.1570    64.4770    11.1270     8.1410    13.9900    24.2950 
  117.7500     0.6360     2.1560    64.2780    10.5760     7.8190     9.7250    24.2410 
  117.8750     0.5490     2.1640    68.6190    10.2410     7.5880     7.5610    24.1650 
  118.0000     0.5140     2.1850    72.6910    10.2440     7.5530     7.4700    24.1000 
  118.1250     0.5510     2.2160    69.8830    10.5390     7.7230     9.1360    24.0940 
  118.2500     0.6700     2.2430    63.9410    10.8810     7.9570    11.8230    24.1370 
  118.3750     0.8810     2.2560    61.3770    11.1730     8.1850    13.6260    24.2680 
  118.5000     1.2010     2.2600    63.5320    11.4770     8.4210    11.8720    24.5470 
  118.6250     1.6400     2.2710    64.8760    11.9610     8.7550     9.0700    24.9340 
  118.7500     2.1650     2.3080    63.4310    12.5810     9.1800     8.7320    25.2580 
  118.8750     2.7510     2.3700    62.7790    13.0730     9.5710    11.8660    25.4560 
  119.0000     3.3590     2.4270    64.9980    13.0380     9.7070    17.6570    25.5680 
  119.1250     3.9670     2.4320    68.2820    12.0670     9.3110    18.3110    25.6270 
  119.2500     4.5400     2.3890    71.5050    10.5090     8.5130    11.8280    25.6420 
  119.3750     5.0590     2.3240    76.2490     8.8700     7.5660     6.9740    25.6260 
  119.5000     5.5070     2.2680    82.0830     7.5820     6.7320     5.4040    25.5770 
  119.6250     5.8700     2.2420    84.3160     6.9120     6.2260     5.5040    25.5220 
  119.7500     6.1790     2.2420    82.1700     6.7190     6.0360     5.7290    25.5320 
  119.8750     6.4540     2.2550    77.7490     6.8840     6.1240     5.4710    25.6370 
  120.0000     6.7130     2.2690    73.5130     7.2910     6.4210     5.3550    25.7800 
  120.1250     6.9780     2.2800    70.1890     7.8300     6.8470     5.8000    25.8790 
  120.2500     7.2570     2.2920    67.3080     8.3150     7.2450     7.0250    25.9710 
  120.3750     7.5580     2.3060    67.3280     8.5560     7.4640     8.9230    26.0840 
  120.5000     7.8780     2.3210    72.0470     8.3890     7.3760    11.1540    26.1610 
  120.6250     8.2090     2.3250    78.7530     7.7520     6.9180     8.4360    26.1440 
  120.7500     8.5110     2.3140    83.6690     6.9610     6.3050     5.9480    26.1010 
  120.8750     8.7600     2.2940    85.6210     6.3290     5.7520     5.0470    26.0820 
  121.0000     8.9450     2.2750    84.5580     6.1320     5.4560     5.0870    26.0780 
  121.1250     9.0430     2.2800    80.6010     6.7450     5.6670     5.5810    26.0790 
  121.2500     9.0690     2.3170    76.0130     8.2990     6.4700     6.6770    26.0830 
  121.3750     9.0320     2.3860    71.0770    10.9850     8.0000     9.2720    26.0880 
  121.5000     8.9440     2.4710    65.4100    14.8430    10.3440    13.0680    26.0880 
  121.6250     8.8080     2.5420    60.4490    19.5170    13.4450    19.7620    26.0820 
  121.7500     8.6590     2.5870    56.3520    23.7040    16.5470    22.6590    26.0810 
  121.8750     8.5130     2.6000    51.2570    26.1420    18.7590    23.5640    26.0970 
  122.0000     8.3650     2.5800    47.1850    26.2470    19.4620    22.6410    26.1370 
  122.1250     8.2140     2.5270    49.7300    24.2930    18.5420    18.6620    26.1850 
  122.2500     8.0570     2.4630    55.9450    21.5910    16.8300    14.9200    26.2180 
  122.3750     7.8930     2.4050    60.9720    18.7390    14.8030    13.7030    26.2300 
  122.5000     7.7180     2.3670    62.7180    16.0270    12.7700    14.1690    26.2300 
  122.6250     7.5350     2.3450    65.2280    13.7570    11.0200    12.4700    26.2450 
  122.7500     7.3500     2.3220    71.7610    12.1190     9.7050     8.5140    26.2800 
  122.8750     7.1580     2.2900    78.9050    11.2530     8.9180     6.5230    26.3360 
  123.0000     6.9890     2.2550    81.2150    11.1770     8.6810     7.1900    26.4160 
  123.1250     6.8760     2.2280    76.4560    11.8910     9.0370     9.0680    26.5340 
  123.2500     6.8100     2.2130    71.7680    13.0620     9.7910    10.6910    26.6570 
  123.3750     6.7960     2.2030    69.9410    14.4110    10.7640    11.4820    26.7400 
  123.5000     6.8290     2.1950    69.1480    15.6420    11.7270    11.8570    26.7750 
  123.6250     6.8960     2.1890    68.5570    16.4910    12.4360    12.3520    26.7720 
  123.7500     6.9820     2.1870    69.7840    16.9830    12.8650    12.9230    26.7450 
  123.8750     7.0820     2.1880    71.1740    17.1480    13.0320    13.1940    26.6980 
  124.0000     7.1880     2.1860    69.1320    16.9970    12.9640    13.6060    26.6510 
  124.1250     7.2990     2.1830    64.7480    16.5800    12.6950    13.8520    26.6290 
  124.2500     7.4240     2.1880    62.0340    16.1760    12.4030    13.7360    26.6240 
  124.3750     7.5640     2.2180    61.7550    16.0750    12.2670    12.9570    26.6260 
  124.5000     7.7140     2.2830    62.6870    16.5210    12.4500    12.1450    26.6370 
  124.6250     7.8620     2.3840    63.1860    17.7470    13.1380    12.6780    26.6550 
  124.7500     8.0010     2.4880    62.8310    19.5240    14.2490    17.1230    26.6680 
  124.8750     8.1100     2.5670    61.3580    21.4870    15.6180    20.9720    26.6730 
  125.0000     8.1740     2.6060    58.8440    23.0310    16.8950    20.0660    26.6690 
  125.1250     8.1770     2.6020    56.0390    23.1250    17.3720    17.4900    26.6790 
  125.2500     8.1420     2.5770    55.5450    21.5160    16.7040    15.9740    26.7170 
  125.3750     8.0790     2.5380    57.5160    18.5360    14.9840    15.8480    26.7760 
  125.5000     8.0000     2.4880    59.7940    15.0120    12.7140    14.0240    26.8310 
  125.6250     7.9030     2.4300    63.4190    11.8610    10.5180    10.6100    26.8590 
  125.7500     7.7970     2.3720    70.3350     9.4540     8.7290     7.0710    26.8790 
  125.8750     7.6870     2.3210    78.4480     7.8290     7.4290     5.4870    26.9100 
  126.0000     7.5760     2.2830    83.6460     6.8740     6.5870     5.2530    26.9470 
  126.1250     7.4600     2.2630    84.2170     6.5170     6.1940     5.3300    26.9690 
  126.2500     7.3410     2.2530    83.6960     6.5470     6.1180     5.4420    26.9800 
  126.3750     7.2250     2.2550    82.3600     6.8610     6.2930     5.4760    26.9950 
  126.5000     7.1190     2.2690    79.1300     7.3580     6.6480     5.5010    27.0130 
  126.6250     7.0420     2.2930    74.1680     7.9570     7.1240     6.1490    27.0200 
  126.7500     6.9960     2.3140    72.2780     8.5280     7.6100     7.3250    27.0180 
  126.8750     6.9670     2.3160    75.9390     8.9330     7.9920     8.0950    27.0140 
  127.0000     6.9360     2.2960    81.7390     9.0570     8.1570     7.4740    27.0140 
  127.1250     6.9010     2.2650    82.3630     8.8580     8.0360     7.5270    27.0430 
  127.2500     6.8520     2.2430    78.0060     8.5560     7.7790     7.4480    27.0970 
  127.3750     6.7950     2.2350    75.9010     8.4090     7.5710     7.0350    27.1480 
  127.5000     6.7320     2.2360    79.4320     8.6950     7.6140     6.4830    27.1710 
  127.6250     6.6430     2.2330    82.9210     9.7620     8.1470     7.1000    27.1700 
  127.7500     6.5410     2.2200    80.2780    11.5530     9.1590     8.8360    27.1660 
  127.8750     6.4350     2.2000    73.8600    13.8690    10.5650    12.3300    27.1630 
  128.0000     6.3270     2.1770    69.2920    16.2480    12.1150    16.2120    27.1620 
  128.1250     6.2080     2.1570    68.8020    17.8760    13.3090    18.7820    27.1680 
  128.2500     6.0840     2.1420    69.7520    18.4900    13.8850    17.6220    27.1720 
  128.3750     5.9830     2.1310    69.9590    18.4370    13.9760    14.1370    27.1640 
  128.5000     5.9350     2.1290    69.5290    18.4910    14.0210    12.1200    27.1430 
  128.6250     5.9850     2.1550    68.4070    19.5580    14.5940    12.8340    27.0950 
