~V
VERS. 2.00: Ver 2.00
~W
STRT.M 54.0000:
STOP.M 236.0000:
STEP.M 0.1250:
NULL. -999.2500:
UWI. F10195:
~C
DEPT.M :
GR.API :
RML.OHMM :
RI. :
RXO.OHMM :
CALI.CM :
SP.MV :
DEN.GM/CC :
~A
# ...
   76.5000    64.2260     8.5610     6.1890    12.5430    27.7350   -49.0710     2.1500 
   76.6250    62.4400     8.7990     6.3430    12.6980    27.9620   -49.1710     2.1620 
   76.7500    60.3630     8.9500     6.4440    12.6200    28.8180   -49.1520     2.1440 
   76.8750    56.0910     8.9640     6.4540    12.4070    29.8730   -49.0010     2.1010 
   77.0000    52.8570     8.8010     6.3420    11.9060    30.7240   -48.6890     2.0460 
   77.1250    55.0580     8.4720     6.1110    11.1630    31.1790   -48.2440     2.0010 
   77.2500    60.3490     8.0710     5.8160    10.1290    31.0420   -47.7340     1.9920 
   77.3750    64.3780     7.7550     5.5580    10.1710    30.4220   -47.2490     2.0190 
   77.5000    65.8760     7.6320     5.4120    10.3700    29.5570   -46.8460     2.0650 
   77.6250    65.2650     7.7450     5.4250    11.3820    29.0840   -46.5650     2.1110 
   77.7500    63.2000     8.0570     5.6080    12.3130    29.4190   -46.3940     2.1390 
   77.8750    60.0060     8.4050     5.8680    12.5830    30.0320   -46.2970     2.1510 
   78.0000    57.7760     8.6770     6.1270    12.4870    30.5980   -46.2490     2.1560 
   78.1250    57.9490     8.8070     6.3230    12.3070    31.1200   -46.1990     2.1620 
   78.2500    58.3720     8.7900     6.4120    12.0760    31.8510   -46.0880     2.1680 
   78.3750    58.9870     8.7330     6.4340    11.6660    32.7700   -45.8270     2.1670 
   78.5000    59.4400     8.7270     6.4410    11.0830    33.5360   -45.3230     2.1530 
   78.6250    58.7350     8.8210     6.4780    10.2560    33.5870   -44.5390     2.1260 
   78.7500    55.0020     8.9730     6.5530     9.9850    32.7480   -43.4510     2.1010 
   78.8750    53.1160     9.0160     6.5820    10.2860    31.6840   -42.1040     2.0890 
   79.0000    57.5030     8.7950     6.4630    10.7500    30.8240   -40.5140     2.0900 
   79.1250    65.5730     8.2740     6.1460    10.6680    30.1760   -38.7160     2.1010 
   79.2500    72.1510     7.6180     5.7080     9.3880    29.4610   -36.7480     2.1230 
   79.3750    77.5160     7.1280     5.3360     7.2880    28.1770   -34.7670     2.1500 
   79.5000    83.1580     6.9590     5.1350     5.5240    26.6840   -32.8920     2.1790 
   79.6250    86.2640     7.0980     5.1180     5.2810    25.9200   -31.1840     2.2040 
   79.7500    81.8230     7.3600     5.2080     6.5980    26.1560   -29.6570     2.2110 
   79.8750    77.1780     7.4510     5.2310     7.9520    26.4790   -28.3190     2.2000 
   80.0000    78.4350     7.2120     5.0810     7.4480    26.1830   -27.2190     2.1970 
   80.1250    85.7820     6.6710     4.7530     5.6500    25.2970   -26.4180     2.2220 
   80.2500    95.6460     6.0900     4.3760     4.5460    24.5700   -25.9710     2.2690 
   80.3750   103.5190     5.8490     4.1570     4.3020    24.2460   -25.7650     2.3090 
   80.5000   106.1390     6.2630     4.2750     4.4940    24.2450   -25.7690     2.3300 
   80.6250   100.3990     7.5710     4.8970     4.9000    24.5160   -25.9780     2.3300 
   80.7500    88.5540    10.0450     6.3060     5.9680    25.0280   -26.4730     2.3190 
   80.8750    77.0420    13.3010     8.4570     8.6470    25.2880   -27.2390     2.3280 
   81.0000    68.7900    16.6360    11.0810    15.5940    25.2270   -28.2790     2.3740 
   81.1250    65.4440    18.8530    13.3580    25.8180    25.1170   -29.5610     2.4460 
   81.2500    65.1040    18.5050    13.9180    29.5410    25.3940   -31.0350     2.4750 
   81.3750    64.5960    16.3360    12.9150    24.0450    26.2040   -32.5880     2.4160 
   81.5000    63.8890    13.6260    11.1950    17.5130    27.3270   -34.1370     2.3060 
   81.6250    63.5350    11.3730     9.5360    13.6840    28.1030   -35.5970     2.2080 
   81.7500    63.4820    10.0520     8.3740    12.2790    28.5430   -36.9200     2.1590 
   81.8750    62.7390     9.3990     7.6640    11.7220    29.2200   -38.0510     2.1410 
   82.0000    60.3450     9.2030     7.3110    11.2980    30.1420   -38.9160     2.1320 
   82.1250    56.2270     9.3070     7.2160    10.9930    31.2280   -39.4730     2.1140 
   82.2500    52.6390     9.6350     7.3210    11.3240    32.3030   -39.6390     2.0820 
   82.3750    52.6910    10.0270     7.5140    12.0470    32.9080   -39.4850     2.0520 
   82.5000    54.4340    10.2980     7.6860    12.4200    32.8970   -39.0470     2.0430 
   82.6250    54.8280    10.2480     7.6990    12.4100    32.3000   -38.3740     2.0660 
   82.7500    53.2720     9.7410     7.4250    12.1260    32.1480   -37.4420     2.1070 
   82.8750    53.0330     9.0230     6.9800    10.4720    32.1140   -36.3510     2.1270 
   83.0000    56.7250     8.3880     6.5360     7.8510    31.4760   -35.2010     2.1210 
   83.1250    62.4700     8.1000     6.2590     6.0630    30.5480   -34.0650     2.1250 
   83.2500    65.6550     8.3580     6.2840     6.2660    30.0840   -33.0320     2.1630 
   83.3750    66.1910     8.9560     6.5380     7.8470    30.0900   -32.1120     2.2010 
   83.5000    64.7720     9.6130     6.8990     9.1300    30.2960   -31.2840     2.2080 
   83.6250    61.3400    10.0170     7.1970     9.2700    30.4860   -30.5250     2.1880 
   83.7500    58.4960     9.8920     7.2260     8.5550    30.2410   -29.8330     2.1620 
   83.8750    59.8440     9.4030     6.9940     7.6380    29.5020   -29.1830     2.1420 
   84.0000    64.4160     8.8080     6.6200     7.1390    28.5830   -28.5420     2.1360 
   84.1250    68.6380     8.3380     6.2570     7.1430    28.0100   -27.8890     2.1500 
   84.2500    70.1290     8.1210     6.0280     7.3070    27.9140   -27.2100     2.1830 
   84.3750    70.4050     8.0790     5.9280     7.3940    27.9990   -26.5370     2.2080 
   84.5000    70.0640     8.1400     5.9230     7.4580    28.0840   -25.8910     2.2140 
   84.6250    69.8650     8.2250     5.9620     7.5160    28.1220   -25.3070     2.2120 
   84.7500    70.5290     8.2480     5.9850     7.3910    28.0960   -24.8480     2.2170 
   84.8750    70.3340     8.2030     5.9630     7.1710    27.9820   -24.5160     2.2260 
   85.0000    70.0760     8.1190     5.8970     7.0270    27.7920   -24.3000     2.2310 
   85.1250    72.5260     8.0350     5.8020     6.9930    27.6380   -24.1650     2.2300 
   85.2500    77.8740     7.9730     5.6990     7.1560    27.5400   -24.1230     2.2260 
   85.3750    79.6070     7.9160     5.6020     7.1470    27.3970   -24.1470     2.2240 
   85.5000    75.3320     7.8490     5.5130     6.8790    27.1560   -24.2630     2.2250 
   85.6250    70.0350     7.7820     5.4410     6.4910    26.8420   -24.4770     2.2290 
   85.7500    67.9520     7.7790     5.4310     6.4280    26.5550   -24.7770     2.2280 
   85.8750    68.2670     7.9040     5.5180     6.5330    26.3170   -25.1330     2.2200 
   86.0000    69.4000     8.1810     5.7140     6.5530    26.1310   -25.5250     2.2070 
   86.1250    70.0180     8.5860     5.9960     6.6980    26.0550   -25.9600     2.1890 
   86.2500    68.5380     9.0260     6.3080     8.1860    26.3230   -26.4480     2.1650 
   86.3750    67.5600     9.3720     6.5750    11.0760    26.9000   -26.9850     2.1410 
   86.5000    69.2440     9.5540     6.7470    12.2530    27.2270   -27.5590     2.1320 
   86.6250    72.6520     9.5700     6.8120    10.4100    27.0960   -28.1330     2.1470 
   86.7500    75.5860     9.4820     6.7850     9.4010    27.0150   -28.6810     2.1740 
   86.8750    74.9870     9.4040     6.7400     9.3420    27.2640   -29.1730     2.1910 
   87.0000    69.5650     9.3830     6.7270     9.6010    27.6400   -29.6020     2.1910 
   87.1250    63.7940     9.4160     6.7570     9.7970    28.0060   -29.9330     2.1810 
   87.2500    62.2030     9.4430     6.7930     9.9860    28.3590   -30.1350     2.1680 
   87.3750    62.0750     9.4070     6.7800    10.0190    28.7800   -30.2110     2.1580 
   87.5000    59.0280     9.3160     6.7000     9.7610    29.1840   -30.1550     2.1500 
   87.6250    56.7410     9.2050     6.5730     9.1180    29.4050   -29.9820     2.1430 
