~V
VERS. 2.00: Ver 2.00
~W
STRT.M 53.0000:
STOP.M 246.0000:
STEP.M 0.1250:
NULL. -999.2500:
UWI. F10192:
~C
DEPT.M :
DEN.GM/CC :
GR.API :
RML.OHMM :
RI. :
RXO.OHMM :
CALI.CM :
SP.MV :
~A
# ...
  165.5000     2.2150    57.8790   235.1570   205.1140   144.3150    24.5410   -36.9400 
  165.6250     2.2130    58.3040   249.8350   218.4500   152.7050    24.5340   -37.0420 
  165.7500     2.2090    56.6180   268.4650   235.4890   156.1150    24.5250   -37.0620 
  165.8750     2.2050    55.5380   288.8370   254.3480   169.1180    24.5360   -37.0540 
  166.0000     2.2020    56.3070   307.3530   272.1340   186.8960    24.5440   -36.9870 
  166.1250     2.2030    57.4360   318.8010   284.5900   196.0390    24.5450   -36.9020 
  166.2500     2.2060    59.4900   316.1090   285.5230   189.9400    24.5450   -36.8470 
  166.3750     2.2090    61.6420   301.0280   275.2460   177.4800    24.5450   -36.8220 
  166.5000     2.2090    63.1890   278.6460   256.9280   163.4830    24.5450   -36.7750 
  166.6250     2.2080    61.6360   255.9560   236.2500   153.2260    24.5450   -36.7190 
  166.7500     2.2050    57.2640   239.9560   219.9200   145.9060    24.5450   -36.7200 
  166.8750     2.2020    56.0920   232.5510   210.9290   140.9850    24.5450   -36.6450 
  167.0000     2.1990    56.7230   234.2120   210.3050   139.2570    24.5450   -36.5750 
  167.1250     2.1950    56.8530   244.1310   217.5640   144.2670    24.5450   -36.4930 
  167.2500     2.1920    58.1840   260.3230   231.0070   156.5350    24.5450   -36.3250 
  167.3750     2.1930    61.4790   276.8040   245.2460   165.2610    24.5450   -36.1450 
  167.5000     2.1970    65.0990   288.3860   255.7830   169.3940    24.5450   -35.9240 
  167.6250     2.2060    65.6050   291.9880   259.6770   170.0130    24.5420   -35.6810 
  167.7500     2.2140    63.3280   288.6380   256.9290   161.6390    24.5380   -35.3510 
  167.8750     2.2160    61.1980   285.1590   253.0710   151.4110    24.5360   -35.0040 
  168.0000     2.2110    58.5010   286.0960   252.4210   145.4630    24.5460   -34.6420 
  168.1250     2.2030    55.0550   293.2550   257.1760   149.4210    24.5650   -34.1980 
  168.2500     2.2000    52.5480   305.5820   267.0720   159.0510    24.5880   -33.7780 
  168.3750     2.2030    53.0620   316.9510   277.2760   163.7960    24.5870   -33.3220 
  168.5000     2.2100    56.1180   320.7050   282.5450   165.9410    24.5750   -32.8930 
  168.6250     2.2200    58.1490   311.9570   278.5240   168.1510    24.5850   -32.4710 
  168.7500     2.2270    58.1700   289.8150   262.9990   165.4710    24.6020   -32.0980 
  168.8750     2.2270    59.4670   262.4110   241.4950   158.6870    24.6330   -31.7530 
  169.0000     2.2210    62.8680   235.1610   218.4770   146.6300    24.6750   -31.4410 
  169.1250     2.2130    66.7370   211.0860   197.1060   131.5870    24.7340   -31.2190 
  169.2500     2.2060    67.2060   191.7460   179.3580   120.6920    24.8040   -31.0760 
  169.3750     2.2030    64.4900   176.3210   164.9160   113.6640    24.8500   -31.0090 
  169.5000     2.2070    62.9790   164.7280   153.7830   106.4880    24.8610   -31.0010 
  169.6250     2.2140    63.7120   157.0480   146.1240    99.8140    24.8040   -31.0850 
  169.7500     2.2190    63.9800   153.9580   142.6860    95.5210    24.7330   -31.1900 
  169.8750     2.2200    62.7290   154.5370   142.7450    92.6730    24.6850   -31.3570 
  170.0000     2.2190    62.0620   158.1210   145.7870    96.7340    24.6410   -31.5320 
  170.1250     2.2170    63.0820   163.5790   150.8320   104.7170    24.5910   -31.7260 
  170.2500     2.2140    62.6340   169.2810   156.4230   108.7970    24.5610   -31.8710 
  170.3750     2.2120    59.5490   173.6700   161.0130   108.2800    24.5210   -32.0190 
  170.5000     2.2120    57.7640   175.7520   163.6390   107.8970    24.5150   -32.1400 
  170.6250     2.2180    59.4020   174.6290   163.4280   107.9530    24.5290   -32.2080 
  170.7500     2.2250    61.9590   169.0760   159.1040   107.3000    24.5220   -32.2280 
  170.8750     2.2310    62.0770   160.4080   151.6400   106.5080    24.4950   -32.2300 
  171.0000     2.2360    61.1400   150.5700   142.6490   105.6660    24.4660   -32.1990 
  171.1250     2.2440    60.6110   141.9690   134.4010   102.7510    24.4320   -32.1590 
  171.2500     2.2480    61.2230   136.8210   129.3650    91.9150    24.3950   -32.1150 
  171.3750     2.2440    62.7190   134.2530   127.2750    84.1180    24.3980   -32.0400 
  171.5000     2.2340    64.1940   132.1550   126.4190    92.1370    24.3720   -31.9380 
  171.6250     2.2260    64.3910   127.9480   124.2540   107.7960    24.2520   -31.8300 
  171.7500     2.2220    63.3850   119.6830   118.3520   109.9910    24.1790   -31.7280 
  171.8750     2.2230    61.7820   109.1720   109.6740    90.3310    24.2310   -31.6220 
  172.0000     2.2320    62.0020    98.8880   100.2750    65.1560    24.2980   -31.5350 
  172.1250     2.2440    63.8730    90.9730    92.3840    48.6190    24.2850   -31.4270 
  172.2500     2.2490    65.2510    86.8580    87.8100    54.5880    24.2370   -31.3520 
  172.3750     2.2440    66.1900    85.5170    85.9610    62.9570    24.2390   -31.2930 
  172.5000     2.2320    67.5180    86.0020    86.0120    64.4000    24.2950   -31.2650 
  172.6250     2.2140    68.7260    87.4250    87.0680    58.9380    24.3980   -31.2560 
  172.7500     2.1940    68.3050    89.2760    88.4790    57.0380    24.4800   -31.3250 
  172.8750     2.1820    65.2760    91.5340    90.0620    58.5420    24.5170   -31.4180 
  173.0000     2.1800    61.4590    94.6590    92.1960    61.9690    24.4930   -31.5570 
  173.1250     2.1880    60.0260    99.1980    95.4120    65.2240    24.4170   -31.7260 
  173.2500     2.2020    62.0130   105.9870   100.4650    67.6430    24.3290   -31.9500 
  173.3750     2.2110    62.4140   115.2120   107.5220    70.7080    24.2760   -32.1690 
  173.5000     2.2100    61.4090   127.4350   117.0970    79.3690    24.3320   -32.4100 
  173.6250     2.1980    60.8600   143.1640   129.6590   103.1820    24.5070   -32.6540 
  173.7500     2.1850    59.8760   163.1110   145.7050   132.0290    24.6340   -32.8890 
  173.8750     2.1760    57.3230   186.1600   164.1190   143.5180    24.6750   -33.1080 
  174.0000     2.1720    55.8310   211.3830   184.0390   144.8760    24.6850   -33.3010 
  174.1250     2.1720    56.4080   237.6580   204.5990   160.5560    24.6940   -33.4720 
  174.2500     2.1730    58.2970   263.7430   225.0560   166.6990    24.6980   -33.5850 
  174.3750     2.1720    58.9960   287.9790   244.4760   173.4520    24.6980   -33.6760 
  174.5000     2.1700    57.2370   307.2750   260.8540   177.4720    24.6980   -33.7220 
  174.6250     2.1660    54.1060   317.2500   271.0430   181.8890    24.6980   -33.7460 
  174.7500     2.1660    54.4170   312.7360   270.8670   183.9710    24.6970   -33.6940 
  174.8750     2.1740    57.4100   296.7170   261.7150   180.4400    24.6900   -33.6330 
  175.0000     2.1860    60.7830   272.0640   245.0720   165.7280    24.6830   -33.5310 
  175.1250     2.1960    62.7340   242.1620   222.9740   149.2500    24.7000   -33.4230 
  175.2500     2.2030    61.9410   210.9350   197.8790   137.9700    24.7130   -33.2900 
  175.3750     2.2150    61.2930   182.1360   173.2540   128.1130    24.6750   -33.1690 
  175.5000     2.2320    62.1220   157.6480   151.2190   101.3360    24.6110   -33.0490 
  175.6250     2.2480    62.7440   138.1710   133.0570    70.5640    24.5830   -32.9340 
  175.7500     2.2550    62.3850   124.1750   119.7380    56.3070    24.6040   -32.8660 
  175.8750     2.2590    62.0040   114.0470   109.9830    60.3160    24.6040   -32.8000 
  176.0000     2.2640    61.6940   107.1520   103.1590    65.3330    24.5580   -32.7710 
  176.1250     2.2690    61.3430   103.2080    98.9510    65.2330    24.5120   -32.7390 
  176.2500     2.2640    63.9000   102.8600    97.8740    64.3280    24.5870   -32.7730 
  176.3750     2.2500    69.2070   106.0270    99.8360    65.9950    24.7450   -32.8310 
  176.5000     2.2360    70.5110   113.1680   105.2850    69.8700    24.8570   -32.9120 
  176.6250     2.2240    65.7470   124.5160   114.5760    75.9630    24.9170   -33.0200 
