~V
VERS. 2.00: Ver 2.00
~W
STRT.M 53.0000:
STOP.M 219.0000:
STEP.M 0.1250:
NULL. -999.2500:
UWI. F10171:
~C
DEPT.M :
SP.MV :
DEN.GM/CC :
GR.API :
RML.OHMM :
RI. :
RXO.OHMM :
CALI.CM :
~A
# ...
  154.2500   -19.1470     2.2060    62.8390    15.9180    13.4630    15.4360    25.1280 
  154.3750   -19.0340     2.2130    64.4900    16.0080    13.7400    15.5340    25.1260 
  154.5000   -19.0370     2.2170    67.3640    15.9010    13.8050    16.1290    25.1140 
  154.6250   -19.1310     2.2260    68.8350    15.8100    13.8270    16.0260    25.0800 
  154.7500   -19.2260     2.2390    69.6960    15.8360    13.9150    14.8970    25.0390 
  154.8750   -19.4150     2.2520    66.6960    16.0060    14.0950    14.7060    24.9640 
  155.0000   -19.6930     2.2690    59.2400    16.3150    14.3590    15.5290    24.8460 
  155.1250   -19.9710     2.2920    54.7510    16.7750    14.7330    16.1050    24.6980 
  155.2500   -20.2940     2.3060    58.6330    17.2770    15.1750    14.5930    24.6180 
  155.3750   -20.6740     2.2860    65.0650    17.3710    15.3590    13.9470    24.6230 
  155.5000   -20.9810     2.2470    66.9450    16.6150    14.8610    15.6930    24.6670 
  155.6250   -21.2230     2.2210    67.2820    14.8700    13.4860    17.7450    24.7310 
  155.7500   -21.4720     2.2210    69.9150    12.5100    11.5140    15.0550    24.7860 
  155.8750   -21.6190     2.2420    74.4960    10.3160     9.5860    10.2080    24.8070 
  156.0000   -21.6670     2.2650    77.8320     8.8050     8.1490     6.9220    24.7740 
  156.1250   -21.7030     2.2800    78.8680     8.0920     7.3120     6.1910    24.7090 
  156.2500   -21.7160     2.2880    76.6520     8.0540     7.0240     7.5970    24.6400 
  156.3750   -21.6520     2.2930    73.1450     8.4230     7.1630     8.5480    24.5970 
  156.5000   -21.5330     2.2980    73.0730     8.7320     7.3920     8.2210    24.5650 
  156.6250   -21.3910     2.2970    76.5450     8.7120     7.4730     7.2310    24.5530 
  156.7500   -21.2160     2.2870    80.4580     8.3430     7.3090     6.1900    24.5510 
  156.8750   -20.9640     2.2780    79.6770     7.8730     7.0120     5.8480    24.5650 
  157.0000   -20.6760     2.2740    75.9420     7.6070     6.8190     5.7190    24.6140 
  157.1250   -20.3510     2.2690    72.5600     7.6470     6.8520     6.0250    24.7140 
  157.2500   -19.9460     2.2560    70.6070     7.9450     7.1230     7.0350    24.8470 
  157.3750   -19.4930     2.2370    69.8030     8.3340     7.5410     8.6640    24.9650 
  157.5000   -19.1160     2.2170    70.8850     8.6020     7.9100     9.7150    25.0310 
  157.6250   -18.7670     2.2050    73.8660     8.6680     8.1180     9.1310    25.0340 
  157.7500   -18.4020     2.2000    76.1930     8.5860     8.1580     7.8810    24.9940 
  157.8750   -18.1440     2.2040    74.8970     8.5240     8.1320     6.9080    24.9650 
  158.0000   -18.0050     2.2170    72.6300     8.5890     8.1540     6.8790    24.9650 
  158.1250   -17.9080     2.2360    71.6220     8.7310     8.2080     7.7270    24.9780 
  158.2500   -17.8890     2.2520    70.7750     8.7710     8.1630     8.5380    24.9840 
  158.3750   -17.9850     2.2550    70.3000     8.4450     7.7940     8.3390    24.9810 
  158.5000   -18.0720     2.2570    73.0720     7.7680     7.1120     7.1320    24.9580 
  158.6250   -18.2330     2.2700    79.8550     6.9100     6.2640     5.3390    24.8980 
  158.7500   -18.5300     2.2960    86.3860     6.1030     5.4490     4.2690    24.8160 
  158.8750   -18.8720     2.3180    87.8390     5.5680     4.8610     4.0460    24.7740 
  159.0000   -19.2320     2.3220    84.3690     5.3710     4.5550     4.2810    24.7420 
  159.1250   -19.6380     2.3080    78.5290     5.6100     4.6000     4.6960    24.6860 
  159.2500   -19.9890     2.2850    73.4040     6.4660     5.1000     5.0210    24.5960 
  159.3750   -20.3030     2.2620    69.8660     8.4250     6.3750     6.2140    24.5050 
  159.5000   -20.6510     2.2400    66.9840    11.6990     8.6370    10.0170    24.5120 
  159.6250   -20.9300     2.2140    64.0680    16.4250    12.1780    20.7720    24.6330 
  159.7500   -21.0510     2.1820    61.7260    22.1770    16.9710    35.9940    24.7910 
  159.8750   -21.0430     2.1570    60.6170    27.0540    21.8300    43.6310    24.8810 
  160.0000   -20.9720     2.1520    61.0220    28.9220    24.6070    37.8410    24.9050 
  160.1250   -20.7990     2.1680    63.0120    27.5550    24.5390    28.4260    24.8930 
  160.2500   -20.5690     2.1930    65.2770    24.6950    22.7090    21.5800    24.8520 
  160.3750   -20.3200     2.2110    67.1030    22.3470    20.7120    20.3000    24.8100 
  160.5000   -20.0350     2.2220    67.7050    21.0330    19.2870    20.9730    24.7610 
  160.6250   -19.7170     2.2290    66.0380    20.5370    18.4550    21.1750    24.7050 
  160.7500   -19.4520     2.2340    64.3200    20.5060    18.0680    20.1980    24.6380 
  160.8750   -19.2240     2.2320    64.9450    20.6580    17.9900    18.9720    24.5520 
  161.0000   -18.9850     2.2260    66.1100    20.8120    18.0460    18.4270    24.4980 
  161.1250   -18.8140     2.2170    66.0850    20.9400    18.1830    18.4940    24.4820 
  161.2500   -18.7130     2.2090    65.6540    21.0330    18.3730    19.0570    24.5040 
  161.3750   -18.6030     2.2090    66.5690    21.0400    18.5800    19.2430    24.6000 
  161.5000   -18.5490     2.2150    67.5050    20.9550    18.7710    19.0140    24.7510 
  161.6250   -18.5620     2.2240    68.4950    20.8280    18.9600    18.5920    24.8700 
  161.7500   -18.5730     2.2290    69.8770    20.7360    19.1850    18.4780    24.9300 
  161.8750   -18.6840     2.2350    69.7470    20.6980    19.4590    19.0690    24.9660 
  162.0000   -18.8810     2.2440    67.5880    20.5380    19.6440    19.9640    24.9800 
  162.1250   -19.0780     2.2480    64.4030    19.9900    19.4940    20.1460    24.9840 
  162.2500   -19.2810     2.2400    63.5160    18.8380    18.7620    19.3870    24.9840 
  162.3750   -19.5500     2.2290    67.5620    17.0250    17.2970    17.4910    24.9840 
  162.5000   -19.7970     2.2250    73.2410    14.9730    15.4590    14.9720    24.9840 
  162.6250   -20.0030     2.2280    75.0220    13.0530    13.6040    11.9820    24.9840 
  162.7500   -20.2390     2.2330    71.2250    11.5380    12.0230     9.6350    24.9840 
  162.8750   -20.4500     2.2390    67.8910    10.6170    10.9390     9.0780    24.9800 
  163.0000   -20.6020     2.2460    70.8590    10.1540    10.2790     8.7500    24.9600 
  163.1250   -20.7370     2.2560    76.9620    10.0380     9.9670     8.5900    24.9100 
  163.2500   -20.8920     2.2630    79.3260    10.1430     9.9050     8.5250    24.8340 
  163.3750   -21.0360     2.2650    77.0770    10.3510     9.9990     8.4680    24.7440 
  163.5000   -21.1430     2.2660    77.8010    10.5820    10.1530     8.3870    24.6530 
  163.6250   -21.2770     2.2710    81.2700    10.8870    10.3850     8.8930    24.5680 
  163.7500   -21.4350     2.2750    82.1570    11.4470    10.8130     9.8750    24.4940 
  163.8750   -21.5770     2.2740    78.8390    12.7560    11.7910    11.2430    24.4260 
  164.0000   -21.7160     2.2700    75.1090    15.3000    13.7000    13.1390    24.3540 
  164.1250   -21.9010     2.2620    71.4640    19.8380    17.2760    16.8990    24.3530 
  164.2500   -22.1010     2.2460    67.2280    27.4170    23.7800    26.5270    24.5080 
  164.3750   -22.2630     2.2210    63.5140    40.3680    36.1140    55.2450    24.7930 
  164.5000   -22.4880     2.1990    59.6070    57.1240    56.9970   106.3560    25.0160 
  164.6250   -22.7320     2.1830    57.3510    78.2960    82.0570   142.2170    25.1060 
  164.7500   -22.9060     2.1710    58.4840    98.6690   101.1250   143.1680    25.1110 
  164.8750   -23.0900     2.1630    59.7630   104.1760   102.9680   138.8200    25.0750 
  165.0000   -23.2880     2.1580    59.2040    96.7310    91.8520   123.2740    25.0210 
  165.1250   -23.4400     2.1570    59.9230    83.2740    76.8150    93.2630    24.9040 
  165.2500   -23.5960     2.1600    63.3430    69.6920    63.3030    60.0600    24.6860 
  165.3750   -23.7590     2.1750    65.6180    59.3630    53.5440    43.1560    24.4900 
