~V
VERS. 2.00: Ver 2.00
~W
STRT.M 56.0000:
STOP.M 221.0000:
STEP.M 0.1250:
NULL. -999.2500:
UWI. F10169:
~C
DEPT.M :
GR.API :
RML.OHMM :
RI. :
RXO.OHMM :
CALI.CM :
SP.MV :
DEN.GM/CC :
~A
# ...
   78.5000    67.5240     9.1040     6.0520     9.0980    27.2380   -22.1940     2.1350 
   78.6250    70.1160     8.7460     5.8160     7.8200    27.0100   -20.7950     2.1280 
   78.7500    73.1290     8.5060     5.6410     7.0000    26.6850   -19.3890     2.1540 
   78.8750    75.6070     8.4280     5.5520     6.8350    26.4080   -18.1030     2.2240 
   79.0000    78.7430     8.4900     5.5520     8.4080    26.2310   -16.9490     2.3230 
   79.1250    84.2820     8.6090     5.6110    10.4080    26.1500   -16.0220     2.4040 
   79.2500    89.3250     8.7080     5.6920     6.8680    26.1320   -15.3240     2.4110 
   79.3750    90.4810     8.7800     5.7740     5.3430    26.1380   -14.8930     2.3700 
   79.5000    88.1250     8.8350     5.8490     5.4290    26.1580   -14.6800     2.3180 
   79.6250    83.3640     8.8730     5.9180     6.1930    26.1730   -14.6610     2.2760 
   79.7500    78.0770     8.8840     5.9910     6.5140    26.1770   -14.7830     2.2510 
   79.8750    76.4920     8.8630     6.0660     6.4260    26.1800   -14.9380     2.2380 
   80.0000    79.0090     8.8400     6.1450     6.2450    26.1930   -15.1490     2.2360 
   80.1250    80.7840     8.9220     6.2650     5.9220    26.2210   -15.3810     2.2410 
   80.2500    78.3880     9.2650     6.5010     5.5480    26.2050   -15.6720     2.2470 
   80.3750    74.0580     9.8190     6.8460     5.9490    26.1190   -15.9940     2.2520 
   80.5000    71.6630    10.4400     7.2310     7.6390    26.0010   -16.3990     2.2570 
   80.6250    72.4500    10.9260     7.5380     9.9150    25.9150   -16.8880     2.2620 
   80.7500    73.7850    11.0340     7.6110     9.7790    25.8930   -17.4590     2.2590 
   80.8750    72.3330    10.7840     7.4420     8.6390    25.9060   -18.1030     2.2430 
   81.0000    68.4440    10.2840     7.0930     7.8410    25.9600   -18.8200     2.2260 
   81.1250    65.5130     9.7070     6.6730     7.3740    26.0310   -19.6170     2.2180 
   81.2500    67.5510     9.3000     6.3490     7.3450    26.0810   -20.4850     2.2200 
   81.3750    72.0360     9.2700     6.2540     7.4540    26.0990   -21.4080     2.2260 
   81.5000    75.3090     9.8210     6.5140     7.6320    26.1020   -22.3590     2.2340 
   81.6250    74.3060    11.1050     7.2340     8.2330    26.0950   -23.3340     2.2480 
   81.7500    69.9840    13.1910     8.5350    11.4720    26.0770   -24.3220     2.2700 
   81.8750    67.2470    15.5320    10.1680    20.1250    26.0450   -25.3660     2.2970 
   82.0000    65.1730    17.3250    11.6760    33.1030    25.9980   -26.4460     2.3330 
   82.1250    61.9690    17.6740    12.3970    43.6410    25.9280   -27.5700     2.3670 
   82.2500    58.5370    16.0650    11.7500    39.6150    25.9200   -28.6450     2.3520 
   82.3750    56.9630    13.6580    10.3370    25.9490    26.0570   -29.6080     2.2750 
   82.5000    56.0630    11.4150     8.7870    15.1640    26.4370   -30.3970     2.1680 
   82.6250    53.5200     9.8590     7.5140    11.3570    26.9910   -31.0060     2.0740 
   82.7500    51.9490     9.2780     6.7840    10.4210    27.4620   -31.3430     2.0200 
   82.8750    52.6700     9.4880     6.5660    10.4490    27.6780   -31.3990     2.0040 
   83.0000    52.9240    10.3440     6.8260    10.5970    27.6700   -31.1900     2.0200 
   83.1250    51.5450    11.5840     7.4460    10.9720    27.4580   -30.6700     2.0530 
   83.2500    51.8630    12.7150     8.1830    15.4550    26.9870   -29.9390     2.0960 
   83.3750    55.2120    13.2170     8.6900    26.4380    26.5670   -29.0830     2.1550 
   83.5000    58.6820    12.9240     8.7960    29.5550    26.5060   -28.1910     2.2020 
   83.6250    60.0610    12.2160     8.6260    18.3500    26.8510   -27.2280     2.1670 
   83.7500    60.4700    12.0010     8.6180    12.8280    27.1570   -26.2850     2.0590 
   83.8750    61.2940    12.9310     9.1990    13.4240    27.0580   -25.3660     2.0140 
   84.0000    62.2650    15.4140    10.7400    19.6090    26.6640   -24.5120     2.0890 
   84.1250    62.3050    19.5900    13.5520    34.5400    26.2480   -23.7910     2.2700 
   84.2500    62.2930    24.9220    17.6470    43.2110    26.0090   -23.2620     2.4740 
   84.3750    62.6530    28.9520    21.3440    46.9650    25.8360   -22.9060     2.5900 
   84.5000    63.0850    29.1400    22.4590    53.7370    25.7360   -22.7520     2.6010 
   84.6250    62.7310    25.2260    20.2660    63.8160    25.6800   -22.8210     2.5640 
   84.7500    63.4830    19.7970    16.3640    54.2040    25.7030   -23.1050     2.5120 
   84.8750    65.5410    15.4620    12.9110    33.3360    25.8780   -23.5230     2.4350 
   85.0000    66.3440    12.7270    10.4490    23.9030    26.2660   -24.0230     2.3550 
   85.1250    66.0180    11.3170     8.8970    27.3880    26.6500   -24.5300     2.3130 
   85.2500    66.7780    10.8550     8.0750    28.2820    26.7020   -25.0290     2.3270 
   85.3750    68.2020    10.7590     7.6290    20.0840    26.5730   -25.4790     2.3470 
   85.5000    67.9240    10.7410     7.3890    13.0930    26.5920   -25.8420     2.3210 
   85.6250    65.5440    10.6440     7.2290    10.3240    26.7950   -26.0680     2.2500 
   85.7500    64.0400    10.4790     7.1050    10.0370    26.9880   -26.1720     2.1860 
   85.8750    63.2890    10.3690     7.0350    10.1430    27.1120   -26.1960     2.1520 
   86.0000    61.6230    10.3420     7.0300    10.0220    27.1710   -26.1610     2.1430 
   86.1250    59.1760    10.3480     7.0650     9.8490    27.1850   -26.0800     2.1460 
   86.2500    58.9580    10.3260     7.0950     9.8570    27.1660   -25.8640     2.1520 
   86.3750    60.7240    10.2870     7.1030     9.7590    27.1390   -25.6040     2.1570 
   86.5000    61.5200    10.2620     7.0970     9.5220    27.1460   -25.2490     2.1600 
   86.6250    61.6000    10.2770     7.0940     9.3810    27.1940   -24.8840     2.1580 
   86.7500    61.7200    10.3410     7.1080     9.4160    27.2430   -24.4780     2.1530 
   86.8750    61.8040    10.4110     7.1300     9.5470    27.2580   -24.0540     2.1460 
   87.0000    62.1790    10.4240     7.1250     9.7350    27.2570   -23.5700     2.1330 
   87.1250    64.2420    10.3280     7.0560     9.7070    27.2740   -23.0590     2.1130 
   87.2500    66.5720    10.1120     6.9000     9.1650    27.3850   -22.5280     2.0840 
   87.3750    67.8480     9.8650     6.7060     8.1240    27.5410   -21.9850     2.0530 
   87.5000    69.9150     9.6750     6.5240     7.1580    27.5410   -21.5010     2.0420 
   87.6250    71.8970     9.6020     6.3980     6.9360    27.1840   -21.0940     2.0680 
   87.7500    70.8680     9.6690     6.3510     7.6000    26.7940   -20.8430     2.1290 
   87.8750    68.7360     9.7920     6.3490     8.3130    26.6510   -20.7460     2.1840 
   88.0000    67.5000     9.8950     6.3560     8.5340    26.7100   -20.8270     2.2140 
   88.1250    67.1920     9.9160     6.3370     8.5500    26.9200   -21.0690     2.2290 
   88.2500    66.6860     9.8180     6.2690     8.5380    27.1780   -21.5390     2.2350 
   88.3750    65.8070     9.6650     6.1740     8.5410    27.3850   -22.1220     2.2310 
   88.5000    65.0210     9.5710     6.1080     8.5470    27.5110   -22.7970     2.2170 
   88.6250    65.1670     9.6730     6.1530     8.7650    27.5790   -23.4800     2.1990 
   88.7500    65.8310    10.1270     6.4120     9.0180    27.6380   -24.0950     2.1770 
   88.8750    63.1430    10.8550     6.8590     8.8450    27.6190   -24.6220     2.1500 
   89.0000    57.2140    11.6870     7.4170     8.1130    27.3850   -25.0200     2.1220 
   89.1250    52.5390    12.3360     7.9290     6.9750    27.0150   -25.3170     2.1050 
   89.2500    51.0010    12.3930     8.1440     7.0650    26.8260   -25.4710     2.0860 
   89.3750    50.1670    11.8730     8.0110     7.8790    26.9910   -25.5220     2.0210 
   89.5000    49.5250    11.0100     7.6230     8.8040    27.3850   -25.3980     1.9180 
   89.6250    51.4540    10.1460     7.1590     9.2000    27.9070   -25.1400     1.8350 
