~V
VERS. 2.00: Ver 2.00
~W
STRT.M 50.0000:
STOP.M 224.0000:
STEP.M 0.1250:
NULL. -999.2500:
UWI. F10153:
~C
DEPT.M :
GR.API :
RML.OHMM :
RI. :
RXO.OHMM :
CALI.CM :
SP.MV :
DEN.GM/CC :
~A
# ...
   72.5000    89.2980     9.2190     6.8970     8.8510    23.9870   -21.7420     2.1900 
   72.6250    88.7610     8.9820     6.8170     9.0010    24.0870   -22.0220     2.2100 
   72.7500    86.4240     8.8560     6.7910     9.3060    24.2190   -22.1300     2.2310 
   72.8750    83.9600     9.0240     6.9370     9.5990    24.3860   -21.9800     2.2420 
   73.0000    81.6970     9.4910     7.2680    10.1150    24.5550   -21.5750     2.2310 
   73.1250    79.0480    10.1330     7.7210    11.5580    24.5770   -20.9070     2.1950 
   73.2500    75.9790    10.7670     8.1810    14.5960    24.3250   -20.0210     2.1430 
   73.3750    72.1160    11.0510     8.4150    18.9410    23.7330   -18.9110     2.0930 
   73.5000    70.6580    10.7930     8.2720    21.1520    23.1470   -17.6610     2.0670 
   73.6250    76.1130    10.0270     7.7540    18.7590    22.8770   -16.3820     2.0770 
   73.7500    87.6500     9.0060     7.0300    13.2050    22.8850   -15.1700     2.1150 
   73.8750   100.0160     8.0560     6.3060     8.3630    23.0420   -14.1610     2.1710 
   74.0000   107.3880     7.4190     5.7520     6.2930    23.2500   -13.4120     2.2250 
   74.1250   109.4210     7.1590     5.4380     5.8110    23.5230   -12.9570     2.2630 
   74.2500   107.7660     7.1740     5.3200     5.7460    23.8540   -12.7530     2.2840 
   74.3750   104.8140     7.3720     5.3750     5.7230    24.1440   -12.8330     2.2890 
   74.5000   104.6000     7.5920     5.4960     5.7730    24.2990   -13.1530     2.2860 
   74.6250   105.4270     7.7460     5.6030     5.9750    24.3360   -13.6690     2.2830 
   74.7500   103.2870     7.8410     5.6790     6.1840    24.3260   -14.3210     2.2830 
   74.8750    97.9480     7.9120     5.7340     6.0260    24.2850   -15.1140     2.2830 
   75.0000    96.3840     8.0100     5.7960     5.9050    24.1940   -16.0050     2.2800 
   75.1250    99.1850     8.1570     5.8860     6.2090    24.0780   -16.9770     2.2700 
   75.2500   100.6580     8.3540     6.0100     6.7810    23.9800   -18.0150     2.2570 
   75.3750    97.2340     8.6470     6.1940     6.9470    23.9330   -19.1070     2.2420 
   75.5000    92.4480     9.0620     6.4570     7.1810    23.9130   -20.1890     2.2310 
   75.6250    88.4760     9.5830     6.7900     7.8800    23.9050   -21.1840     2.2250 
   75.7500    84.6720    10.1390     7.1550     8.7660    23.9060   -22.0630     2.2210 
   75.8750    81.4970    10.6010     7.4720     9.6900    23.9120   -22.7760     2.2170 
   76.0000    79.7060    10.8570     7.6640    10.1070    23.9030   -23.3610     2.2110 
   76.1250    78.1850    10.8690     7.6890     9.7140    23.8810   -23.8390     2.2030 
   76.2500    76.8610    10.7150     7.5870     9.2050    23.8600   -24.2210     2.1960 
   76.3750    77.4080    10.5070     7.4130     9.2900    23.8540   -24.4980     2.1920 
   76.5000    79.3400    10.3640     7.2590     9.7860    23.8740   -24.7190     2.1900 
   76.6250    81.1030    10.3370     7.1730    10.1510    23.9230   -24.9230     2.1890 
   76.7500    81.4650    10.3980     7.1540    10.1300    23.9910   -25.1260     2.1880 
   76.8750    78.2090    10.5180     7.1950     9.9260    24.0500   -25.3190     2.1880 
   77.0000    73.9140    10.6430     7.2600    10.0720    24.0870   -25.4700     2.1900 
   77.1250    72.9640    10.7400     7.3220    10.3560    24.1060   -25.5490     2.1940 
   77.2500    75.4280    10.8050     7.3700    10.4480    24.1120   -25.5570     2.1990 
   77.3750    77.7640    10.8250     7.3950    10.3420    24.1110   -25.4770     2.2030 
   77.5000    78.0930    10.8100     7.3950    10.4000    24.1110   -25.3320     2.2030 
   77.6250    77.8660    10.7670     7.3720    10.5400    24.1010   -25.1490     2.1990 
   77.7500    77.0250    10.7060     7.3300    10.5410    24.0550   -24.9540     2.1940 
   77.8750    74.5120    10.6200     7.2670    10.3460    23.9490   -24.7790     2.1900 
   78.0000    72.9670    10.5110     7.1880    10.1630    23.8370   -24.6420     2.1880 
   78.1250    74.4870    10.3980     7.1130    10.0960    23.7740   -24.5550     2.1900 
   78.2500    77.4400    10.3150     7.0640    10.0540    23.7540   -24.5190     2.1940 
   78.3750    79.6120    10.3460     7.0890    10.0120    23.7560   -24.5370     2.1990 
   78.5000    80.5150    10.5480     7.2190    10.1330    23.7510   -24.6020     2.2040 
   78.6250    80.3760    10.9390     7.4630    10.3660    23.7340   -24.7250     2.2070 
   78.7500    79.2810    11.4580     7.7930    10.4810    23.7070   -24.9040     2.2070 
   78.8750    77.5780    11.9990     8.1630    10.5020    23.6690   -25.1420     2.2020 
   79.0000    74.6570    12.3790     8.4670    10.5540    23.6300   -25.4050     2.1940 
   79.1250    72.1380    12.4490     8.6020    10.6700    23.5990   -25.6570     2.1820 
   79.2500    73.4240    12.2290     8.5590    10.8320    23.5850   -25.8930     2.1710 
   79.3750    78.1390    11.7750     8.3410    10.8910    23.6230   -26.1100     2.1650 
   79.5000    79.3640    11.2950     8.0660    10.8620    23.7240   -26.2980     2.1670 
   79.6250    77.5950    10.9590     7.8400    10.7530    23.8510   -26.4150     2.1730 
   79.7500    77.7200    10.7920     7.6930    10.6840    23.9540   -26.4330     2.1810 
   79.8750    79.9680    10.7970     7.6420    10.9770    23.9920   -26.2930     2.1910 
   80.0000    79.3120    10.8620     7.6350    11.3500    23.9950   -26.0080     2.2040 
   80.1250    76.2750    10.8880     7.6170    11.3820    24.0010   -25.5940     2.2180 
   80.2500    73.7470    10.8440     7.5650    11.1150    24.0170   -25.0700     2.2300 
   80.3750    72.4850    10.7180     7.4600    10.7410    24.0340   -24.4110     2.2310 
   80.5000    72.4870    10.5600     7.3240    10.4680    24.0120   -23.6640     2.2230 
   80.6250    74.5220    10.4260     7.1930    10.2670    23.9060   -22.8960     2.2060 
   80.7500    78.2620    10.3290     7.0830     9.9800    23.7470   -22.1580     2.1880 
   80.8750    82.7610    10.2740     7.0080     9.7020    23.6190   -21.4890     2.1720 
   81.0000    86.5100    10.2330     6.9540     9.7320    23.5690   -20.8700     2.1600 
   81.1250    88.4960    10.1890     6.9100    10.0920    23.5560   -20.3060     2.1530 
   81.2500    88.2970    10.1330     6.8650    10.3330    23.5270   -19.7990     2.1490 
   81.3750    85.6120    10.0610     6.8130    10.0800    23.4400   -19.3680     2.1520 
   81.5000    82.7300     9.9760     6.7480     9.6290    23.3170   -18.9900     2.1590 
   81.6250    81.1000     9.8860     6.6730     9.2070    23.2150   -18.6400     2.1720 
   81.7500    80.4040     9.7950     6.5950     8.8670    23.1670   -18.3070     2.1880 
   81.8750    80.6000     9.7170     6.5230     8.5750    23.2010   -18.0280     2.2060 
   82.0000    81.7840     9.6530     6.4630     8.3560    23.2880   -17.8310     2.2190 
   82.1250    83.9440     9.6110     6.4220     8.3500    23.3810   -17.7090     2.2270 
   82.2500    86.1480     9.5950     6.4010     8.4480    23.4530   -17.6450     2.2270 
   82.3750    87.2930     9.6330     6.4170     8.4770    23.4940   -17.6430     2.2240 
   82.5000    86.8160     9.7240     6.4690     8.4660    23.5210   -17.6880     2.2200 
   82.6250    84.3980     9.8390     6.5450     8.4690    23.5690   -17.7620     2.2190 
   82.7500    81.0590     9.9410     6.6220     8.4550    23.6840   -17.8410     2.2200 
   82.8750    80.1480     9.9740     6.6670     8.6360    23.9260   -17.8860     2.2250 
   83.0000    82.2920     9.9170     6.6620     8.9600    24.2010   -17.8920     2.2280 
   83.1250    84.1590     9.7880     6.6060     8.9510    24.3580   -17.8710     2.2260 
   83.2500    84.0360     9.6320     6.5230     8.6840    24.3680   -17.8270     2.2180 
   83.3750    82.9860     9.5120     6.4470     8.4780    24.2790   -17.7430     2.2110 
   83.5000    82.8840     9.4570     6.4020     8.4450    24.2000   -17.6220     2.2050 
   83.6250    83.1040     9.4540     6.3990     8.5050    24.1860   -17.4670     2.2040 
