~V
VERS. 2.00: Ver 2.00
~W
STRT.M 64.0000:
STOP.M 215.0000:
STEP.M 0.1250:
NULL. -999.2500:
UWI. F10146:
~C
DEPT.M :
DEN.GM/CC :
GR.API :
RML.OHMM :
RI. :
RXO.OHMM :
CALI.CM :
SP.MV :
~A
   64.0000     2.4280    48.5680     0.0600     0.0630     0.4580    25.1430    29.0280 
   64.1250     2.4130    50.1330     0.0750     0.0750     1.1030    25.1330    22.4640 
   64.2500     2.2790    48.7750     0.1480     0.1500     2.1370    25.3150    15.8250 
   64.3750     2.0900    46.2260     0.3220     0.3410     3.8130    26.9540     9.4500 
   64.5000     1.9090    46.4550     0.7330     0.7330     5.4980    31.4860     3.5180 
   64.6250     1.7880    50.8400     1.8030     1.4960     6.4620    36.6250    -1.7010 
   64.7500     1.7440    55.0500     3.5690     2.6250     7.5790    37.2570    -6.1700 
   64.8750     1.7770    57.1440     5.4400     3.9530    12.2390    31.2340    -9.8280 
   65.0000     1.8680    58.1410     6.6170     5.1540    25.1380    26.2170   -12.6590 
   65.1250     1.9770    60.9940     7.0270     5.9230    26.4830    25.0340   -14.6700 
   65.2500     2.0620    65.8460     7.2030     6.3350    16.5560    24.7000   -16.2190 
   65.3750     2.1110    71.6030     7.2390     6.5000    10.2690    24.7910   -17.5210 
   65.5000     2.1330    74.5550     7.1600     6.5360     8.3900    25.1380   -18.6930 
   65.6250     2.1390    72.8710     7.0710     6.5730     8.2170    25.3780   -19.7490 
   65.7500     2.1400    72.0370     7.0930     6.6760     8.0960    25.5120   -20.6900 
   65.8750     2.1380    72.5900     7.2540     6.8230     8.0790    25.4970   -21.5390 
   66.0000     2.1360    70.8670     7.4890     6.9580     8.2930    25.2950   -22.2660 
   66.1250     2.1330    68.3810     7.6580     7.0270     8.4800    24.9790   -22.8160 
   66.2500     2.1300    69.1140     7.7190     7.0300     8.2530    24.8290   -23.2750 
   66.3750     2.1250    68.8970     7.7310     6.9850     8.0310    24.6740   -23.5960 
   66.5000     2.1190    65.0220     7.7630     6.9170     8.1230    24.6030   -23.7470 
   66.6250     2.1110    64.1610     7.8130     6.8530     8.3380    24.6020   -23.7980 
   66.7500     2.1030    68.3300     7.8420     6.8060     8.1300    24.6420   -23.7240 
   66.8750     2.0970    71.4970     7.8680     6.7790     7.7750    24.6710   -23.5310 
   67.0000     2.0960    69.9890     7.9300     6.7650     7.5960    24.6710   -23.2800 
   67.1250     2.1030    67.9130     8.0290     6.7500     7.6730    24.6420   -22.9160 
   67.2500     2.1190    69.8580     8.0890     6.7190     7.7700    24.5930   -22.4970 
   67.3750     2.1420    76.4640     8.0680     6.6670     7.6820    24.5640   -22.0920 
   67.5000     2.1690    85.0330     8.0020     6.6080     7.4090    24.4590   -21.7140 
   67.6250     2.1930    88.5650     7.9800     6.5760     7.0850    24.4410   -21.4080 
   67.7500     2.2080    86.3380     8.0260     6.5770     7.0010    24.4360   -21.2220 
   67.8750     2.2140    82.8760     8.0770     6.5910     7.0940    24.4400   -21.1030 
   68.0000     2.2130    82.0440     8.0180     6.5760     7.2190    24.4620   -21.0710 
   68.1250     2.2120    84.1510     7.7580     6.4770     7.7050    24.5530   -21.2040 
   68.2500     2.2120    88.5810     7.4260     6.3080     7.5450    24.6710   -21.4570 
   68.3750     2.2110    94.3290     7.1950     6.1420     6.9280    24.7410   -21.8650 
   68.5000     2.2060    96.1220     7.2240     6.1140     6.4210    24.7530   -22.4170 
   68.6250     2.1990    89.3020     7.7000     6.4190     6.4980    24.7530   -23.0250 
   68.7500     2.2000    78.8720     8.6100     7.0750     7.2330    24.7510   -23.6750 
   68.8750     2.2180    71.6930     9.8700     8.0160     9.2920    24.7350   -24.3860 
   69.0000     2.2510    70.9450    11.1430     9.0180    14.1480    24.6500   -25.1360 
   69.1250     2.2810    72.2940    11.5660     9.5780    24.3810    24.5440   -25.9650 
   69.2500     2.2850    70.8800    10.9260     9.4190    26.2590    24.5280   -26.7820 
   69.3750     2.2620    68.1110     9.7730     8.6300    16.9300    24.5300   -27.5220 
   69.5000     2.2260    68.1920     8.7390     7.5870    10.5410    24.5630   -28.2270 
   69.6250     2.2000    71.4950     8.1670     6.7310     8.7650    24.6300   -28.8600 
   69.7500     2.1900    73.0160     8.0390     6.2460     8.4060    24.7130   -29.4100 
   69.8750     2.1810    71.2380     8.3250     6.1600     8.3770    24.7900   -29.9190 
   70.0000     2.1500    68.4840     8.9020     6.4120     8.8380    24.9900   -30.3300 
   70.1250     2.0830    66.8520     9.5380     6.8930    11.4730    25.3840   -30.6130 
   70.2500     1.9970    65.5330    10.0260     7.3830    18.1480    26.0300   -30.8440 
   70.3750     1.9220    61.5540    10.2430     7.7080    24.3120    26.8800   -30.9890 
   70.5000     1.8810    58.1280    10.1180     7.7420    18.4390    25.7650   -31.0470 
   70.6250     1.8940    60.7180     9.6990     7.4440    11.6900    25.1980   -31.0650 
   70.7500     1.9410    63.7160     9.2410     6.9990     9.2890    25.0640   -31.0400 
   70.8750     1.9990    62.1710     8.8500     6.5550     8.9790    25.0840   -30.9780 
   71.0000     2.0440    59.3620     8.5140     6.2070     9.0760    25.1500   -30.9100 
   71.1250     2.0670    61.1780     8.1690     5.9950     9.0350    25.2210   -30.8160 
   71.2500     2.0790    62.6900     7.8350     5.8620     8.8750    25.2330   -30.7140 
   71.3750     2.0890    61.1590     7.6410     5.7680     8.7900    25.2350   -30.6110 
   71.5000     2.1010    61.5300     7.7730     5.7240     8.8660    25.2350   -30.4980 
   71.6250     2.1110    66.6740     8.4500     5.8600     8.9760    25.2350   -30.4150 
   71.7500     2.1210    71.6570     9.5810     6.2820     9.1020    25.2350   -30.3200 
   71.8750     2.1380    71.0120    11.0340     7.0340     9.9650    25.2350   -30.2250 
   72.0000     2.1710    64.7250    12.5310     8.0310    13.3560    25.2350   -30.1900 
   72.1250     2.2210    57.0350    13.4640     8.9290    23.4320    25.2370   -30.1620 
   72.2500     2.2630    54.3070    13.3820     9.2730    33.4090    25.2490   -30.1710 
   72.3750     2.2750    57.1780    12.2400     8.8580    25.1080    25.3340   -30.2520 
   72.5000     2.2530    62.4190    10.5560     7.9000    13.2900    25.4180   -30.3400 
   72.6250     2.2170    65.1400     9.1020     6.8750    10.1140    25.5760   -30.4400 
   72.7500     2.1980    64.8790     8.2060     6.1040     9.9660    25.6490   -30.6100 
   72.8750     2.2020    61.9710     7.8460     5.6540    10.7570    25.7490   -30.7530 
   73.0000     2.2120    59.2410     7.8350     5.4780    10.1280    25.8300   -30.8440 
   73.1250     2.2010    58.2490     7.9400     5.4730     9.1460    26.0980   -30.9010 
   73.2500     2.1660    58.7990     7.9950     5.4960     8.4200    26.5600   -30.8300 
   73.3750     2.1220    59.8510     7.9920     5.5050     8.0900    26.8490   -30.6450 
   73.5000     2.0860    60.5830     7.9720     5.5010     8.1140    26.4350   -30.3650 
   73.6250     2.0750    60.5310     7.9510     5.4900     8.6380    25.8290   -29.9090 
   73.7500     2.0830    61.5110     7.8880     5.4600     8.8590    25.7280   -29.3560 
   73.8750     2.1030    63.0820     7.7340     5.3810     8.8480    25.7280   -28.7570 
   74.0000     2.1260    64.4530     7.4730     5.2320     8.6410    25.8060   -28.1100 
   74.1250     2.1420    68.7490     7.1600     5.0290     8.3590    25.9380   -27.5530 
   74.2500     2.1490    77.0530     6.9120     4.8400     7.5980    26.0270   -27.1830 
   74.3750     2.1480    85.5910     6.8300     4.7350     6.4330    26.0870   -27.0290 
   74.5000     2.1410    88.5140     6.9750     4.7690     6.2270    25.9710   -27.1360 
   74.6250     2.1380    84.7240     7.3710     4.9840     7.1380    25.8150   -27.4860 
   74.7500     2.1430    79.0570     7.8720     5.3140     7.8050    25.7870   -27.9740 
   74.8750     2.1560    74.2990     8.3270     5.6770     7.8170    25.7820   -28.6310 
   75.0000     2.1700    72.0630     8.5980     5.9750     7.9890    25.7820   -29.4040 
   75.1250     2.1730    70.9730     8.5860     6.1020     8.8070    25.7950   -30.1680 
