~V
VERS. 2.00: Ver 2.00
~W
STRT.M 50.0000:
STOP.M 294.0000:
STEP.M 0.1250:
NULL. -999.2500:
UWI. F10104:
~C
DEPT.M :
GR.API :
RML.OHMM :
RI. :
RXO.OHMM :
CALI.CM :
DEN.GM/CC :
SP.MV :
~A
# ...
  275.0000   114.5720     4.8370     3.5660     4.4870    25.0080     2.2230    -5.0020 
  275.1250   114.6410     4.8340     3.5370     4.4820    25.0070     2.2390    -5.1140 
  275.2500   114.7330     4.7900     3.5240     4.4470    25.0050     2.2580    -5.2220 
  275.3750   115.2830     4.7370     3.5200     4.4140    25.0050     2.2750    -5.3220 
  275.5000   113.8990     4.7210     3.5190     4.4530    25.0070     2.2850    -5.4250 
  275.6250   110.5630     4.7830     3.5300     4.6230    25.0070     2.2820    -5.5290 
  275.7500   108.7620     4.8870     3.5580     4.7760    25.0060     2.2700    -5.6000 
  275.8750   110.4810     4.9530     3.5980     4.7440    25.0020     2.2590    -5.6750 
  276.0000   114.1230     4.9000     3.6350     4.6190    24.9990     2.2530    -5.7500 
  276.1250   115.0450     4.7010     3.6590     4.6330    24.9990     2.2500    -5.7890 
  276.2500   113.3750     4.4350     3.6870     4.7410    25.0010     2.2480    -5.8000 
  276.3750   110.5540     4.1860     3.7360     4.8200    25.0010     2.2400    -5.7880 
  276.5000   107.8880     4.0450     3.8050     4.9360    24.9990     2.2230    -5.7650 
  276.6250   106.2120     4.0610     3.8610     4.9710    24.9980     2.2010    -5.7360 
  276.7500   106.1520     4.1810     3.8660     4.9050    24.9980     2.1940    -5.7230 
  276.8750   108.7950     4.3790     3.8080     4.7020    24.9980     2.2110    -5.6960 
  277.0000   112.5990     4.6300     3.7130     4.6690    24.9980     2.2410    -5.6810 
  277.1250   112.8670     4.8730     3.6280     4.7440    24.9980     2.2580    -5.6980 
  277.2500   110.3210     5.0180     3.5840     4.7880    24.9980     2.2570    -5.7430 
  277.3750   108.0510     5.0110     3.5810     4.9180    24.9980     2.2510    -5.8110 
  277.5000   107.1420     4.8590     3.6020     5.2570    24.9980     2.2510    -5.8970 
  277.6250   106.4380     4.6440     3.6140     5.7250    24.9980     2.2530    -5.9800 
  277.7500   107.4110     4.5140     3.5960     5.8970    24.9980     2.2470    -6.0810 
  277.8750   111.3300     4.4760     3.5480     5.4410    24.9980     2.2290    -6.1870 
  278.0000   114.9560     4.4510     3.4900     5.0670    24.9980     2.2070    -6.2710 
  278.1250   114.8360     4.3580     3.4500     4.6600    24.9960     2.1910    -6.3430 
  278.2500   112.4460     4.2260     3.4520     4.3820    24.9820     2.1830    -6.3670 
  278.3750   110.0290     4.1590     3.5100     4.2020    24.9380     2.1820    -6.3720 
  278.5000   108.4670     4.2610     3.6370     4.2360    24.8620     2.1840    -6.3710 
  278.6250   105.9900     4.5730     3.8550     4.6080    24.7490     2.1880    -6.3650 
  278.7500   102.8650     4.9640     4.1340     5.1270    24.6700     2.1940    -6.3350 
  278.8750   101.4490     5.3220     4.4240     5.4660    24.6550     2.2010    -6.3010 
  279.0000   103.1390     5.5800     4.6590     5.6980    24.6900     2.2100    -6.2690 
  279.1250   106.9800     5.6980     4.7650     5.6080    24.7280     2.2200    -6.2280 
  279.2500   110.3270     5.7810     4.7580     6.0220    24.7640     2.2290    -6.2270 
  279.3750   111.2760     5.9270     4.6760     6.7210    24.7900     2.2350    -6.2450 
  279.5000   109.1600     6.1400     4.5630     7.2190    24.8350     2.2390    -6.2590 
  279.6250   105.3940     6.3570     4.4760     7.3970    24.9220     2.2400    -6.2930 
  279.7500   103.4300     6.5630     4.4680     7.1410    24.9780     2.2360    -6.3540 
  279.8750   103.8710     6.7870     4.5860     6.6250    24.9960     2.2280    -6.4160 
  280.0000   104.3580     7.0650     4.8590     6.5260    24.9960     2.2230    -6.4810 
  280.1250   100.9180     7.4630     5.3170     6.7700    24.9950     2.2360    -6.5420 
  280.2500    94.5960     7.9760     5.9230     7.9320    24.9960     2.2710    -6.5820 
  280.3750    88.5360     8.5650     6.6490     9.6450    24.9910     2.3160    -6.6130 
  280.5000    84.5810     9.1480     7.4040    11.8530    24.9640     2.3450    -6.6470 
  280.6250    82.8760     9.4850     7.9210    12.7330    24.8630     2.3450    -6.6620 
  280.7500    82.2710     9.2900     7.9600    13.4670    24.6690     2.3400    -6.6570 
  280.8750    82.6230     8.4590     7.4520    12.2650    24.4160     2.3350    -6.6760 
  281.0000    83.6230     7.2770     6.6030     8.5540    24.2400     2.3250    -6.7160 
  281.1250    83.1250     6.2740     5.7900     6.7850    24.1900     2.3140    -6.7800 
  281.2500    81.2520     5.6880     5.2300     6.5350    24.1850     2.3140    -6.8550 
  281.3750    80.1600     5.5070     4.9230     6.7570    24.1870     2.3200    -6.8930 
  281.5000    81.3250     5.5720     4.7680     6.8970    24.1870     2.3210    -6.8710 
  281.6250    84.1090     5.6150     4.6380     6.7490    24.1860     2.3160    -6.8110 
  281.7500    84.6950     5.4800     4.4660     6.6770    24.1830     2.3090    -6.7130 
  281.8750    83.0490     5.2010     4.2620     6.4040    24.1810     2.2970    -6.5750 
  282.0000    81.2420     4.8770     4.0580     5.7300    24.1810     2.2770    -6.4150 
  282.1250    81.5360     4.6060     3.8800     4.7280    24.1810     2.2500    -6.2820 
  282.2500    82.7210     4.4260     3.7420     4.5870    24.1830     2.2280    -6.1970 
  282.3750    82.3410     4.3620     3.6760     5.2670    24.1830     2.2230    -6.2030 
  282.5000    81.4760     4.4190     3.7050     6.2260    24.1810     2.2360    -6.3440 
  282.6250    82.0990     4.6230     3.8350     5.2680    24.1800     2.2550    -6.6480 
  282.7500    82.2170     4.9620     4.0200     5.4030    24.1800     2.2680    -7.0990 
  282.8750    82.2170     5.3600     4.2340     6.1920    24.1820     2.2740    -7.6640 
  283.0000    82.2170     5.7200     4.4590     6.3820    24.1810     2.2770    -8.2690 
  283.1250    82.2170     5.9650     4.6680     5.8000    24.1800     2.2830    -8.7680 
  283.2500    82.2170     6.1010     4.8340     5.9600    24.1710     2.2980    -9.1150 
  283.3750    82.2170     6.1540     4.9320     6.4030    24.1340     2.3240    -9.3110 
  283.5000    82.2170     6.1230     4.9430     6.5030    24.0530     2.3490    -9.3690 
  283.6250    82.2170     5.9600     4.8510     6.3720    23.9840     2.3500    -9.2900 
  283.7500    82.2170     5.6790     4.6930     6.0450    23.9510     2.3320    -9.1200 
  283.8750    82.2170     5.3760     4.5060     5.6190    23.9470     2.3150    -8.8760 
  284.0000    82.2170     5.1920     4.3410     5.6650    23.9490     2.3120    -8.6270 
  284.1250    82.2170     5.2310     4.2690     6.2510    23.9500     2.3190    -8.4730 
  284.2500    82.2170     5.4210     4.3060     6.7280    23.9500     2.3250    -8.4290 
  284.3750    82.2170     5.6920     4.4410     6.5590    23.9500     2.3250    -8.4910 
  284.5000    82.2170     5.9820     4.6360     6.0730    23.9370     2.3290    -8.5980 
  284.6250    82.2170     6.2490     4.8340     5.9780    23.8980     2.3450    -8.6870 
  284.7500    82.2170     6.4890     4.9970     6.7400    23.8460     2.3730    -8.7330 
  284.8750    82.2170     6.6900     5.1120     8.2250    23.8220     2.4110    -8.7390 
  285.0000    82.2170     6.8170     5.1800     8.6700    23.8170     2.4390    -8.7040 
  285.1250    82.2170     6.8240     5.1820     7.1290    23.8160     2.4200    -8.6330 
  285.2500    82.2170     6.6990     5.1190     6.1510    23.8160     2.3680    -8.5550 
  285.3750    82.2170     6.4470     4.9970     5.6860    23.8160     2.3210    -8.4510 
  285.5000    82.2170     6.1150     4.8480     5.3950    23.8160     2.2970    -8.3520 
  285.6250    82.2170     5.8100     4.7410     5.2040    23.8160     2.2910    -8.3100 
  285.7500    82.2170     5.6850     4.7250     5.2210    23.8160     2.2900    -8.3070 
  285.8750    82.2170     5.8250     4.8140     5.3980    23.8160     2.2940    -8.3410 
  286.0000    82.2170     6.2130     4.9870     5.8800    23.8160     2.3050    -8.3780 
  286.1250    82.2170     6.7070     5.1950     6.3790    23.8160     2.3140    -8.4190 
