~V
VERS. 2.00: Ver 2.00
~W
STRT.M 60.0000:
STOP.M 241.0000:
STEP.M 0.1250:
NULL. -999.2500:
UWI. F10158:
~C
DEPT.M :
SP.MV :
DEN.GM/CC :
GR.API :
RML.OHMM :
RI. :
RXO.OHMM :
CALI.CM :
~A
# ...
  105.0000    66.6500     2.2220    75.0190     9.9250     8.1420     9.7090    25.6410 
  105.1250    66.4950     2.2200    74.6560     9.7590     7.9890     9.6880    25.6270 
  105.2500    66.4160     2.2040    76.5610     9.8950     8.0600     9.6500    25.6300 
  105.3750    66.4310     2.1870    78.5080    10.5770     8.5070     9.7860    25.6330 
  105.5000    66.5400     2.1970    75.6360    11.9470     9.4470    11.0270    25.6400 
  105.6250    66.7150     2.2750    68.4540    13.9410    10.9280    15.9930    25.6460 
  105.7500    66.8910     2.3990    63.9030    15.8610    12.5200    25.1710    25.6430 
  105.8750    67.0130     2.5050    63.4760    16.8770    13.6050    34.6690    25.6360 
  106.0000    67.0150     2.5240    64.9970    16.4050    13.6230    37.0570    25.6330 
  106.1250    66.8270     2.4460    66.3650    14.5540    12.4730    30.2990    25.6000 
  106.2500    66.4650     2.3440    66.7330    12.4850    10.9660    21.2950    25.5140 
  106.3750    65.9700     2.2610    65.4300    10.8720     9.6230    14.1020    25.4100 
  106.5000    65.4040     2.2120    62.4790     9.9460     8.6870    10.2920    25.3450 
  106.6250    64.8440     2.1960    61.0800     9.6930     8.2420     9.5160    25.3440 
  106.7500    64.3450     2.1910    62.5820     9.7680     8.1090     9.6840    25.3620 
  106.8750    63.9400     2.1870    65.0030     9.9540     8.1510     9.8140    25.3840 
  107.0000    63.6470     2.1820    66.2730    10.1000     8.2460     9.8450    25.4180 
  107.1250    63.4860     2.1800    66.3000    10.1310     8.3060     9.8270    25.4670 
  107.2500    63.4070     2.1800    66.5910    10.0810     8.3130     9.7800    25.5330 
  107.3750    63.3990     2.1810    67.5140     9.9770     8.2720     9.7280    25.6100 
  107.5000    63.4430     2.1800    68.5050     9.8310     8.1920     9.6590    25.6840 
  107.6250    63.5370     2.1730    69.1640     9.6450     8.0740     9.5630    25.7250 
  107.7500    63.6560     2.1650    69.7600     9.4470     7.9380     9.4730    25.7360 
  107.8750    63.7840     2.1580    69.1490     9.2900     7.8190     9.3840    25.7350 
  108.0000    63.9070     2.1510    66.2960     9.2610     7.7760     9.2820    25.7340 
  108.1250    64.0340     2.1480    62.9870     9.4770     7.9030     9.2260    25.7380 
  108.2500    64.1850     2.1500    61.4860     9.9100     8.2030     9.4250    25.7170 
  108.3750    64.3460     2.1620    62.3200    10.4580     8.6230    11.0480    25.6400 
  108.5000    64.5100     2.1810    63.0760    10.9350     9.0400    16.1430    25.5190 
  108.6250    64.6530     2.1970    62.8060    11.0650     9.2390    25.5120    25.4190 
  108.7500    64.7470     2.2010    61.9470    10.8040     9.1430    30.6050    25.3800 
  108.8750    64.7690     2.1960    60.7790    10.2640     8.7960    25.1060    25.3960 
  109.0000    64.7130     2.1870    59.8760     9.6620     8.3410    16.3250    25.4470 
  109.1250    64.6020     2.1820    62.4090     9.2390     7.9500    11.5610    25.5030 
  109.2500    64.4920     2.1800    67.3340     9.0430     7.7030     9.8090    25.5650 
  109.3750    64.4250     2.1770    69.4910     9.0220     7.5970     9.6160    25.6610 
  109.5000    64.4100     2.1710    67.9560     9.0780     7.5880     9.8720    25.7860 
  109.6250    64.4430     2.1600    65.9550     9.1120     7.6150    10.0380    25.9210 
  109.7500    64.5280     2.1490    65.6190     9.1130     7.6430    10.0400    26.0540 
  109.8750    64.6550     2.1400    65.0990     9.1350     7.6900     9.9280    26.1660 
  110.0000    64.7990     2.1360    64.8580     9.2400     7.7900     9.7480    26.2270 
  110.1250    64.9460     2.1380    67.7960     9.4730     7.9770     9.5590    26.2310 
  110.2500    65.0790     2.1450    70.0250     9.7760     8.2230     9.4910    26.2280 
  110.3750    65.2120     2.1520    68.2520    10.0730     8.4850     9.6490    26.2280 
  110.5000    65.3610     2.1580    65.1090    10.2770     8.7020     9.9650    26.2280 
  110.6250    65.5140     2.1600    64.8690    10.2940     8.7930    10.1710    26.2280 
  110.7500    65.6350     2.1590    66.1770    10.1570     8.7590    10.0420    26.2270 
  110.8750    65.7260     2.1560    65.1720     9.9370     8.6310     9.6720    26.2290 
  111.0000    65.8030     2.1520    62.6890     9.7130     8.4630     9.3750    26.2410 
  111.1250    65.8810     2.1490    63.5670     9.5610     8.3110     9.2770    26.2650 
  111.2500    65.9650     2.1520    67.1100     9.4970     8.2090     9.1930    26.2870 
  111.3750    66.0580     2.1640    70.2050     9.5050     8.1650     9.2840    26.2990 
  111.5000    66.1620     2.1900    71.6070     9.5490     8.1660     9.7290    26.3060 
  111.6250    66.2710     2.2290    73.0340     9.5890     8.1890     9.9090    26.3180 
  111.7500    66.3480     2.2670    74.3240     9.6010     8.2100     9.6340    26.3330 
  111.8750    66.3430     2.2900    73.5400     9.5820     8.2140     9.5610    26.3380 
  112.0000    66.2390     2.2870    71.6570     9.5480     8.2070     9.8710    26.3170 
  112.1250    66.0120     2.2620    71.5860     9.5460     8.2180     9.9800    26.2770 
  112.2500    65.6870     2.2350    70.8370     9.5950     8.2670     9.7480    26.2350 
  112.3750    65.2990     2.2160    67.2770     9.6950     8.3520     9.6160    26.1790 
  112.5000    64.8700     2.2050    63.3580     9.8350     8.4660     9.9560    26.1050 
  112.6250    64.4470     2.2000    61.1850     9.9960     8.5920    10.6940    26.0460 
  112.7500    64.0780     2.1980    61.0000    10.1320     8.7010    11.2000    26.0170 
  112.8750    63.7860     2.1970    62.7520    10.2040     8.7640    10.9500    26.0050 
  113.0000    63.5660     2.1920    65.1230    10.1960     8.7670    10.4550    25.9960 
  113.1250    63.4280     2.1790    65.2680    10.1340     8.7240    10.6580    25.9980 
  113.2500    63.3620     2.1620    63.1580    10.1040     8.6950    11.1150    26.0080 
  113.3750    63.3590     2.1540    60.2250    10.1710     8.7300    11.0570    26.0140 
  113.5000    63.4150     2.1660    57.5000    10.3570     8.8460    10.4960    26.0030 
  113.6250    63.5400     2.1970    57.0490    10.6440     9.0320    10.5180    26.0280 
  113.7500    63.6980     2.2190    59.2650    10.9370     9.2290    11.5820    26.1760 
  113.8750    63.8670     2.2190    61.3860    11.1630     9.3900    12.8030    26.2550 
  114.0000    64.0390     2.2050    62.3440    11.3010     9.4990    12.8900    26.3230 
  114.1250    64.2040     2.1960    63.9120    11.4120     9.5910    11.8400    26.3580 
  114.2500    64.3580     2.2040    65.6520    11.6050     9.7380    11.0310    26.3640 
  114.3750    64.4910     2.2250    65.5660    11.9340     9.9820    10.8250    26.3470 
  114.5000    64.6020     2.2490    63.6340    12.3700    10.3160    11.0870    26.3180 
  114.6250    64.6970     2.2650    62.0090    12.7810    10.6650    11.9990    26.2910 
  114.7500    64.7900     2.2710    61.7250    13.0260    10.9180    13.5540    26.2740 
  114.8750    64.8820     2.2640    61.8990    13.0380    11.0130    15.2630    26.2660 
  115.0000    64.9660     2.2440    61.0020    12.8420    10.9490    15.9580    26.2700 
  115.1250    65.0430     2.2150    60.1090    12.5370    10.7800    14.5750    26.2920 
  115.2500    65.1170     2.1930    61.8320    12.2590    10.6070    12.6020    26.3390 
  115.3750    65.1920     2.1910    65.4730    12.0740    10.4820    11.2400    26.4130 
  115.5000    65.2930     2.2050    66.2640    12.0060    10.4270    10.8540    26.4990 
  115.6250    65.4570     2.2210    63.0990    12.0470    10.4480    11.2090    26.5740 
  115.7500    65.6960     2.2210    61.5860    12.0900    10.4790    11.4930    26.6190 
  115.8750    66.0270     2.2020    64.4580    11.9880    10.4150    11.4070    26.6270 
  116.0000    66.4440     2.1740    69.2000    11.5940    10.1400    11.1490    26.6020 
  116.1250    66.9410     2.1570    69.1670    10.8190     9.5590    11.0160    26.5380 
